     2.11           OBSERVATION DATA    M (MIXED)           RINEX VERSION / TYPE
teqc  2011Oct11     IGN-E (SPG)         20150127 12:06:34UTCPGM / RUN BY / DATE
Linux 2.4.21-27.ELsmp|Opteron|gcc -static|Linux x86_64|=+   COMMENT
BIT 2 OF LLI FLAGS DATA COLLECTED UNDER A/S CONDITION       COMMENT
VALE                                                        MARKER NAME
13439M001                                                   MARKER NUMBER
Programas GeodesicosInstituto Geografico Nacional           OBSERVER / AGENCY
1700071             LEICA GR10          3.03/6.214          REC # / TYPE / VERS
10190012            LEIAR25.R3      LEIT                    ANT # / TYPE
  4929534.0457   -29050.6755  4033709.9250                  APPROX POSITION XYZ
        3.0390        0.0000        0.0000                  ANTENNA: DELTA H/E/N
     1     1                                                WAVELENGTH FACT L1/2
     8    L1    L2    L5    C1    C2    P2    S1    S2      # / TYPES OF OBSERV
     5.0000                                                 INTERVAL
Forced Modulo Decimation to 5 seconds                       COMMENT
DefaultJobName                                              COMMENT
DefaultUserDiscription                                      COMMENT
Project creator:                                            COMMENT
 SNR is mapped to RINEX snr flag value [0-9]                COMMENT
  L1 & L2: min(max(int(snr_dBHz/6), 0), 9)                  COMMENT
  2015     1    27    11     0    0.0000000     GPS         TIME OF FIRST OBS
    15                                                      LEAP SECONDS
                                                            END OF HEADER
 15  1 27 11  0  0.0000000  0 22G06G07G08G02G17G03G23G09G10G20G32G01
                                R24R17R02R12R13R19R03R18R11R01
 111441650.861 8  86837654.200 8  83219416.593 8  21206639.980    21206640.400
  21206639.620          50.300          48.850
 124748235.874 7  97206474.943 6                  23738785.360    23738786.340
  23738785.760          47.650          41.700
 126003731.266 7  98184746.97046                  23977703.560
  23977702.900          46.150          38.050
 130607225.529 7 101771857.00446                  24853729.040
  24853726.040          44.550          36.400
 119853366.521 8  93392178.348 7                  22807350.620    22807349.960
  22807349.460          48.400          44.600
 115844294.872 8  90268274.565 7  86507098.252 8  22044440.100    22044440.840
  22044439.940          50.300          46.550
 108945369.768 8  84892464.24947                  20731608.540
  20731603.060          50.200          46.800
 106981580.694 8  83362297.651 8  79888878.283 8  20357903.460    20357903.200
  20357902.820          50.450          50.050
 116747250.325 8  90971897.83546                  22216259.380
  22216257.680          48.050          41.800
 106304035.526 8  82834276.14447                  20228987.800
  20228983.540          48.950          47.950
 136572731.013 6 106420304.75345                  25988932.040
  25988934.600          41.150          32.250
 125597898.614 7  97868490.086 7  93790621.481 8  23900496.600    23900500.340
  23900500.160          46.250          42.350
 131223102.086 6 102062593.375 5                  24539414.580    24539427.860
  24539426.180          41.250          30.000
 110652192.100 8  86062808.867 7                  20678018.040    20678021.420
  20678020.120          48.650          46.050
 107675363.278 8  83747520.429 7                  20178320.000    20178324.140
  20178323.480          49.300          46.650
 117341468.719 7  91265618.349 6                  21966568.440    21966575.860
  21966575.400          43.950          41.250
 128695490.069 5 100096562.919 6                  24100523.800    24100537.440
  24100535.640          35.750          38.700
 129813972.949 7 100966421.295 6                  24267353.080    24267357.260
  24267355.140          42.200          36.650
 111114050.579 7  86422065.998 7                  20757031.840    20757034.500
  20757033.240          47.150          46.400
 109626372.933 8  85264969.557 7                  20536713.940    20536719.700
  20536719.200          48.950          47.000
 120809413.674 7  93962912.102 6                  22607821.740    22607828.740
  22607827.340          45.150          36.250
 125901783.643 7  97923601.759 5                  23552541.240    23552549.120
  23552548.740          45.100          34.400
 15  1 27 11  0  5.0000000  0 22G06G07G08G02G17G03G23G09G10G20G32G01
                                R24R17R02R12R13R19R03R18R11R01
 111431564.277 8  86829794.529 8  83211884.410 8  21204720.560    21204721.000
  21204720.220          50.300          48.900
 124731399.993 7  97193356.089 6                  23735581.620    23735582.560
  23735582.020          47.750          41.250
 126009074.150 7  98188910.25246                  23978720.260
  23978719.640          46.050          37.350
 130590028.355 7 101758456.62646                  24850456.540
  24850453.540          44.150          36.300
 119865998.538 8  93402021.456 7                  22809754.420    22809753.760
  22809753.280          48.350          44.500
 115854460.184 8  90276195.593 7  86514689.235 8  22046374.600    22046375.240
  22046374.280          49.950          46.750
 108950769.693 8  84896671.97947                  20732636.120
  20732630.620          50.200          46.600
 106977394.025 8  83359035.321 8  79885751.885 8  20357106.760    20357106.480
  20357106.100          50.250          50.000
 116734925.801 7  90962294.32246                  22213914.100
  22213912.400          47.950          40.800
 106302428.018 8  82833023.54347                  20228681.900
  20228677.660          48.800          47.600
 136586615.691 6 106431123.94745                  25991574.240
  25991576.820          40.850          30.650
 125615244.041 7  97882005.969 7  93803574.208 8  23903797.340    23903801.060
  23903800.860          46.250          42.400
 131245873.429 7 102080304.295 5                  24543673.020    24543687.980
  24543684.120          42.050          30.600
 110668077.716 8  86075164.327 7                  20680986.660    20680990.020
  20680988.720          48.350          46.050
 107681631.057 8  83752395.362 7                  20179494.600    20179498.720
  20179498.060          49.350          46.750
 117328883.280 7  91255829.702 6                  21964212.360    21964219.740
  21964219.320          43.850          41.200
 128674613.402 5 100080325.572 6                  24096614.180    24096627.900
  24096626.000          35.350          37.950
 129794375.197 7 100951178.591 6                  24263689.520    24263693.640
  24263691.660          42.450          37.100
 111106451.780 7  86416155.834 7                  20755612.300    20755614.980
  20755613.680          47.200          46.350
 109622762.149 8  85262161.171 7                  20536037.520    20536043.260
  20536042.760          48.900          47.000
 120815077.156 7  93967317.031 6                  22608881.580    22608888.560
  22608887.200          44.650          36.450
 125916377.916 7  97934952.837 5                  23555271.420    23555279.200
  23555278.900          44.600          33.250
 15  1 27 11  0 10.0000000  0 22G06G07G08G02G17G03G23G09G10G20G32G01
                                R24R17R02R12R13R19R03R18R11R01
 111421489.407 8  86821943.985 8  83204360.972 8  21202803.380    21202803.820
  21202803.080          50.150          48.900
 124714566.430 7  97180239.029 6                  23732378.300    23732379.240
  23732378.640          47.800          41.100
 126014431.680 7  98193084.94646                  23979739.800
  23979739.140          46.050          38.250
 130572832.838 7 101745057.54546                  24847184.360
  24847181.320          44.250          37.100
 119878639.736 8  93411871.722 7                  22812159.960    22812159.320
  22812158.860          48.250          44.400
 115864630.580 8  90284120.571 7  86522284.001 8  22048310.040    22048310.560
  22048309.600          49.750          46.750
 108956180.921 8  84900888.52247                  20733665.880
  20733660.340          50.250          46.450
 106973220.923 8  83355783.561 8  79882635.617 8  20356312.640    20356312.360
  20356311.980          50.150          50.000
 116722606.371 7  90952694.77146                  22211569.780
  22211568.100          47.950          41.650
 106300828.985 8  82831777.53847                  20228377.600
  20228373.380          48.750          47.850
 136600500.026 6 106441942.87245                  25994216.420
  25994218.900          40.950          31.600
 125632594.421 7  97895525.727 7  93816530.633 8  23907099.020    23907102.740
  23907102.560          45.800          42.550
 131268642.521 6 102098013.457 5                  24547931.060    24547945.360
  24547942.060          41.750          31.400
 110683979.273 8  86087532.186 7                  20683958.240    20683961.620
  20683960.300          48.400          45.600
 107687904.932 8  83757275.047 7                  20180670.340    20180674.440
  20180673.760          49.450          46.550
 117316313.573 7  91246053.275 6                  21961859.260    21961866.620
  21961866.220          43.950          41.000
 128653735.627 5 100064087.352 6                  24092704.180    24092718.000
  24092716.180          34.900          37.550
 129774786.111 7 100935942.641 6                  24260027.520    24260031.660
  24260029.760          42.950          37.600
 111098859.980 7  86410251.113 7                  20754194.040    20754196.780
  20754195.460          47.150          46.550
 109619174.332 8  85259370.653 7                  20535365.400    20535371.140
  20535370.640          49.250          47.000
 120820762.211 7  93971738.742 6                  22609945.480    22609952.520
  22609951.120          44.700          36.050
 125930972.269 7  97946304.002 5                  23558001.580    23558009.260
  23558009.100          43.850          33.600
 15  1 27 11  0 15.0000000  0 22G06G07G08G02G17G03G23G09G10G20G32G01
                                R24R17R02R12R13R19R03R18R11R01
 111411426.826 8  86814103.021 8  83196846.705 8  21200888.520    21200888.980
  21200888.240          50.000          49.050
 124697735.687 7  97167124.170 6                  23729175.500    23729176.440
  23729175.820          47.650          41.250
 126019804.381 7  98197271.44246                  23980762.200
  23980761.560          45.800          39.100
 130555639.437 7 101731660.10046                  24843912.560
  24843909.460          44.100          37.300
 119891290.648 7  93421729.548 7                  22814567.380    22814566.760
  22814566.280          47.950          44.400
 115874806.567 8  90292049.918 7  86529882.955 8  22050246.500    22050246.980
  22050246.040          49.600          46.700
 108961603.933 8  84905114.24547                  20734697.860
  20734692.320          50.150          46.700
 106969061.949 8  83352542.801 8  79879529.893 8  20355521.220    20355520.940
  20355520.540          50.050          50.050
 116710292.552 7  90943099.59946                  22209226.540
  22209224.840          47.900          41.850
 106299238.953 8  82830538.55548                  20228075.020
  20228070.820          48.650          48.050
 136614384.552 6 106452762.02445                  25996858.580
  25996861.140          39.300          31.300
 125649950.279 7  97909049.741 7  93829491.125 8  23910401.780    23910405.480
  23910405.300          45.850          42.300
 131291409.645 6 102115721.083 5                  24552188.680    24552201.800
  24552199.600          40.450          32.050
 110699897.135 8  86099912.735 7                  20686932.860    20686936.320
  20686934.940          48.500          45.700
 107694185.475 8  83762159.918 7                  20181847.320    20181851.400
  20181850.720          49.450          46.550
 117303760.164 7  91236289.531 6                  21959509.200    21959516.540
  21959516.160          43.650          40.950
 128632857.204 6 100047848.662 6                  24088794.260    24088808.080
  24088806.280          36.000          37.800
 129755206.418 7 100920713.989 6                  24256367.240    24256371.400
  24256369.640          43.700          37.500
 111091275.581 7  86404352.150 7                  20752777.180    20752779.920
  20752778.640          47.000          46.650
 109615610.010 8  85256598.399 7                  20534697.680    20534703.420
  20534702.920          49.150          46.950
 120826469.317 7  93976177.608 6                  22611013.440    22611020.540
  22611019.160          44.600          36.050
 125945567.033 7  97957655.452 5                  23560731.780    23560739.460
  23560739.300          43.700          34.200
 15  1 27 11  0 20.0000000  0 22G06G07G08G02G17G03G23G09G10G20G32G01
                                R24R17R02R12R13R19R03R18R11R01
 111401375.055 8  86806270.480 8  83189340.516 8  21198975.720    21198976.180
  21198975.480          50.000          49.050
 124680906.383 7  97154010.462 6                  23725972.980    23725973.940
  23725973.320          47.600          41.350
 126025190.774 7  98201468.62746                  23981787.220
  23981786.600          46.050          37.850
 130538446.737 7 101718263.20146                  24840640.900
  24840637.820          44.400          37.750
 119903949.774 8  93431593.780 7                  22816976.340    22816975.700
  22816975.280          48.050          44.350
 115884986.722 8  90299982.510 7  86537485.003 8  22052183.720    22052184.220
  22052183.300          49.100          47.250
 108967037.257 8  84909347.99747                  20735731.780
  20735726.240          50.350          46.750
 106964915.623 8  83349311.900 8  79876433.607 8  20354732.200    20354731.900
  20354731.500          50.250          50.100
 116697982.930 7  90933507.68246                  22206884.100
  22206882.380          47.950          41.250
 106297656.472 8  82829305.45547                  20227773.860
  20227769.680          48.700          47.850
 136628267.815 6 106463580.14845                  25999500.540
  25999503.080          38.300          30.300
 125667310.157 7  97922576.899 7  93842454.622 8  23913705.260    23913709.000
  23913708.840          46.000          42.900
 131314173.649 6 102133426.289 5                  24556445.700    24556458.460
  24556456.780          39.100          30.050
 110715829.873 8  86112304.854 7                  20689910.260    20689913.740
  20689912.360          48.950          46.050
 107700471.141 8  83767048.762 7                  20183025.280    20183029.320
  20183028.640          49.450          46.350
 117291221.493 7  91226537.246 6                  21957161.940    21957169.160
  21957168.860          43.550          40.950
 128611976.476 6 100031608.166 6                  24084883.880    24084897.720
  24084895.960          36.200          38.200
 129735634.476 7 100905491.359 6                  24252708.500    24252712.720
  24252710.900          42.850          36.800
 111083697.402 7  86398458.020 7                  20751361.480    20751364.280
  20751363.000          46.950          46.650
 109612067.669 8  85253843.255 7                  20534034.120    20534039.840
  20534039.340          48.950          46.950
 120832197.081 7  93980632.536 5                  22612085.320    22612092.360
  22612091.040          43.800          35.650
 125960160.768 7  97969006.102 5                  23563461.840    23563469.540
  23563469.440          44.250          34.650
 15  1 27 11  0 25.0000000  0 22G06G07G08G02G17G03G23G09G10G20G32G01
                                R24R17R02R12R13R19R03R18R11R01
 111391333.975 8  86798446.264 8  83181842.315 8  21197064.940    21197065.420
  21197064.740          49.850          49.200
 124664078.362 7  97140897.724 6                  23722770.720    23722771.700
  23722771.120          47.350          41.600
 126030590.720 7  98205676.35246                  23982814.780
  23982814.320          45.750          37.800
 130521254.607 7 101704866.74046                  24837369.380
  24837366.280          44.400          37.000
 119916616.971 8  93441464.309 7                  22819386.840    22819386.200
  22819385.780          48.000          44.650
 115895170.862 8  90307918.175 7  86545090.029 8  22054121.640    22054122.220
  22054121.340          48.900          47.700
 108972480.761 8  84913589.69147                  20736767.660
  20736762.120          50.350          46.800
 106960781.792 8  83346090.737 8  79873346.663 8  20353945.560    20353945.240
  20353944.840          50.400          50.200
 116685677.322 7  90923918.90646                  22204542.400
  22204540.660          47.800          41.300
 106296081.410 8  82828078.13148                  20227474.100
  20227469.960          48.450          48.350
 136642149.737 6 106474397.19445                  26002142.200
  26002144.880          38.400          32.750
 125684673.885 7  97936107.039 7  93855421.008 8  23917009.480    23917013.240
  23917013.100          45.700          42.650
 131336934.271 6 102151128.840 5                  24560702.160    24560715.860
  24560713.280          40.450          31.150
 110731777.408 8  86124708.476 7                  20692890.440    20692893.920
  20692892.560          49.150          46.250
 107706761.785 8  83771941.477 7                  20184204.120    20184208.200
  20184207.500          49.150          46.550
 117278697.480 7  91216796.368 6                  21954817.400    21954824.580
  21954824.280          43.900          41.350
 128591093.676 6 100015366.055 6                  24080973.200    24080986.980
  24080985.240          36.650          38.200
 129716070.136 7 100890274.636 6                  24249051.160    24249055.320
  24249053.580          42.300          36.750
 111076124.988 7  86392568.364 7                  20749946.880    20749949.740
  20749948.440          47.000          46.650
 109608547.170 8  85251105.093 7                  20533374.640    20533380.300
  20533379.860          49.100          46.850
 120837945.119 7  93985103.230 5                  22613160.960    22613168.020
  22613166.680          44.300          35.250
 125974753.341 7  97980355.877 5                  23566191.680    23566199.440
  23566199.300          43.400          34.100
 15  1 27 11  0 30.0000000  0 22G06G07G08G02G17G03G23G09G10G20G32G01
                                R24R17R02R12R13R19R03R18R11R01
 111381305.444 8  86790631.834 8  83174353.491 8  21195156.540    21195157.040
  21195156.380          49.850          49.200
 124647253.449 7  97127787.411 6                  23719569.060    23719570.040
  23719569.460          46.800          41.450
 126036006.128 7  98209896.13146                  23983845.320
  23983844.900          45.650          38.600
 130504064.927 7 101691472.19645                  24834098.300
  24834095.160          44.500          35.900
 119929294.082 8  93451342.565 7                  22821799.220    22821798.600
  22821798.140          48.000          44.600
 115905360.865 8  90315858.429 7  86552699.448 8  22056060.640    22056061.360
  22056060.540          48.950          47.550
 108977936.316 8  84917840.77447                  20737805.840
  20737800.300          50.300          46.700
 106956662.327 8  83342880.773 8  79870270.455 8  20353161.660    20353161.320
  20353160.920          50.550          50.150
 116673377.619 7  90914334.72547                  22202201.800
  22202200.060          47.750          42.400
 106294515.582 8  82826858.01048                  20227176.100
  20227172.000          48.550          48.100
 136656032.098 6 106485214.56145                  26004783.960
  26004786.700          39.550          30.000
 125702043.348 7  97949641.647 6  93868391.668 8  23920314.780    23920318.560
  23920318.400          45.750          41.850
 131359693.216 6 102168830.111 5                  24564958.300    24564971.640
  24564969.180          41.400          30.800
 110747741.635 8  86137125.078 7                  20695873.720    20695877.240
  20695875.860          49.000          46.050
 107713059.393 8  83776839.606 7                  20185384.300    20185388.380
  20185387.680          49.000          46.600
 117266190.112 7  91207068.444 6                  21952476.020    21952483.100
  21952482.840          43.950          41.050
 128570210.543 6  99999123.670 6                  24077062.480    24077076.140
  24077074.500          36.400          38.200
 129696515.488 7 100875065.489 6                  24245395.620    24245399.760
  24245398.000          42.350          36.600
 111068560.460 7  86386684.863 7                  20748533.780    20748536.640
  20748535.360          47.200          46.700
 109605050.426 8  85248385.399 7                  20532719.600    20532725.220
  20532724.780          49.100          46.750
 120843715.420 7  93989591.248 5                  22614240.780    22614247.760
  22614246.420          44.600          34.800
 125989346.606 7  97991706.167 5                  23568921.640    23568929.300
  23568929.200          44.000          33.200
 15  1 27 11  0 35.0000000  0 22G06G07G08G02G17G03G23G09G10G20G32G01
                                R24R17R02R12R13R19R03R18R11R01
 111371288.122 8  86782826.131 8  83166873.021 8  21193250.300    21193250.820
  21193250.140          49.900          49.100
 124630430.367 7  97114678.532 6                  23716367.720    23716368.720
  23716368.140          46.250          41.350
 126041435.539 7  98214126.84446                  23984878.500
  23984878.140          45.800          38.050
 130486876.273 7 101678078.44846                  24830827.360
  24830824.240          43.950          37.050
 119941979.725 8  93461227.462 7                  22824213.220    22824212.620
  22824212.180          48.200          44.700
 115915555.332 8  90323802.171 7  86560312.184 8  22058000.500    22058001.340
  22058000.600          48.850          47.850
 108983402.501 8  84922100.13947                  20738846.040
  20738840.480          50.450          46.650
 106952555.838 8  83339680.923 8  79867203.931 8  20352380.220    20352379.900
  20352379.460          50.550          50.250
 116661082.418 7  90904754.06546                  22199862.080
  22199860.320          47.950          41.200
 106292957.619 8  82825644.01348                  20226879.580
  20226875.560          48.650          48.350
 136669913.524 6 106496031.27545                  26007425.500
  26007428.000          39.700          34.500
 125719417.116 7  97963179.629 6  93881365.544 8  23923620.920    23923624.640
  23923624.460          45.950          41.450
 131382449.388 6 102186529.257 5                  24569213.920    24569226.980
  24569224.600          41.150          31.000
 110763720.934 8  86149553.408 7                  20698859.800    20698863.360
  20698862.000          48.850          46.400
 107719362.417 8  83781741.950 7                  20186565.480    20186569.580
  20186568.900          49.100          46.750
 117253698.038 7  91197352.407 6                  21950137.440    21950144.520
  21950144.220          43.600          40.750
 128549325.706 5  99982879.972 6                  24073151.320    24073164.940
  24073163.380          35.650          37.750
 129676968.924 7 100859862.609 6                  24241741.600    24241745.720
  24241743.960          42.850          37.300
 111061002.167 7  86380806.193 7                  20747121.840    20747124.720
  20747123.460          47.150          46.600
 109601576.059 8  85245683.114 7                  20532068.780    20532074.340
  20532073.900          49.100          46.700
 120849506.675 7  93994095.566 5                  22615324.540    22615331.420
  22615330.060          45.250          35.650
 126003939.133 7  98003055.908 5                  23571651.520    23571659.020
  23571658.960          43.850          33.400
 15  1 27 11  0 40.0000000  0 22G06G07G08G02G17G03G23G09G10G20G32G01
                                R24R17R02R12R13R19R03R18R11R01
 111361283.273 8  86775030.140 8  83159401.869 8  21191346.420    21191346.960
  21191346.260          49.750          49.150
 124613610.352 7  97101572.047 6                  23713166.960    23713168.020
  23713167.400          47.050          41.750
 126046880.252 7  98218369.46646                  23985914.600
  23985914.260          45.950          39.850
 130469689.945 7 101664686.53346                  24827556.880
  24827553.820          43.950          37.150
 119954675.134 8  93471119.962 7                  22826629.080    22826628.480
  22826628.000          48.600          44.550
 115925755.550 8  90331750.362 8  86567929.216 8  22059941.420    22059942.400
  22059941.760          48.900          48.000
 108988880.579 8  84926368.76947                  20739888.500
  20739882.940          50.400          46.600
 106948463.615 8  83336492.179 8  79864148.052 8  20351601.500    20351601.160
  20351600.720          50.450          50.200
 116648793.040 8  90895177.92846                  22197523.460
  22197521.700          48.100          41.950
 106291408.832 8  82824437.15748                  20226584.840
  20226580.840          48.600          48.350
 136683795.291 6 106506848.24745                  26010067.120
  26010069.820          41.550          32.800
 125736796.482 7  97976721.962 6  93894343.611 8  23926928.180    23926931.840
  23926931.600          46.450          41.850
 131405203.735 6 102204226.932 5                  24573469.180    24573481.800
  24573479.980          40.850          30.350
 110779716.616 8  86161994.471 7                  20701849.000    20701852.540
  20701851.200          48.950          46.250
 107725672.258 8  83786649.594 7                  20187747.960    20187752.060
  20187751.400          49.450          46.750
 117241222.400 7  91187649.144 6                  21947802.020    21947809.000
  21947808.660          43.450          40.800
 128528440.576 5  99966635.996 6                  24069240.200    24069253.760
  24069252.180          35.850          38.550
 129657431.988 7 100844667.209 6                  24238089.340    24238093.480
  24238091.740          43.750          36.400
 111053451.723 7  86374933.625 7                  20745711.400    20745714.280
  20745712.980          47.100          46.600
 109598125.340 8  85242999.215 7                  20531422.380    20531427.920
  20531427.440          49.300          46.650
 120855320.059 7  93998617.091 5                  22616412.440    22616419.320
  22616417.860          44.950          35.650
 126018532.288 7  98014406.134 5                  23574381.560    23574388.980
  23574388.800          43.600          34.000
 15  1 27 11  0 45.0000000  0 22G06G07G08G02G17G03G23G09G10G20G32G01
                                R24R17R02R12R13R19R03R18R11R01
 111351287.862 8  86767241.516 8  83151937.766 8  21189444.320    21189444.880
  21189444.180          49.750          49.200
 124596790.360 7  97088465.570 6                  23709966.200    23709967.320
  23709966.660          46.950          41.950
 126052337.207 7  98222621.63046                  23986953.040
  23986952.700          45.700          38.500
 130452502.931 7 101651294.05546                  24824286.300
  24824283.220          44.300          37.100
 119967377.282 8  93481017.728 7                  22829046.200    22829045.600
  22829045.140          48.750          44.550
 115935958.480 8  90339700.681 8  86575548.271 8  22061882.900    22061883.980
  22061883.440          49.100          48.050
 108994367.524 8  84930644.31147                  20740932.640
  20740927.060          50.300          46.900
 106944382.599 8  83333312.172 8  79861100.542 8  20350824.920    20350824.560
  20350824.120          50.450          50.200
 116636506.380 8  90885603.92046                  22195185.380
  22195183.580          48.000          41.400
 106289866.121 8  82823235.05448                  20226291.260
  20226287.300          48.650          48.350
 136697674.384 7 106517663.14444                  26012708.240
  26012710.880          42.650          27.300
 125754178.350 7  97990266.260 6  93907323.572 8  23930235.920    23930239.500
  23930239.220          46.450          41.600
 131427953.373 6 102221920.976 4                  24577723.500    24577736.220
  24577734.540          39.400          28.900
 110795725.679 8  86174445.978 7                  20704840.660    20704844.260
  20704842.880          48.650          46.100
 107731985.776 8  83791560.098 7                  20188931.100    20188935.240
  20188934.600          49.300          46.700
 117228760.230 7  91177956.372 6                  21945469.080    21945476.040
  21945475.640          43.100          40.600
 128507551.822 5  99950389.257 6                  24065328.380    24065341.940
  24065340.300          35.200          38.200
 129637901.501 7 100829476.825 6                  24234438.340    24234442.440
  24234440.720          43.000          36.400
 111045905.676 7  86369064.490 7                  20744301.800    20744304.620
  20744303.320          47.400          46.350
 109594695.185 8  85240331.325 7                  20530779.820    20530785.300
  20530784.840          49.350          46.600
 120861152.501 7  94003153.453 5                  22617503.880    22617510.820
  22617509.200          44.650          35.400
 126033122.934 7  98025754.376 5                  23577111.040    23577118.560
  23577118.300          43.400          34.050
 15  1 27 11  0 50.0000000  0 22G06G07G08G02G17G03G23G09G10G20G32G01
                                R24R17R02R12R13R19R03R18R11R01
 111341305.667 8  86759463.185 8  83144483.539 8  21187544.720    21187545.340
  21187544.600          49.750          49.300
 124579974.218 7  97075362.087 7                  23706766.200    23706767.300
  23706766.660          47.100          42.700
 126057810.180 7  98226886.27046                  23987994.520
  23987994.180          45.800          37.750
 130435319.007 7 101637903.99246                  24821016.340
  24821013.260          44.100          37.400
 119980089.909 8  93490923.655 7                  22831465.320    22831464.720
  22831464.260          48.400          44.550
 115946167.865 8  90347656.040 7  86583172.159 8  22063825.620    22063826.820
  22063826.340          48.800          47.950
 108999867.103 8  84934929.68947                  20741979.180
  20741973.600          50.050          47.000
 106940316.558 8  83330143.830 8  79858064.226 8  20350051.220    20350050.800
  20350050.380          50.550          50.250
 116624226.248 8  90876034.99247                  22192848.560
  22192846.700          48.000          42.000
 106288333.299 8  82822040.64448                  20225999.560
  20225995.600          48.650          48.300
 136711554.541 7 106528478.84744                  26015349.540
  26015352.080          43.300          28.200
 125771566.551 7  98003815.489 7  93920308.239 8  23933544.840    23933548.420
  23933548.100          46.300          42.250
 131450702.099 6 102239614.295 4                  24581977.700    24581990.000
  24581988.540          39.650          28.350
 110811751.892 8  86186910.790 7                  20707835.540    20707839.140
  20707837.780          48.350          45.850
 107738306.748 8  83796476.399 7                  20190115.640    20190119.820
  20190119.180          49.250          46.800
 117216315.361 7  91168277.036 6                  21943139.400    21943146.280
  21943145.880          43.350          40.700
 128486663.527 5  99934142.857 6                  24061416.620    24061430.180
  24061428.520          35.850          38.650
 129618381.344 7 100814294.479 6                  24230789.260    24230793.500
  24230791.660          42.900          37.000
 111038368.086 7  86363201.927 7                  20742893.780    20742896.560
  20742895.240          47.300          46.600
 109591289.455 8  85237682.435 7                  20530141.880    20530147.240
  20530146.800          49.300          46.700
 120867007.897 7  94007707.656 5                  22618599.600    22618606.640
  22618604.880          44.850          35.350
 126047714.862 7  98037103.625 5                  23579840.760    23579848.360
  23579848.000          43.750          33.600
 15  1 27 11  0 55.0000000  0 22G06G07G08G02G17G03G23G09G10G20G32G01
                                R24R17R02R12R13R19R03R18R11R01
 111331333.115 8  86751692.376 8  83137036.514 8  21185646.960    21185647.620
  21185646.880          49.700          49.350
 124563158.309 7  97062258.792 7                  23703566.260    23703567.360
  23703566.760          47.300          42.950
 126063295.562 7  98231160.58146                  23989038.360
  23989038.080          46.300          36.950
 130418134.550 7 101624513.52546                  24817746.240
  24817743.140          44.000          37.500
 119992809.407 8  93500834.942 7                  22833885.740    22833885.160
  22833884.700          48.050          44.600
 115956380.139 8  90355613.650 8  86590798.198 8  22065768.920    22065770.160
  22065769.760          48.850          48.050
 109005375.675 8  84939222.08347                  20743027.440
  20743021.840          50.050          47.000
 106936261.901 8  83326984.366 8  79855036.404 8  20349279.680    20349279.220
  20349278.800          50.600          50.350
 116611949.048 8  90866468.35746                  22190512.300
  22190510.380          48.250          41.650
 106286806.779 8  82820851.15548                  20225709.080
  20225705.120          48.700          48.250
 136725432.159 7 106539292.61745                  26017990.360
  26017992.800          43.550          31.950
 125788957.434 7  98017366.781 7  93933294.893 8  23936854.260    23936857.840
  23936857.560          46.550          42.650
 131473446.047 6 102257303.910 5                  24586231.040    24586243.740
  24586241.700          41.350          30.250
 110827791.574 8  86199386.092 7                  20710832.920    20710836.560
  20710835.200          48.300          45.800
 107744631.509 8  83801395.656 7                  20191300.900    20191305.080
  20191304.460          49.450          46.800
 117203884.170 7  91158608.350 6                  21940812.240    21940819.100
  21940818.720          43.300          41.000
 128465771.973 5  99917893.926 6                  24057504.240    24057517.700
  24057516.160          35.900          39.250
 129598867.707 7 100799117.229 6                  24227141.400    24227145.720
  24227143.880          42.550          37.350
 111030835.277 7  86357343.092 7                  20741486.620    20741489.380
  20741488.060          47.100          46.450
 109587904.504 8  85235049.707 7                  20529507.820    20529513.120
  20529512.660          49.150          46.700
 120872882.436 7  94012276.749 5                  22619698.920    22619706.040
  22619704.160          44.500          35.750
 126062304.522 7  98048451.129 5                  23582570.120    23582577.580
  23582577.220          44.350          33.800
 15  1 27 11  1  0.0000000  0 22G06G07G08G02G17G03G23G09G10G20G32G01
                                R24R17R02R12R13R19R03R18R11R01
 111321372.503 8  86743930.855 8  83129598.394 8  21183751.480    21183752.180
  21183751.420          49.750          49.450
 124546344.873 7  97049157.405 7                  23700366.780    23700367.860
  23700367.300          47.800          43.150
 126068795.626 7  98235446.34246                  23990085.020
  23990084.760          46.450          38.850
 130400951.924 7 101611124.48446                  24814476.500
  24814473.340          44.350          37.850
 120005538.054 7  93510753.346 7                  22836307.920    22836307.360
  22836306.860          47.900          44.650
 115966597.544 8  90363575.256 8  86598428.084 8  22067713.200    22067714.480
  22067714.160          49.250          48.100
 109010895.559 8  84943523.28547                  20744077.820
  20744072.240          50.250          46.900
 106932220.908 8  83323835.546 8  79852018.795 8  20348510.720    20348510.240
  20348509.800          50.700          50.350
 116599677.042 8  90856905.75746                  22188177.040
  22188175.080          48.400          41.550
 106285288.820 8  82819668.33048                  20225420.200
  20225416.260          48.800          48.150
 136739309.531 6 106550106.21044                  26020631.180
  26020633.820          41.550          27.750
 125806353.314 7  98030921.982 7  93946285.272 8  23940164.640    23940168.220
  23940167.900          46.600          42.400
 131496187.872 7 102274991.863 5                  24590484.000    24590496.220
  24590494.580          42.700          31.550
 110843846.967 8  86211873.604 7                  20713833.260    20713836.900
  20713835.580          48.600          45.950
 107750962.426 8  83806319.689 7                  20192487.300    20192491.540
  20192490.900          49.450          46.650
 117191468.879 7  91148952.034 6                  21938488.100    21938494.960
  21938494.520          43.700          40.950
 128444879.508 6  99901644.308 6                  24053591.660    24053605.160
  24053603.640          36.250          39.000
 129579363.151 7 100783947.018 6                  24223495.200    24223499.480
  24223497.760          42.800          37.000
 111023309.470 7  86351489.697 7                  20740080.760    20740083.460
  20740082.180          47.400          46.350
 109584542.591 8  85232434.876 7                  20528878.080    20528883.300
  20528882.840          49.600          46.450
 120878778.500 7  94016862.570 5                  22620802.300    22620809.480
  22620807.520          44.650          35.700
 126076894.138 7  98059798.607 5                  23585299.480    23585306.840
  23585306.460          43.600          34.250
 15  1 27 11  1  5.0000000  0 22G06G07G08G02G17G03G23G09G10G20G32G01
                                R24R17R02R12R13R19R03R18R11R01
 111311423.651 8  86736178.512 8  83122169.071 8  21181858.220    21181858.960
  21181858.240          49.700          49.350
 124529533.844 7  97036057.899 7                  23697167.760    23697168.820
  23697168.280          47.600          42.950
 126074310.211 7  98239743.41646                  23991134.440
  23991134.120          46.850          37.150
 130383770.901 7 101597736.68046                  24811207.040
  24811203.900          44.100          37.000
 120018275.635 7  93520678.725 7                  22838731.780    22838731.200
  22838730.760          47.750          44.600
 115976819.957 8  90371540.764 7  86606061.694 8  22069658.460    22069659.780
  22069659.480          49.050          47.850
 109016426.573 8  84947833.17047                  20745130.340
  20745124.780          50.350          46.700
 106928193.401 8  83320697.241 8  79849011.249 8  20347744.340    20347743.800
  20347743.380          50.550          50.300
 116587410.100 8  90847347.10746                  22185842.720
  22185840.760          48.350          41.150
 106283779.251 8  82818492.04648                  20225132.920
  20225129.000          48.800          48.400
 136753186.547 6 106560919.41545                  26023271.880
  26023274.540          41.000          30.950
 125823753.924 7  98044480.883 7  93959279.212 8  23943475.900    23943479.460
  23943479.180          46.850          43.150
 131518927.024 6 102292677.724 5                  24594736.440    24594748.460
  24594747.160          41.600          32.300
 110859917.954 8  86224373.241 7                  20716836.480    20716840.160
  20716838.840          48.850          45.850
 107757299.356 8  83811248.413 7                  20193674.820    20193679.080
  20193678.440          49.600          46.450
 117179069.472 7  91139308.065 6                  21936166.940    21936173.700
  21936173.320          43.700          40.950
 128423985.959 6  99885393.847 6                  24049678.940    24049692.440
  24049690.940          36.200          39.000
 129559867.490 7 100768783.710 6                  24219850.660    24219855.100
  24219853.360          42.550          37.950
 111015790.480 7  86345641.598 7                  20738676.180    20738678.820
  20738677.560          47.550          46.350
 109581203.579 8  85229837.862 7                  20528252.620    20528257.780
  20528257.280          49.550          46.400
 120884695.971 7  94021465.072 5                  22621909.660    22621916.760
  22621914.900          44.750          35.150
 126091483.656 7  98071145.970 5                  23588028.720    23588036.180
  23588035.780          43.100          34.500
 15  1 27 11  1 10.0000000  0 22G06G07G08G02G17G03G23G09G10G20G32G01
                                R24R17R02R12R13R19R03R18R11R01
 111301486.600 8  86728435.361 8  83114748.545 8  21179967.200    21179968.020
  21179967.280          49.750          49.400
 124512725.229 7  97022960.290 7                  23693969.160    23693970.260
  23693969.720          47.650          42.050
 126079839.336 7  98244051.80946                  23992186.620
  23992186.240          46.700          37.900
 130366591.564 7 101584350.20446                  24807937.920
  24807934.740          44.050          36.800
 120031022.181 7  93530611.084 7                  22841157.320    22841156.820
  22841156.320          47.750          44.400
 115987047.375 8  90379510.160 7  86613699.036 8  22071604.700    22071606.020
  22071605.720          49.600          47.450
 109021968.754 8  84952151.74947                  20746184.980
  20746179.440          50.500          46.650
 106924179.416 8  83317569.465 8  79846013.793 8  20346980.500    20346979.960
  20346979.520          50.550          50.250
 116575148.245 8  90837792.42746                  22183509.380
  22183507.400          48.400          41.750
 106282278.158 8  82817322.36148                  20224847.280
  20224843.340          48.950          48.350
 136767063.194 6 106571732.39445                  26025912.520
  26025915.040          40.550          33.600
 125841159.385 7  98058043.538 7  93972276.748 8  23946788.100    23946791.660
  23946791.380          46.800          42.550
 131541663.732 6 102310361.697 5                  24598988.380    24599000.680
  24598999.340          41.050          31.050
 110876004.548 8  86236885.026 7                  20719842.640    20719846.360
  20719845.040          48.650          46.250
 107763642.244 8  83816181.766 7                  20194863.460    20194867.740
  20194867.080          49.650          46.600
 117166685.984 7  91129676.481 6                  21933848.740    21933855.420
  21933855.100          44.300          41.100
 128403091.361 6  99869142.557 6                  24045766.060    24045779.580
  24045778.080          36.850          39.000
 129540380.689 6 100753627.317 6                  24216207.760    24216212.260
  24216210.620          41.550          37.800
 111008278.487 7  86339798.940 7                  20737272.940    20737275.460
  20737274.240          47.800          46.400
 109577887.502 8  85227258.697 7                  20527631.440    20527636.540
  20527636.020          49.650          46.550
 120890634.801 7  94026084.168 5                  22623021.000    22623028.200
  22623026.260          44.500          35.750
 126106072.997 7  98082493.206 5                  23590757.980    23590765.580
  23590765.020          43.850          33.700
 15  1 27 11  1 15.0000000  0 22G06G07G08G02G17G03G23G09G10G20G32G01
                                R24R17R02R12R13R19R03R18R11R01
 111291561.414 8  86720701.452 8  83107336.887 8  21178078.460    21178079.340
  21178078.600          49.600          49.450
 124495919.092 7  97009864.589 7                  23690771.040    23690772.160
  23690771.580          47.650          42.450
 126085383.025 7  98248371.56146                  23993241.560
  23993241.160          46.150          37.200
 130349413.944 7 101570965.06846                  24804669.100
  24804665.960          44.100          37.800
 120043777.736 7  93540550.459 7                  22843584.580    22843584.120
  22843583.620          47.900          44.350
 115997279.846 8  90387483.515 7  86621340.163 8  22073551.920    22073553.200
  22073552.880          49.700          47.400
 109027522.097 8  84956479.03547                  20747241.740
  20747236.220          50.500          46.700
 106920178.996 8  83314452.255 8  79843026.466 8  20346219.280    20346218.680
  20346218.240          50.600          50.200
 116562891.495 8  90828241.71646                  22181177.020
  22181175.000          48.500          40.750
 106280785.533 8  82816159.27548                  20224563.240
  20224559.300          48.950          48.050
 136780939.446 6 106582545.08345                  26028553.080
  26028555.400          39.300          31.700
 125858569.690 7  98071609.990 6  93985277.920 8  23950101.220    23950104.740
  23950104.420          46.650          41.900
 131564397.937 6 102328043.684 5                  24603239.900    24603252.240
  24603250.860          41.750          31.550
 110892106.801 8  86249408.986 7                  20722851.720    20722855.480
  20722854.160          48.600          46.100
 107769991.205 8  83821119.841 7                  20196053.260    20196057.500
  20196056.860          49.200          46.600
 117154318.489 7  91120057.327 6                  21931533.480    21931540.160
  21931539.880          43.950          41.250
 128382195.844 6  99852890.528 6                  24041853.020    24041866.360
  24041864.920          37.250          38.650
 129520902.860 6 100738477.889 6                  24212566.580    24212571.140
  24212569.540          41.700          37.650
 111000773.420 7  86333961.677 7                  20735871.000    20735873.440
  20735872.200          47.850          46.350
 109574594.392 8  85224697.393 7                  20527014.580    20527019.540
  20527019.080          49.600          46.600
 120896595.064 7  94030719.925 5                  22624136.260    22624143.580
  22624141.640          44.300          35.600
 126120662.154 7  98093840.336 5                  23593487.220    23593494.540
  23593494.200          42.950          33.700
 15  1 27 11  1 20.0000000  0 22G06G07G08G02G17G03G23G09G10G20G32G01
                                R24R17R02R12R13R19R03R18R11R01
 111281646.615 8  86712975.643 8  83099932.982 8  21176191.680    21176192.640
  21176191.900          49.450          49.550
 124479113.954 7  96996769.674 7                  23687573.120    23687574.240
  23687573.680          47.550          42.650
 126090939.807 7  98252701.51946                  23994298.980
  23994298.560          46.050          38.750
 130332236.541 7 101557580.08746                  24801400.300
  24801397.220          44.300          36.400
 120056540.806 8  93550495.690 7                  22846013.280    22846012.860
  22846012.340          48.100          44.400
 116007515.856 8  90395459.627 7  86628983.939 8  22075499.820    22075501.060
  22075500.680          49.600          47.350
 109033085.083 8  84960813.82947                  20748300.320
  20748294.820          50.500          46.700
 106916190.630 8  83311344.443 8  79840048.158 8  20345460.320    20345459.720
  20345459.260          50.650          50.150
 116550638.363 8  90818693.82746                  22178845.320
  22178843.280          48.350          41.000
 106279299.921 8  82815001.65347                  20224280.560
  20224276.600          49.100          47.950
 136794813.877 6 106593356.34044                  26031193.260
  26031195.800          40.650          25.150
 125875983.307 7  98085179.035 7  93998281.597 7  23953414.980    23953418.400
  23953418.040          46.700          42.350
 131587128.148 6 102345722.618 5                  24607490.720    24607503.360
  24607501.580          41.300          31.200
 110908223.027 8  86261943.818 7                  20725863.440    20725867.220
  20725865.880          48.650          46.150
 107776344.739 8  83826061.478 7                  20197243.880    20197248.160
  20197247.480          49.450          46.450
 117141965.409 7  91110449.378 6                  21929220.960    21929227.520
  21929227.360          44.050          41.150
 128361297.967 6  99836636.653 6                  24037939.580    24037952.780
  24037951.320          37.350          38.350
 129501432.451 6 100723334.248 6                  24208926.740    24208931.340
  24208929.840          41.900          37.300
 110993273.787 8  86328128.631 7                  20734470.040    20734472.420
  20734471.200          48.100          46.150
 109571322.738 8  85222152.784 7                  20526401.740    20526406.620
  20526406.140          49.700          46.750
 120902575.265 7  94035371.194 5                  22625255.340    22625262.600
  22625260.720          44.800          35.150
 126135249.686 7  98105186.161 5                  23596216.080    23596223.340
  23596223.040          43.400          32.500
 15  1 27 11  1 25.0000000  0 22G06G07G08G02G17G03G23G09G10G20G32G01
                                R24R17R02R12R13R19R03R18R11R01
 111271743.816 8  86705259.191 8  83092538.049 8  21174307.160    21174308.200
  21174307.480          49.700          49.500
 124462311.420 7  96983676.798 7                  23684375.700    23684376.860
  23684376.260          47.200          42.750
 126096511.301 7  98257042.92446                  23995359.220
  23995358.780          46.350          36.750
 130315061.018 7 101544196.58146                  24798131.860
  24798128.880          44.700          37.100
 120069313.002 8  93560448.030 7                  22848443.720    22848443.380
  22848442.800          48.300          44.500
 116017757.051 8  90403439.770 7  86636631.587 8  22077448.740    22077449.880
  22077449.440          49.950          47.200
 109038659.354 8  84965157.42547                  20749361.060
  20749355.560          50.300          46.550
 106912215.960 8  83308247.310 8  79837080.066 8  20344703.980    20344703.340
  20344702.900          50.750          50.150
 116538390.475 8  90809150.03946                  22176514.640
  22176512.580          48.350          41.700
 106277822.946 8  82813850.76648                  20223999.520
  20223995.540          49.150          48.250
 136808688.085 6 106604167.45045                  26033833.360
  26033835.840          40.550          31.800
 125893401.905 7  98098751.959 7  94011288.978 7  23956729.660    23956733.020
  23956732.640          46.000          42.600
 131609855.984 6 102363399.664 5                  24611741.060    24611753.720
  24611751.860          40.400          30.100
 110924354.980 8  86274490.884 7                  20728878.060    20728881.860
  20728880.560          48.300          46.050
 107782704.313 8  83831007.822 7                  20198435.660    20198439.960
  20198439.240          49.200          46.150
 117129628.319 7  91100853.885 6                  21926911.420    21926918.020
  21926917.820          43.850          41.000
 128340399.046 6  99820381.982 6                  24034025.800    24034038.980
  24034037.560          36.200          39.200
 129481971.163 6 100708197.720 6                  24205288.640    24205293.360
  24205291.860          40.950          37.150
 110985781.257 7  86322301.112 7                  20733070.380    20733072.740
  20733071.500          47.850          46.150
 109568074.259 8  85219626.192 7                  20525793.240    20525798.040
  20525797.560          49.550          46.300
 120908576.920 7  94040039.158 5                  22626378.400    22626385.680
  22626383.900          44.100          35.500
 126149837.226 7  98116532.025 5                  23598944.960    23598952.080
  23598951.920          43.250          34.250
 15  1 27 11  1 30.0000000  0 22G06G07G08G02G17G03G23G09G10G20G32G01
                                R24R17R02R12R13R19R03R18R11R01
 111261852.271 8  86697551.491 8  83085151.507 8  21172424.820    21172425.920
  21172425.180          49.700          49.600
 124445510.772 7  96970585.388 7                  23681178.600    23681179.760
  23681179.180          47.200          42.750
 126102096.684 7  98261395.15446                  23996422.080
  23996421.640          46.350          37.400
 130297886.613 7 101530813.92645                  24794863.640
  24794860.640          44.800          35.550
 120082093.582 8  93570406.905 7                  22850875.780    22850875.480
  22850874.860          48.300          44.650
 116028002.657 8  90411423.363 7  86644282.526 8  22079398.480    22079399.540
  22079399.000          49.750          47.050
 109044244.133 8  84969509.19347                  20750423.800
  20750418.320          50.200          46.700
 106908254.183 8  83305160.219 8  79834121.613 8  20343950.100    20343949.420
  20343948.980          50.700          50.250
 116526147.128 8  90799609.77346                  22174184.780
  22174182.740          48.350          41.150
 106276353.799 8  82812705.97348                  20223719.960
  20223715.980          49.250          48.150
 136822561.376 6 106614977.85444                  26036473.260
  26036475.820          39.700          28.500
 125910824.699 7  98112328.117 7  94024299.459 8  23960045.080    23960048.520
  23960048.100          45.900          43.150
 131632580.716 6 102381074.298 4                  24615990.800    24616003.400
  24616001.620          39.700          29.150
 110940501.839 8  86287049.540 7                  20731895.480    20731899.320
  20731898.020          48.300          46.000
 107789069.309 8  83835958.372 7                  20199628.440    20199632.760
  20199632.020          49.350          46.250
 117117306.652 7  91091270.382 6                  21924604.740    21924611.380
  21924611.200          43.700          40.950
 128319498.779 6  99804126.267 6                  24030111.780    24030125.060
  24030123.540          36.050          39.700
 129462518.164 6 100693067.615 6                  24201652.140    24201656.920
  24201655.380          41.800          36.850
 110978295.058 8  86316478.516 7                  20731671.980    20731674.200
  20731672.980          48.100          46.000
 109564848.147 8  85217116.985 7                  20525188.900    20525193.640
  20525193.140          49.200          46.200
 120914599.416 7  94044723.326 5                  22627505.380    22627512.800
  22627510.960          43.900          35.550
 126164423.985 7  98127877.245 5                  23601673.820    23601680.960
  23601680.660          44.200          34.300
 15  1 27 11  1 35.0000000  0 22G06G07G08G02G17G03G23G09G10G20G32G01
                                R24R17R02R12R13R19R03R18R11R01
 111251973.664 8  86689853.877 8  83077774.617 8  21170544.940    21170546.080
  21170545.340          49.650          49.350
 124428713.663 7  96957496.732 7                  23677982.160    23677983.360
  23677982.840          47.100          42.900
 126107697.676 7  98265759.56445                  23997487.940
  23997487.480          46.450          35.950
 130280714.976 7 101517433.41746                  24791595.960
  24791592.920          43.950          36.400
 120094884.086 7  93580373.521 7                  22853309.720    22853309.420
  22853308.780          47.900          44.700
 116038254.348 8  90419411.686 7  86651937.988 8  22081349.400    22081350.340
  22081349.720          49.600          46.900
 109049841.103 8  84973870.46447                  20751488.860
  20751483.380          50.100          46.900
 106904307.011 8  83302084.506 8  79831174.037 8  20343198.980    20343198.280
  20343197.840          50.450          50.250
 116513909.926 8  90790074.29546                  22171856.100
  22171854.100          48.250          41.500
 106274894.173 8  82811568.60547                  20223442.220
  20223438.220          49.150          47.850
 136836435.335 6 106625788.65345                  26039113.260
  26039115.900          37.900          30.050
 125928253.308 7  98125908.810 7  94037314.288 8  23963361.620    23963365.140
  23963364.760          45.950          43.600
 131655303.908 7 102398747.740 4                  24620240.300    24620253.420
  24620251.160          42.000          29.700
 110956665.235 8  86299621.052 7                  20734915.980    20734919.860
  20734918.580          48.600          45.850
 107795441.336 8  83840914.391 7                  20200822.540    20200826.860
  20200826.100          49.200          46.350
 117105001.992 7  91081700.110 6                  21922301.240    21922307.920
  21922307.740          43.750          41.050
 128298598.595 6  99787870.664 6                  24026197.860    24026211.140
  24026209.640          36.550          39.300
 129443075.336 6 100677945.418 6                  24198017.580    24198022.420
  24198020.760          41.800          36.550
 110970816.847 8  86310662.135 7                  20730275.020    20730277.200
  20730275.940          48.250          46.150
 109561646.054 8  85214626.470 7                  20524589.040    20524593.740
  20524593.220          49.450          46.450
 120920644.380 7  94049424.968 6                  22628636.520    22628644.060
  22628642.220          43.650          36.350
 126179011.701 7  98139223.247 5                  23604402.800    23604410.080
  23604409.600          42.700          33.900
 15  1 27 11  1 40.0000000  0 22G06G07G08G02G17G03G23G09G10G20G32G01
                                R24R17R02R12R13R19R03R18R11R01
 111242106.100 8  86682164.866 8  83070405.991 8  21168667.180    21168668.340
  21168667.580          49.700          49.300
 124411918.218 7  96944409.380 7                  23674786.060    23674787.300
  23674786.800          47.300          42.800
 126113312.364 7  98270134.62946                  23998556.380
  23998555.880          46.550          37.950
 130263544.221 7 101504053.63246                  24788328.440
  24788325.460          43.750          38.150
 120107682.601 7  93590346.372 7                  22855745.220    22855744.920
  22855744.260          47.850          44.550
 116048510.199 8  90427403.252 7  86659596.592 8  22083301.040    22083301.900
  22083301.220          49.850          46.600
 109055448.328 8  84978239.72647                  20752555.880
  20752550.400          50.050          46.850
 106900372.502 8  83299018.656 8  79828235.952 8  20342450.280    20342449.540
  20342449.120          50.350          50.200
 116501676.997 8  90780542.15546                  22169528.240
  22169526.220          48.050          41.650
 106273442.204 8  82810437.20048                  20223165.920
  20223161.920          49.050          48.050
 136850308.061 6 106636598.57145                  26041753.160
  26041755.800          40.200          31.350
 125945685.842 7  98139492.560 7  94050332.056 8  23966678.920    23966682.540
  23966682.140          46.100          43.650
 131678023.665 7 102416418.520 4                  24624489.160    24624502.380
  24624500.060          42.300          29.350
 110972843.265 8  86312203.945 7                  20737939.240    20737943.080
  20737941.840          48.850          45.700
 107801818.546 8  83845874.437 7                  20202017.640    20202021.960
  20202021.180          49.450          46.350
 117092712.576 7  91072141.680 6                  21920000.580    21920007.360
  21920007.140          43.900          41.650
 128277696.738 6  99771613.721 6                  24022283.640    24022296.820
  24022295.360          37.650          39.450
 129423640.631 7 100662829.534 6                  24194384.440    24194389.380
  24194387.680          42.150          36.800
 110963344.657 7  86304850.437 7                  20728879.180    20728881.320
  20728880.020          47.950          46.150
 109558466.073 8  85212153.142 7                  20523993.340    20523998.020
  20523997.460          49.400          46.650
 120926709.844 7  94054142.544 6                  22629771.580    22629779.300
  22629777.340          43.850          36.100
 126193598.356 7  98150568.363 5                  23607131.460    23607138.880
  23607138.360          42.800          34.250
 15  1 27 11  1 45.0000000  0 22G06G07G08G02G17G03G23G09G10G20G32G01
                                R24R17R02R12R13R19R03R18R11R01
 111232249.340 8  86674484.286 8  83063045.428 8  21166791.480    21166792.660
  21166791.900          49.650          49.300
 124395124.236 7  96931323.171 7                  23671590.260    23671591.540
  23671591.000          47.600          42.900
 126118940.494 7  98274520.17646                  23999627.380
  23999626.880          46.600          37.000
 130246374.181 7 101490674.41946                  24785061.080
  24785058.100          43.900          38.000
 120120488.941 8  93600325.332 7                  22858182.200    22858181.900
  22858181.220          48.000          44.300
 116058770.007 8  90435397.932 7  86667258.129 8  22085253.420    22085254.260
  22085253.480          49.300          46.650
 109061065.593 8  84982616.82047                  20753624.800
  20753619.340          50.250          46.650
 106896450.449 8  83295962.520 8  79825307.143 8  20341703.940    20341703.200
  20341702.760          50.300          50.200
 116489448.096 8  90771013.16246                  22167201.100
  22167199.140          48.100          41.200
 106271997.619 8  82809311.56248                  20222891.020
  20222887.020          48.950          48.050
 136864179.345 6 106647407.35445                  26044392.820
  26044395.380          39.550          32.650
 125963122.079 7  98153079.213 7  94063352.575 8  23969997.000    23970000.600
  23970000.240          46.150          43.750
 131700739.726 6 102434086.418 4                  24628737.340    24628750.560
  24628748.160          41.700          28.800
 110989035.708 8  86324798.071 7                  20740965.200    20740969.040
  20740967.800          48.650          45.800
 107808200.586 8  83850838.261 7                  20203213.660    20203217.960
  20203217.180          49.400          46.750
 117080438.178 7  91062594.965 6                  21917702.760    21917709.560
  21917709.380          43.900          41.700
 128256792.818 6  99755355.195 6                  24018368.940    24018382.100
  24018380.760          36.900          38.400
 129404213.940 7 100647719.881 6                  24190752.840    24190757.760
  24190756.120          42.450          37.000
 110955878.287 8  86299043.277 7                  20727484.440    20727486.520
  20727485.200          48.000          46.300
 109555308.008 8  85209696.892 7                  20523401.720    20523406.420
  20523405.820          49.600          46.600
 120932795.535 7  94058875.873 6                  22630910.420    22630918.120
  22630916.260          43.750          36.050
 126208183.779 7  98161912.576 5                  23609859.920    23609867.220
  23609866.880          43.650          34.250
 15  1 27 11  1 50.0000000  0 22G06G07G08G02G17G03G23G09G10G20G32G01
                                R24R17R02R12R13R19R03R18R11R01
 111222404.065 8  86666812.646 8  83055693.445 8  21164917.960    21164919.160
  21164918.400          49.650          49.300
 124378332.371 7  96918238.601 7                  23668394.880    23668396.100
  23668395.640          47.700          42.750
 126124582.747 7  98278916.72746                  24000701.040
  24000700.500          46.300          37.300
 130229205.483 7 101477296.21746                  24781793.980
  24781791.000          44.350          37.100
 120133303.674 8  93610310.826 7                  22860620.760    22860620.460
  22860619.820          48.300          44.350
 116069034.399 8  90443396.143 7  86674923.088 8  22087206.660    22087207.480
  22087206.620          49.050          46.850
 109066693.473 8  84987002.17947                  20754695.760
  20754690.300          50.300          46.600
 106892541.488 8  83292916.575 8  79822388.130 8  20340960.080    20340959.340
  20340958.900          50.400          50.200
 116477223.880 8  90761487.80346                  22164874.860
  22164872.940          48.000          41.200
 106270561.089 8  82808192.18648                  20222617.660
  20222613.660          48.700          48.400
 136878049.774 6 106658215.48745                  26047032.320
  26047034.580          40.050          30.250
 125980562.627 7  98166669.214 7  94076376.328 8  23973315.820    23973319.480
  23973319.080          45.700          42.900
 131723452.745 6 102451751.918 4                  24632984.920    24632997.960
  24632995.640          40.350          26.850
 111005243.110 8  86337403.816 7                  20743993.960    20743997.800
  20743996.540          48.750          45.850
 107814588.205 8  83855806.396 7                  20204410.680    20204415.000
  20204414.240          49.450          46.400
 117068179.264 7  91053060.266 6                  21915407.800    21915414.660
  21915414.500          43.400          41.650
 128235887.716 6  99739095.717 6                  24014454.060    24014467.140
  24014465.840          38.250          37.700
 129384795.839 7 100632616.925 6                  24187122.860    24187127.800
  24187126.180          42.600          37.800
 110948418.361 8  86293241.118 7                  20726090.860    20726092.920
  20726091.620          48.300          46.250
 109552172.483 8  85207258.136 7                  20522814.320    20522818.980
  20522818.400          49.400          46.450
 120938902.172 7  94063625.491 5                  22632053.120    22632061.020
  22632059.040          44.300          35.850
 126222768.651 7  98173256.318 5                  23612588.380    23612595.680
  23612595.340          44.350          34.600
 15  1 27 11  1 55.0000000  0 22G06G07G08G02G17G03G23G09G10G20G32G01
                                R24R17R02R12R13R19R03R18R11R01
 111212570.564 8  86659150.183 8  83048350.256 8  21163046.680    21163047.900
  21163047.140          49.400          49.300
 124361542.904 7  96905155.903 7                  23665199.960    23665201.120
  23665200.700          47.950          42.600
 126130239.361 7  98283324.45646                  24001777.500
  24001776.900          46.350          37.050
 130212038.378 7 101463919.26745                  24778527.180
  24778524.140          44.800          35.400
 120146127.114 8  93620303.113 7                  22863061.020    22863060.720
  22863060.040          48.150          44.250
 116079303.671 8  90451398.161 7  86682591.694 8  22089160.780    22089161.600
  22089160.700          49.000          46.950
 109072332.292 8  84991396.06647                  20755768.780
  20755763.340          50.200          46.850
 106888645.896 8  83289881.055 8  79819479.090 8  20340218.780    20340218.020
  20340217.600          50.400          50.150
 116465004.635 8  90751966.32546                  22162549.560
  22162547.720          48.050          41.400
 106269132.876 8  82807079.29248                  20222345.880
  20222341.900          48.650          48.450
 136891919.712 6 106669023.23345                  26049671.720
  26049674.040          40.400          35.950
 125998007.810 7  98180262.847 7  94089403.524 8  23976635.460    23976639.220
  23976638.780          44.100          42.750
 131746162.980 6 102469415.347 4                  24637231.920    24637244.880
  24637242.540          39.650          28.100
 111021465.841 8  86350021.479 7                  20747025.560    20747029.440
  20747028.160          48.850          46.100
 107820981.637 8  83860779.066 7                  20205608.820    20205613.120
  20205612.380          49.350          46.550
 117055936.321 7  91043537.986 6                  21913115.860    21913122.700
  21913122.640          43.800          41.900
 128214981.525 6  99722835.404 6                  24010538.960    24010552.120
  24010550.760          37.750          38.700
 129365386.747 7 100617520.966 6                  24183494.560    24183499.460
  24183497.900          42.600          37.200
 110940965.211 7  86287444.220 7                  20724698.580    20724700.580
  20724699.280          47.850          46.450
 109549059.792 8  85204837.162 7                  20522231.200    20522235.860
  20522235.260          49.100          46.800
 120945030.001 7  94068391.588 6                  22633199.900    22633207.780
  22633205.780          44.250          36.050
 126237353.286 7  98184599.900 5                  23615316.720    23615324.040
  23615323.720          44.000          34.750
 15  1 27 11  2  0.0000000  0 22G06G07G08G02G17G03G23G09G10G20G32G01
                                R24R17R02R12R13R19R03R18R11R01
 111202748.653 8  86651496.755 8  83041015.718 8  21161177.600    21161178.840
  21161178.080          49.250          49.200
 124344755.680 8  96892074.945 7                  23662005.480    23662006.600
  23662006.160          48.050          42.050
 126135910.178 7  98287743.26446                  24002856.640
  24002855.920          46.200          37.950
 130194872.755 7 101450543.45645                  24775260.660
  24775257.600          45.000          35.850
 120158959.091 8  93630302.039 7                  22865502.860    22865502.540
  22865501.880          48.050          44.300
 116089577.647 8  90459403.854 7  86690263.795 8  22091115.760    22091116.680
  22091115.720          48.350          46.900
 109077981.854 8  84995798.32647                  20756843.860
  20756838.420          50.150          46.700
 106884763.505 8  83286855.823 8  79816579.910 8  20339479.960    20339479.240
  20339478.780          50.300          50.150
 116452790.178 7  90742448.57646                  22160225.200
  22160223.400          47.950          41.200
 106267712.794 8  82805972.73748                  20222075.640
  20222071.680          48.550          48.350
 136905788.899 6 106679830.42045                  26052311.040
  26052313.380          40.600          31.950
 126015457.408 7  98193859.879 7  94102434.040 7  23979955.880    23979959.720
  23979959.360          44.750          42.000
 131768870.274 6 102487076.387 5                  24641478.460    24641491.300
  24641488.920          40.950          31.600
 111037703.592 8  86362650.827 7                  20750060.000    20750063.840
  20750062.580          48.900          46.100
 107827380.721 8  83865756.123 7                  20206808.000    20206812.300
  20206811.560          49.300          46.650
 117043709.132 7  91034027.962 6                  21910826.840    21910833.800
  21910833.740          43.800          41.750
 128194074.151 6  99706574.208 6                  24006623.640    24006636.820
  24006635.420          36.950          38.200
 129345986.396 6 100602431.787 6                  24179867.820    24179872.820
  24179871.260          41.850          36.650
 110933518.688 7  86281652.491 7                  20723307.500    20723309.500
  20723308.220          47.850          46.450
 109545969.817 8  85202433.847 7                  20521652.320    20521657.020
  20521656.380          49.250          46.600
 120951178.744 7  94073173.958 5                  22634350.520    22634358.360
  22634356.440          44.500          35.950
 126251937.324 7  98195943.024 5                  23618044.980    23618052.280
  23618051.940          44.300          33.900
 15  1 27 11  2  5.0000000  0 22G06G07G08G02G17G03G23G09G10G20G32G01
                                R24R17R02R12R13R19R03R18R11R01
 111192938.017 8  86643852.107 8  83033689.601 8  21159310.660    21159311.940
  21159311.160          49.450          49.200
 124327970.321 7  96878995.447 7                  23658811.360    23658812.400
  23658812.020          47.850          42.000
 126141594.844 7  98292172.86246                  24003938.420
  24003937.620          46.000          38.400
 130177708.238 7 101437168.51446                  24771994.360
  24771991.340          44.650          36.800
 120171799.192 8  93640307.292 7                  22867946.200    22867945.960
  22867945.320          48.000          44.400
 116099855.942 8  90467412.903 7  86697939.137 8  22093071.580    22093072.560
  22093071.580          48.300          47.100
 109083641.761 8  85000208.64847                  20757920.920
  20757915.460          50.050          46.650
 106880893.954 8  83283840.601 8  79813690.320 8  20338743.600    20338742.880
  20338742.440          50.300          50.100
 116440580.174 8  90732934.30446                  22157901.700
  22157899.920          48.000          41.600
 106266300.501 8  82804872.25348                  20221806.900
  20221802.960          48.650          48.600
 136919657.122 6 106690636.84645                  26054950.140
  26054952.480          39.450          32.100
 126032911.039 7  98207460.096 7  94115467.574 7  23983277.160    23983281.060
  23983280.620          45.350          42.050
 131791574.250 6 102504734.850 5                  24645724.300    24645736.920
  24645734.840          38.250          31.150
 111053956.102 8  86375291.653 7                  20753097.160    20753101.020
  20753099.760          48.900          46.200
 107833785.005 8  83870737.232 7                  20208008.140    20208012.460
  20208011.760          49.150          46.550
 117031497.316 7  91024529.906 6                  21908540.720    21908547.800
  21908547.720          43.550          41.750
 128173165.463 6  99690311.956 6                  24002708.020    24002721.160
  24002719.800          36.700          38.050
 129326594.456 6 100587349.182 6                  24176242.640    24176247.740
  24176246.160          41.900          36.250
 110926078.370 7  86275865.584 7                  20721917.600    20721919.600
  20721918.340          47.750          46.700
 109542902.144 8  85200047.886 7                  20521077.640    20521082.360
  20521081.700          49.150          46.750
 120957348.095 7  94077972.345 5                  22635505.000    22635512.940
  22635510.960          44.800          35.750
 126266520.593 7  98207285.577 5                  23620773.140    23620780.540
  23620780.100          43.900          34.650
 15  1 27 11  2 10.0000000  0 22G06G07G08G02G17G03G23G09G10G20G32G01
                                R24R17R02R12R13R19R03R18R11R01
 111183140.429 8  86636217.619 8  83026373.221 8  21157446.200    21157447.500
  21157446.720          49.400          49.300
 124311188.660 7  96865918.838 7                  23655617.900    23655618.980
  23655618.580          47.650          42.000
 126147295.110 7  98296614.61546                  24005023.200
  24005022.340          45.950          39.700
 130160546.566 7 101423795.78346                  24768728.560
  24768725.560          43.800          37.850
 120184649.199 7  93650320.266 7                  22870391.460    22870391.260
  22870390.640          47.850          44.250
 116110140.356 8  90475426.720 7  86705619.045 8  22095028.560    22095029.640
  22095028.640          48.650          47.300
 109089313.752 8  85004628.37947                  20759000.260
  20758994.800          49.950          46.900
 106877039.005 8  83280836.752 8  79810811.634 8  20338010.020    20338009.300
  20338008.860          50.150          50.150
 116428376.392 8  90723424.86846                  22155579.400
  22155577.640          48.050          41.150
 106264897.772 8  82803779.21748                  20221539.960
  20221536.040          48.800          48.600
 136933526.070 6 106701443.81245                  26057589.380
  26057591.780          39.700          32.550
 126050370.500 7  98221064.851 7  94128505.450 8  23986599.620    23986603.500
  23986603.040          45.850          43.000
 131814276.702 5 102522392.146 4                  24649969.960    24649982.860
  24649980.420          33.750          29.600
 111070225.041 8  86387945.255 7                  20756137.440    20756141.320
  20756140.000          49.050          46.000
 107840196.412 8  83875723.872 7                  20209209.620    20209213.960
  20209213.280          49.400          46.450
 117019302.749 7  91015045.245 6                  21906257.840    21906264.940
  21906264.940          43.750          41.600
 128152257.029 6  99674049.913 6                  23998792.520    23998805.560
  23998804.280          37.900          38.050
 129307212.854 7 100572274.582 6                  24172619.360    24172624.540
  24172622.960          42.600          36.050
 110918646.078 7  86270084.922 7                  20720529.140    20720531.180
  20720529.940          47.750          46.700
 109539858.562 8  85197680.659 7                  20520507.440    20520512.160
  20520511.520          49.350          46.650
 120963539.885 7  94082788.173 5                  22636663.700    22636671.700
  22636669.700          44.750          35.700
 126281104.837 7  98218628.849 5                  23623501.440    23623508.880
  23623508.500          44.150          34.800
 15  1 27 11  2 15.0000000  0 22G06G07G08G02G17G03G23G09G10G20G32G01
                                R24R17R02R12R13R19R03R18R11R01
 111173353.130 8  86628591.157 8  83019064.526 8  21155583.700    21155585.040
  21155584.260          49.350          49.200
 124294407.939 7  96852842.956 7                  23652424.620    23652425.760
  23652425.320          47.800          42.250
 126153008.179 7  98301066.34346                  24006110.380
  24006109.500          45.950          38.600
 130143385.026 7 101410423.16046                  24765462.840
  24765459.780          43.800          37.350
 120197506.318 7  93660338.787 7                  22872838.060    22872837.940
  22872837.300          47.600          44.400
 116120428.102 8  90483443.142 7  86713301.439 8  22096986.200    22096987.340
  22096986.380          48.500          47.300
 109094995.166 8  85009055.45247                  20760081.380
  20760075.960          49.950          47.000
 106873195.918 8  83277842.148 8  79807941.798 8  20337278.680    20337277.980
  20337277.540          50.100          50.150
 116416176.057 8  90713918.11946                  22153257.760
  22153256.000          48.000          41.300
 106263501.842 8  82802691.48648                  20221274.340
  20221270.400          48.750          48.350
 136947392.989 6 106712249.18945                  26060228.180
  26060230.460          40.550          33.950
 126067832.988 7  98234671.943 7  94141545.600 8  23989922.640    23989926.520
  23989926.140          45.700          43.050
 131836974.836 6 102540046.068 5                  24654214.840    24654227.500
  24654225.300          36.750          31.600
 111086507.617 8  86400609.473 7                  20759180.280    20759184.120
  20759182.820          49.050          45.850
 107846612.140 8  83880713.870 7                  20210411.940    20210416.260
  20210415.600          49.350          46.400
 117007122.645 7  91005571.835 6                  21903977.620    21903984.820
  21903984.840          43.850          41.600
 128131346.072 6  99657785.889 6                  23994876.500    23994889.480
  23994888.200          38.500          38.050
 129287838.557 7 100557205.674 5                  24168997.560    24169002.740
  24169001.060          42.550          35.950
 110911218.995 7  86264308.314 7                  20719141.660    20719143.760
  20719142.540          47.700          46.550
 109536836.294 8  85195330.003 7                  20519941.240    20519946.000
  20519945.340          49.000          46.350
 120969751.468 7  94087619.414 5                  22637826.080    22637834.220
  22637832.140          44.800          35.250
 126295687.085 7  98229970.562 5                  23626229.400    23626236.960
  23626236.540          44.700          34.250
 15  1 27 11  2 20.0000000  0 22G06G07G08G02G17G03G23G09G10G20G32G01
                                R24R17R02R12R13R19R03R18R11R01
 111163577.790 8  86620974.010 8  83011764.764 8  21153723.480    21153724.880
  21153724.060          49.350          49.300
 124277629.832 7  96839769.111 7                  23649231.880    23649232.960
  23649232.520          47.850          42.050
 126158735.748 7  98305529.36346                  24007200.300
  24007199.420          46.200          38.550
 130126225.291 7 101397051.96546                  24762197.480
  24762194.400          44.050          37.150
 120210372.245 7  93670364.164 7                  22875286.340    22875286.240
  22875285.640          47.700          44.650
 116130720.883 8  90491463.482 7  86720987.585 8  22098944.800    22098946.020
  22098945.100          48.750          47.500
 109100687.672 8  85013491.17047                  20761164.640
  20761159.200          50.100          46.750
 106869366.359 8  83274858.075 8  79805082.066 8  20336549.940    20336549.220
  20336548.820          50.150          50.200
 116403980.851 7  90704415.37246                  22150937.080
  22150935.340          47.900          41.750
 106262114.411 8  82801610.36648                  20221010.320
  20221006.380          48.800          48.500
 136961259.527 6 106723054.25745                  26062866.920
  26062869.140          41.700          31.800
 126085300.198 7  98248282.715 7  94154589.249 8  23993246.520    23993250.500
  23993250.160          45.650          43.550
 131859670.206 6 102557697.780 5                  24658459.000    24658471.920
  24658469.600          39.550          32.950
 111102805.551 8  86413285.644 7                  20762225.980    20762229.800
  20762228.480          48.600          45.750
 107853033.761 8  83885708.453 7                  20211615.320    20211619.660
  20211619.020          49.550          46.300
 116994958.674 7  90996110.981 6                  21901700.480    21901707.720
  21901707.740          43.700          41.700
 128110434.530 6  99641521.417 6                  23990960.420    23990973.320
  23990972.040          38.200          38.050
 129268473.460 7 100542143.944 5                  24165377.440    24165382.620
  24165380.900          42.750          35.850
 110903798.751 7  86258537.027 7                  20717755.440    20717757.640
  20717756.420          47.600          46.400
 109533837.040 8  85192997.249 7                  20519379.300    20519384.120
  20519383.480          49.100          46.350
 120975984.313 7  94092467.195 5                  22638992.520    22639000.620
  22638998.560          44.750          35.400
 126310269.218 7  98241312.216 5                  23628957.320    23628964.900
  23628964.440          43.850          32.900
 15  1 27 11  2 25.0000000  0 22G06G07G08G02G17G03G23G09G10G20G32G01
                                R24R17R02R12R13R19R03R18R11R01
 111153814.041 8  86613365.901 8  83004473.665 8  21151865.460    21151866.900
  21151866.100          49.400          49.450
 124260853.954 7  96826697.012 6                  23646039.560    23646040.560
  23646040.140          47.850          41.550
 126164477.410 7  98310003.39446                  24008292.920
  24008292.020          46.300          38.750
 130109066.985 7 101383681.87745                  24758932.360
  24758929.280          44.600          35.300
 120223246.557 7  93680396.076 7                  22877736.240    22877736.120
  22877735.560          47.950          44.400
 116141018.267 8  90499487.415 7  86728677.186 8  22100904.320    22100905.580
  22100904.700          49.000          47.750
 109106390.818 8  85017935.18347                  20762249.940
  20762244.480          50.250          46.750
 106865549.886 8  83271884.205 8  79802232.111 8  20335823.660    20335822.960
  20335822.560          50.300          50.200
 116391790.412 8  90694916.33846                  22148617.320
  22148615.560          48.050          41.750
 106260735.061 8  82800535.54948                  20220747.860
  20220743.900          48.750          48.300
 136975125.267 6 106733858.75244                  26065505.500
  26065507.780          41.350          29.400
 126102771.743 7  98261896.855 7  94167636.117 8  23996571.200    23996575.340
  23996575.020          45.050          43.200
 131882362.604 6 102575347.247 5                  24662702.720    24662715.520
  24662713.380          40.900          34.600
 111119118.412 8  86425973.420 7                  20765274.480    20765278.220
  20765276.920          48.700          45.900
 107859460.947 8  83890707.383 7                  20212819.760    20212824.100
  20212823.480          49.500          46.250
 116982810.426 7  90986662.356 6                  21899426.300    21899433.560
  21899433.580          43.900          41.600
 128089521.797 6  99625256.043 6                  23987044.080    23987057.040
  23987055.720          39.050          38.150
 129249117.219 7 100527089.105 5                  24161758.960    24161764.260
  24161762.340          42.550          35.500
 110896385.013 7  86252770.799 7                  20716370.440    20716372.740
  20716371.480          47.550          46.250
 109530860.378 8  85190682.070 7                  20518821.640    20518826.480
  20518825.840          48.950          46.500
 120982238.036 7  94097331.206 5                  22640162.880    22640171.000
  22640168.840          44.800          35.000
 126324850.792 7  98252653.416 5                  23631685.040    23631692.640
  23631692.220          43.600          33.250
 15  1 27 11  2 30.0000000  0 23G06G07G08G02G17G03G23G09G10G20G32G01
                                R24R17R02R12R13R19R03R18R11R04R01
 111144061.731 8  86605766.708 8  82997191.098 8  21150009.640    21150011.100
  21150010.300          49.300          49.550
 124244080.154 8  96813626.519 6                  23642847.600    23642848.620
  23642848.180          48.200          41.950
 126170233.008 7  98314488.25546                  24009388.180
  24009387.300          46.350          38.000
 130091909.925 7 101370312.72746                  24755667.460
  24755664.320          44.050          36.850
 120236129.066 8  93690434.387 7                  22880187.700    22880187.600
  22880187.060          48.050          44.700
 116151320.104 8  90507514.805 7  86736370.113 8  22102864.740    22102865.960
  22102865.200          49.000          47.800
 109112104.439 8  85022387.36047                  20763337.240
  20763331.760          50.300          46.750
 106861746.376 8  83268920.433 8  79799391.833 8  20335099.880    20335099.160
  20335098.780          50.250          50.250
 116379604.541 7  90685420.85746                  22146298.420
  22146296.620          47.950          41.250
 106259363.594 8  82799466.87348                  20220486.880
  20220482.940          48.750          48.450
 136988990.052 6 106744662.52444                  26068143.900
  26068146.280          41.500          29.900
 126120247.390 7  98275514.193 7  94180686.074 8  23999896.660    23999900.920
  23999900.620          45.700          42.850
 131905051.538 6 102592993.981 5                  24666945.800    24666958.500
  24666956.520          41.050          34.000
 111135445.986 8  86438672.632 7                  20768325.700    20768329.400
  20768328.120          48.800          46.150
 107865893.497 8  83895710.471 7                  20214025.200    20214029.580
  20214028.940          49.550          46.350
 116970677.925 7  90977225.971 6                  21897154.980    21897162.340
  21897162.320          43.950          41.700
 128068607.967 6  99608989.791 6                  23983127.580    23983140.520
  23983139.160          38.250          37.950
 129229769.610 7 100512040.947 5                  24158142.080    24158147.340
  24158145.380          42.400          35.500
 110888977.675 7  86247009.545 7                  20714986.660    20714989.000
  20714987.720          47.900          46.350
 109527906.152 8  85188384.348 7                  20518268.180    20518273.060
  20518272.440          49.000          46.700
 120988512.455 7  94102211.308 6                  22641337.060    22641345.140
  22641343.020          44.800          36.250
                 102373713.130 4                                  24579727.900
                                        29.900
 126339431.666 7  98263994.068 5                  23634412.680    23634420.140
  23634419.980          43.850          33.850
 15  1 27 11  2 35.0000000  0 23G06G07G08G02G17G03G23G09G10G20G32G01
                                R24R17R02R12R13R19R03R18R11R04R01
 111134320.440 8  86598176.104 8  82989916.765 8  21148155.920    21148157.380
  21148156.600          49.350          49.300
 124227308.049 8  96800557.337 6                  23639655.960    23639656.960
  23639656.480          48.200          41.600
 126176002.105 7  98318983.65546                  24010486.020
  24010485.140          46.400          37.300
 130074753.750 7 101356944.30646                  24752402.740
  24752399.580          44.000          37.050
 120249019.329 7  93700478.736 7                  22882640.660    22882640.580
  22882640.000          47.800          44.700
 116161625.957 8  90515545.331 7  86744066.039 8  22104825.920    22104827.140
  22104826.440          49.200          47.650
 109117828.121 8  85026847.37647                  20764426.420
  20764420.960          50.350          46.600
 106857955.401 8  83265966.437 8  79796560.922 8  20334378.460    20334377.760
  20334377.380          50.250          50.200
 116367422.836 7  90675928.62947                  22143980.320
  22143978.500          47.600          42.000
 106257999.626 8  82798404.04148                  20220227.320
  20220223.380          48.650          48.500
 137002853.556 6 106755465.23444                  26070782.040
  26070784.340          41.900          28.150
 126137726.741 7  98289134.438 7  94193738.780 8  24003222.880    24003227.160
  24003226.840          45.900          42.600
 131927736.747 7 102610637.835 5                  24671188.200    24671201.080
  24671198.940          42.400          35.200
 111151787.775 8  86451382.902 7                  20771379.560    20771383.280
  20771381.980          49.150          46.050
 107872330.926 8  83900717.354 7                  20215231.540    20215235.920
  20215235.320          49.550          46.300
 116958560.564 7  90967801.377 6                  21894886.560    21894893.960
  21894893.900          43.900          41.400
 128047692.105 6  99592721.975 6                  23979210.660    23979223.580
  23979222.240          37.400          37.700
 129210430.211 6 100496999.168 5                  24154526.780    24154531.840
  24154529.960          41.900          35.350
 110881576.230 7  86241252.870 7                  20713603.980    20713606.360
  20713605.080          47.900          46.450
 109524973.954 8  85186103.751 7                  20517718.840    20517723.760
  20517723.160          49.150          46.800
 120994807.164 7  94107107.195 5                  22642515.080    22642523.080
  22642521.000          44.550          35.650
 131609005.551 6 102362596.050 4                  24577053.740    24577059.540
                        37.300          28.500
 126354011.377 7  98275333.833 5                  23637140.160    23637147.640
  23637147.560          42.850          34.600
 15  1 27 11  2 40.0000000  0 23G06G07G08G02G17G03G23G09G10G20G32G01
                                R24R17R02R12R13R19R03R18R11R04R01
 111124591.530 8  86590595.141 8  82982651.685 8  21146304.560    21146306.040
  21146305.260          49.400          49.400
 124210539.000 8  96787490.548 6                  23636464.920    23636465.900
  23636465.440          48.100          41.650
 126181786.062 7  98323490.62446                  24011586.660
  24011585.800          46.750          37.650
 130057599.814 7 101343577.62946                  24749138.460
  24749135.320          44.250          36.250
 120261918.704 7  93710530.180 7                  22885095.360    22885095.240
  22885094.680          47.950          44.400
 116171937.211 8  90523580.077 7  86751765.998 8  22106788.140    22106789.340
  22106788.720          49.400          47.750
 109123563.210 8  85031316.28647                  20765517.800
  20765512.320          50.250          46.500
 106854178.315 8  83263023.265 8  79793740.379 8  20333659.680    20333659.000
  20333658.620          50.200          50.100
 116355246.682 7  90666440.72546                  22141663.240
  22141661.460          47.600          41.800
 106256644.531 8  82797348.12548                  20219969.460
  20219965.520          48.750          48.400
 137016717.117 6 106766268.05045                  26073420.120
  26073422.460          41.200          32.600
 126155211.137 7  98302758.625 7  94206795.286 8  24006550.120    24006554.280
  24006553.960          46.300          42.050
 131950419.601 6 102628279.907 5                  24675430.160    24675443.040
  24675440.920          40.050          32.850
 111168145.289 8  86464105.418 7                  20774436.380    20774440.060
  20774438.800          48.650          46.150
 107878774.751 8  83905729.232 7                  20216439.140    20216443.520
  20216442.900          49.350          46.300
 116946459.858 7  90958389.721 6                  21892621.320    21892628.680
  21892628.620          43.600          41.950
 128026776.086 6  99576454.060 6                  23975293.640    23975306.640
  23975305.200          36.100          36.900
 129191100.500 6 100481964.946 5                  24150913.300    24150918.300
  24150916.360          41.600          34.900
 110874182.104 7  86235501.895 7                  20712222.680    20712225.020
  20712223.760          47.750          46.150
 109522065.185 8  85183841.385 7                  20517173.900    20517178.880
  20517178.260          49.050          46.750
 121001123.606 7  94112019.989 5                  22643697.140    22643705.120
  22643703.020          44.350          35.600
 131594714.599 5 102351480.913 4                  24574385.400    24574390.180
                        35.700          28.250
 126368591.227 7  98286673.694 5                  23639867.640    23639875.140
  23639875.100          43.850          33.900
 15  1 27 11  2 45.0000000  0 23G06G07G08G02G17G03G23G09G10G20G32G01
                                R24R17R02R12R13R19R03R18R11R04R01
 111114874.809 8  86583023.672 8  82975395.691 8  21144455.500    21144457.000
  21144456.260          49.600          49.400
 124193772.775 8  96774425.963 6                  23633274.380    23633275.360
  23633274.960          48.550          41.700
 126187584.639 7  98328008.98646                  24012690.120
  24012689.260          46.650          37.400
 130040447.899 7 101330212.50446                  24745874.560
  24745871.380          44.650          37.000
 120274826.968 8  93720588.560 7                  22887551.760    22887551.600
  22887551.060          48.300          44.450
 116182253.644 8  90531618.838 7  86759469.807 8  22108751.360    22108752.540
  22108751.980          49.750          47.600
 109129309.470 8  85035793.88547                  20766611.280
  20766605.800          50.300          46.600
 106850414.898 8  83260090.736 8  79790930.033 8  20332943.500    20332942.820
  20332942.460          50.250          50.000
 116343075.836 7  90656956.95546                  22139347.180
  22139345.420          47.600          41.600
 106255298.054 8  82796298.91848                  20219713.220
  20219709.300          48.800          48.300
 137030580.442 7 106777070.64745                  26076058.200
  26076060.540          42.450          30.750
 126172700.361 7  98316386.583 6  94219855.416 7  24009878.300    24009882.400
  24009882.040          46.400          41.800
 131973099.931 7 102645919.937 5                  24679671.580    24679684.500
  24679682.380          42.700          34.150
 111184518.151 8  86476839.838 7                  20777496.080    20777499.700
  20777498.500          48.650          46.200
 107885224.622 8  83910745.790 7                  20217647.820    20217652.180
  20217651.600          49.550          46.350
 116934375.512 7  90948990.800 6                  21890359.100    21890366.520
  21890366.380          43.950          41.850
 128005859.783 6  99560185.916 6                  23971376.640    23971389.480
  23971388.100          37.250          36.950
 129171780.159 7 100466938.025 5                  24147301.540    24147306.560
  24147304.600          42.600          35.000
 110866794.957 7  86229756.335 7                  20710842.700    20710844.980
  20710843.720          47.750          46.100
 109519179.612 8  85181597.051 7                  20516633.300    20516638.340
  20516637.700          49.050          46.650
 121007461.423 7  94116949.404 6                  22644883.140    22644891.120
  22644889.060          44.500          36.000
 131580425.971 5 102340367.596 4                  24571715.660    24571722.440
                        34.400          29.850
 126383171.155 7  98298013.632 5                  23642595.180    23642602.800
  23642602.640          44.100          34.300
 15  1 27 11  2 50.0000000  0 23G06G07G08G02G17G03G23G09G10G20G32G01
                                R24R17R02R12R13R19R03R18R11R04R01
 111105169.925 8  86575461.429 8  82968148.547 8  21142608.700    21142610.200
  21142609.480          49.600          49.250
 124177009.072 8  96761363.319 6                  23630084.340    23630085.280
  23630084.920          48.600          41.850
 126193397.486 7  98332538.47146                  24013796.280
  24013795.400          46.600          36.850
 130023297.678 7 101316848.70846                  24742610.980
  24742607.840          44.900          37.250
 120287743.730 8  93730653.555 7                  22890009.760    22890009.600
  22890009.040          48.650          44.450
 116192574.868 8  90539661.339 7  86767177.214 8  22110715.500    22110716.640
  22110716.120          49.700          47.250
 109135066.593 8  85040279.95347                  20767706.860
  20767701.340          50.400          46.250
 106846664.787 8  83257168.572 8  79788129.635 8  20332229.860    20332229.160
  20332228.820          50.350          49.900
 116330909.945 7  90647477.04746                  22137032.040
  22137030.320          47.500          40.900
 106253959.846 8  82795256.15648                  20219458.560
  20219454.660          48.900          48.100
 137044443.233 6 106787872.83445                  26078696.240
  26078698.620          41.700          34.050
 126190194.066 7  98330018.017 7  94232918.868 7  24013207.300    24013211.320
  24013210.960          46.250          42.050
 131995777.255 7 102663557.652 5                  24683912.440    24683925.340
  24683923.260          44.150          34.950
 111200906.081 8  86489585.994 7                  20780558.600    20780562.220
  20780560.980          48.700          46.200
 107891680.160 8  83915766.756 7                  20218857.580    20218861.940
  20218861.380          49.600          46.300
 116922307.332 7  90939604.440 6                  21888099.920    21888107.300
  21888107.160          44.000          41.250
 127984942.525 6  99543916.998 6                  23967459.340    23967472.280
  23967470.840          37.750          37.050
 129152468.863 7 100451918.119 5                  24143691.580    24143696.460
  24143694.540          43.050          35.600
 110859414.470 7  86224015.960 7                  20709463.980    20709466.180
  20709464.920          47.700          46.000
 109516316.884 8  85179370.476 7                  20516096.980    20516102.080
  20516101.420          48.900          46.750
 121013820.305 7  94121895.189 6                  22646073.020    22646081.060
  22646079.060          44.550          36.600
 131566139.538 5 102329255.863 5                  24569046.120    24569054.220
                        30.900          32.200
 126397750.682 7  98309353.243 5                  23645322.620    23645330.160
  23645330.120          43.800          34.350
 15  1 27 11  2 55.0000000  0 23G06G07G08G02G17G03G23G09G10G20G32G01
                                R24R17R02R12R13R19R03R18R11R04R01
 111095475.037 8  86567906.983 8  82960908.869 8  21140763.820    21140765.320
  21140764.620          49.550          49.250
 124160246.024 8  96748301.204 7                  23626894.460    23626895.380
  23626895.020          48.250          42.050
 126199222.753 7  98337077.63446                  24014904.820
  24014903.940          46.400          37.900
 130006147.289 7 101303484.78345                  24739347.360
  24739344.260          44.600          35.850
 120300667.147 8  93740723.740 7                  22892469.060    22892468.860
  22892468.300          48.400          44.400
 116202899.058 8  90547706.166 7  86774886.844 8  22112680.200    22112681.320
  22112680.820          49.550          47.400
 109140832.667 8  85044773.00647                  20768804.140
  20768798.580          50.250          46.800
 106842926.144 8  83254255.352 8  79785337.805 8  20331518.400    20331517.720
  20331517.360          50.350          50.000
 116318747.153 7  90637999.56646                  22134717.500
  22134715.800          47.450          41.550
 106252628.084 8  82794218.42748                  20219205.120
  20219201.220          48.800          48.050
 137058303.626 6 106798673.13445                  26081333.780
  26081336.200          40.950          35.300
 126207690.365 7  98343651.466 7  94245984.259 8  24016536.740    24016540.840
  24016540.440          46.250          42.650
 132018449.678 7 102681191.570 5                  24688152.400    24688165.260
  24688163.240          44.000          33.700
 111217307.082 8  86502342.330 7                  20783623.520    20783627.160
  20783625.940          48.700          46.050
 107898139.604 8  83920790.774 7                  20220068.080    20220072.440
  20220071.880          49.450          46.350
 116910253.276 7  90930229.072 6                  21885843.340    21885850.700
  21885850.580          44.050          41.550
 127964022.658 6  99527646.063 6                  23963541.700    23963554.560
  23963553.100          38.500          36.650
 129133164.816 7 100436903.887 5                  24140082.980    24140087.680
  24140085.880          42.900          35.600
 110852038.929 7  86218279.434 7                  20708086.180    20708088.340
  20708087.060          47.900          46.100
 109513475.100 8  85177160.204 7                  20515564.600    20515569.700
  20515569.080          48.850          46.850
 121020198.429 7  94126855.971 6                  22647266.620    22647274.600
  22647272.680          44.300          37.050
 131551853.245 5 102318144.233 5                  24566378.720    24566387.300
  24566388.580          32.050          32.100
 126412328.027 7  98320691.162 5                  23648049.600    23648057.080
  23648057.160          43.200          34.400
 15  1 27 11  3  0.0000000  0 23G06G07G08G02G17G03G23G09G10G20G32G01
                                R24R17R02R12R13R19R03R18R11R04R01
 111085792.053 8  86560361.803 8  82953678.072 8  21138921.200    21138922.720
  21138922.020          49.700          49.350
 124143485.535 8  96735241.075 6                  23623705.080    23623705.980
  23623705.580          48.150          41.800
 126205062.317 7  98341627.94546                  24016016.060
  24016015.220          46.100          39.350
 129988998.613 7 101290122.18046                  24736084.080
  24736080.940          44.000          37.700
 120313599.069 8  93750800.531 7                  22894929.940    22894929.760
  22894929.180          48.600          44.650
 116213228.111 8  90555754.773 7  86782600.090 8  22114645.840    22114646.880
  22114646.400          49.600          47.600
 109146609.570 8  85049274.48347                  20769903.480
  20769897.880          50.300          47.000
 106839200.850 8  83251352.527 8  79782555.931 8  20330809.460    20330808.800
  20330808.440          50.400          50.150
 116306589.400 7  90628525.99746                  22132403.900
  22132402.260          47.550          41.550
 106251304.679 8  82793187.19948                  20218953.300
  20218949.380          48.750          48.300
 137072163.456 6 106809472.99845                  26083971.240
  26083973.520          41.750          33.950
 126225191.142 7  98357288.398 7  94259052.975 8  24019867.040    24019871.200
  24019870.840          46.400          43.250
 132041119.201 7 102698823.227 5                  24692391.780    24692404.740
  24692402.640          42.400          33.400
 111233723.093 8  86515110.328 7                  20786691.280    20786694.880
  20786693.660          48.400          45.950
 107904604.856 8  83925819.295 7                  20221279.680    20221284.000
  20221283.460          49.550          46.400
 116898215.345 7  90920866.246 6                  21883589.840    21883597.140
  21883597.040          44.250          41.600
 127943102.068 6  99511374.582 6                  23959623.960    23959636.780
  23959635.300          37.200          38.550
 129113869.881 7 100421896.728 5                  24136476.020    24136480.760
  24136478.900          43.100          35.000
 110844670.026 7  86212548.067 7                  20706709.580    20706711.720
  20706710.440          47.850          46.050
 109510656.221 8  85174967.748 7                  20515036.500    20515041.640
  20515041.040          48.850          47.000
 121026597.655 7  94131833.157 6                  22648464.200    22648472.180
  22648470.240          44.800          37.050
 131537568.901 5 102307034.186 5                  24563711.240    24563718.960
  24563720.260          34.900          31.350
 126426905.044 7  98332028.792 5                  23650776.480    23650784.100
  23650784.160          43.900          34.250
 15  1 27 11  3  5.0000000  0 23G06G07G08G02G17G03G23G09G10G20G32G01
                                R24R17R02R12R13R19R03R18R11R04R01
 111076122.370 8  86552826.989 8  82946457.202 8  21137081.100    21137082.640
  21137081.940          49.850          49.200
 124126729.019 7  96722184.041 7                  23620516.460    23620517.320
  23620516.920          47.900          42.350
 126210917.593 7  98346190.49646                  24017130.320
  24017129.500          46.050          38.750
 129971853.085 7 101276762.03346                  24732821.400
  24732818.160          43.850          38.000
 120326540.861 8  93760885.020 7                  22897392.700    22897392.540
  22897391.980          49.000          44.350
 116223563.392 8  90563808.224 7  86790317.983 8  22116612.620    22116613.620
  22116613.140          49.750          47.000
 109152398.727 8  85053785.51847                  20771005.140
  20770999.520          50.450          46.350
 106835490.293 8  83248461.190 8  79779785.057 8  20330103.340    20330102.700
  20330102.340          50.500          50.100
 116294438.005 7  90619057.39446                  22130091.500
  22130089.900          47.750          41.900
 106249991.025 8  82792163.56547                  20218703.320
  20218699.400          48.850          47.900
 137086024.193 7 106820273.55345                  26086608.820
  26086611.060          42.050          33.200
 126242697.809 7  98370929.901 7  94272126.075 8  24023198.460    24023202.700
  24023202.380          46.900          42.950
 132063787.127 7 102716453.633 5                  24696630.920    24696643.960
  24696641.780          45.100          35.250
 111250155.545 8  86527891.116 7                  20789762.060    20789765.680
  20789764.460          48.700          46.350
 107911077.294 8  83930853.413 7                  20222492.620    20222496.940
  20222496.380          49.250          46.550
 116886194.964 7  90911517.066 6                  21881339.620    21881346.940
  21881346.780          44.200          41.700
 127922182.054 6  99495103.589 6                  23955706.220    23955719.120
  23955717.600          36.950          38.650
 129094585.682 7 100406897.909 6                  24132871.120    24132875.880
  24132873.960          43.250          36.500
 110837309.252 7  86206823.021 7                  20705334.520    20705336.600
  20705335.340          47.800          46.250
 109507861.622 8  85172794.178 7                  20514512.960    20514518.120
  20514517.540          49.250          47.050
 121033019.424 7  94136827.860 6                  22649665.980    22649673.880
  22649672.020          44.850          36.950
 131523288.046 5 102295926.889 4                  24561044.440    24561051.540
  24561050.200          35.050          29.950
 126441483.098 7  98343367.268 5                  23653503.640    23653511.340
  23653511.260          43.350          33.750
 15  1 27 11  3 10.0000000  0 23G06G07G08G02G17G03G23G09G10G20G32G01
                                R24R17R02R12R13R19R03R18R11R04R01
 111066463.615 8  86545300.690 8  82939244.505 8  21135243.080    21135244.620
  21135243.920          49.750          49.350
 124109974.101 8  96709128.270 7                  23617328.100    23617328.960
  23617328.560          48.500          42.550
 126216786.175 7  98350763.40046                  24018247.080
  24018246.320          46.200          39.100
 129954708.345 7 101263402.53846                  24729558.860
  24729555.640          44.000          37.650
 120339490.156 8  93770975.369 7                  22899856.920    22899856.780
  22899856.200          48.900          44.650
 116233902.548 8  90571864.714 7  86798038.787 8  22118580.120    22118581.100
  22118580.580          49.550          46.850
 109158197.727 8  85058304.22847                  20772108.680
  20772103.040          50.650          46.650
 106831792.098 8  83245579.484 8  79777023.426 8  20329399.580    20329398.960
  20329398.560          50.600          50.150
 116282290.652 8  90609591.93446                  22127779.880
  22127778.320          48.000          41.700
 106248684.713 8  82791145.65948                  20218454.740
  20218450.840          49.000          48.400
 137099883.427 6 106831072.94845                  26089246.120
  26089248.320          41.550          32.550
 126260207.952 7  98384574.132 7  94285201.802 8  24026530.620    24026534.820
  24026534.600          47.200          42.700
 132086451.131 7 102734080.973 5                  24700869.360    24700882.400
  24700880.200          46.150          35.500
 111266601.916 8  86540682.733 7                  20792835.460    20792839.080
  20792837.840          48.950          46.200
 107917554.435 8  83935891.190 7                  20223706.440    20223710.740
  20223710.180          49.550          46.400
 116874189.858 7  90902179.773 6                  21879092.260    21879099.500
  21879099.380          44.400          41.500
 127901260.497 6  99478831.370 6                  23951788.120    23951801.100
  23951799.580          37.300          38.500
 129075309.571 7 100391905.385 6                  24129267.640    24129272.400
  24129270.560          42.300          36.550
 110829954.120 8  86201102.377 7                  20703960.500    20703962.540
  20703961.320          48.050          46.150
 109505088.931 8  85170637.634 7                  20513993.540    20513998.720
  20513998.120          49.050          47.000
 121039461.243 7  94141838.168 6                  22650871.460    22650879.380
  22650877.520          44.950          36.400
 131509008.283 5 102284820.463 4                  24558377.520    24558384.620
  24558381.980          34.800          29.150
 126456059.779 7  98354704.669 5                  23656230.480    23656238.160
  23656238.040          44.150          32.700
 15  1 27 11  3 15.0000000  0 23G06G07G08G02G17G03G23G09G10G20G32G01
                                R24R17R02R12R13R19R03R18R11R04R01
 111056817.020 8  86537783.871 8  82932040.881 8  21133407.380    21133408.920
  21133408.220          49.750          49.450
 124093222.009 8  96696074.691 7                  23614140.320    23614141.220
  23614140.740          48.700          42.800
 126222669.271 7  98355347.63546                  24019366.580
  24019365.860          46.450          37.950
 129937565.561 7 101250044.55346                  24726296.700
  24726293.460          44.200          38.950
 120352448.159 8  93781072.500 7                  22902322.760    22902322.640
  22902321.980          48.250          44.600
 116244246.778 8  90579925.151 7  86805763.357 8  22120548.560    22120549.520
  22120548.980          49.150          47.100
 109164007.749 8  85062831.51247                  20773214.300
  20773208.660          50.650          46.550
 106828107.462 8  83242708.343 8  79774271.920 8  20328698.400    20328697.760
  20328697.380          50.600          50.100
 116270148.527 8  90600130.54846                  22125469.300
  22125467.720          48.000          41.800
 106247386.958 8  82790134.41948                  20218207.780
  20218203.880          48.950          48.050
 137113742.287 6 106841872.08944                  26091883.300
  26091885.660          40.750          28.300
 126277722.780 7  98398222.022 6  94298280.996 8  24029863.640    24029867.820
  24029867.580          47.100          41.850
 132109112.183 7 102751706.067 5                  24705107.240    24705120.240
  24705118.100          44.350          34.600
 111283063.412 8  86553486.111 7                  20795911.700    20795915.300
  20795914.060          49.000          46.200
 107924037.548 8  83940933.609 7                  20224921.380    20224925.720
  20224925.120          49.400          46.250
 116862201.157 7  90892855.230 6                  21876847.980    21876855.140
  21876854.980          44.300          41.200
 127880338.393 6  99462558.714 6                  23947870.020    23947883.060
  23947881.500          37.100          36.950
 129056042.980 7 100376920.273 6                  24125665.960    24125670.720
  24125668.920          42.100          36.550
 110822606.112 7  86195387.250 7                  20702587.840    20702589.800
  20702588.600          47.900          46.350
 109502339.351 8  85168499.068 7                  20513478.420    20513483.640
  20513483.040          48.950          47.000
 121045924.348 7  94146865.025 6                  22652080.920    22652088.860
  22652086.980          44.750          36.400
 131494730.876 5 102273715.859 5                  24555710.800    24555719.520
  24555715.900          33.750          31.550
 126470636.381 7  98366042.021 5                  23658957.240    23658964.860
  23658964.780          43.200          31.750
 15  1 27 11  3 20.0000000  0 23G06G07G08G02G17G03G23G09G10G20G32G01
                                R24R17R02R12R13R19R03R18R11R04R01
 111047181.058 8  86530275.338 8  82924845.213 8  21131573.700    21131575.260
  21131574.540          49.850          49.550
 124076471.258 8  96683022.145 7                  23610952.780    23610953.640
  23610953.200          48.600          43.100
 126228565.342 7  98359941.96246                  24020488.560
  24020487.880          46.600          38.300
 129920423.330 7 101236686.98546                  24723034.620
  24723031.420          44.900          36.750
 120365413.317 8  93791175.206 7                  22904790.000    22904789.860
  22904789.220          48.350          45.000
 116254594.573 8  90587988.353 7  86813490.607 8  22122517.620    22122518.600
  22122518.020          48.950          46.950
 109169827.270 8  85067366.21047                  20774321.740
  20774316.080          50.750          46.350
 106824434.875 8  83239846.595 8  79771529.417 8  20327999.500    20327998.900
  20327998.480          50.550          50.050
 116258010.141 8  90590672.07846                  22123159.460
  22123157.840          48.350          41.150
 106246096.269 8  82789128.68748                  20217962.160
  20217958.280          49.000          48.250
 137127599.372 6 106852669.82744                  26094520.240
  26094522.600          41.600          29.900
 126295240.738 7  98411872.368 6  94311362.576 8  24033197.300    24033201.300
  24033201.060          47.100          41.100
 132131768.848 7 102769327.672 5                  24709344.320    24709357.320
  24709355.200          44.650          34.750
 111299538.693 8  86566300.193 7                  20798990.520    20798994.100
  20798992.840          49.050          45.850
 107930525.105 8  83945979.491 7                  20226137.140    20226141.500
  20226140.880          49.400          46.550
 116850227.362 7  90883542.297 6                  21874606.460    21874613.600
  21874613.380          44.700          41.250
 127859414.211 6  99446284.415 6                  23943951.500    23943964.500
  23943962.920          37.900          37.250
 129036784.284 6 100361941.293 6                  24122065.820    24122070.620
  24122068.820          41.300          36.550
 110815263.397 7  86189676.257 7                  20701216.140    20701218.060
  20701216.900          47.800          46.200
 109499611.366 8  85166377.310 7                  20512967.360    20512972.620
  20512972.000          48.900          46.850
 121052407.265 7  94151907.289 5                  22653294.080    22653302.000
  22653300.180          44.750          35.950
 131480454.337 6 102262611.808 5                  24553044.960    24553054.000
  24553051.500          38.050          34.550
 126485211.346 7  98377378.089 5                  23661683.800    23661691.240
  23661691.220          43.250          32.950
 15  1 27 11  3 25.0000000  0 23G06G07G08G02G17G03G23G09G10G20G32G01
                                R24R17R02R12R13R19R03R18R11R04R01
 111037557.987 8  86522776.856 8  82917659.156 8  21129742.500    21129744.040
  21129743.340          49.900          49.500
 124059724.048 8  96669972.383 7                  23607765.880    23607766.760
  23607766.380          48.250          42.850
 126234476.626 7  98364548.16246                  24021613.460
  24021612.820          46.700          38.200
 129903283.816 7 101223331.52246                  24719773.060
  24719769.860          45.050          36.400
 120378387.860 8  93801285.228 7                  22907259.000    22907258.860
  22907258.200          48.600          44.900
 116264948.136 8  90596056.059 7  86821222.151 8  22124487.760    22124488.820
  22124488.120          48.750          46.800
 109175658.489 8  85071910.02247                  20775431.420
  20775425.720          50.700          46.550
 106820776.572 8  83236995.982 8  79768797.569 8  20327303.340    20327302.720
  20327302.300          50.450          50.000
 116245877.723 8  90581218.24646                  22120850.760
  22120849.080          48.350          41.600
 106244814.868 8  82788130.19748                  20217718.320
  20217714.440          49.050          48.350
 137141456.861 6 106863467.97745                  26097157.240
  26097159.540          41.900          30.600
 126312764.106 7  98425526.950 6  94324448.162 8  24036531.940    24036535.800
  24036535.460          46.650          41.000
 132154423.392 7 102786947.667 5                  24713581.000    24713594.040
  24713591.880          43.850          33.650
 111316029.741 8  86579126.564 7                  20802072.280    20802075.840
  20802074.600          49.100          45.850
 107937019.376 8  83951030.591 7                  20227354.200    20227358.520
  20227357.920          49.600          46.450
 116838270.709 7  90874242.676 6                  21872368.180    21872375.180
  21872374.980          44.300          41.150
 127838490.398 6  99430010.421 6                  23940033.040    23940046.020
  23940044.500          38.050          38.550
 129017535.819 7 100346970.246 6                  24118467.560    24118472.460
  24118470.620          42.350          36.100
 110807928.403 7  86183971.272 7                  20699845.940    20699847.820
  20699846.640          47.800          46.250
 109496907.234 8  85164274.103 7                  20512460.760    20512466.060
  20512465.460          49.000          47.000
 121058912.195 7  94156966.671 5                  22654511.400    22654519.240
  22654517.460          44.850          35.800
 131466180.751 6 102251510.084 5                  24550379.600    24550388.700
  24550387.620          41.450          35.800
 126499786.978 7  98388714.638 5                  23664410.460    23664418.060
  23664417.920          43.300          33.700
 15  1 27 11  3 30.0000000  0 23G06G07G08G02G17G03G23G09G10G20G32G01
                                R24R17R02R12R13R19R03R18R11R04R01
 111027946.630 8  86515287.488 8  82910481.849 8  21127913.540    21127915.060
  21127914.360          50.000          49.450
 124042979.248 8  96656924.495 7                  23604579.460    23604580.340
  23604580.000          48.400          42.850
 126240401.926 7  98369165.27246                  24022741.020
  24022740.400          46.400          38.550
 129886145.824 7 101209977.25246                  24716511.800
  24716508.600          44.550          36.050
 120391370.583 8  93811401.629 7                  22909729.560    22909729.380
  22909728.760          48.300          44.850
 116275306.300 8  90604127.353 7  86828957.136 8  22126458.740    22126459.880
  22126459.120          48.650          46.700
 109181500.238 8  85076462.03347                  20776543.080
  20776537.360          50.600          46.650
 106817131.340 8  83234155.546 8  79766075.491 8  20326609.640    20326609.040
  20326608.620          50.300          50.050
 116233750.099 8  90571768.15846                  22118543.020
  22118541.240          48.350          41.600
 106243541.560 8  82787138.01348                  20217476.000
  20217472.140          48.900          48.400
 137155313.609 7 106874265.44745                  26099794.040
  26099796.360          42.050          33.400
 126330291.654 7  98439184.762 6  94337536.898 7  24039867.340    24039871.060
  24039870.780          45.700          41.600
 132177074.573 6 102804565.065 4                  24717816.920    24717830.140
  24717827.940          40.400          29.500
 111332535.446 8  86591964.313 7                  20805156.800    20805160.340
  20805159.100          49.000          45.800
 107943519.116 8  83956085.938 7                  20228572.240    20228576.600
  20228575.980          49.200          46.300
 116826330.093 7  90864955.534 6                  21870132.880    21870139.900
  21870139.560          44.900          41.250
 127817565.696 6  99413735.746 6                  23936114.540    23936127.420
  23936125.840          37.500          37.900
 128998296.410 7 100332006.249 6                  24114870.960    24114875.820
  24114874.080          42.200          36.300
 110800599.768 7  86178271.233 7                  20698476.900    20698478.760
  20698477.560          47.850          46.350
 109494225.746 8  85162188.501 7                  20511958.440    20511963.760
  20511963.140          49.150          47.100
 121065437.939 7  94162042.244 5                  22655732.620    22655740.460
  22655738.640          44.750          35.900
 131451908.948 6 102240409.816 5                  24547714.420    24547722.860
  24547722.760          41.100          32.900
 126514362.087 7  98400050.797 5                  23667137.020    23667144.680
  23667144.540          42.750          33.050
 15  1 27 11  3 35.0000000  0 23G06G07G08G02G17G03G23G09G10G20G32G01
                                R24R17R02R12R13R19R03R18R11R04R01
 111018345.481 8  86507806.067 8  82903312.166 8  21126086.540    21126088.000
  21126087.300          49.950          49.400
 124026235.315 8  96643877.275 7                  23601393.200    23601394.140
  23601393.760          48.350          42.700
 126246339.766 7  98373792.14946                  24023870.980
  24023870.400          46.600          38.150
 129869007.866 7 101196623.00746                  24713250.560
  24713247.260          43.250          38.950
 120404359.964 7  93821523.212 7                  22912201.380    22912201.180
  22912200.560          47.750          44.850
 116285667.548 8  90612201.043 7  86836694.416 8  22128430.340    22128431.520
  22128430.680          48.700          47.000
 109187351.016 8  85081021.07747                  20777656.460
  20777650.720          50.550          46.850
 106813497.709 8  83231324.145 8  79763362.065 8  20325918.180    20325917.560
  20325917.120          50.200          50.100
 116221625.734 8  90562320.60047                  22116235.840
  22116234.020          48.250          42.000
 106242274.865 8  82786150.97048                  20217234.940
  20217231.080          48.950          48.650
 137169168.074 6 106885061.06345                  26102430.420
  26102432.520          41.700          32.250
 126347821.890 7  98452844.641 7  94350627.635 8  24043203.180    24043207.000
  24043206.680          45.400          42.100
 132199721.171 6 102822178.834 4                  24722052.140    24722065.100
  24722063.100          37.000          26.100
 111349054.208 8  86604812.225 7                  20808243.740    20808247.320
  20808246.000          49.050          45.750
 107950022.765 8  83961144.319 7                  20229791.020    20229795.360
  20229794.740          49.150          46.350
 116814403.925 7  90855679.626 6                  21867900.320    21867907.280
  21867906.860          44.350          41.000
 127796638.601 6  99397459.204 6                  23932195.460    23932208.400
  23932206.820          36.250          38.550
 128979064.450 7 100317048.047 6                  24111275.760    24111280.680
  24111278.960          42.400          37.050
 110793276.200 8  86172575.123 7                  20697108.820    20697110.660
  20697109.440          48.250          46.250
 109491565.357 8  85160119.308 7                  20511460.060    20511465.380
  20511464.800          49.150          46.950
 121071982.915 7  94167132.780 6                  22656957.520    22656965.240
  22656963.420          45.050          36.400
 131437637.357 6 102229309.693 5                  24545049.120    24545057.480
  24545056.300          40.350          31.550
 126528935.025 7  98411385.283 5                  23669863.140    23669870.880
  23669870.680          43.000          33.400
 15  1 27 11  3 40.0000000  0 23G06G07G08G02G17G03G23G09G10G20G32G01
                                R24R17R02R12R13R19R03R18R11R04R01
 111008757.466 8  86500334.893 8  82896152.289 8  21124262.040    21124263.460
  21124262.740          49.800          49.250
 124009495.184 8  96630833.025 7                  23598207.660    23598208.600
  23598208.160          48.150          42.300
 126252293.028 7  98378431.05646                  24025003.840
  24025003.300          46.700          37.800
 129851872.864 7 101183271.07846                  24709989.860
  24709986.540          43.750          39.100
 120417358.899 7  93831652.238 7                  22914675.020    22914674.780
  22914674.200          47.700          44.850
 116296034.792 8  90620279.409 7  86844436.180 8  22130403.080    22130404.300
  22130403.420          48.250          46.900
 109193213.728 8  85085589.43247                  20778772.120
  20778766.360          50.450          46.750
 106809878.548 8  83228504.027 8  79760659.456 8  20325229.460    20325228.860
  20325228.400          50.050          50.100
 116209507.517 8  90552877.84446                  22113929.860
  22113928.020          48.050          41.200
 106241017.663 8  82785171.34148                  20216995.700
  20216991.860          48.750          48.600
 137183023.156 6 106895857.28245                  26105066.880
  26105069.100          39.300          35.150
 126365357.675 7  98466508.854 7  94363722.503 8  24046540.080    24046543.980
  24046543.720          45.700          42.550
 132222365.822 5                                  24726287.060
                        32.700
 111365589.042 8  86617672.651 7                  20811333.660    20811337.280
  20811335.940          49.100          45.900
 107956533.316 8  83966208.079 7                  20231011.040    20231015.480
  20231014.840          49.100          46.400
 116802495.298 7  90846417.377 6                  21865671.040    21865677.960
  21865677.460          44.350          41.050
 127775712.094 5  99381183.142 6                  23928276.440    23928289.420
  23928287.960          35.600          38.300
 128959842.985 7 100302098.042 6                  24107682.500    24107687.520
  24107685.740          42.550          36.700
 110785960.518 8  86166885.160 7                  20695742.180    20695744.040
  20695742.820          48.050          46.200
 109488929.057 8  85158068.862 7                  20510966.220    20510971.520
  20510970.940          49.150          46.800
 121078550.035 7  94172240.557 6                  22658186.520    22658194.200
  22658192.380          45.050          36.350
 131423368.984 7 102218212.097 5                  24542384.440    24542392.460
  24542390.200          42.000          32.950
 126543508.795 7  98422720.444 5                  23672589.440    23672597.160
  23672597.060          44.100          34.250
 15  1 27 11  3 45.0000000  0 22G06G07G08G02G17G03G23G09G10G20G32G01
                                R17R02R12R13R19R03R18R11R04R01
 110999182.962 8  86492874.245 8  82889002.495 8  21122440.100    21122441.460
  21122440.760          49.800          49.200
 123992759.286 8  96617792.062 7                  23595022.920    23595023.840
  23595023.340          48.250          42.050
 126258262.094 7  98383082.25646                  24026139.740
  24026139.260          47.000          38.150
 129834741.178 7 101169921.74746                  24706729.780
  24706726.480          44.400          38.800
 120430367.715 8  93841788.962 7                  22917150.560    22917150.260
  22917149.740          48.150          44.300
 116306408.387 8  90628362.721 7  86852182.688 8  22132377.040    22132378.300
  22132377.400          48.700          46.700
 109199088.703 8  85090167.34047                  20779890.100
  20779884.360          50.450          46.750
 106806274.250 8  83225695.484 8  79757967.931 8  20324543.560    20324542.960
  20324542.500          50.150          49.950
 116197395.864 7  90543440.20646                  22111625.100
  22111623.240          47.950          41.650
 106239770.341 8  82784199.40348                  20216758.360
  20216754.520          48.750          48.600
 137196879.211 6 106906654.26345                  26107703.580
  26107705.620          38.350          31.900
 126382899.388 7  98480177.687 7  94376821.806 8  24049878.220    24049882.160
  24049881.900          45.900          42.250
 111382140.291 8  86630545.839 7                  20814426.660    20814430.320
  20814428.940          48.850          46.050
 107963051.160 8  83971277.513 7                  20232232.460    20232236.920
  20232236.280          49.150          46.500
 116790604.467 7  90837168.945 6                  21863445.040    21863451.880
  21863451.380          44.050          40.650
 127754786.594 5  99364907.888 6                  23924357.560    23924370.740
  23924369.320          35.700          38.500
 128940632.452 7 100287156.519 6                  24104091.240    24104096.160
  24104094.580          42.350          36.100
 110778653.049 7  86161201.586 7                  20694377.080    20694378.960
  20694377.700          47.850          46.200
 109486317.287 8  85156037.481 7                  20510476.940    20510482.220
  20510481.640          48.900          46.900
 121085139.804 7  94177365.933 6                  22659419.720    22659427.500
  22659425.620          44.700          36.750
 131409104.263 7 102207117.308 5                  24539720.700    24539728.580
  24539726.120          43.300          33.250
 126558083.754 7  98434056.504 5                  23675316.000    23675323.960
  23675323.780          43.550          35.250
 15  1 27 11  3 50.0000000  0 22G06G07G08G02G17G03G23G09G10G20G32G01
                                R17R02R12R13R19R03R18R11R04R01
 110989617.289 8  86485420.474 8  82881859.310 8  21120619.860    21120621.160
  21120620.440          49.850          49.200
 123976022.915 8  96604750.721 7                  23591838.120    23591839.000
  23591838.460          48.100          42.050
 126264242.243 7  98387742.10446                  24027277.720
  24027277.280          46.800          38.500
 129817608.183 7 101156571.36446                  24703469.500
  24703466.100          44.700          36.700
 120443381.761 8  93851929.770 7                  22919627.080    22919626.780
  22919626.240          48.350          44.050
 116316783.664 8  90636447.353 7  86859930.455 8  22134351.380    22134352.640
  22134351.700          49.050          46.750
 109204971.313 8  85094751.19247                  20781009.520
  20781003.780          50.550          46.600
 106802680.121 8  83222894.864 8  79755284.012 8  20323859.620    20323859.020
  20323858.540          50.450          50.100
 116185286.086 8  90534004.02046                  22109320.680
  22109318.800          48.000          41.100
 106238528.230 8  82783231.51648                  20216521.980
  20216518.140          48.850          48.500
 137210731.645 6 106917448.29745                  26110339.680
  26110341.500          40.650          30.600
 126400442.339 7  98493847.490 7  94389922.026 8  24053216.620    24053220.540
  24053220.340          45.700          42.250
 111398703.149 8  86643428.035 7                  20817521.820    20817525.440
  20817524.080          49.000          45.950
 107969571.439 8  83976348.837 7                  20233454.280    20233458.820
  20233458.180          49.050          46.550
 116778726.721 7  90827930.696 6                  21861221.480    21861228.260
  21861227.780          44.250          40.800
 127733857.430 6  99348629.753 6                  23920438.080    23920451.360
  23920449.880          36.700          38.800
 128921427.990 7 100272219.694 6                  24100501.120    24100506.140
  24100504.540          42.850          36.200
 110771348.972 7  86155520.641 7                  20693012.600    20693014.540
  20693013.260          47.900          46.300
 109483725.140 8  85154021.365 7                  20509991.360    20509996.640
  20509996.020          49.100          46.850
 121091747.379 7  94182505.158 6                  22660656.260    22660664.020
  22660662.220          45.050          36.950
 131394838.088 6 102196021.448 5                  24537056.560    24537064.620
  24537062.240          41.600          32.650
 126572655.161 7  98445389.752 5                  23678041.920    23678049.980
  23678049.820          43.650          34.100
 15  1 27 11  3 55.0000000  0 22G06G07G08G02G17G03G23G09G10G20G32G01
                                R17R02R12R13R19R03R18R11R04R01
 110980064.468 8  86477976.725 8  82874725.709 8  21118802.060    21118803.320
  21118802.580          50.000          49.150
 123959290.097 8  96591712.157 7                  23588653.980    23588654.840
  23588654.280          48.100          42.600
 126270237.474 7  98392413.71046                  24028418.600
  24028418.160          46.650          38.700
 129800477.808 7 101143223.03246                  24700209.680
  24700206.240          44.300          36.700
 120456404.997 8  93862077.745 7                  22922105.360    22922105.000
  22922104.500          48.150          44.200
 116327164.611 8  90644536.400 7  86867682.447 8  22136326.820    22136328.060
  22136327.100          49.100          47.000
 109210865.495 8  85099344.06747                  20782131.160
  20782125.400          50.400          46.650
 106799100.134 8  83220105.271 8  79752610.654 8  20323178.360    20323177.760
  20323177.280          50.550          50.050
 116173182.158 8  90524572.40246                  22107017.360
  22107015.520          48.050          41.650
 106237295.267 8  82782270.76448                  20216287.380
  20216283.500          48.800          48.450
 137224584.365 7 106928242.69244                  26112975.800
  26112977.700          42.000          28.150
 126417990.521 7  98507521.373 7  94403026.135 8  24056556.000    24056559.860
  24056559.680          45.100          42.300
 111415281.652 8  86656322.409 7                  20820619.920    20820623.580
  20820622.180          49.100          46.100
 107976098.340 8  83981425.309 7                  20234677.380    20234681.940
  20234681.320          49.000          46.250
 116766866.127 7  90818705.791 6                  21859001.160    21859007.860
  21859007.400          44.100          40.800
 127712928.464 6  99332351.787 6                  23916518.640    23916531.960
  23916530.500          37.550          38.600
 128902233.743 7 100257290.819 6                  24096912.940    24096917.940
  24096916.380          42.700          36.450
 110764052.627 7  86149845.708 7                  20691649.540    20691651.560
  20691650.240          47.600          46.350
 109481156.798 8  85152023.755 7                  20509510.220    20509515.500
  20509514.900          49.050          46.900
 121098376.817 7  94187661.384 6                  22661896.880    22661904.740
  22661902.900          44.750          37.500
 131380574.880 6 102184927.796 5                  24534392.820    24534401.180
  24534398.940          39.050          32.550
 126587227.062 7  98456723.430 5                  23680767.960    23680776.040
  23680775.820          44.050          33.400
 15  1 27 11  4  0.0000000  0 22G06G07G08G02G17G03G23G09G10G20G32G01
                                R17R02R12R13R19R03R18R11R04R01
 110970523.998 8  86470542.593 8  82867601.336 8  21116986.600    21116987.800
  21116987.060          49.900          49.150
 123942560.334 7  96578675.981 7                  23585470.420    23585471.240
  23585470.720          47.950          42.850
 126276247.293 7  98397096.68646                  24029562.240
  24029561.860          46.750          38.100
 129783349.574 7 101129876.38746                  24696950.260
  24696946.800          44.700          37.700
 120469436.957 8  93872232.484 7                  22924585.300    22924584.920
  22924584.420          48.400          44.200
 116337550.729 8  90652629.468 7  86875438.307 8  22138303.260    22138304.500
  22138303.540          49.300          47.000
 109216770.752 8  85103945.56447                  20783254.900
  20783249.140          50.400          46.650
 106795533.828 8  83217326.337 8  79749947.509 8  20322499.720    20322499.100
  20322498.640          50.450          50.000
 116161083.618 8  90515144.97546                  22104715.060
  22104713.280          48.000          41.950
 106236070.930 8  82781316.73948                  20216054.400
  20216050.520          48.850          48.300
 137238436.888 6 106939036.91544                  26115611.860
  26115613.580          41.350          29.650
 126435543.445 7  98521198.930 6  94416133.784 8  24059896.200    24059900.080
  24059899.980          45.050          41.700
 111431875.245 8  86669228.533 7                  20823720.860    20823724.500
  20823723.100          49.250          46.050
 107982631.360 8  83986506.555 7                  20235901.640    20235906.240
  20235905.580          48.750          46.200
 116755022.315 7  90809493.946 6                  21856783.960    21856790.640
  21856790.180          43.950          40.700
 127691999.263 6  99316073.592 6                  23912599.280    23912612.320
  23912611.020          38.100          37.950
 128883049.226 6 100242369.546 6                  24093326.580    24093331.600
  24093330.020          41.950          36.050
 110756763.271 7  86144176.219 7                  20690287.760    20690289.880
  20690288.540          47.300          46.200
 109478611.724 8  85150044.262 7                  20509033.460    20509038.740
  20509038.160          49.150          46.900
 121105027.633 7  94192834.241 6                  22663141.500    22663149.380
  22663147.600          44.700          37.150
 131366314.224 6 102173836.143 5                  24531729.720    24531738.160
  24531736.240          38.500          32.050
 126601798.937 7  98468057.115 5                  23683493.980    23683501.980
  23683501.760          44.700          33.650
 15  1 27 11  4  5.0000000  0 22G06G07G08G02G17G03G23G09G10G20G32G01
                                R17R02R12R13R19R03R18R11R04R01
 110960995.552 8  86463117.830 8  82860485.946 8  21115173.440    21115174.600
  21115173.840          49.900          49.150
 123925833.312 7  96565641.937 7                  23582287.380    23582288.180
  23582287.660          47.700          42.750
 126282271.334 7  98401790.74246                  24030708.580
  24030708.180          46.450          38.850
 129766223.229 7 101116531.20046                  24693691.200
  24693687.720          44.750          37.800
 120482477.220 8  93882393.705 7                  22927066.800    22927066.420
  22927065.940          48.750          44.200
 116347941.681 8  90660726.306 7  86883197.774 8  22140280.620    22140281.840
  22140280.900          49.400          47.250
 109222686.747 8  85108555.43147                  20784380.680
  20784374.920          50.350          46.400
 106791980.827 8  83214557.772 8  79747294.307 8  20321823.600    20321822.980
  20321822.500          50.300          50.000
 116148990.098 8  90505721.47346                  22102413.680
  22102412.000          48.000          41.850
 106234854.955 8  82780369.22848                  20215823.020
  20215819.140          48.850          48.400
 137252288.820 6 106949830.60845                  26118247.820
  26118249.420          40.500          30.300
 126453100.713 7  98534879.889 6  94429244.680 8  24063237.180    24063241.140
  24063240.960          45.150          41.300
 111448483.602 8  86682146.144 7                  20826824.580    20826828.180
  20826826.800          48.700          45.800
 107989170.049 8  83991592.194 7                  20237126.940    20237131.560
  20237130.920          48.900          46.300
 116743194.755 7  90800294.739 6                  21854569.820    21854576.480
  21854576.020          43.850          40.850
 127671069.642 6  99299795.063 6                  23908679.900    23908692.760
  23908691.480          38.050          38.500
 128863874.173 7 100227455.626 5                  24089742.000    24089747.000
  24089745.460          43.250          35.250
 110749480.566 7  86138511.903 7                  20688927.240    20688929.420
  20688928.100          46.950          46.300
 109476089.565 8  85148082.594 7                  20508561.000    20508566.280
  20508565.700          49.250          46.600
 121111699.455 7  94198023.433 6                  22664390.100    22664397.880
  22664396.180          44.800          36.600
 131352055.643 6 102162746.106 5                  24529067.220    24529075.540
  24529073.640          40.700          31.150
 126616370.410 7  98479390.481 5                  23686220.000    23686227.840
  23686227.680          43.100          32.850
 15  1 27 11  4 10.0000000  0 22G06G07G08G02G17G03G23G09G10G20G32G01
                                R17R02R12R13R19R03R18R11R04R01
 110951477.112 8  86455700.865 8  82853378.028 8  21113362.160    21113363.280
  21113362.540          49.850          49.100
 123909107.012 7  96552608.445 7                  23579104.460    23579105.220
  23579104.720          47.650          42.400
 126288307.586 7  98406494.31946                  24031857.220
  24031856.800          46.300          38.050
 129749096.740 7 101103185.88846                  24690432.120
  24690428.560          45.250          36.050
 120495523.762 8  93892559.838 7                  22929549.500    22929549.120
  22929548.620          48.450          44.150
 116358335.426 8  90668825.323 7  86890959.331 8  22142258.540    22142259.740
  22142258.840          49.550          47.350
 109228611.445 8  85113172.07847                  20785508.100
  20785502.340          50.250          46.850
 106788439.133 8  83211798.012 8  79744649.537 8  20321149.640    20321149.020
  20321148.520          50.250          49.900
 116136899.606 8  90496300.31547                  22100112.900
  22100111.280          48.100          42.000
 106233645.319 8  82779426.65148                  20215592.860
  20215588.940          48.650          48.500
 137266138.277 6 106960622.45645                  26120883.260
  26120885.040          39.000          31.350
 126470660.341 7  98548562.685 6  94442357.357 7  24066578.640    24066582.600
  24066582.360          45.300          41.350
 111465104.730 8  86695073.676 7                  20829930.640    20829934.220
  20829932.860          48.900          45.900
 107995712.364 8  83996680.655 7                  20238352.940    20238357.600
  20238356.900          48.950          46.250
 116731381.610 7  90791106.735 6                  21852358.360    21852365.040
  21852364.560          44.050          41.150
 127650137.448 6  99283514.565 6                  23904760.080    23904772.720
  23904771.460          37.050          38.000
 128844706.522 7 100212547.460 5                  24086158.800    24086163.820
  24086162.240          43.500          34.650
 110742202.480 7  86132851.177 7                  20687567.560    20687569.840
  20687568.500          47.000          46.200
 109473588.293 8  85146137.150 7                  20508092.440    20508097.700
  20508097.120          49.000          46.600
 121118390.196 7  94203227.331 6                  22665642.220    22665649.920
  22665648.300          44.900          36.650
 131337796.919 7 102151656.057 5                  24526404.600    24526412.720
  24526410.040          42.700          31.900
 126630939.526 7  98490722.001 5                  23688945.520    23688953.180
  23688953.140          43.350          32.850
 15  1 27 11  4 15.0000000  0 22G06G07G08G02G17G03G23G09G10G20G32G01
                                R17R02R12R13R19R03R18R11R04R01
 110941972.266 8  86448294.500 8  82846280.253 8  21111553.480    21111554.580
  21111553.800          49.750          49.200
 123892385.037 7  96539578.328 7                  23575922.400    23575923.140
  23575922.560          47.800          42.800
 126294359.613 7  98411210.17446                  24033008.860
  24033008.440          46.250          38.150
 129731973.691 7 101089843.25446                  24687173.680
  24687170.200          45.000          36.100
 120508580.205 8  93902733.677 7                  22932034.080    22932033.720
  22932033.200          48.050          44.300
 116368735.567 8  90676929.322 7  86898725.657 8  22144237.660    22144238.840
  22144238.020          49.350          47.550
 109234548.413 8  85117798.29647                  20786637.860
  20786632.120          50.150          46.700
 106784912.310 8  83209049.847 8  79742015.867 8  20320478.520    20320477.860
  20320477.380          50.250          49.900
 116124815.710 8  90486884.31246                  22097813.400
  22097811.800          48.100          41.300
 106232445.563 8  82778491.78248                  20215364.540
  20215360.660          48.600          48.400
 137279988.711 6 106971415.03545                  26123518.760
  26123520.540          36.800          30.350
 126488225.857 7  98562250.077 6  94455474.428 7  24069921.260    24069925.180
  24069924.980          45.650          41.700
 111481742.034 8  86708013.793 7                  20833039.760    20833043.340
  20833041.960          48.950          45.600
 108002261.909 8  84001774.750 7                  20239580.320    20239585.020
  20239584.260          49.250          46.300
 116719586.470 7  90781932.739 6                  21850150.220    21850156.900
  21850156.480          43.650          41.000
 127629206.378 5  99267234.954 6                  23900840.160    23900852.980
  23900851.680          35.800          38.500
 128825549.806 7 100197647.808 5                  24082577.680    24082582.620
  24082580.980          43.600          34.300
 110734932.823 7  86127197.005 7                  20686209.500    20686211.820
  20686210.460          47.250          46.150
 109471111.544 8  85144210.790 7                  20507628.460    20507633.740
  20507633.140          49.000          46.700
 121125103.504 7  94208448.801 6                  22666898.600    22666906.260
  22666904.580          44.950          36.600
 131323541.886 7 102140568.888 5                  24523742.520    24523750.760
  24523747.860          42.300          32.650
 126645509.899 7  98502054.484 5                  23691671.180    23691678.880
  23691678.840          43.050          33.250
 15  1 27 11  4 20.0000000  0 22G06G07G08G02G17G03G23G09G10G20G32G01
                                R17R02R12R13R19R03R18R11R04R01
 110932479.302 8  86440897.387 8  82839191.359 8  21109747.040    21109748.100
  21109747.340          49.800          49.200
 123875665.598 7  96526550.176 7                  23572740.840    23572741.520
  23572740.920          47.900          43.100
 126300425.666 7  98415936.97146                  24034163.160
  24034162.800          46.400          38.700
 129714852.328 7 101076501.94046                  24683915.600
  24683912.160          44.750          36.550
 120521644.767 8  93912913.837 7                  22934520.200    22934519.820
  22934519.320          48.300          44.400
 116379140.356 8  90685036.936 7  86906495.455 8  22146217.660    22146218.840
  22146218.080          49.300          47.400
 109240495.905 8  85122432.70347                  20787769.620
  20787763.880          50.350          46.650
 106781398.623 8  83206311.905 8  79739392.015 8  20319809.880    20319809.220
  20319808.740          50.400          49.950
 116112736.701 8  90477472.10646                  22095514.800
  22095513.240          48.350          41.750
 106231254.015 8  82777563.29748                  20215137.800
  20215133.920          48.700          48.600
 137293838.407 6 106982206.97544                  26126154.220
  26126156.080          37.650          29.200
 126505795.540 7  98575940.711 7  94468594.647 7  24073264.740    24073268.620
  24073268.440          46.200          42.000
 111498393.768 8  86720965.121 7                  20836151.560    20836155.160
  20836153.760          49.200          45.900
 108008816.983 8  84006873.138 7                  20240808.720    20240813.400
  20240812.660          49.200          46.250
 116707807.531 7  90772771.343 6                  21847945.180    21847951.820
  21847951.440          43.750          41.000
 127608274.782 5  99250954.942 6                  23896920.280    23896933.040
  23896931.860          35.800          38.400
 128806402.341 7 100182755.334 5                  24078998.260    24079003.140
  24079001.460          43.250          35.000
 110727669.598 7  86121547.834 7                  20684852.600    20684855.000
  20684853.620          47.150          46.400
 109468657.562 8  85142302.129 7                  20507168.740    20507174.020
  20507173.400          48.900          46.650
 121131837.567 7  94213686.396 6                  22668158.820    22668166.420
  22668164.740          44.800          37.150
 131309288.654 6 102129483.089 5                  24521080.640    24521089.220
  24521086.580          38.750          33.850
 126660079.774 6  98513386.587 5                  23694396.700    23694404.580
  23694404.520          41.650          33.650
 15  1 27 11  4 25.0000000  0 22G06G07G08G02G17G03G23G09G10G20G32G01
                                R17R02R12R13R19R03R18R11R04R01
 110922997.655 8  86433509.103 8  82832110.910 8  21107942.760    21107943.780
  21107943.020          49.700          49.150
 123858948.198 7  96513523.630 7                  23569559.620    23569560.260
  23569559.680          47.550          42.900
 126306505.172 7  98420674.24046                  24035320.060
  24035319.720          46.250          38.700
 129697732.103 7 101063161.53046                  24680657.700
  24680654.280          44.100          37.050
 120534716.836 8  93923099.865 7                  22937007.780    22937007.380
  22937006.880          48.350          44.250
 116389549.220 8  90693147.735 7  86914268.294 8  22148198.440    22148199.580
  22148198.920          48.950          47.350
 109246453.360 8  85127074.87747                  20788903.280
  20788897.520          50.150          46.700
 106777897.484 8  83203583.755 8  79736777.533 8  20319143.640    20319142.960
  20319142.500          50.200          49.850
 116100661.972 8  90468063.24046                  22093217.060
  22093215.540          48.150          41.750
 106230070.071 8  82776640.74348                  20214912.500
  20214908.620          48.450          48.350
 137307686.862 6 106992998.03545                  26128789.360
  26128791.480          36.550          32.400
 126523368.791 7  98589634.135 7  94481717.496 8  24076608.880    24076612.800
  24076612.600          45.900          42.850
 111515059.541 8  86733927.376 7                  20839266.000    20839269.540
  20839268.200          49.000          45.650
 108015376.955 8  84011975.345 7                  20242038.080    20242042.740
  20242041.980          49.100          46.250
 116696044.290 7  90763622.146 6                  21845743.140    21845749.700
  21845749.340          43.100          41.050
 127587341.886 6  99234673.927 6                  23893000.140    23893012.940
  23893011.800          37.350          38.600
 128787263.703 7 100167869.743 5                  24075420.460    24075425.240
  24075423.640          43.000          35.650
 110720412.221 7  86115903.231 7                  20683496.800    20683499.280
  20683497.900          47.050          46.300
 109466225.672 8  85140410.667 7                  20506713.200    20506718.460
  20506717.840          49.100          46.800
 121138591.812 7  94218939.717 6                  22669422.780    22669430.400
  22669428.660          44.900          37.250
 131295036.734 6 102118398.262 5                  24518418.980    24518427.840
  24518425.660          36.900          34.850
 126674648.452 7  98524717.758 5                  23697122.020    23697130.120
  23697129.960          43.100          34.600
 15  1 27 11  4 30.0000000  0 22G06G07G08G02G17G03G23G09G10G20G32G01
                                R17R02R12R13R19R03R18R11R04R01
 110913528.911 8  86426130.865 8  82825040.101 8  21106140.940    21106141.940
  21106141.180          49.650          49.200
 123842234.442 7  96500499.926 7                  23566379.060    23566379.700
  23566379.160          47.850          43.000
 126312599.736 7  98425423.25546                  24036479.800
  24036479.460          46.300          38.000
 129680614.579 7 101049823.22445                  24677400.340
  24677396.880          44.150          35.050
 120547798.002 8  93933292.971 7                  22939497.060    22939496.580
  22939496.160          48.250          44.500
 116399963.739 8  90701262.936 7  86922045.364 8  22150180.260    22150181.420
  22150180.840          48.700          47.400
 109252422.344 8  85131726.03647                  20790039.120
  20790033.380          50.000          46.800
 106774410.490 8  83200866.620 8  79734173.614 8  20318480.100    20318479.400
  20318478.940          50.100          49.900
 116088593.139 8  90458658.95947                  22090920.440
  22090918.880          48.300          42.250
 106228895.319 8  82775725.35248                  20214688.940
  20214685.060          48.450          48.400
 137321535.686 5 107003789.33645                  26131424.480
  26131427.240          35.550          33.850
 126540947.205 7  98603331.553 7  94494844.195 8  24079953.960    24079957.940
  24079957.780          45.600          42.850
 111531740.741 8  86746901.624 7                  20842383.320    20842386.840
  20842385.500          49.300          46.000
 108021943.486 8  84017082.643 7                  20243268.680    20243273.320
  20243272.520          49.400          46.350
 116684298.401 7  90754486.451 6                  21843544.300    21843550.860
  21843550.500          43.800          41.150
 127566409.553 6  99218393.321 6                  23889080.240    23889092.920
  23889091.820          38.000          38.950
 128768135.255 7 100152992.069 6                  24071844.620    24071849.400
  24071847.760          42.950          36.700
 110713162.360 7  86110264.454 7                  20682142.440    20682144.920
  20682143.580          47.250          46.550
 109463817.584 8  85138537.712 7                  20506262.080    20506267.340
  20506266.740          49.050          46.950
 121145367.839 7  94224209.962 6                  22670690.860    22670698.300
  22670696.720          44.750          37.600
 131280787.853 6 102107315.745 5                  24515758.080    24515766.800
  24515765.080          39.300          35.150
 126689217.729 7  98536049.386 5                  23699847.460    23699855.680
  23699855.540          42.750          33.000
 15  1 27 11  4 35.0000000  0 22G06G07G08G02G17G03G23G09G10G20G32G01
                                R17R02R12R13R19R03R18R11R04R01
 110904070.804 8  86418760.917 8  82817977.233 8  21104341.160    21104342.140
  21104341.340          49.800          49.200
 123825522.010 8  96487477.254 7                  23563198.800    23563199.460
  23563198.900          48.050          43.050
 126318707.057 7  98430182.20046                  24037641.960
  24037641.620          46.300          38.300
 129663497.510 7 101036485.26045                  24674143.000
  24674139.620          44.800          35.300
 120560885.959 8  93943491.369 7                  22941987.620    22941987.160
  22941986.720          48.150          44.300
 116410381.631 8  90709380.764 7  86929824.949 8  22152162.720    22152163.900
  22152163.380          48.950          47.350
 109258400.562 8  85136384.38847                  20791176.740
  20791171.000          50.200          46.650
 106770935.356 8  83198158.734 8  79731578.556 8  20317818.820    20317818.100
  20317817.620          50.050          49.850
 116076527.888 8  90449257.46746                  22088624.500
  22088622.940          48.100          41.900
 106227727.511 8  82774815.37348                  20214466.740
  20214462.840          48.550          48.450
 137335382.363 6 107014578.88945                  26134059.280
  26134062.080          37.100          32.650
 126558528.496 7  98617031.216 7  94507973.036 8  24083299.600    24083303.620
  24083303.480          45.600          42.400
 111548435.119 8  86759886.132 7                  20845503.100    20845506.600
  20845505.260          49.350          45.950
 108028514.222 8  84022193.215 7                  20244500.020    20244504.680
  20244503.880          49.150          46.700
 116672567.541 7  90745362.453 6                  21841348.280    21841354.800
  21841354.460          43.700          41.350
 127545475.300 6  99202111.226 6                  23885159.900    23885172.440
  23885171.380          38.550          39.400
 128749014.976 7 100138120.735 6                  24068270.240    24068275.100
  24068273.420          42.900          36.300
 110705917.715 7  86104629.738 7                  20680789.060    20680791.580
  20680790.220          47.050          46.700
 109461430.915 8  85136681.429 7                  20505815.000    20505820.220
  20505819.660          49.100          47.050
 121152163.431 7  94229495.425 6                  22671962.600    22671970.020
  22671968.440          44.400          37.650
 131266539.417 6 102096233.703 5                  24513097.360    24513105.880
  24513104.400          41.100          34.050
 126703785.148 7  98547379.574 5                  23702572.540    23702581.080
  23702580.680          42.150          32.950
 15  1 27 11  4 40.0000000  0 22G06G07G08G02G17G03G23G09G10G20G32G01
                                R17R02R12R13R19R03R18R11R04R01
 110894624.541 8  86411400.187 8  82810923.205 8  21102543.620    21102544.560
  21102543.760          49.950          49.350
 123808812.135 8  96474456.568 7                  23560019.000    23560019.660
  23560019.100          48.050          43.100
 126324828.332 7  98434952.01146                  24038806.820
  24038806.500          46.450          37.900
 129646382.132 7 101023148.60846                  24670886.020
  24670882.600          45.300          37.000
 120573981.873 8  93953695.956 7                  22944479.700    22944479.220
  22944478.800          48.250          44.350
 116420804.101 8  90717502.155 7  86937607.948 8  22154146.040    22154147.260
  22154146.780          48.900          47.600
 109264389.185 8  85141050.85147                  20792316.340
  20792310.600          50.300          46.600
 106767473.283 8  83195461.015 8  79728993.242 8  20317160.040    20317159.260
  20317158.800          50.200          49.950
 116064467.450 8  90439859.73347                  22086329.500
  22086327.920          48.250          42.450
 106226567.814 8  82773911.70548                  20214246.040
  20214242.160          48.650          48.450
 137349228.396 6 107025368.09244                  26136693.940
  26136697.020          38.750          28.400
 126576113.855 7  98630734.064 7  94521104.899 8  24086645.960    24086650.100
  24086649.920          45.600          42.400
 111565143.838 8  86772881.800 7                  20848625.560    20848629.040
  20848627.680          49.250          46.150
 108035090.307 8  84027307.946 7                  20245732.380    20245737.040
  20245736.260          49.300          46.750
 116660852.809 7  90736250.992 6                  21839155.260    21839161.800
  21839161.440          43.700          41.400
 127524540.396 6  99185828.604 6                  23881239.460    23881251.980
  23881250.780          38.300          38.750
 128729903.857 7 100123256.531 5                  24064697.560    24064702.480
  24064700.800          42.300          35.800
 110698679.628 7  86099000.115 7                  20679436.880    20679439.440
  20679438.120          47.300          46.650
 109459066.952 8  85134842.784 7                  20505372.180    20505377.380
  20505376.820          48.950          46.850
 121158979.728 7  94234796.989 6                  22673238.220    22673245.560
  22673244.040          44.700          37.000
 131252292.868 6 102085153.141 5                  24510436.960    24510445.400
  24510443.280          41.600          33.250
 126718351.955 7  98558709.271 5                  23705297.520    23705305.940
  23705305.660          44.100          33.400
 15  1 27 11  4 45.0000000  0 22G06G07G08G02G17G03G23G09G10G20G32G01
                                R17R02R12R13R19R03R18R11R04R01
 110885191.684 8  86404049.913 8  82803879.189 8  21100748.620    21100749.540
  21100748.760          50.050          49.350
 123792106.396 8  96461439.113 7                  23556839.980    23556840.680
  23556840.120          48.250          43.050
 126330965.092 7  98439733.90746                  24039974.640
  24039974.360          46.700          38.100
 129629269.974 7 101009814.46545                  24667629.640
  24667626.260          45.600          35.850
 120587087.267 8  93963907.939 7                  22946973.600    22946973.120
  22946972.680          48.300          44.000
 116431232.685 8  90725628.305 7  86945395.513 8  22156130.520    22156131.760
  22156131.320          48.950          47.300
 109270389.776 8  85145726.64247                  20793458.200
  20793452.460          50.400          46.650
 106764025.796 8  83192774.664 8  79726418.824 8  20316504.040    20316503.220
  20316502.740          50.400          49.950
 116052413.358 8  90430466.94846                  22084035.680
  22084034.080          48.300          41.950
 106225417.731 8  82773015.54548                  20214027.200
  20214023.320          48.800          48.450
 137363075.178 6 107036157.75945                  26139328.800
  26139331.940          39.850          34.000
 126593704.779 7  98644441.249 7  94534240.939 8  24089993.400    24089997.560
  24089997.320          45.950          42.050
 111581868.559 8  86785889.908 7                  20851750.980    20851754.440
  20851753.120          48.950          46.100
 108041673.513 8  84032428.224 7                  20246966.100    20246970.740
  20246969.980          49.100          46.550
 116649155.873 7  90727153.375 6                  21836965.560    21836972.100
  21836971.740          43.800          41.250
 127503606.279 6  99169546.613 6                  23877319.060    23877331.520
  23877330.360          36.650          38.650
 128710803.670 6 100108400.840 5                  24061126.860    24061131.840
  24061130.240          41.650          35.350
 110691449.519 7  86093376.704 7                  20678086.220    20678088.800
  20678087.460          47.250          46.450
 109456727.311 8  85133023.068 7                  20504933.920    20504939.140
  20504938.500          48.800          46.800
 121165818.276 7  94240115.864 6                  22674518.020    22674525.400
  22674523.780          44.050          36.800
 131238049.612 6 102074075.147 6                  24507777.080    24507785.520
  24507783.200          41.300          36.650
 126732919.639 7  98570039.717 5                  23708022.820    23708031.000
  23708030.820          44.000          33.200
 15  1 27 11  4 50.0000000  0 22G06G07G08G02G17G03G23G09G10G20G32G01
                                R17R02R12R13R19R03R18R11R04R01
 110875770.698 8  86396708.893 8  82796844.047 8  21098955.880    21098956.780
  21098956.020          50.050          49.450
 123775403.284 8  96448423.707 7                  23553661.460    23553662.220
  23553661.620          48.350          43.050
 126337115.822 7  98444526.67446                  24041145.100
  24041144.800          46.750          37.700
 129612159.497 7 100996481.63446                  24664373.620
  24664370.220          45.250          37.500
 120600200.643 8  93974126.148 7                  22949469.000    22949468.500
  22949468.080          48.350          44.250
 116441665.848 8  90733758.035 7  86953186.508 8  22158115.840    22158117.160
  22158116.740          49.100          47.350
 109276400.766 8  85150410.53547                  20794602.060
  20794596.320          50.500          46.600
 106760591.381 8  83190098.500 8  79723854.175 8  20315850.520    20315849.680
  20315849.180          50.550          50.000
 116040364.145 8  90421077.95546                  22081742.780
  22081741.140          48.450          41.600
 106224275.817 8  82772125.74248                  20213809.900
  20213806.020          48.900          48.250
 137376921.211 6 107046946.82545                  26141963.500
  26141966.740          40.100          33.450
 126611299.767 7  98658151.607 6  94547380.019 8  24093341.680    24093345.760
  24093345.480          46.100          41.900
 111598607.494 8  86798909.061 7                  20854879.100    20854882.500
  20854881.200          49.200          46.000
 108048262.055 8  84037552.645 7                  20248200.780    20248205.420
  20248204.720          48.750          46.600
 116637475.346 7  90718068.513 6                  21834778.920    21834785.500
  21834785.140          43.700          41.100
 127482671.746 6  99153264.313 6                  23873398.640    23873410.960
  23873409.820          36.900          37.850
 128691712.758 6 100093552.368 5                  24057557.900    24057562.940
  24057561.420          41.950          35.350
 110684225.869 7  86087758.324 7                  20676736.760    20676739.340
  20676738.020          47.550          46.250
 109454410.302 8  85131220.954 7                  20504499.920    20504505.060
  20504504.420          49.100          46.400
 121172677.531 7  94245450.842 6                  22675801.620    22675808.960
  22675807.420          44.250          36.700
 131223808.159 6 102062998.480 6                  24505117.560    24505126.080
  24505124.200          41.400          37.350
 126747486.694 7  98581369.642 5                  23710747.860    23710756.140
  23710755.940          42.300          34.350
 15  1 27 11  4 55.0000000  0 22G06G07G08G02G17G03G23G09G10G20G32G01
                                R17R02R12R13R19R03R18R11R04R01
 110866360.417 8  86389376.211 8  82789816.893 8  21097165.160    21097166.060
  21097165.320          49.950          49.400
 123758701.591 8  96435409.405 7                  23550483.220    23550483.980
  23550483.380          48.300          43.000
 126343279.298 7  98449329.38746                  24042317.980
  24042317.640          46.750          37.700
 129595049.556 7 100983149.23146                  24661117.680
  24661114.340          44.950          37.250
 120613320.761 8  93984349.600 7                  22951965.700    22951965.200
  22951964.760          48.050          44.100
 116452102.412 8  90741890.414 7  86960980.038 8  22160101.820    22160103.180
  22160102.740          49.050          47.050
 109282420.995 8  85155101.62347                  20795747.660
  20795741.920          50.400          46.400
 106757168.847 8  83187431.595 8  79721298.389 8  20315199.260    20315198.380
  20315197.880          50.550          49.950
 116028318.558 8  90411691.79646                  22079450.580
  22079448.880          48.600          41.750
 106223140.847 8  82771241.34648                  20213593.900
  20213590.060          48.800          48.250
 137390765.232 6 107057734.39645                  26144597.940
  26144601.260          41.150          34.900
 126628897.649 7  98671864.228 7  94560521.259 8  24096690.500    24096694.500
  24096694.180          46.000          42.200
 111615359.584 8  86811938.456 7                  20858009.620    20858013.060
  20858011.760          49.050          45.950
 108054854.848 8  84042680.375 7                  20249436.260    20249440.920
  20249440.240          48.900          46.350
 116625809.841 7  90708995.343 6                  21832595.120    21832601.660
  21832601.340          43.700          40.950
 127461735.611 6  99136980.745 6                  23869477.960    23869490.160
  23869488.980          37.300          38.400
 128672630.007 6 100078710.239 6                  24053990.580    24053995.640
  24053994.100          41.850          36.000
 110677007.439 7  86082143.987 7                  20675388.300    20675390.860
  20675389.560          47.550          46.200
 109452114.882 8  85129435.631 7                  20504069.920    20504075.040
  20504074.400          49.300          46.450
 121179556.189 7  94250800.909 6                  22677088.780    22677096.140
  22677094.640          43.850          36.250
 131209567.377 6 102051922.338 6                  24502458.140    24502466.800
  24502465.440          41.400          37.250
 126762052.076 7  98592698.194 5                  23713472.540    23713480.820
  23713480.780          42.750          33.650
 15  1 27 11  5  0.0000000  0 22G06G07G08G02G17G03G23G09G10G20G32G01
                                R17R02R12R13R19R03R18R11R04R01
 110856962.346 8  86382053.055 8  82782798.868 8  21095376.800    21095377.700
  21095376.920          49.850          49.350
 123742002.857 7  96422397.417 7                  23547305.540    23547306.320
  23547305.680          47.900          42.700
 126349457.026 7  98454143.19646                  24043493.600
  24043493.180          46.550          38.350
 129577941.615 7 100969818.39246                  24657862.080
  24657858.840          44.600          37.050
 120626449.156 8  93994579.515 7                  22954463.940    22954463.440
  22954463.000          48.000          43.900
 116462543.878 8  90750026.621 7  86968777.237 8  22162088.740    22162090.120
  22162089.680          48.750          46.750
 109288451.932 8  85159801.05847                  20796895.300
  20796889.580          50.100          46.550
 106753759.682 8  83184775.113 8  79718752.598 8  20314550.560    20314549.660
  20314549.120          50.350          50.100
 116016278.126 8  90402309.65347                  22077159.360
  22077157.620          48.400          42.000
 106222014.323 8  82770363.54548                  20213379.520
  20213375.680          48.700          48.400
 137404608.861 7 107068521.66145                  26147232.400
  26147235.640          42.250          34.250
 126646499.850 7  98685580.204 7  94573665.754 7  24100040.160    24100044.100
  24100043.780          46.000          42.450
 111632126.267 8  86824979.208 7                  20861142.860    20861146.340
  20861145.060          48.650          45.800
 108061453.337 8  84047812.535 7                  20250672.820    20250677.440
  20250676.820          48.950          46.350
 116614160.949 7  90699935.098 6                  21830414.420    21830420.960
  21830420.640          43.900          41.200
 127440798.980 5  99120696.802 6                  23865557.100    23865569.360
  23865568.080          35.800          38.200
 128653557.016 7 100063875.705 6                  24050425.040    24050430.240
  24050428.580          42.100          36.000
 110669795.863 7  86076535.000 7                  20674041.120    20674043.680
  20674042.380          47.250          46.250
 109449842.469 8  85127668.209 7                  20503644.260    20503649.360
  20503648.700          49.150          46.750
 121186455.823 7  94256167.302 6                  22678379.920    22678387.300
  22678385.740          44.250          36.050
 131195328.773 6 102040847.909 6                  24499799.180    24499807.840
  24499806.860          40.650          36.000
 126776617.138 7  98604026.553 5                  23716197.280    23716205.620
  23716205.440          43.100          32.850
 15  1 27 11  5  5.0000000  0 22G06G07G08G02G17G03G23G09G10G20G32G01
                                R17R02R12R13R19R03R18R11R04R01
 110847575.838 8  86374738.899 8  82775789.469 8  21093590.620    21093591.500
  21093590.720          50.000          49.200
 123725306.442 7  96409387.217 7                  23544128.280    23544129.060
  23544128.440          47.650          42.600
 126355648.361 7  98458967.61246                  24044671.800
  24044671.320          46.700          37.350
 129560835.050 7 100956488.61846                  24654606.760
  24654603.520          44.550          36.400
 120639585.139 8  94004815.335 7                  22956963.680    22956963.140
  22956962.720          48.350          43.900
 116472989.570 8  90758166.109 7  86976577.581 8  22164076.460    22164077.860
  22164077.380          48.850          46.950
 109294492.955 8  85164508.34247                  20798044.860
  20798039.140          50.250          46.850
 106750363.256 8  83182128.547 8  79716216.309 8  20313904.280    20313903.340
  20313902.820          50.400          50.000
 116004242.177 8  90392931.00046                  22074869.000
  22074867.240          48.550          41.850
 106220895.589 8  82769491.80648                  20213166.640
  20213162.780          48.700          48.100
 137418451.262 7 107079307.97145                  26149866.620
  26149869.780          43.650          34.000
 126664105.745 7  98699299.051 7  94586812.996 7  24103390.520    24103394.460
  24103394.140          46.050          42.750
 111648907.013 8  86838030.882 7                  20864278.740    20864282.220
  20864280.960          48.250          45.850
 108068056.853 8  84052948.599 7                  20251910.300    20251914.920
  20251914.340          48.850          46.450
 116602528.072 7  90690887.304 6                  21828236.680    21828243.340
  21828243.000          44.100          41.550
 127419861.552 6  99104412.243 6                  23861636.080    23861648.400
  23861647.040          37.000          38.900
 128634492.976 6 100049048.106 5                  24046861.180    24046866.440
  24046864.720          41.650          35.700
 110662590.253 7  86070930.636 7                  20672695.060    20672697.600
  20672696.300          47.150          46.250
 109447592.417 8  85125918.169 7                  20503222.780    20503227.860
  20503227.200          49.000          46.650
 121193375.918 7  94261549.594 5                  22679674.940    22679682.300
  22679680.700          44.250          35.850
 131181091.394 6 102029774.411 5                  24497140.400    24497148.940
  24497147.900          39.600          33.950
 126791181.230 7  98615354.202 5                  23718921.780    23718930.020
  23718929.880          42.700          33.400
 15  1 27 11  5 10.0000000  0 22G06G07G08G02G17G03G23G09G10G20G32G01
                                R17R02R12R13R19R03R18R11R04R01
 110838200.999 8  86367433.826 8  82768788.772 8  21091806.660    21091807.540
  21091806.760          49.900          49.300
 123708612.395 7  96396378.873 7                  23540951.480    23540952.240
  23540951.660          47.700          42.900
 126361853.368 7  98463802.67846                  24045852.580
  24045852.040          46.400          37.200
 129543729.988 7 100943160.01746                  24651351.740
  24651348.540          44.700          37.000
 120652728.771 8  94015057.112 7                  22959464.860    22959464.300
  22959463.880          48.050          44.050
 116483439.599 8  90766308.971 7  86984381.155 8  22166065.020    22166066.440
  22166065.900          48.500          46.950
 109300544.094 8  85169223.51647                  20799196.340
  20799190.620          50.300          46.800
 106746979.638 8  83179491.960 8  79713689.572 8  20313260.420    20313259.440
  20313258.920          50.550          50.000
 115992210.799 8  90383555.90746                  22072579.520
  22072577.700          48.400          41.850
 106219784.748 8  82768626.21248                  20212955.260
  20212951.400          48.650          48.600
 137432292.658 7 107090093.48045                  26152500.600
  26152503.640          43.800          32.250
 126681715.416 7  98713020.842 7  94599963.047 8  24106741.600    24106745.540
  24106745.280          45.550          42.850
 111665701.614 8  86851093.331 7                  20867417.200    20867420.720
  20867419.460          48.150          45.900
 108074665.523 8  84058088.672 7                  20253148.760    20253153.400
  20253152.840          48.750          46.550
 116590911.325 7  90681852.052 6                  21826062.020    21826068.680
  21826068.340          43.950          41.200
 127398923.425 6  99088127.139 6                  23857714.940    23857727.300
  23857725.940          36.800          39.050
 128615438.047 7 100034227.605 6                  24043299.080    24043304.360
  24043302.540          42.000          36.600
 110655390.890 7  86065331.128 7                  20671350.160    20671352.660
  20671351.400          47.150          46.200
 109445364.764 8  85124185.546 7                  20502805.500    20502810.520
  20502809.880          48.850          46.650
 121200316.405 7  94266947.742 5                  22680973.760    22680981.000
  22680979.480          44.800          35.600
 131166855.737 6 102018702.296 5                  24494481.880    24494490.220
  24494488.600          39.450          30.800
 126805744.463 7  98626681.141 5                  23721646.160    23721654.340
  23721654.240          42.600          33.800
 15  1 27 11  5 15.0000000  0 22G06G07G08G02G17G03G23G09G10G20G32G01
                                R17R02R12R13R19R03R18R11R04R01
 110828838.691 8  86360138.527 8  82761797.446 8  21090025.080    21090025.920
  21090025.180          49.950          49.250
 123691921.714 8  96383373.150 7                  23537775.360    23537776.100
  23537775.520          48.050          42.650
 126368072.878 7  98468649.04746                  24047036.140
  24047035.560          46.400          37.900
 129526627.213 7 100929833.18746                  24648097.160
  24648094.100          44.750          36.850
 120665880.882 7  94025305.496 7                  22961967.640    22961967.080
  22961966.680          47.850          43.800
 116493894.792 8  90774455.866 7  86992188.596 8  22168054.560    22168055.980
  22168055.360          48.950          46.550
 109306606.216 8  85173947.25847                  20800349.920
  20800344.200          50.300          46.400
 106743609.634 8  83176865.986 8  79711173.028 8  20312619.180    20312618.160
  20312617.640          50.650          49.900
 115980184.869 8  90374185.06046                  22070291.100
  22070289.200          48.400          41.800
 106218682.622 8  82767767.41948                  20212745.520
  20212741.660          48.750          48.300
 137446133.830 7 107100878.87545                  26155134.560
  26155137.480          43.150          30.850
 126699329.681 7  98726746.209 7  94613116.521 8  24110093.480    24110097.540
  24110097.220          45.000          43.100
 111682511.088 8  86864167.364 7                  20870558.480    20870562.000
  20870560.740          48.600          45.900
 108081280.235 8  84063233.443 7                  20254388.340    20254393.000
  20254392.440          48.750          46.350
 116579311.567 7  90672830.014 6                  21823890.540    21823897.200
  21823896.900          44.000          41.600
 127377985.443 6  99071842.158 6                  23853793.920    23853806.180
  23853804.800          37.500          38.800
 128596393.225 6 100019414.968 6                  24039738.860    24039744.020
  24039742.260          41.950          36.950
 110648198.475 7  86059737.044 7                  20670006.520    20670009.040
  20670007.820          47.050          46.350
 109443160.476 8  85122471.112 7                  20502392.620    20502397.580
  20502396.940          48.850          46.700
 121207278.093 7  94272362.403 6                  22682276.540    22682283.780
  22682282.260          44.800          36.250
 131152622.314 6 102007631.968 5                  24491823.960    24491832.220
  24491829.720          41.950          34.050
 126820307.646 7  98638008.007 5                  23724370.420    23724378.680
  23724378.700          42.750          33.800
 15  1 27 11  5 20.0000000  0 22G06G07G08G02G17G03G23G09G10G20G32G01
                                R17R02R12R13R19R03R18R11R04R01
 110819489.234 8  86352853.240 8  82754815.718 8  21088245.940    21088246.780
  21088246.020          49.900          49.150
 123675234.709 7  96370370.278 7                  23534599.940    23534600.700
  23534600.080          47.800          42.800
 126374307.240 7  98473506.98546                  24048222.480
  24048221.980          46.600          36.550
 129509527.146 7 100916508.48246                  24644843.060
  24644840.060          44.800          36.350
 120679041.800 7  94035560.747 7                  22964472.100    22964471.500
  22964471.160          47.750          43.850
 116504355.489 8  90782607.067 7  87000000.148 8  22170045.180    22170046.560
  22170045.900          49.000          46.400
 109312679.655 8  85178679.81247                  20801505.640
  20801499.940          50.300          46.600
 106740253.632 8  83174250.930 8  79708666.930 8  20311980.580    20311979.520
  20311979.020          50.700          49.850
 115968164.695 8  90364818.69947                  22068003.740
  22068001.800          48.400          42.150
 106217589.567 8  82766915.69147                  20212537.520
  20212533.660          48.850          47.900
 137459975.105 7 107111664.30645                  26157768.520
  26157771.320          42.600          32.500
 126716948.892 7  98740475.416 7  94626273.667 8  24113446.240    24113450.420
  24113450.120          44.750          42.850
 111699335.652 8  86877253.138 7                  20873702.580    20873706.120
  20873704.820          48.350          45.850
 108087901.258 8  84068383.118 7                  20255629.080    20255633.780
  20255633.200          49.050          46.600
 116567729.114 7  90663821.452 6                  21821722.320    21821728.960
  21821728.680          43.700          41.250
 127357047.783 6  99055557.403 6                  23849872.880    23849885.160
  23849883.680          37.250          38.700
 128577358.784 6 100004610.417 6                  24036180.540    24036185.760
  24036183.900          41.900          36.900
 110641013.562 7  86054148.787 7                  20668664.280    20668666.820
  20668665.640          46.950          46.400
 109440979.864 8  85120775.089 7                  20501984.140    20501989.080
  20501988.440          49.050          46.650
 121214261.308 7  94277793.784 6                  22683583.380    22683590.700
  22683589.100          45.200          36.200
 131138391.591 7 101996563.653 6                  24489166.600    24489174.480
  24489172.360          43.050          36.100
 126834871.229 7  98649335.199 5                  23727094.900    23727103.020
  23727103.140          44.050          32.100
 15  1 27 11  5 25.0000000  0 22G06G07G08G02G17G03G23G09G10G20G32G01
                                R17R02R12R13R19R03R18R11R04R01
 110810151.065 8  86345576.748 8  82747842.412 8  21086468.940    21086469.820
  21086469.020          49.900          49.150
 123658549.664 8  96357368.949 7                  23531424.860    23531425.600
  23531425.020          48.050          42.950
 126380554.854 7  98478375.25046                  24049411.340
  24049410.920          46.650          36.950
 129492428.204 7 100903184.63346                  24641589.220
  24641586.260          44.800          36.250
 120692209.874 7  94045821.571 7                  22966977.940    22966977.340
  22966977.000          47.750          44.000
 116514820.096 8  90790761.296 7  87007814.623 8  22172036.540    22172037.900
  22172037.180          49.000          46.650
 109318762.816 8  85183419.93947                  20802663.220
  20802657.500          50.300          46.450
 106736910.010 8  83171645.521 8  79706170.084 8  20311344.340    20311343.260
  20311342.760          50.750          49.950
 115956148.699 8  90355455.59746                  22065717.200
  22065715.200          48.700          41.800
 106216504.000 8  82766069.79547                  20212330.920
  20212327.080          48.900          47.900
 137473815.027 6 107122448.63045                  26160402.220
  26160404.840          41.900          31.600
 126734571.415 7  98754207.203 7  94639433.294 8  24116799.660    24116803.920
  24116803.700          44.950          42.650
 111716173.771 8  86890349.443 7                  20876849.200    20876852.720
  20876851.440          48.300          45.650
 108094527.095 8  84073536.534 7                  20256870.760    20256875.420
  20256874.860          48.950          46.450
 116556162.342 7  90654825.076 6                  21819557.000    21819563.620
  21819563.360          43.750          41.150
 127336109.229 6  99039271.952 6                  23845951.660    23845963.920
  23845962.400          37.600          39.100
 128558333.038 6  99989812.623 6                  24032623.820    24032629.080
  24032627.180          40.800          37.150
 110633834.260 7  86048564.889 7                  20667323.060    20667325.700
  20667324.500          46.850          46.650
 109438821.288 8  85119096.203 7                  20501579.800    20501584.720
  20501584.060          49.400          46.850
 121221264.509 7  94283240.716 6                  22684893.940    22684901.300
  22684899.720          45.500          36.300
 131124161.980 6 101985496.251 6                  24486509.380    24486517.300
  24486515.780          41.250          36.400
 126849433.485 7  98660661.424 5                  23729819.160    23729827.140
  23729827.180          44.100          32.050
 15  1 27 11  5 30.0000000  0 22G06G07G08G02G17G03G23G09G10G20G32G01
                                R17R02R12R13R19R03R18R11R04R01
 110800825.377 8  86338309.980 8  82740878.426 8  21084694.320    21084695.180
  21084694.400          49.900          49.250
 123641867.856 8  96344370.139 7                  23528250.420    23528251.180
  23528250.560          48.050          43.050
 126386816.909 7  98483254.76346                  24050602.940
  24050602.600          46.400          38.400
 129475331.556 7 100889862.57445                  24638335.800
  24638332.880          44.550          35.150
 120705386.310 7  94056088.903 7                  22969485.340    22969484.760
  22969484.460          47.850          44.000
 116525289.795 8  90798919.488 7  87015632.893 8  22174028.940    22174030.180
  22174029.420          49.300          46.400
 109324856.868 8  85188168.54747                  20803822.880
  20803817.140          50.150          46.350
 106733579.952 8  83169050.672 8  79703683.352 8  20310710.680    20310709.580
  20310709.080          50.550          50.000
 115944138.074 8  90346096.67347                  22063431.700
  22063429.640          48.750          42.350
 106215427.088 8  82765230.64148                  20212126.000
  20212122.140          48.850          48.350
 137487654.735 6 107133232.88245                  26163035.820
  26163038.360          39.550          32.850
 126752198.456 7  98767942.535 7  94652596.284 8  24120154.000    24120158.300
  24120158.020          45.100          42.250
 111733026.595 8  86903457.178 7                  20879998.600    20880002.040
  20880000.800          48.450          45.650
 108101158.736 8  84078694.479 7                  20258113.560    20258118.160
  20258117.620          48.950          46.300
 116544612.607 7  90645841.936 6                  21817394.840    21817401.480
  21817401.180          43.750          41.350
 127315170.672 6  99022986.516 6                  23842030.380    23842042.700
  23842041.180          37.150          39.050
 128539317.305 6  99975022.613 6                  24029069.020    24029074.340
  24029072.340          40.800          37.150
 110626662.040 7  86042986.500 7                  20665983.200    20665985.840
  20665984.680          46.750          46.400
 109436685.992 8  85117435.408 7                  20501179.800    20501184.680
  20501184.040          49.200          46.800
 121228288.860 7  94288704.088 6                  22686208.460    22686215.840
  22686214.300          44.650          36.200
 131109934.768 6 101974430.629 5                  24483852.420    24483860.600
  24483859.660          39.050          34.750
 126863995.574 7  98671987.486 5                  23732543.380    23732551.340
  23732551.300          43.100          33.000
 15  1 27 11  5 35.0000000  0 21G06G07G08G02G17G03G23G09G10G20G01R17
                                R02R12R13R19R03R18R11R04R01
 110791510.366 8  86331051.533 8  82733922.418 8  21082921.760    21082922.580
  21082921.800          49.950          49.250
 123625187.430 7  96331372.403 7                  23525076.240    23525077.020
  23525076.380          47.950          43.250
 126393091.577 7  98488144.10046                  24051796.920
  24051796.640          46.400          37.450
 129458235.375 7 100876540.90146                  24635082.500
  24635079.500          43.750          37.800
 120718569.276 7  94066361.334 7                  22971994.000    22971993.440
  22971993.140          47.700          43.950
 116535762.789 8  90807080.269 7  87023453.634 8  22176021.960    22176023.080
  22176022.300          49.300          46.150
 109330960.013 8  85192924.23847                  20804984.260
  20804978.520          50.250          46.300
 106730261.684 8  83166465.011 8  79701205.424 8  20310079.260    20310078.140
  20310077.640          50.500          50.050
 115932131.022 8  90336740.53746                  22061146.880
  22061144.760          48.850          41.600
 106214357.058 8  82764396.84948                  20211922.380
  20211918.520          48.800          48.250
 126769828.188 7  98781679.968 7  94665761.306 8  24123508.860    24123513.100
  24123512.860          45.550          42.200
 111749892.275 8  86916574.913 7                  20883150.400    20883153.820
  20883152.540          48.950          45.350
 108107794.495 8  84083855.627 7                  20259357.120    20259361.700
  20259361.120          49.150          46.350
 116533078.003 7  90636870.578 6                  21815235.500    21815242.220
  21815241.860          44.150          41.200
 127294230.332 6  99006699.678 6                  23838108.920    23838121.120
  23838119.620          37.250          39.000
 128520309.680 6  99960238.923 6                  24025515.620    24025521.000
  24025519.040          41.300          38.100
 110619494.803 7  86037411.976 7                  20664644.240    20664646.900
  20664645.760          46.800          46.400
 109434572.056 8  85115791.240 7                  20500783.820    20500788.660
  20500788.000          49.100          46.850
 121235332.528 7  94294182.482 6                  22687526.500    22687533.920
  22687532.460          45.100          36.100
 131095708.086 6 101963365.440 5                  24481195.540    24481203.800
  24481203.200          38.500          33.900
 126878555.838 7  98683312.092 5                  23735267.160    23735275.240
  23735275.140          43.400          33.450
 15  1 27 11  5 40.0000000  0 21G06G07G08G02G17G03G23G09G10G20G01R17
                                R02R12R13R19R03R18R11R04R01
 110782209.463 8  86323804.076 8  82726976.936 8  21081151.880    21081152.680
  21081151.880          49.900          49.200
 123608511.850 8  96318378.450 7                  23521902.980    23521903.800
  23521903.140          48.050          43.250
 126399382.259 7  98493045.92646                  24052993.980
  24052993.740          46.450          37.500
 129441143.094 7 100863222.26546                  24631829.940
  24631826.920          43.250          39.300
 120731762.163 7  94076641.492 7                  22974504.560    22974504.000
  22974503.680          47.700          43.650
 116546242.475 8  90815246.256 7  87031279.356 8  22178016.280    22178017.320
  22178016.460          49.450          46.400
 109337075.708 8  85197689.71747                  20806148.020
  20806142.280          50.300          46.200
 106726958.563 8  83163891.150 8  79698738.810 8  20309450.740    20309449.580
  20309449.100          50.600          50.000
 115920130.959 8  90327389.83846                  22058863.380
  22058861.240          48.800          41.350
 106213297.257 8  82763571.02847                  20211720.720
  20211716.820          48.850          47.950
 126787463.998 7  98795422.135 7  94678930.873 8  24126864.840    24126869.080
  24126868.780          44.850          42.050
 111766774.237 8  86929705.323 7                  20886305.200    20886308.640
  20886307.340          48.950          45.550
 108114437.774 8  84089022.609 7                  20260602.080    20260606.680
  20260606.020          49.200          46.250
 116521562.029 7  90627913.717 6                  21813079.700    21813086.380
  21813086.020          44.050          41.350
 127273291.773 6  98990414.236 6                  23834187.800    23834199.880
  23834198.400          37.700          39.100
 128501313.861 6  99945464.410 6                  24021964.480    24021969.920
  24021967.980          41.750          38.500
 110612336.161 7  86031844.150 7                  20663306.900    20663309.580
  20663308.420          46.800          46.300
 109432483.075 8  85114166.477 7                  20500392.540    20500397.320
  20500396.660          49.350          46.900
 121242398.910 7  94299678.552 6                  22688848.860    22688856.280
  22688854.880          45.100          36.050
 131081485.330 6 101952303.311 4                  24478539.580    24478547.740
  24478546.660          39.650          29.900
 126893117.596 7  98694637.883 5                  23737991.300    23737999.300
  23737999.220          43.850          34.250
 15  1 27 11  5 45.0000000  0 21G06G07G08G02G17G03G23G09G10G20G01R17
                                R02R12R13R19R03R18R11R04R01
 110772920.027 8  86316565.556 8  82720040.021 8  21079384.180    21079384.940
  21079384.160          49.750          49.300
 123591838.463 8  96305386.205 7                  23518730.140    23518730.920
  23518730.320          48.100          43.600
 126405686.302 7  98497958.16446                  24054193.580
  24054193.300          46.350          38.350
 129424052.102 7 100849904.62846                  24628577.580
  24628574.700          43.800          37.250
 120744962.340 7  94086927.335 7                  22977016.500    22977015.920
  22977015.620          47.800          44.200
 116556726.203 8  90823415.395 7  87039108.117 8  22180011.340    22180012.320
  22180011.420          49.450          46.750
 109343201.209 8  85202462.83847                  20807313.660
  20807307.920          50.200          46.650
 106723667.951 8  83161327.040 8  79696281.547 8  20308824.580    20308823.400
  20308822.920          50.700          50.100
 115908135.237 8  90318042.52946                  22056580.700
  22056578.520          48.600          41.500
 106212245.070 8  82762751.14248                  20211520.480
  20211516.600          48.750          48.300
 126805103.250 7  98809166.980 7  94692103.014 7  24130221.440    24130225.680
  24130225.420          44.250          42.550
 111783669.769 8  86942846.269 7                  20889462.540    20889465.980
  20889464.680          48.900          45.450
 108121085.876 8  84094193.364 7                  20261847.940    20261852.520
  20261851.860          49.350          46.300
 116510061.963 7  90618969.217 6                  21810926.880    21810933.540
  21810933.140          43.850          41.600
 127252352.348 6  98974128.091 6                  23830266.520    23830278.440
  23830276.940          37.150          38.750
 128482327.044 7  99930696.903 6                  24018415.040    24018420.540
  24018418.640          42.000          38.600
 110605183.488 7  86026280.970 7                  20661970.700    20661973.380
  20661972.200          47.050          46.300
 109430416.271 8  85112558.961 7                  20500005.380    20500010.140
  20500009.500          49.350          46.950
 121249485.376 7  94305190.242 5                  22690175.020    22690182.320
  22690180.940          45.700          35.600
 131067263.676 6 101941242.177 5                  24475883.960    24475891.780
  24475890.080          41.400          31.400
 126907678.232 7  98705962.811 5                  23740715.200    23740723.140
  23740723.180          42.450          34.500
 15  1 27 11  5 50.0000000  0 21G06G07G08G02G17G03G23G09G10G20G01R17
                                R02R12R13R19R03R18R11R04R01
 110763641.573 8  86309335.590 8  82713111.316 8  21077618.560    21077619.300
  21077618.500          49.650          49.150
 123575166.818 8  96292395.329 7                  23515557.640    23515558.480
  23515557.860          48.300          43.750
 126412003.243 7  98502880.44746                  24055395.660
  24055395.380          46.700          36.550
 129406961.952 7 100836587.64646                  24625325.380
  24625322.560          44.550          37.300
 120758169.329 7  94097218.477 7                  22979529.720    22979529.160
  22979528.860          47.850          44.100
 116567213.517 8  90831587.320 7  87046939.549 8  22182007.080    22182007.980
  22182007.080          49.150          46.550
 109349336.021 8  85207243.21447                  20808481.060
  20808475.340          50.250          46.350
 106720389.390 8  83158772.322 8  79693833.280 8  20308200.700    20308199.520
  20308199.040          50.800          50.050
 115896143.372 8  90308698.22446                  22054298.740
  22054296.520          48.400          41.850
 106211200.064 8  82761936.85048                  20211321.620
  20211317.720          48.750          48.250
 126822745.476 7  98822914.122 7  94705277.370 7  24133578.560    24133582.980
  24133582.660          44.300          42.900
 111800578.403 8  86955997.411 7                  20892622.320    20892625.780
  20892624.480          48.900          45.700
 108127738.418 8  84099367.563 7                  20263094.620    20263099.200
  20263098.520          49.250          46.450
 116498577.324 7  90610036.725 6                  21808776.960    21808783.640
  21808783.180          44.050          41.000
 127231411.530 5  98957840.896 6                  23826344.920    23826356.760
  23826355.300          35.700          38.750
 128463348.667 7  99915935.961 6                  24014867.180    24014872.760
  24014870.880          42.250          38.700
 110598036.074 7  86020721.878 7                  20660635.500    20660638.120
  20660636.960          46.950          46.400
 109428371.182 8  85110968.343 7                  20499622.300    20499627.040
  20499626.400          49.600          46.900
 121256591.467 7  94310717.199 5                  22691504.820    22691512.240
  22691510.680          45.250          35.650
 131053042.842 6 101930181.634 5                  24473228.360    24473236.300
  24473234.240          41.050          35.150
 126922237.245 7  98717286.453 5                  23743438.780    23743446.960
  23743446.760          43.000          33.500
 15  1 27 11  5 55.0000000  0 21G06G07G08G02G17G03G23G09G10G20G01R17
                                R02R12R13R19R03R18R11R04R01
 110754376.736 8  86302116.246 8  82706192.766 8  21075855.520    21075856.220
  21075855.420          49.550          49.200
 123558499.522 8  96279407.848 7                  23512385.960    23512386.840
  23512386.260          48.500          43.450
 126418335.637 7  98507814.79545                  24056600.680
  24056600.360          46.800          35.350
 129389875.196 7 100823273.30346                  24622073.920
  24622071.000          44.750          36.750
 120771385.617 8  94107516.871 7                  22982044.720    22982044.200
  22982043.880          48.300          44.050
 116577706.982 8  90839764.043 7  87054775.568 8  22184003.960    22184004.860
  22184003.940          49.100          46.650
 109355482.739 8  85212032.86647                  20809650.740
  20809645.020          50.250          46.400
 106717125.451 8  83156229.005 8  79691395.927 8  20307579.620    20307578.420
  20307577.960          50.650          50.100
 115884157.961 8  90299358.94546                  22052017.980
  22052015.740          48.350          41.500
 106210164.777 8  82761130.13948                  20211124.620
  20211120.700          48.800          48.350
 126840393.230 7  98836665.574 7  94718455.849 8  24136936.720    24136941.280
  24136941.020          44.200          43.250
 111817502.695 8  86969160.747 7                  20895785.040    20895788.520
  20895787.220          48.950          46.000
 108134397.911 8  84104547.170 7                  20264342.620    20264347.180
  20264346.500          48.950          46.200
 116487110.829 7  90601118.333 6                  21806630.440    21806637.120
  21806636.560          43.950          40.700
 127210471.994 6  98941554.735 6                  23822423.360    23822435.480
  23822433.900          36.300          38.350
 128444381.514 6  99901183.746 6                  24011321.380    24011326.900
  24011325.260          41.900          38.750
 110590896.810 7  86015169.119 7                  20659301.800    20659304.440
  20659303.260          46.800          46.600
 109426350.425 8  85109396.653 7                  20499243.800    20499248.460
  20499247.840          49.400          46.850
 121263719.787 7  94316261.449 5                  22692838.780    22692846.180
  22692844.580          44.900          35.550
 131038825.520 6 101919123.759 6                  24470573.200    24470581.360
  24470579.620          38.150          37.550
 126936797.303 7  98728610.907 5                  23746162.580    23746170.680
  23746170.480          43.100          32.550
 15  1 27 11  6  0.0000000  0 21G06G07G08G02G17G03G23G09G10G20G01R17
                                R02R12R13R19R03R18R11R04R01
 110745122.119 8  86294904.863 8  82699281.859 8  21074094.420    21074095.120
  21074094.320          49.800          49.250
 123541833.248 7  96266421.143 7                  23509214.480    23509215.380
  23509214.820          47.950          43.650
 126424680.123 7  98512758.55446                  24057808.020
  24057807.660          46.800          37.600
 129372788.517 7 100809959.01846                  24618822.420
  24618819.420          44.600          36.950
 120784607.933 8  94117819.970 7                  22984560.840    22984560.360
  22984560.000          48.300          43.950
 116588203.243 8  90847942.950 7  87062613.671 8  22186001.340    22186002.240
  22186001.340          48.850          46.850
 109361637.972 8  85216829.15647                  20810822.040
  20810816.320          50.150          46.200
 106713872.770 8  83153694.460 8  79688966.983 8  20306960.660    20306959.440
  20306959.000          50.550          50.150
 115872175.629 8  90290022.07546                  22049737.800
  22049735.580          48.350          41.600
 106209135.834 8  82760328.37148                  20210928.820
  20210924.900          48.950          48.400
 126858043.124 7  98850418.695 7  94731635.931 8  24140295.360    24140300.000
  24140299.760          44.700          43.050
 111834439.234 8  86982333.606 7                  20898950.060    20898953.520
  20898952.220          49.100          46.050
 108141060.978 8  84109729.548 7                  20265591.300    20265595.820
  20265595.160          49.200          46.350
 116475659.093 7  90592211.433 6                  21804486.680    21804493.320
  21804492.720          43.850          41.050
 127189530.607 6  98925267.086 6                  23818501.640    23818513.720
  23818512.080          37.550          38.700
 128425422.102 6  99886437.535 6                  24007777.020    24007782.760
  24007781.020          41.100          38.750
 110583762.157 7  86009619.960 7                  20657968.960    20657971.640
  20657970.460          46.800          46.550
 109424350.590 8  85107841.221 7                  20498869.180    20498873.800
  20498873.200          49.250          46.750
 121270866.835 7  94321820.276 6                  22694176.300    22694183.600
  22694182.060          44.650          36.350
 131024608.234 6 101908065.863 6                  24467918.060    24467926.400
  24467925.020          38.250          38.100
 126951354.811 7  98739933.424 5                  23748885.940    23748894.000
  23748893.680          43.000          33.000
 15  1 27 11  6  5.0000000  0 21G06G07G08G02G17G03G23G09G10G20G01R17
                                R02R12R13R19R03R18R11R04R01
 110735880.782 8  86287703.819 8  82692380.862 8  21072335.840    21072336.520
  21072335.720          49.950          49.200
 123525171.026 7  96253437.608 7                  23506043.760    23506044.660
  23506044.140          47.950          43.000
 126431039.743 7  98517714.09246                  24059018.200
  24059017.800          46.700          37.100
 129355704.851 7 100796647.07246                  24615571.480
  24615568.500          44.200          36.050
 120797839.219 8  94128130.051 7                  22987078.660    22987078.160
  22987077.800          48.300          44.000
 116598705.302 8  90856126.359 7  87070456.109 8  22187999.800    22188000.740
  22187999.880          48.700          47.100
 109367804.720 8  85221634.40547                  20811995.540
  20811989.800          50.150          46.350
 106710634.355 8  83151171.017 8  79686548.692 8  20306344.420    20306343.200
  20306342.760          50.550          50.050
 115860199.390 8  90280689.94946                  22047458.720
  22047456.540          48.350          41.300
 106208116.299 8  82759533.92447                  20210734.820
  20210730.900          49.100          47.950
 126875698.167 7  98864175.836 7  94744819.852 8  24143655.040    24143659.740
  24143659.500          44.750          42.700
 111851391.095 8  86995518.377 7                  20902117.920    20902121.400
  20902120.080          48.950          45.950
 108147730.591 8  84114917.018 7                  20266841.180    20266845.740
  20266845.040          49.100          46.300
 116464225.190 7  90583318.384 6                  21802346.200    21802352.800
  21802352.240          43.750          41.250
 127168590.000 6  98908980.028 6                  23814580.060    23814592.240
  23814590.440          37.400          38.400
 128406473.625 6  99871699.830 6                  24004234.720    24004240.600
  24004238.840          41.450          38.800
 110576635.114 7  86004076.708 7                  20656637.520    20656640.240
  20656639.080          47.050          46.750
 109422374.749 8  85106304.450 7                  20498499.060    20498503.640
  20498503.040          49.000          46.850
 121278035.799 7  94327396.125 6                  22695517.840    22695525.160
  22695523.700          44.200          36.600
 131010393.951 6 101897010.323 6                  24465263.780    24465271.900
  24465270.720          41.300          37.450
 126965913.031 6  98751256.473 5                  23751609.300    23751617.320
  23751617.100          41.100          34.000
 15  1 27 11  6 10.0000000  0 21G06G07G08G02G17G03G23G09G10G20G01R17
                                R02R12R13R19R03R18R11R04R01
 110726651.789 8  86280512.404 8  82685489.084 8  21070579.600    21070580.300
  21070579.480          50.100          49.200
 123508511.930 7  96240456.502 7                  23502873.620    23502874.600
  23502874.020          47.950          43.100
 126437413.539 7  98522680.69246                  24060231.100
  24060230.720          46.400          37.050
 129338623.345 7 100783336.84546                  24612320.940
  24612318.020          44.250          38.000
 120811078.563 8  94138446.411 7                  22989597.980    22989597.540
  22989597.160          48.250          43.950
 116609212.244 8  90864313.570 7  87078302.196 8  22189999.140    22190000.160
  22189999.360          48.650          47.100
 109373982.085 8  85226447.93947                  20813171.040
  20813165.280          50.150          46.350
 106707409.313 8  83148658.001 8  79684140.380 8  20305730.720    20305729.500
  20305729.060          50.550          50.000
 115848228.358 8  90271361.88746                  22045180.680
  22045178.540          48.300          41.600
 106207105.219 8  82758746.07448                  20210542.400
  20210538.480          48.950          48.300
 126893357.451 7  98877936.282 7  94758006.923 8  24147015.500    24147020.260
  24147020.020          45.050          42.550
 111868357.223 8  87008714.256 7                  20905288.440    20905291.920
  20905290.580          48.650          45.750
 108154405.897 8  84120108.923 7                  20268092.160    20268096.680
  20268095.960          49.150          46.150
 116452808.107 7  90574438.425 6                  21800208.920    21800215.500
  21800214.900          43.900          41.550
 127147649.419 6  98892692.966 6                  23810658.580    23810670.560
  23810668.740          37.200          39.000
 128387535.048 6  99856969.830 6                  24000694.240    24000700.200
  24000698.520          41.300          38.700
 110569514.784 7  85998538.684 7                  20655307.380    20655310.100
  20655308.940          46.650          46.750
 109420422.025 8  85104785.667 7                  20498133.260    20498137.840
  20498137.220          49.100          46.750
 121285225.562 7  94332988.166 6                  22696863.260    22696870.700
  22696869.200          43.900          36.800
 130996181.746 7 101885956.479 6                  24462609.860    24462617.720
  24462616.380          43.050          36.650
 126980471.044 7  98762579.293 5                  23754332.660    23754340.840
  23754340.540          42.650          33.950
 15  1 27 11  6 15.0000000  0 21G06G07G08G02G17G03G23G09G10G20G01R17
                                R02R12R13R19R03R18R11R04R01
 110717433.983 8  86273329.696 8  82678605.669 8  21068825.480    21068826.180
  21068825.400          50.100          49.200
 123491854.784 7  96227476.910 7                  23499703.880    23499704.860
  23499704.300          47.850          43.200
 126443800.320 7  98527657.39845                  24061446.440
  24061446.080          46.300          35.950
 129321542.853 7 100770027.37146                  24609070.640
  24609067.740          44.800          36.950
 120824324.747 8  94148768.094 7                  22992118.620    22992118.260
  22992117.840          48.000          44.000
 116619722.877 8  90872503.665 7  87086151.037 8  22191999.180    22192000.300
  22191999.560          48.450          46.850
 109380168.862 8  85231268.80647                  20814348.320
  20814342.580          50.000          46.200
 106704196.421 8  83146154.447 8  79681741.148 8  20305119.320    20305118.100
  20305117.660          50.600          50.050
 115836261.316 8  90262036.93546                  22042903.380
  22042901.260          48.450          41.700
 106206101.403 8  82757963.87747                  20210351.380
  20210347.460          49.100          47.900
 126911019.759 7  98891699.106 7  94771196.272 8  24150376.560    24150381.320
  24150381.100          44.950          42.400
 111885336.498 8  87021920.344 7                  20908461.360    20908464.920
  20908463.540          48.400          45.450
 108161085.627 8  84125304.271 7                  20269343.940    20269348.440
  20269347.720          49.100          46.100
 116441406.731 7  90565570.693 6                  21798074.580    21798081.100
  21798080.560          43.700          41.100
 127126707.688 5  98876405.046 6                  23806736.700    23806748.740
  23806746.960          35.000          38.550
 128368605.205 6  99842246.650 6                  23997155.420    23997161.480
  23997159.820          41.500          38.500
 110562399.951 7  85993004.934 7                  20653978.280    20653981.000
  20653979.820          46.950          46.300
 109418491.174 8  85103283.896 7                  20497771.540    20497776.100
  20497775.500          49.350          46.900
 121292435.075 7  94338595.565 6                  22698212.440    22698219.880
  22698218.380          43.600          36.850
 130981970.414 7 101874903.340 6                  24459955.960    24459963.840
  24459962.220          42.650          36.950
 126995027.537 7  98773900.985 5                  23757055.820    23757063.920
  23757063.780          43.550          33.700
 15  1 27 11  6 20.0000000  0 21G06G07G08G02G17G03G23G09G10G20G01R17
                                R02R12R13R19R03R18R11R04R01
 110708228.228 8  86266156.381 8  82671731.238 8  21067073.660    21067074.400
  21067073.580          50.100          49.250
 123475200.594 7  96214499.633 7                  23496534.700    23496535.660
  23496535.140          47.950          42.800
 126450200.956 7  98532644.91946                  24062664.440
  24062664.100          46.200          37.300
 129304464.235 7 100756719.38546                  24605820.680
  24605817.760          45.450          36.750
 120837578.643 7  94159095.791 7                  22994640.720    22994640.380
  22994639.940          47.850          44.000
 116630238.085 8  90880697.329 7  87094003.285 8  22194000.080    22194001.320
  22194000.600          48.300          47.150
 109386365.917 8  85236097.67447                  20815527.560
  20815521.820          50.000          46.700
 106700996.549 8  83143661.042 8  79679351.633 8  20304510.400    20304509.180
  20304508.740          50.700          50.150
 115824299.152 8  90252715.77546                  22040627.040
  22040624.940          48.700          41.750
 106205105.770 8  82757188.06047                  20210161.920
  20210158.000          49.100          47.850
 126928685.972 7  98905464.959 6  94784388.528 8  24153738.340    24153743.140
  24153742.860          44.550          41.850
 111902329.824 8  87035137.352 7                  20911636.940    20911640.500
  20911639.100          48.450          45.600
 108167770.725 8  84130503.777 7                  20270596.720    20270601.240
  20270600.500          49.150          46.000
 116430022.093 7  90556715.969 6                  21795943.340    21795949.840
  21795949.320          43.900          41.150
 127105765.756 5  98860117.008 6                  23802814.780    23802826.940
  23802825.160          35.050          38.850
 128349685.020 6  99827530.963 6                  23993618.460    23993624.540
  23993622.940          41.450          38.350
 110555291.628 7  85987476.238 7                  20652650.380    20652653.120
  20652651.900          46.800          46.400
 109416583.007 8  85101799.774 7                  20497414.080    20497418.640
  20497418.020          49.250          46.700
 121299665.139 7  94344218.949 6                  22699565.440    22699572.900
  22699571.380          43.750          36.850
 130967760.885 6 101863851.577 6                  24457302.380    24457310.280
  24457308.580          40.350          38.650
 127009583.241 7  98785222.072 5                  23759778.820    23759786.860
  23759786.800          42.700          33.350
 15  1 27 11  6 25.0000000  0 21G06G07G08G02G17G03G23G09G10G20G01R17
                                R02R12R13R19R03R18R11R04R01
 110699035.747 8  86258993.414 8  82664866.723 8  21065324.360    21065325.120
  21065324.300          50.100          49.250
 123458550.432 8  96201525.479 7                  23493366.280    23493367.240
  23493366.720          48.250          42.800
 126456616.645 7  98537644.16546                  24063885.280
  24063884.940          45.950          36.700
 129287388.722 7 100743413.79346                  24602571.320
  24602568.320          45.050          36.100
 120850841.430 7  94169430.426 7                  22997164.500    22997164.200
  22997163.760          47.750          44.250
 116640759.070 8  90888895.476 7  87101859.840 8  22196002.120    22196003.420
  22196002.760          48.950          47.300
 109392574.458 8  85240935.49647                  20816708.980
  20816703.280          50.250          46.250
 106697810.923 8  83141178.746 8  79676972.760 8  20303904.200    20303902.960
  20303902.540          50.800          50.150
 115812343.082 8  90243399.36346                  22038351.880
  22038349.760          48.750          41.600
 106204119.519 8  82756419.55448                  20209974.240
  20209970.300          49.050          48.050
 126946357.300 7  98919234.793 7  94797584.595 8  24157101.000    24157105.760
  24157105.520          44.600          42.150
 111919338.210 8  87048366.093 7                  20914815.360    20914818.900
  20914817.520          48.750          45.550
 108174462.493 8  84135708.490 7                  20271850.740    20271855.280
  20271854.540          48.950          46.200
 116418655.145 7  90547875.013 6                  21793815.400    21793821.860
  21793821.420          43.650          41.500
 127084824.858 6  98843829.750 6                  23798893.000    23798905.340
  23798903.520          36.500          39.300
 128330775.838 6  99812823.823 6                  23990083.480    23990089.660
  23990088.100          41.800          38.600
 110548190.888 7  85981953.452 7                  20651323.920    20651326.620
  20651325.420          47.050          46.650
 109414698.837 8  85100334.309 7                  20497061.120    20497065.640
  20497065.020          48.950          46.400
 121306916.880 7  94349859.211 6                  22700922.580    22700929.920
  22700928.420          44.600          36.200
 130953554.407 6 101852802.034 6                  24454649.400    24454657.280
  24454655.720          40.750          39.450
 127024139.654 6  98796543.697 5                  23762501.860    23762510.240
  23762509.940          41.950          32.850
 15  1 27 11  6 30.0000000  0 21G06G07G08G02G17G03G23G09G10G20G01R17
                                R02R12R13R19R03R18R11R04R01
 110689854.913 8  86251839.528 8  82658010.927 8  21063577.280    21063578.040
  21063577.240          50.100          49.150
 123441902.663 7  96188553.196 7                  23490198.320    23490199.300
  23490198.760          47.850          42.750
 126463045.755 7  98542653.86446                  24065108.660
  24065108.380          46.000          38.200
 129270314.639 7 100730109.32346                  24599322.180
  24599319.220          44.500          36.600
 120864111.454 7  94179770.690 7                  22999689.680    22999689.420
  22999689.000          47.900          43.850
 116651284.166 8  90897096.840 7  87109719.502 8  22198004.960    22198006.300
  22198005.680          49.250          47.100
 109398792.813 8  85245780.97347                  20817892.280
  20817886.600          50.300          45.850
 106694637.864 8  83138706.245 8  79674603.288 8  20303300.380    20303299.160
  20303298.720          50.750          49.950
 115800391.458 8  90234086.41946                  22036077.560
  22036075.420          48.800          41.400
 106203140.994 8  82755657.07647                  20209788.060
  20209784.100          49.000          47.700
 126964032.092 7  98933007.325 7  94810783.280 7  24160464.380    24160469.200
  24160468.940          45.150          42.450
 111936360.097 8  87061605.341 7                  20917996.280    20917999.880
  20917998.480          48.950          45.600
 108181159.152 8  84140917.007 7                  20273105.700    20273110.200
  20273109.520          49.000          46.300
 116407304.479 7  90539046.730 6                  21791690.560    21791696.960
  21791696.580          43.950          41.600
 127063883.340 6  98827542.001 6                  23794971.280    23794983.580
  23794981.780          37.000          38.200
 128311875.791 7  99798123.786 6                  23986550.260    23986556.440
  23986554.960          42.000          38.250
 110541096.145 7  85976435.336 7                  20649998.520    20650001.280
  20650000.060          47.200          46.650
 109412837.012 8  85098886.225 7                  20496712.340    20496716.840
  20496716.200          48.900          46.600
 121314188.799 7  94355515.150 6                  22702283.420    22702290.720
  22702289.240          44.400          36.450
 130939349.313 7 101841753.667 6                  24451996.860    24452004.520
  24452003.200          43.300          39.700
 127038695.045 6  98807864.538 5                  23765224.760    23765233.080
  23765232.820          41.650          32.200
 15  1 27 11  6 35.0000000  0 21G06G07G08G02G17G03G23G09G10G20G01R17
                                R02R12R13R19R03R18R11R04R01
 110680686.587 8  86244695.386 8  82651164.450 8  21061832.600    21061833.360
  21061832.560          50.000          49.150
 123425258.156 7  96175583.460 7                  23487030.980    23487031.960
  23487031.420          47.750          43.300
 126469489.099 7  98547674.64946                  24066334.780
  24066334.540          46.100          36.550
 129253242.824 7 100716806.64645                  24596073.520
  24596070.480          44.350          35.750
 120877389.520 7  94190117.227 7                  23002216.400    23002216.200
  23002215.740          47.900          43.900
 116661814.242 8  90905302.087 7  87117582.862 8  22200008.740    22200010.140
  22200009.560          49.100          46.800
 109405021.827 8  85250634.75547                  20819077.620
  20819071.940          50.250          46.200
 106691478.266 8  83136244.229 8  79672243.858 8  20302699.100    20302697.900
  20302697.480          50.700          49.950
 115788445.112 8  90224777.58846                  22033804.280
  22033802.120          48.850          41.400
 106202171.043 8  82754901.27647                  20209603.460
  20209599.520          48.950          47.900
 126981711.137 7  98946783.167 7  94823985.145 7  24163828.640    24163833.480
  24163833.180          45.600          42.800
 111953396.416 8  87074855.799 7                  20921179.940    20921183.520
  20921182.140          48.900          45.850
 108187861.569 8  84146129.991 7                  20274361.720    20274366.240
  20274365.580          49.000          46.350
 116395970.789 7  90530231.631 6                  21789568.860    21789575.240
  21789574.940          43.900          41.550
 127042942.148 5  98811254.488 6                  23791049.660    23791061.840
  23791060.020          35.450          38.050
 128292985.848 7  99783431.619 6                  23983018.960    23983025.220
  23983023.680          42.850          38.250
 110534008.115 7  85970922.428 7                  20648674.420    20648677.160
  20648676.000          46.750          46.750
 109410998.355 8  85097456.164 7                  20496367.900    20496372.360
  20496371.740          48.950          46.650
 121321481.623 7  94361187.362 6                  22703648.180    22703655.400
  22703653.940          44.300          36.300
 130925146.225 7 101830706.900 6                  24449344.580    24449352.140
  24449350.900          42.600          38.350
 127053250.268 6  98819185.251 5                  23767947.520    23767955.820
  23767955.560          41.950          30.700
 15  1 27 11  6 40.0000000  0 21G06G07G08G02G17G03G23G09G10G20G01R17
                                R02R12R13R19R03R18R11R04R01
 110671529.060 8  86237559.659 8  82644326.052 8  21060089.960    21060090.740
  21060089.940          50.000          49.000
 123408615.214 7  96162614.954 7                  23483863.940    23483864.900
  23483864.420          47.700          43.150
 126475944.983 7  98552705.22146                  24067563.240
  24067563.040          46.150          37.250
 129236171.644 7 100703504.45145                  24592825.000
  24592822.000          44.850          35.150
 120890673.921 8  94200468.696 7                  23004744.340    23004744.140
  23004743.660          48.050          43.900
 116672347.598 8  90913509.896 7  87125448.672 8  22202013.160    22202014.580
  22202014.000          49.050          46.800
 109411259.817 8  85255495.53047                  20820264.660
  20820259.000          50.250          46.050
 106688330.371 8  83133791.332 8  79669893.174 8  20302100.080    20302098.880
  20302098.440          50.550          49.850
 115776502.392 8  90215471.58146                  22031531.680
  22031529.460          48.850          41.300
 106201207.961 8  82754150.82647                  20209420.200
  20209416.240          48.950          47.850
 126999392.760 7  98960561.019 7  94837188.948 8  24167193.420    24167198.220
  24167197.920          45.950          42.450
 111970445.287 8  87088116.015 7                  20924365.940    20924369.480
  20924368.180          49.050          45.850
 108194567.900 8  84151346.026 7                  20275618.500    20275623.020
  20275622.360          49.050          46.350
 116384652.428 7  90521428.455 6                  21787450.080    21787456.420
  21787456.120          43.900          41.300
 127021999.336 5  98794965.731 6                  23787127.720    23787139.820
  23787137.920          35.550          37.750
 128274104.416 7  99768746.065 6                  23979489.240    23979495.540
  23979494.020          42.750          38.550
 110526925.348 7  85965413.615 7                  20647351.240    20647354.040
  20647352.900          46.750          46.700
 109409181.154 8  85096042.790 7                  20496027.420    20496031.940
  20496031.300          49.050          46.700
 121328793.620 7  94366874.479 6                  22705016.540    22705023.620
  22705022.220          44.250          36.550
 130910943.617 6 101819660.543 6                  24446692.260    24446699.660
  24446698.500          41.950          37.700
 127067803.463 7  98830504.389 5                  23770670.060    23770678.280
  23770677.920          42.950          31.550
 15  1 27 11  6 45.0000000  0 21G06G07G08G02G17G03G23G09G10G20G01R17
                                R02R12R13R19R03R18R11R04R01
 110662384.449 8  86230433.988 8  82637497.283 8  21058349.780    21058350.560
  21058349.760          49.900          48.900
 123391976.003 7  96149649.350 7                  23480697.600    23480698.580
  23480698.100          47.800          43.000
 126482415.511 7  98557747.18246                  24068794.500
  24068794.400          46.200          38.050
 129219103.178 7 100690204.35645                  24589577.000
  24589574.020          45.400          34.800
 120903966.741 8  94210826.727 7                  23007273.880    23007273.680
  23007273.200          48.000          43.850
 116682886.307 8  90921721.863 7  87133318.472 8  22204018.640    22204020.040
  22204019.440          49.400          47.050
 109417508.892 8  85260364.94147                  20821453.800
  20821448.140          50.200          45.850
 106685196.320 8  83131349.215 8  79667552.804 8  20301503.660    20301502.480
  20301502.020          50.350          49.950
 115764565.367 8  90206170.00646                  22029260.200
  22029257.940          48.900          41.750
 106200253.780 8  82753407.31347                  20209238.640
  20209234.640          49.000          47.750
 127017079.058 7  98974342.525 7  94850396.201 8  24170559.100    24170563.900
  24170563.580          46.000          42.800
 111987508.817 8  87101387.637 7                  20927554.660    20927558.200
  20927556.920          48.850          45.900
 108201280.349 8  84156566.824 7                  20276876.460    20276880.960
  20276880.280          48.900          46.250
 116373351.590 7  90512638.917 6                  21785334.500    21785340.900
  21785340.600          44.000          41.300
 127001057.292 5  98778677.529 6                  23783205.820    23783217.820
  23783215.940          35.750          38.650
 128255233.626 7  99754068.776 6                  23975961.520    23975967.900
  23975966.320          42.700          38.150
 110519849.740 7  85959910.369 7                  20646029.440    20646032.260
  20646031.140          46.450          46.650
 109407387.472 8  85094647.698 7                  20495691.400    20495695.880
  20495695.260          49.050          46.850
 121336126.991 7  94372578.209 5                  22706388.880    22706396.080
  22706394.560          44.350          35.800
 130896743.608 6 101808616.171 6                  24444040.240    24444047.720
  24444046.460          38.650          36.750
 127082356.858 7  98841823.686 5                  23773392.620    23773400.880
  23773400.420          43.250          32.500
 15  1 27 11  6 50.0000000  0 21G06G07G08G02G17G03G23G09G10G20G01R17
                                R02R12R13R19R03R18R11R04R01
 110653251.839 8  86223317.666 8  82630677.478 8  21056611.900    21056612.660
  21056611.860          49.950          48.950
 123375339.594 7  96136685.916 7                  23477531.800    23477532.740
  23477532.280          47.600          43.000
 126488899.749 7  98562799.82746                  24070028.400
  24070028.360          46.050          38.950
 129202036.505 7 100676905.65945                  24586329.300
  24586326.320          45.550          35.600
 120917267.099 7  94221190.626 7                  23009804.860    23009804.640
  23009804.180          47.900          43.850
 116693429.461 8  90929937.295 7  87141191.599 8  22206024.980    22206026.340
  22206025.740          49.150          46.900
 109423768.083 8  85265242.23347                  20822644.860
  20822639.220          50.150          46.450
 106682075.163 8  83128917.146 8  79665222.072 8  20300909.700    20300908.540
  20300908.080          50.250          50.000
 115752633.117 8  90196872.15646                  22026989.620
  22026987.320          48.750          41.350
 106199307.688 8  82752670.09447                  20209058.620
  20209054.600          49.000          47.950
 127034769.063 7  98988126.909 7  94863606.229 8  24173925.440    24173930.240
  24173929.940          45.800          42.450
 112004586.034 8  87114669.900 7                  20930745.940    20930749.500
  20930748.200          48.750          45.450
 108207998.115 8  84161791.751 7                  20278135.380    20278139.880
  20278139.200          48.750          46.200
 116362067.432 7  90503862.343 6                  21783222.140    21783228.480
  21783228.160          43.600          41.250
 126980114.944 5  98762389.138 6                  23779283.900    23779295.920
  23779294.040          35.650          38.650
 128236372.385 7  99739398.916 6                  23972435.660    23972442.000
  23972440.380          43.000          37.750
 110512780.358 7  85954411.964 7                  20644708.780    20644711.660
  20644710.520          46.850          46.400
 109405616.464 8  85093270.245 7                  20495359.580    20495364.120
  20495363.460          48.800          46.400
 121343480.720 7  94378297.767 5                  22707765.040    22707772.240
  22707770.680          44.350          35.700
 130882545.302 6 101797573.065 6                  24441388.740    24441396.140
  24441394.900          38.600          38.400
 127096909.534 7  98853142.395 5                  23776115.000    23776123.320
  23776122.720          42.700          32.000
 15  1 27 11  6 55.0000000  0 21G06G07G08G02G17G03G23G09G10G20G01R17
                                R02R12R13R19R03R18R11R04R01
 110644131.231 8  86216210.701 8  82623866.638 8  21054876.300    21054877.040
  21054876.260          49.950          49.050
 123358706.003 7  96123724.693 7                  23474366.500    23474367.480
  23474367.020          47.800          43.400
 126495397.672 7  98567863.13946                  24071264.900
  24071264.880          46.150          36.650
 129184971.610 7 100663608.33946                  24583081.920
  24583079.000          44.700          36.350
 120930574.930 8  94231560.346 7                  23012337.280    23012337.060
  23012336.580          48.150          43.700
 116703977.055 8  90938156.188 7  87149068.050 8  22208032.180    22208033.480
  22208032.840          49.100          46.400
 109430037.390 8  85270127.41047                  20823837.880
  20823832.200          50.250          45.750
 106678966.888 8  83126495.116 8  79662900.967 8  20300318.180    20300317.040
  20300316.580          50.350          50.150
 115740705.629 8  90187578.01846                  22024719.940
  22024717.580          48.650          41.800
 106198369.648 8  82751939.15047                  20208880.120
  20208876.080          49.000          47.800
 127052462.804 7  99001914.199 7  94876819.038 8  24177292.480    24177297.300
  24177297.000          45.750          42.200
 112021677.037 8  87127962.892 7                  20933939.780    20933943.340
  20933942.040          48.700          45.100
 108214721.058 8  84167020.706 7                  20279395.300    20279399.780
  20279399.080          49.000          46.200
 116350799.839 7  90495098.662 6                  21781112.800    21781119.220
  21781118.840          43.450          41.250
 126959172.438 6  98746100.601 6                  23775362.000    23775373.880
  23775372.040          36.300          38.300
 128217520.915 7  99724736.665 6                  23968911.620    23968917.980
  23968916.300          43.350          37.850
 110505717.223 7  85948918.421 7                  20643389.340    20643392.200
  20643391.080          47.100          46.550
 109403868.089 8  85091910.404 7                  20495032.000    20495036.540
  20495035.900          48.600          46.250
 121350854.850 7  94384033.206 5                  22709145.000    22709152.260
  22709150.640          44.150          35.800
 130868348.517 7 101786531.138 6                  24438737.640    24438744.880
  24438743.740          43.100          38.350
 127111461.464 7  98864460.531 5                  23778837.240    23778845.600
  23778844.940          42.800          32.200
 15  1 27 11  7  0.0000000  0 21G06G07G08G02G17G03G23G09G10G20G01R17
                                R02R12R13R19R03R18R11R04R01
 110635023.492 8  86209113.766 8  82617065.409 8  21053143.140    21053143.880
  21053143.080          49.900          49.000
 123342076.052 7  96110766.316 7                  23471201.880    23471202.900
  23471202.460          47.650          43.500
 126501910.132 7  98572937.79646                  24072504.140
  24072504.240          45.700          37.650
 129167909.419 7 100650313.15446                  24579835.060
  24579832.160          44.150          37.850
 120943891.035 7  94241936.526 7                  23014871.260    23014871.000
  23014870.540          47.800          43.650
 116714529.915 8  90946379.206 7  87156948.424 8  22210040.360    22210041.600
  22210040.940          49.200          46.350
 109436317.657 8  85275021.12847                  20825032.960
  20825027.300          50.250          45.900
 106675872.366 8  83124083.804 8  79660590.123 8  20299729.280    20299728.160
  20299727.700          50.250          50.050
 115728783.785 8  90178288.27546                  22022451.280
  22022448.940          48.250          41.700
 106197440.500 8  82751215.14247                  20208703.320
  20208699.260          48.950          47.900
 127070161.101 7  99015705.054 6  94890035.246 8  24180660.360    24180665.220
  24180664.920          45.300          41.850
 112038782.529 8  87141267.161 7                  20937136.340    20937139.900
  20937138.580          48.450          44.900
 108221450.049 8  84172254.368 7                  20280656.340    20280660.820
  20280660.080          48.950          46.100
 116339549.666 7  90486348.538 6                  21779006.740    21779013.200
  21779012.760          43.750          41.200
 126938230.560 6  98729812.530 6                  23771440.260    23771452.060
  23771450.200          36.950          38.900
 128198679.886 7  99710082.536 6                  23965389.480    23965395.860
  23965394.200          43.200          37.800
 110498661.212 7  85943430.428 7                  20642071.200    20642074.060
  20642072.960          47.000          46.250
 109402143.149 8  85090568.784 7                  20494708.800    20494713.360
  20494712.700          48.550          46.250
 121358250.209 7  94389785.147 5                  22710528.900    22710536.200
  22710534.600          44.100          35.950
 130854154.262 7 101775491.253 6                  24436087.000    24436094.200
  24436093.160          43.550          39.600
 127126013.405 7  98875778.697 5                  23781559.540    23781567.720
  23781567.160          43.350          31.950
 15  1 27 11  7  5.0000000  0 21G06G07G08G02G17G03G23G09G10G20G01R17
                                R02R12R13R19R03R18R11R04R01
 110625928.240 8  86202026.557 8  82610273.494 8  21051412.360    21051413.100
  21051412.280          49.950          49.000
 123325449.409 7  96097810.505 7                  23468037.880    23468038.980
  23468038.540          47.650          43.600
 126508436.723 7  98578023.44746                  24073746.080
  24073746.260          45.650          37.000
 129150849.480 7 100637019.70746                  24576588.660
  24576585.640          44.150          37.750
 120957215.033 7  94252318.854 7                  23017406.760    23017406.460
  23017405.980          47.750          43.650
 116725087.657 8  90954606.018 7  87164832.448 8  22212049.500    22212050.660
  22212049.980          49.250          46.700
 109442608.439 8  85279923.03447                  20826230.020
  20826224.380          50.250          46.100
 106672791.171 8  83121682.870 8  79658289.228 8  20299142.920    20299141.820
  20299141.360          50.300          49.950
 115716867.157 8  90169002.59746                  22020183.620
  22020181.300          48.250          41.950
 106196519.873 8  82750497.76447                  20208528.140
  20208524.060          48.950          47.900
 127087863.539 7  99029499.120 7  94903254.549 8  24184029.060    24184033.840
  24184033.620          45.450          42.000
 112055902.190 8  87154582.437 7                  20940335.540    20940339.120
  20940337.760          48.500          45.300
 108228184.648 8  84177492.396 7                  20281918.440    20281922.880
  20281922.160          48.650          46.450
 116328316.608 7  90477611.709 6                  21776903.860    21776910.300
  21776909.860          43.500          41.350
 126917288.997 6  98713524.716 6                  23767518.520    23767530.300
  23767528.460          36.400          39.450
 128179849.096 7  99695436.368 6                  23961869.240    23961875.620
  23961873.960          42.750          37.250
 110491611.992 7  85937947.707 7                  20640754.360    20640757.180
  20640756.120          47.050          46.350
 109400441.375 8  85089245.172 7                  20494389.900    20494394.520
  20494393.860          48.350          46.300
 121365666.319 7  94395553.227 6                  22711916.660    22711924.080
  22711922.420          44.150          36.300
 130839962.125 6 101764452.974 6                  24433436.540    24433443.940
  24433442.860          41.900          38.900
 127140565.183 7  98887096.724 5                  23784281.840    23784289.980
  23784289.360          43.100          32.100
 15  1 27 11  7 10.0000000  0 21G06G07G08G02G17G03G23G09G10G20G01R17
                                R02R12R13R19R03R18R11R04R01
 110616844.060 8  86194947.977 8  82603489.859 8  21049683.680    21049684.420
  21049683.600          49.950          49.000
 123308824.644 7  96084856.167 7                  23464874.240    23464875.400
  23464875.000          47.750          43.400
 126514976.060 7  98583119.02846                  24074990.440
  24074990.700          45.600          37.850
 129133790.418 7 100623726.94046                  24573342.440
  24573339.340          44.300          36.700
 120970545.523 8  94262706.245 7                  23019943.480    23019943.160
  23019942.680          48.000          43.550
 116735648.886 8  90962835.536 7  87172719.074 8  22214059.320    22214060.380
  22214059.680          49.400          46.800
 109448908.359 8  85284832.07347                  20827428.860
  20827423.200          50.050          46.300
 106669721.904 8  83119291.242 8  79655997.255 8  20298558.840    20298557.760
  20298557.300          50.450          49.950
 115704954.365 7  90159719.91247                  22017916.660
  22017914.380          47.850          42.050
 106195606.288 8  82749785.88447                  20208354.300
  20208350.200          48.900          47.750
 127105568.710 7  99043295.329 6  94916475.909 8  24187398.320    24187403.040
  24187402.800          45.700          41.750
 112073034.535 8  87167907.589 7                  20943537.120    20943540.740
  20943539.340          48.150          45.450
 108234923.481 8  84182733.705 7                  20283181.320    20283185.720
  20283185.000          48.800          46.550
 116317099.245 7  90468887.097 6                  21774803.920    21774810.360
  21774809.940          43.500          41.600
 126896346.163 5  98697235.941 6                  23763596.500    23763608.240
  23763606.500          35.950          39.700
 128161027.012 7  99680796.994 6                  23958350.600    23958357.180
  23958355.340          42.550          37.500
 110484568.088 7  85932469.123 7                  20639438.480    20639441.300
  20639440.260          46.650          46.550
 109398761.277 8  85087938.431 7                  20494075.040    20494079.780
  20494079.120          48.300          46.450
 121373101.820 7  94401336.386 6                  22713308.040    22713315.560
  22713313.920          43.950          36.750
 130825770.686 6 101753415.220 6                  24430786.080    24430793.760
  24430792.620          38.400          38.550
 127155115.154 7  98898413.366 5                  23787003.740    23787011.960
  23787011.120          42.100          32.550
 15  1 27 11  7 15.0000000  0 21G06G07G08G02G17G03G23G09G10G20G01R17
                                R02R12R13R19R03R18R11R04R01
 110607772.720 8  86187879.407 8  82596715.805 8  21047957.460    21047958.200
  21047957.340          49.750          49.000
 123292203.514 7  96071904.657 7                  23461711.300    23461712.460
  23461712.120          47.600          43.150
 126521529.854 7  98588225.88146                  24076237.580
  24076237.860          45.700          38.050
 129116734.042 7 100610436.27946                  24570096.700
  24570093.580          44.200          36.750
 120983884.267 8  94273100.065 7                  23022481.780    23022481.420
  23022480.920          48.100          43.500
 116746215.328 8  90971069.127 7  87180609.595 8  22216070.100    22216071.100
  22216070.360          49.250          46.250
 109455219.176 8  85289749.58947                  20828629.760
  20828624.120          49.950          46.200
 106666666.308 8  83116910.267 8  79653715.483 8  20297977.340    20297976.300
  20297975.840          50.450          49.900
 115693047.148 7  90150441.57647                  22015650.720
  22015648.500          47.700          42.050
 106194701.502 8  82749080.86047                  20208182.120
  20208178.020          48.800          47.900
 127123278.364 7  99057095.038 6  94929700.599 8  24190768.400    24190773.080
  24190772.780          45.350          41.550
 112090181.364 8  87181244.006 7                  20946741.420    20946745.020
  20946743.640          48.200          45.800
 108241668.374 8  84187979.735 7                  20284445.300    20284449.700
  20284448.980          48.850          46.350
 116305899.277 7  90460176.025 6                  21772707.280    21772713.780
  21772713.300          43.500          41.600
 126875404.037 6  98680947.739 6                  23759674.600    23759686.420
  23759684.640          36.600          38.800
 128142215.499 7  99666165.825 6                  23954833.960    23954840.500
  23954838.720          42.300          36.900
 110477531.231 7  85926996.010 7                  20638123.960    20638126.700
  20638125.720          46.950          46.550
 109397104.603 8  85086649.910 7                  20493764.620    20493769.420
  20493768.760          48.350          46.500
 121380558.393 7  94407135.926 6                  22714703.400    22714710.880
  22714709.360          43.900          36.600
 130811581.810 6 101742379.384 6                  24428136.300    24428144.040
  24428142.880          40.600          38.900
 127169665.194 7  98909730.048 5                  23789725.700    23789734.060
  23789733.040          43.050          33.600
 15  1 27 11  7 20.0000000  0 21G06G07G08G02G17G03G23G09G10G20G01R17
                                R02R12R13R19R03R18R11R04R01
 110598714.253 8  86180820.861 8  82589951.373 8  21046233.680    21046234.420
  21046233.540          49.750          49.050
 123275586.114 8  96058956.055 7                  23458549.100    23458550.280
  23458549.900          48.000          43.300
 126528098.160 7  98593344.04546                  24077487.460
  24077487.780          45.400          38.200
 129099680.345 7 100597147.69146                  24566851.460
  24566848.380          44.450          36.250
 120997231.237 7  94283500.295 7                  23025021.600    23025021.280
  23025020.720          47.950          43.650
 116756787.035 8  90979306.819 7  87188504.040 8  22218081.900    22218082.820
  22218082.040          49.300          46.250
 109461540.879 8  85294675.58747                  20829832.720
  20829827.100          49.850          46.300
 106663624.436 8  83114539.979 8  79651443.957 8  20297398.460    20297397.440
  20297396.960          50.500          50.000
 115681145.557 7  90141167.61946                  22013385.840
  22013383.720          47.750          41.800
 106193805.639 8  82748382.78548                  20208011.640
  20208007.540          48.850          48.250
 127140992.521 7  99070898.243 6  94942928.684 8  24194139.340    24194143.920
  24194143.640          45.800          41.800
 112107342.642 8  87194591.650 7                  20949948.400    20949952.020
  20949950.660          48.850          45.850
 108248419.300 8  84193230.448 7                  20285710.440    20285714.840
  20285714.100          48.850          46.550
 116294716.865 7  90451478.579 6                  21770613.880    21770620.360
  21770619.920          43.700          41.500
 126854462.676 6  98664660.081 6                  23755752.900    23755764.600
  23755762.840          37.150          38.500
 128123414.563 6  99651542.886 6                  23951319.320    23951325.860
  23951324.080          41.900          37.200
 110470501.440 7  85921528.389 7                  20636810.820    20636813.460
  20636812.500          47.300          46.700
 109395471.477 8  85085379.706 7                  20493458.620    20493463.480
  20493462.800          48.300          46.550
 121388036.017 7  94412951.858 6                  22716102.660    22716110.280
  22716108.700          44.200          36.350
 130797395.288 7 101731345.483 6                  24425487.180    24425494.780
  24425493.680          43.450          39.750
 127184215.283 7  98921046.752 5                  23792447.700    23792456.060
  23792455.020          43.050          33.600
 15  1 27 11  7 25.0000000  0 21G06G07G08G02G17G03G23G09G10G20G01R17
                                R02R12R13R19R03R18R11R04R01
 110589667.105 8  86173771.143 8  82583195.391 8  21044512.040    21044512.780
  21044511.900          49.750          49.100
 123258970.819 7  96046009.094 7                  23455387.260    23455388.480
  23455388.100          47.750          43.150
 126534679.364 7  98598472.25446                  24078739.820
  24078740.220          45.700          37.250
 129082627.713 7 100583859.95246                  24563606.420
  24563603.340          44.500          36.750
 121010584.844 7  94293905.697 7                  23027562.700    23027562.380
  23027561.840          47.900          43.700
 116767362.413 8  90987547.377 7  87196401.240 8  22220094.360    22220095.220
  22220094.440          49.400          46.650
 109467871.867 8  85299608.82247                  20831037.440
  20831031.860          49.800          46.450
 106660594.677 8  83112179.138 8  79649181.481 8  20296821.900    20296820.880
  20296820.420          50.450          50.050
 115669247.988 7  90131896.79847                  22011121.700
  22011119.680          47.550          42.000
 106192917.065 8  82747690.39248                  20207842.560
  20207838.440          48.750          48.300
 127158709.579 7  99084703.728 7  94956158.933 8  24197510.840    24197515.380
  24197515.100          45.650          42.250
 112124516.603 8  87207949.169 7                  20953157.760    20953161.460
  20953160.060          49.100          45.800
 108255174.627 8  84198484.588 7                  20286976.380    20286980.780
  20286980.040          48.950          46.450
 116283550.398 7  90442793.562 6                  21768523.480    21768529.980
  21768529.560          43.900          41.550
 126833520.398 6  98648371.708 6                  23751831.000    23751842.620
  23751840.900          38.250          37.850
 128104622.639 7  99636926.941 6                  23947806.340    23947812.880
  23947811.100          42.000          36.950
 110463477.115 7  85916065.035 7                  20635498.660    20635501.260
  20635500.300          47.400          46.700
 109393860.192 8  85084126.480 7                  20493156.640    20493161.620
  20493160.920          48.000          46.400
 121395533.395 7  94418783.158 6                  22717505.700    22717513.260
  22717511.720          44.250          36.550
 130783209.617 7 101720312.258 6                  24422838.100    24422845.740
  24422844.620          43.600          39.200
 127198763.894 7  98932362.284 5                  23795169.360    23795177.800
  23795176.640          43.150          31.550
 15  1 27 11  7 30.0000000  0 21G06G07G08G02G17G03G23G09G10G20G01R17
                                R02R12R13R19R03R18R11R04R01
 110580632.136 8  86166730.916 8  82576448.509 8  21042792.740    21042793.480
  21042792.600          49.950          49.200
 123242358.535 8  96033064.482 7                  23452226.000    23452227.200
  23452226.820          48.000          42.800
 126541274.397 7  98603611.23746                  24079994.820
  24079995.260          45.750          37.100
 129065577.102 7 100570573.77446                  24560361.780
  24560358.660          44.350          36.850
 121023945.948 8  94304316.931 7                  23030105.200    23030104.900
  23030104.360          48.050          43.750
 116777942.334 8  90995791.465 7  87204301.824 8  22222107.660    22222108.520
  22222107.740          49.000          46.700
 109474213.058 8  85304550.01047                  20832244.120
  20832238.540          50.200          46.100
 106657577.898 8  83109828.409 8  79646928.699 8  20296247.780    20296246.820
  20296246.340          50.400          50.050
 115657355.362 7  90122629.83547                  22008858.520
  22008856.580          47.800          42.100
 106192036.713 8  82747004.40548                  20207675.020
  20207670.900          48.900          48.300
 127176430.415 7  99098512.143 7  94969392.013 8  24200883.060    24200887.580
  24200887.300          45.300          42.400
 112141704.351 8  87221317.405 7                  20956369.700    20956373.440
  20956372.040          49.100          45.850
 108261935.142 8  84203742.770 7                  20288243.280    20288247.700
  20288246.960          49.050          46.550
 116272400.744 7  90434121.615 6                  21766436.260    21766442.740
  21766442.360          44.300          41.550
 126812578.210 6  98632083.369 6                  23747909.120    23747920.720
  23747918.960          38.500          38.200
 128085840.619 7  99622318.696 6                  23944295.260    23944301.780
  23944299.980          42.750          37.200
 110456459.213 7  85910606.686 7                  20634187.660    20634190.240
  20634189.260          47.750          46.500
 109392271.657 8  85082890.955 7                  20492858.960    20492864.020
  20492863.320          48.300          46.400
 121403051.127 7  94424630.270 6                  22718912.580    22718920.000
  22718918.520          44.300          36.100
 130769025.678 6 101709280.377 6                  24420189.260    24420197.000
  24420195.840          41.300          38.850
 127213311.938 7  98943677.423 5                  23797890.980    23797899.100
  23797898.020          43.000          31.300
 15  1 27 11  7 35.0000000  0 21G06G07G08G02G17G03G23G09G10G20G01R17
                                R02R12R13R19R03R18R11R04R01
 110571610.575 8  86159701.126 8  82569711.626 8  21041075.980    21041076.740
  21041075.860          49.900          49.250
 123225750.476 8  96020123.142 7                  23449065.580    23449066.740
  23449066.360          48.050          43.300
 126547884.348 7  98608761.86346                  24081252.620
  24081253.120          45.400          37.500
 129048529.693 7 100557290.09746                  24557117.760
  24557114.640          43.900          37.200
 121037315.670 8  94314734.877 7                  23032649.360    23032649.120
  23032648.540          48.100          43.850
 116788528.001 8  91004040.017 7  87212206.684 8  22224122.040    22224122.920
  22224122.100          49.050          46.600
 109480565.602 8  85309500.05147                  20833452.980
  20833447.380          50.250          46.100
 106654575.323 8  83107488.741 8  79644686.520 8  20295676.380    20295675.440
  20295674.960          50.350          50.100
 115645468.850 8  90113367.62946                  22006596.500
  22006594.660          48.000          41.650
 106191165.738 8  82746325.72148                  20207509.280
  20207505.160          49.000          48.050
 127194156.191 7  99112324.389 7  94982628.745 8  24204256.180    24204260.740
  24204260.580          44.850          42.850
 112158906.873 8  87234697.134 7                  20959584.400    20959588.160
  20959586.760          48.850          45.900
 108268702.193 8  84209006.028 7                  20289511.420    20289515.840
  20289515.100          49.000          46.300
 116261269.216 7  90425463.755 6                  21764352.400    21764358.920
  21764358.560          43.900          41.550
 126791637.272 6  98615796.039 6                  23743987.660    23743999.000
  23743997.200          37.250          38.300
 128067069.859 6  99607719.231 6                  23940786.320    23940792.720
  23940790.960          41.900          36.550
 110449448.923 7  85905154.236 7                  20632878.120    20632880.640
  20632879.620          47.150          46.450
 109390707.123 8  85081674.095 7                  20492565.800    20492570.920
  20492570.220          48.350          46.450
 121410590.466 7  94430494.207 6                  22720323.440    22720330.780
  22720329.360          44.000          36.300
 130754844.760 6 101698250.817 6                  24417540.840    24417548.680
  24417547.540          39.450          37.150
 127227860.359 7  98954992.882 5                  23800612.680    23800620.600
  23800619.500          43.900          32.000
 15  1 27 11  7 40.0000000  0 21G06G07G08G02G17G03G23G09G10G20G01R17
                                R02R12R13R19R03R18R11R04R01
 110562600.041 8  86152679.937 8  82562982.993 8  21039361.320    21039362.100
  21039361.220          49.850          49.250
 123209144.283 7  96007183.280 7                  23445905.500    23445906.660
  23445906.300          47.900          43.400
 126554506.915 7  98613922.30046                  24082512.860
  24082513.280          45.000          38.150
 129031483.075 7 100544007.04346                  24553873.840
  24553870.780          44.100          36.700
 121050691.661 7  94325157.720 7                  23035194.720    23035194.500
  23035193.920          47.900          43.950
 116799117.018 8  91012291.201 7  87220114.063 8  22226137.000    22226137.960
  22226137.140          48.800          46.550
 109486927.117 8  85314457.07747                  20834663.520
  20834657.940          50.200          46.050
 106651584.543 8  83105158.259 8  79642453.148 8  20295107.240    20295106.300
  20295105.820          50.300          50.050
 115633586.075 8  90104108.33347                  22004335.240
  22004333.420          48.100          42.050
 106190301.773 8  82745652.50248                  20207344.860
  20207340.740          49.050          48.000
 127211884.573 7  99126138.660 7  94995867.429 8  24207629.740    24207634.400
  24207634.300          44.550          42.650
 112176121.901 8  87248086.579 7                  20962801.440    20962805.200
  20962803.820          48.750          45.900
 108275473.298 8  84214272.440 7                  20290780.300    20290784.780
  20290784.000          48.800          46.200
 116250153.256 7  90416818.017 6                  21762271.440    21762278.040
  21762277.700          43.850          41.750
 126770695.204 6  98599507.841 6                  23740065.820    23740077.180
  23740075.340          36.800          38.900
 128048307.629 7  99593126.394 6                  23937278.900    23937285.160
  23937283.460          42.000          36.300
 110442443.792 7  85899705.803 7                  20631569.540    20631572.020
  20631570.980          46.800          46.350
 109389164.141 8  85080473.998 7                  20492276.660    20492281.860
  20492281.160          48.450          46.450
 121418149.042 7  94436373.097 6                  22721737.920    22721745.260
  22721743.820          43.750          36.550
 130740664.489 6 101687221.743 6                  24414892.660    24414900.620
  24414899.400          40.250          38.750
 127242406.949 7  98966306.914 5                  23803333.960    23803341.820
  23803340.740          43.100          33.600
 15  1 27 11  7 45.0000000  0 21G06G07G08G02G17G03G23G09G10G20G01R17
                                R02R12R13R19R03R18R11R04R01
 110553602.659 8  86145669.000 8  82556264.166 8  21037649.180    21037649.960
  21037649.060          49.800          49.250
 123192542.042 7  95994246.503 7                  23442746.160    23442747.320
  23442746.980          47.600          43.250
 126561144.166 7  98619094.19946                  24083775.840
  24083776.280          44.900          37.350
 129014439.437 7 100530726.31946                  24550630.520
  24550627.460          44.000          37.550
 121064076.013 8  94335587.077 7                  23037741.660    23037741.440
  23037740.920          48.000          44.000
 116809711.514 8  91020546.646 7  87228025.523 8  22228152.980    22228154.040
  22228153.180          48.300          46.700
 109493299.746 8  85319422.76247                  20835876.180
  20835870.620          50.150          46.150
 106648607.673 8  83102838.628 8  79640230.164 8  20294540.760    20294539.820
  20294539.320          50.400          50.000
 115621709.164 8  90094853.61447                  22002075.140
  22002073.320          48.400          42.200
 106189446.939 8  82744986.40447                  20207182.180
  20207178.060          48.850          47.850
 127229617.625 7  99139956.585 7  95009109.578 8  24211004.260    24211008.940
  24211008.860          45.000          42.100
 112193351.445 8  87261487.319 7                  20966021.180    20966024.960
  20966023.600          48.350          45.600
 108282250.624 8  84219543.694 7                  20292050.380    20292054.860
  20292054.060          48.800          46.100
 116239055.164 7  90408186.181 6                  21760193.860    21760200.420
  21760200.160          43.750          41.750
 126749754.129 6  98583220.432 6                  23736144.140    23736155.500
  23736153.640          36.900          37.800
 128029556.429 7  99578542.137 5                  23933773.580    23933779.760
  23933778.020          42.100          35.500
 110435445.975 7  85894263.062 7                  20630262.300    20630264.760
  20630263.700          47.050          46.400
 109387644.916 8  85079292.383 7                  20491991.980    20491997.260
  20491996.540          48.350          46.500
 121425728.996 7  94442268.617 6                  22723156.360    22723163.820
  22723162.260          43.050          36.550
 130726486.878 7 101676194.724 6                  24412245.100    24412252.980
  24412251.840          42.300          39.000
 127256953.929 7  98977621.173 5                  23806055.260    23806063.220
  23806062.180          42.650          33.600
 15  1 27 11  7 50.0000000  0 21G06G07G08G02G17G03G23G09G10G20G01R17
                                R02R12R13R19R03R18R11R04R01
 110544617.920 8  86138667.904 8  82549554.793 8  21035939.440    21035940.200
  21035939.340          49.700          49.150
 123175943.316 7  95981312.455 7                  23439587.480    23439588.660
  23439588.280          47.350          42.800
 126567795.609 7  98624277.13746                  24085041.540
  24085041.940          45.250          36.200
 128997398.292 7 100517447.52346                  24547387.660
  24547384.640          44.300          36.750
 121077468.243 8  94346022.568 7                  23040290.100    23040289.940
  23040289.440          48.250          44.050
 116820310.989 8  91028805.947 7  87235940.696 8  22230169.900    22230171.060
  22230170.200          48.150          46.700
 109499682.927 8  85324396.67047                  20837090.860
  20837085.280          50.100          46.100
 106645644.230 8  83100529.455 8  79638017.213 8  20293976.840    20293975.880
  20293975.380          50.550          49.900
 115609837.600 8  90085603.05346                  21999816.080
  21999814.220          48.600          41.300
 106188600.689 8  82744326.99247                  20207021.160
  20207017.040          48.900          47.950
 127247354.833 7  99153777.766 6  95022354.858 8  24214379.560    24214384.220
  24214384.160          44.800          41.750
 112210594.928 8  87274898.904 7                  20969243.560    20969247.340
  20969245.980          48.300          45.300
 108289033.686 8  84224819.411 7                  20293321.520    20293325.960
  20293325.220          48.950          46.150
 116227974.402 7  90399567.814 6                  21758119.520    21758126.080
  21758125.840          44.250          41.350
 126728813.640 6  98566933.440 6                  23732222.460    23732233.940
  23732232.100          37.200          38.300
 128010815.633 6  99563965.942 5                  23930270.220    23930276.320
  23930274.420          41.550          35.350
 110428454.929 7  85888825.585 7                  20628956.360    20628958.760
  20628957.680          47.300          46.400
 109386148.872 7  85078128.799 7                  20491711.660    20491717.000
  20491716.280          47.900          46.250
 121433329.691 7  94448180.252 6                  22724578.720    22724586.120
  22724584.600          43.700          36.400
 130712311.480 7 101665169.456 6                  24409597.960    24409605.800
  24409604.760          44.150          39.900
 127271500.669 6  98988935.265 5                  23808776.520    23808784.520
  23808783.580          41.950          33.350
 15  1 27 11  7 55.0000000  0 22G30G06G07G08G02G17G03G23G09G10G20G01
                                R17R02R12R13R19R03R18R11R04R01
 134945197.26716                                  25679217.320
                        37.050
 110535644.605 8  86131675.713 8  82542853.943 8  21034231.860    21034232.640
  21034231.780          49.650          49.250
 123159346.824 7  95968380.142 7                  23436429.260    23436430.420
  23436429.980          47.600          42.950
 126574459.948 7  98629470.13246                  24086309.680
  24086310.080          45.750          36.700
 128980358.328 7 100504169.64346                  24544145.080
  24544142.060          44.500          36.600
 121090867.038 8  94356463.177 7                  23042839.820    23042839.640
  23042839.220          48.200          44.000
 116830914.147 8  91037068.146 7  87243858.635 8  22232187.560    22232188.800
  22232187.940          48.650          46.700
 109506075.415 8  85329377.82947                  20838307.320
  20838301.740          50.000          46.150
 106642692.905 8  83098229.730 8  79635813.305 8  20293415.200    20293414.260
  20293413.740          50.600          49.950
 115597970.137 8  90076355.68447                  21997557.800
  21997555.920          48.650          42.000
 106187761.773 8  82743673.29548                  20206861.520
  20206857.400          48.900          48.300
 127265094.942 7  99167601.192 6  95035602.291 8  24217755.480    24217760.040
  24217759.900          44.950          41.500
 112227851.273 8  87288320.504 7                  20972468.300    20972472.100
  20972470.760          48.450          45.250
 108295821.069 8  84230098.487 7                  20294593.520    20294597.880
  20294597.160          49.250          46.100
 116216909.731 7  90390961.955 6                  21756048.160    21756054.740
  21756054.540          44.200          41.550
 126707872.450 6  98550645.923 6                  23728300.840    23728312.300
  23728310.400          38.400          38.350
 127992084.001 6  99549396.906 5                  23926768.580    23926774.620
  23926772.580          41.650          35.350
 110421469.288 7  85883392.314 7                  20627651.400    20627653.780
  20627652.700          47.700          46.400
 109384674.738 7  85076982.255 7                  20491435.440    20491440.820
  20491440.120          47.950          46.200
 121440950.003 7  94454107.160 6                  22726004.760    22726012.200
  22726010.620          44.050          36.850
 130698136.982 7 101654144.851 6                  24406950.960    24406958.820
  24406957.820          43.950          38.150
 127286045.855 7  99000248.157 5                  23811497.560    23811505.440
  23811504.640          43.750          33.900
 15  1 27 11  8  0.0000000  0 22G30G06G07G08G02G17G03G23G09G10G20G01
                                R17R02R12R13R19R03R18R11R04R01
 134927673.579 6 105138470.64244                  25675882.140
  25675883.520          38.900          29.100
 110526683.427 8  86124692.973 8  82536162.162 8  21032526.580    21032527.380
  21032526.520          49.650          49.200
 123142753.311 7  95955450.142 7                  23433271.580    23433272.780
  23433272.320          47.350          43.300
 126581137.926 7  98634673.74046                  24087580.440
  24087580.860          46.050          37.000
 128963320.315 7 100490893.28146                  24540902.820
  24540899.780          44.400          36.750
 121104273.122 8  94366909.458 7                  23045390.920    23045390.760
  23045390.380          48.250          43.950
 116841521.744 8  91045333.800 7  87251779.873 8  22234206.080    22234207.380
  22234206.560          48.600          46.850
 109512477.909 8  85334366.77747                  20839525.680
  20839520.100          50.050          46.350
 106639754.460 8  83095940.040 8  79633619.028 8  20292856.020    20292855.080
  20292854.560          50.600          50.000
 115586107.502 8  90067112.07347                  21995300.460
  21995298.540          48.650          42.400
 106186930.936 8  82743025.88648                  20206703.420
  20206699.300          48.750          48.250
 127282838.648 7  99181427.428 6  95048852.424 8  24221132.060    24221136.520
  24221136.320          45.300          41.000
 112245121.057 8  87301752.535 7                  20975695.580    20975699.400
  20975698.040          48.800          45.250
 108302613.707 8  84235381.646 7                  20295866.460    20295870.820
  20295870.120          49.250          46.200
 116205861.866 7  90382369.173 6                  21753980.000    21753986.540
  21753986.340          43.750          41.050
 126686931.200 6  98534358.338 6                  23724379.200    23724390.500
  23724388.720          39.350          37.550
 127973362.289 6  99534835.576 5                  23923268.720    23923274.780
  23923272.600          41.950          35.350
 110414490.025 7  85877964.005 7                  20626347.620    20626350.000
  20626348.900          47.600          46.300
 109383223.272 8  85075853.324 7                  20491163.500    20491168.920
  20491168.180          48.350          46.200
 121448590.589 7  94460049.827 6                  22727434.640    22727442.100
  22727440.440          44.800          36.450
 130683964.171 7 101643121.566 6                  24404304.300    24404312.060
  24404311.020          43.500          36.850
 127300590.337 7  99011560.537 5                  23814218.560    23814226.460
  23814225.620          43.650          33.000
 15  1 27 11  8  5.0000000  0 22G30G06G07G08G02G17G03G23G09G10G20G01
                                R17R02R12R13R19R03R18R11R04R01
 134910147.032 6 105124813.75444 100744638.735 6  25672546.880
  25672559.540          38.200          28.350
 110517735.977 8  86117720.938 8  82529480.622 8  21030823.900    21030824.740
  21030823.900          49.600          49.300
 123126164.333 7  95942523.701 7                  23430114.740    23430116.020
  23430115.560          47.200          43.700
 126587831.110 7  98639889.22046                  24088854.120
  24088854.520          46.100          37.600
 128946285.828 7 100477619.66446                  24537661.220
  24537658.240          44.150          39.100
 121117688.064 8  94377362.641 7                  23047943.720    23047943.520
  23047943.180          48.250          43.700
 116852135.344 8  91053604.121 7  87259705.594 8  22236225.780    22236227.100
  22236226.300          49.000          47.150
 109518891.971 8  85339364.75047                  20840746.220
  20840740.680          50.200          46.150
 106636830.458 8  83093661.606 8  79631435.516 8  20292299.600    20292298.660
  20292298.120          50.400          50.150
 115574251.280 8  90057873.46547                  21993044.320
  21993042.360          48.800          42.250
 106186109.750 8  82742385.99948                  20206547.140
  20206543.040          48.800          48.150
 127300587.546 7  99195257.724 6  95062106.430 7  24224509.600    24224513.980
  24224513.780          45.000          41.800
 112262405.934 8  87315196.323 7                  20978925.680    20978929.500
  20978928.160          48.600          45.500
 108309413.090 8  84240670.055 7                  20297140.680    20297145.040
  20297144.340          49.300          46.250
 116194832.460 7  90373790.752 6                  21751915.280    21751921.800
  21751921.580          43.850          41.150
 126665991.823 6  98518072.177 6                  23720457.880    23720469.200
  23720467.360          38.850          38.000
 127954652.062 6  99520283.175 5                  23919771.080    23919777.000
  23919774.820          41.600          35.600
 110407518.590 7  85872541.788 7                  20625045.260    20625047.620
  20625046.540          47.400          46.500
 109381796.121 8  85074743.326 7                  20490896.140    20490901.540
  20490900.820          48.850          46.350
 121456253.026 7  94466009.498 5                  22728868.600    22728875.900
  22728874.340          44.750          35.900
 130669794.565 7 101632100.761 6                  24401658.180    24401665.940
  24401664.700          43.700          36.450
 127315135.657 7  99022873.537 5                  23816939.580    23816947.580
  23816946.660          42.050          32.600
 15  1 27 11  8 10.0000000  0 22G30G06G07G08G02G17G03G23G09G10G20G01
                                R17R02R12R13R19R03R18R11R04R01
 134892615.619 6 105111153.03344 100731547.205 6  25669210.800
  25669219.940          38.550          25.050
 110508800.247 8  86110758.035 8  82522807.840 8  21029123.480    21029124.340
  21029123.500          49.550          49.350
 123109577.912 7  95929599.258 7                  23426958.420    23426959.740
  23426959.320          47.650          43.550
 126594537.450 7  98645114.93746                  24090130.260
  24090130.660          45.700          36.700
 128929252.819 7 100464347.22646                  24534419.920
  24534416.900          43.850          39.250
 121131109.797 8  94387821.135 7                  23050497.820    23050497.640
  23050497.280          48.000          43.750
 116862752.912 8  91061877.545 7  87267634.301 8  22238246.260    22238247.600
  22238246.820          49.200          47.150
 109525315.595 8  85344370.18147                  20841968.600
  20841963.080          50.000          46.300
 106633918.877 8  83091392.841 8  79629261.289 8  20291745.560    20291744.580
  20291744.040          50.350          50.200
 115562399.436 8  90048638.27247                  21990789.000
  21990787.020          48.550          42.150
 106185296.184 8  82741752.05348                  20206392.320
  20206388.220          48.800          48.600
 127318339.586 7  99209090.432 7  95075362.798 7  24227887.720    24227892.120
  24227891.980          45.150          42.750
 112279703.663 8  87328650.093 7                  20982158.200    20982162.000
  20982160.680          48.550          45.800
 108316217.095 8  84245962.058 7                  20298415.780    20298420.140
  20298419.420          49.450          46.350
 116183819.370 7  90365225.018 6                  21749853.620    21749860.100
  21749859.860          44.250          41.000
 126645051.908 6  98501785.642 6                  23716536.480    23716547.760
  23716545.900          37.950          38.550
 127935951.344 6  99505738.181 6                  23916275.200    23916281.140
  23916278.900          40.850          36.800
 110400553.015 7  85867124.115 7                  20623744.040    20623746.400
  20623745.300          47.200          46.300
 109380391.165 8  85073650.574 7                  20490632.900    20490638.360
  20490637.620          48.650          46.450
 121463935.268 7  94471984.565 6                  22730306.240    22730313.600
  22730311.940          44.800          36.950
 130655626.140 7 101621080.935 6                  24399012.320    24399019.940
  24399018.620          43.550          36.600
 127329679.775 7  99034185.568 5                  23819660.260    23819668.300
  23819667.460          42.150          32.200
 15  1 27 11  8 15.0000000  0 22G30G06G07G08G02G17G03G23G09G10G20G01
                                R17R02R12R13R19R03R18R11R04R01
 134875079.045 6 105097488.23844 100718451.808 6  25665873.660
  25665882.340          39.250          28.750
 110499875.925 8  86103804.022 8  82516143.567 8  21027425.220    21027426.100
  21027425.280          49.350          49.350
 123092993.735 8  95916676.551 7                  23423802.580    23423803.880
  23423803.440          48.350          43.650
 126601256.625 7  98650350.67046                  24091408.860
  24091409.220          45.750          37.300
 128912221.070 7 100451075.75846                  24531178.880
  24531175.840          44.400          38.150
 121144538.032 7  94398284.684 7                  23053053.120    23053052.920
  23053052.580          47.700          43.650
 116873374.159 8  91070153.832 7  87275565.732 8  22240267.460    22240268.780
  22240268.040          49.200          46.950
 109531748.513 8  85349382.83647                  20843192.740
  20843187.220          50.050          46.150
 106631019.411 8  83089133.515 8  79627096.102 8  20291193.800    20291192.820
  20291192.280          50.450          50.150
 115550551.664 8  90039406.25247                  21988534.420
  21988532.480          48.400          42.400
 106184489.938 8  82741123.81448                  20206238.920
  20206234.800          48.900          48.600
 127336094.436 7  99222925.338 7  95088621.260 8  24231266.360    24231270.840
  24231270.680          45.450          42.650
 112297014.095 8  87342113.750 7                  20985393.080    20985396.900
  20985395.580          48.450          45.900
 108323025.528 8  84251257.511 7                  20299691.680    20299696.040
  20299695.320          49.350          46.450
 116172822.407 7  90356671.829 6                  21747794.940    21747801.420
  21747801.160          44.050          41.150
 126624111.402 6  98485498.643 6                  23712614.940    23712626.240
  23712624.340          37.500          39.100
 127917259.915 6  99491200.423 6                  23912781.040    23912787.040
  23912784.720          41.050          36.700
 110393592.852 7  85861710.658 7                  20622443.840    20622446.200
  20622445.060          47.300          46.350
 109379008.069 8  85072574.837 7                  20490373.780    20490379.260
  20490378.500          48.550          46.300
 121471636.853 7  94477974.680 6                  22731747.480    22731754.880
  22731753.140          44.650          36.350
 130641458.424 7 101610061.634 6                  24396366.580    24396374.240
  24396372.800          43.800          37.450
 127344222.267 7  99045496.371 5                  23822380.780    23822388.860
  23822387.980          43.400          33.650
 15  1 27 11  8 20.0000000  0 22G30G06G07G08G02G17G03G23G09G10G20G01
                                R17R02R12R13R19R03R18R11R04R01
 134857539.408 6 105083821.08944 100705354.127 6  25662536.200
  25662547.240          40.400          28.900
 110490965.069 8  86096860.505 8  82509489.367 8  21025729.500    21025730.420
  21025729.600          49.300          49.250
 123076413.961 7  95903757.278 7                  23420647.560    23420648.820
  23420648.420          47.950          43.600
 126607990.706 7  98655598.01046                  24092690.320
  24092690.660          45.700          36.550
 128895192.629 7 100437806.85346                  24527938.500
  24527935.380          45.000          37.600
 121157974.774 7  94408754.854 7                  23055610.060    23055609.860
  23055609.500          47.650          43.450
 116884001.120 8  91078434.573 7  87283501.446 8  22242289.780    22242291.060
  22242290.320          49.450          47.000
 109538192.771 8  85354404.32747                  20844419.020
  20844413.520          50.150          46.100
 106628134.084 8  83086885.208 8  79624941.482 8  20290644.740    20290643.760
  20290643.200          50.400          50.050
 115538710.041 8  90030179.02247                  21986281.000
  21986279.120          48.050          42.550
 106183693.072 8  82740502.87948                  20206087.280
  20206083.160          49.000          48.300
 127353854.165 7  99236764.055 7  95101883.368 8  24234645.960    24234650.500
  24234650.320          45.550          42.950
 112314339.093 8  87355588.734 7                  20988630.660    20988634.540
  20988633.180          48.250          45.900
 108329840.389 8  84256557.960 7                  20300968.780    20300973.140
  20300972.420          49.400          46.300
 116161843.716 7  90348132.870 6                  21745739.720    21745746.120
  21745745.880          43.900          41.200
 126603172.276 6  98469212.745 6                  23708693.660    23708704.920
  23708703.060          38.000          39.000
 127898579.690 6  99476671.365 6                  23909288.940    23909295.020
  23909292.700          41.800          37.150
 110386640.236 7  85856303.073 7                  20621145.040    20621147.360
  20621146.240          47.400          46.350
 109377649.013 8  85071517.798 7                  20490119.200    20490124.660
  20490123.900          48.650          46.350
 121479360.050 7  94483981.619 6                  22733192.780    22733200.280
  22733198.440          44.350          36.550
 130627293.833 7 101599044.778 6                  24393721.440    24393729.180
  24393727.780          43.600          40.150
 127358765.369 7  99056807.662 5                  23825101.460    23825109.440
  23825108.640          43.750          33.650
 15  1 27 11  8 25.0000000  0 22G30G06G07G08G02G17G03G23G09G10G20G01
                                R17R02R12R13R19R03R18R11R04R01
 134839994.101 6 105070171.782 5 100692252.233 6  25659197.500    25659208.080
  25659207.160          39.600          34.200
 110482065.162 8  86089925.518 8  82502843.340 8  21024035.880    21024036.840
  21024036.000          49.450          49.200
 123059835.974 7  95890839.399 7                  23417492.860    23417494.160
  23417493.740          47.650          43.550
 126614737.144 7  98660854.97746                  24093974.100
  24093974.480          45.550          37.000
 128878164.906 7 100424538.51446                  24524698.240
  24524695.080          45.300          37.650
 121171417.499 7  94419229.694 7                  23058168.140    23058167.920
  23058167.520          47.850          43.100
 116894631.240 8  91086717.781 7  87291439.520 8  22244312.680    22244313.940
  22244313.220          49.400          46.900
 109544645.704 8  85359432.58347                  20845646.980
  20845641.460          49.850          46.150
 106625260.363 8  83084645.951 8  79622795.529 8  20290097.920    20290096.900
  20290096.340          50.550          49.900
 115526872.001 7  90020954.58147                  21984028.260
  21984026.480          47.900          42.200
 106182903.033 8  82739887.26248                  20205936.940
  20205932.820          49.050          48.050
 127371616.213 7  99250604.564 7  95115147.185 8  24238026.000    24238030.640
  24238030.420          45.800          42.900
 112331676.273 7  87369073.194 7                  20991870.540    20991874.440
  20991873.060          47.600          45.450
 108336659.071 8  84261861.375 7                  20302246.620    20302250.980
  20302250.280          49.400          46.350
 116150880.655 7  90339606.042 6                  21743687.420    21743693.720
  21743693.500          43.900          41.300
 126582232.072 6  98452925.968 6                  23704772.200    23704783.520
  23704781.600          38.700          38.800
 127879908.285 7  99462149.168 6                  23905798.520    23905804.620
  23905802.340          42.100          36.850
 110379692.725 7  85850899.463 7                  20619847.180    20619849.520
  20619848.380          47.300          46.400
 109376311.323 8  85070477.374 7                  20489868.640    20489874.060
  20489873.280          48.900          46.350
 121487102.227 7  94490003.313 6                  22734641.660    22734649.180
  22734647.320          45.050          36.450
 130613129.528 7 101588028.086 6                  24391076.360    24391084.080
  24391082.880          42.000          39.650
 127373306.430 7  99068117.332 5                  23827821.720    23827829.600
  23827828.940          43.650          32.900
 15  1 27 11  8 30.0000000  0 22G30G06G07G08G02G17G03G23G09G10G20G01
                                R17R02R12R13R19R03R18R11R04R01
 134822444.529 6 105056496.918 5 100679147.143 6  25655857.960    25655868.220
  25655869.240          39.750          35.100
 110473177.591 8  86083000.142 8  82496206.519 8  21022344.580    21022345.560
  21022344.760          49.600          49.250
 123043261.206 7  95877924.038 7                  23414338.800    23414340.080
  23414339.680          47.850          43.000
 126621497.340 7  98666122.65646                  24095260.500
  24095260.900          45.400          37.900
 128861139.314 7 100411271.81846                  24521458.380
  24521455.200          45.400          37.150
 121184867.596 7  94429710.296 7                  23060727.600    23060727.380
  23060726.960          47.350          43.150
 116905265.939 8  91095004.558 7  87299381.004 8  22246336.460    22246337.680
  22246336.980          48.950          46.900
 109551108.733 8  85364468.70447                  20846876.840
  20846871.320          50.000          46.300
 106622399.632 8  83082416.826 8  79620659.273 8  20289553.560    20289552.500
  20289551.960          50.700          49.900
 115515038.954 7  90011734.03747                  21981776.460
  21981774.740          47.750          43.450
 106182121.231 8  82739278.06847                  20205788.180
  20205784.060          49.200          47.800
 127389381.946 7  99264447.959 7  95128413.768 8  24241406.800    24241411.440
  24241411.200          45.900          42.050
 112349026.909 7  87382568.129 7                  20995112.960    20995116.840
  20995115.460          47.750          45.100
 108343483.137 8  84267168.984 7                  20303525.440    20303529.800
  20303529.120          49.250          46.300
 116139934.616 7  90331092.460 6                  21741638.320    21741644.560
  21741644.320          43.650          41.300
 126561292.202 6  98436639.448 6                  23700850.780    23700862.060
  23700860.180          38.050          38.250
 127861247.013 7  99447634.827 6                  23902310.000    23902316.000
  23902313.840          42.100          37.100
 110372751.455 7  85845500.712 7                  20618550.460    20618552.780
  20618551.640          46.950          46.350
 109374996.471 8  85069454.712 7                  20489622.340    20489627.720
  20489626.960          48.900          46.250
 121494864.722 7  94496040.805 6                  22736094.320    22736101.840
  22736099.980          44.900          36.850
 130598967.097 6 101577012.860 6                  24388431.640    24388439.300
  24388438.260          41.900          39.600
 127387846.904 7  99079426.584 5                  23830541.860    23830549.640
  23830548.980          43.500          31.350
 15  1 27 11  8 35.0000000  0 22G30G06G07G08G02G17G03G23G09G10G20G01
                                R17R02R12R13R19R03R18R11R04R01
 134804891.817 6 105042819.536 5 100666039.689 7  25652517.700    25652528.920
  25652528.820          40.850          34.950
 110464303.413 8  86076085.196 8  82489579.700 8  21020655.860    21020656.860
  21020656.060          49.550          49.250
 123026690.663 7  95865011.937 7                  23411185.560    23411186.780
  23411186.380          47.950          42.800
 126628272.297 7  98671401.84146                  24096549.720
  24096550.140          45.650          37.750
 128844116.922 7 100398007.62146                  24518219.140
  24518215.920          44.800          38.050
 121198326.102 7  94440197.431 7                  23063288.660    23063288.420
  23063287.960          47.400          43.450
 116915906.238 8  91103295.683 7  87307326.676 8  22248361.280    22248362.460
  22248361.780          49.300          46.750
 109557582.882 8  85369513.49747                  20848108.840
  20848103.280          50.150          46.050
 106619552.945 8  83080198.633 8  79618533.516 8  20289011.860    20289010.800
  20289010.240          50.650          49.900
 115503211.900 7  90002518.16047                  21979525.800
  21979524.140          47.850          42.850
 106181348.669 8  82738676.07447                  20205641.180
  20205637.060          49.150          47.850
 127407152.421 7  99278295.064 6  95141683.889 8  24244788.480    24244793.080
  24244792.780          45.900          41.750
 112366392.025 7  87396074.328 7                  20998358.040    20998361.900
  20998360.540          47.700          44.750
 108350313.532 8  84272481.517 7                  20304805.480    20304809.820
  20304809.140          48.950          46.250
 116129006.720 7  90322592.992 6                  21739592.600    21739598.840
  21739598.560          43.650          41.350
 126540353.531 6  98420353.852 6                  23696929.600    23696940.820
  23696939.020          38.050          38.500
 127842597.009 7  99433129.289 6                  23898823.600    23898829.640
  23898827.480          42.150          37.400
 110365817.690 7  85840107.780 7                  20617255.160    20617257.500
  20617256.340          46.600          46.300
 109373705.449 8  85068450.575 7                  20489380.540    20489385.840
  20489385.080          48.750          46.400
 121502648.620 7  94502094.936 5                  22737551.000    22737558.600
  22737556.640          44.400          35.850
 130584807.540 7 101565999.919 6                  24385787.500    24385795.140
  24385794.060          42.050          38.100
 127402387.815 7  99090736.183 5                  23833262.180    23833269.860
  23833269.080          43.600          31.600
 15  1 27 11  8 40.0000000  0 22G30G06G07G08G02G17G03G23G09G10G20G01
                                R17R02R12R13R19R03R18R11R04R01
 134787335.647 6 105029139.500 6 100652929.665 7  25649176.760    25649187.180
  25649188.220          41.600          36.450
 110455442.364 8  86069180.491 8  82482962.685 8  21018969.620    21018970.660
  21018969.860          49.450          49.200
 123010124.132 7  95852102.972 7                  23408033.060    23408034.240
  23408033.800          47.600          42.950
 126635061.766 7  98676692.35746                  24097841.720
  24097842.120          45.800          37.550
 128827097.449 7 100384745.72146                  24514980.480
  24514977.220          44.550          37.450
 121211792.667 7  94450690.862 7                  23065851.260    23065850.960
  23065850.520          47.550          43.700
 116926551.849 8  91111590.969 7  87315276.319 8  22250387.100    22250388.240
  22250387.580          49.250          46.900
 109564067.887 8  85374566.75447                  20849342.880
  20849337.340          50.100          45.950
 106616720.008 8  83077991.154 8  79616418.003 8  20288472.800    20288471.720
  20288471.160          50.700          49.900
 115491390.611 8  89993306.78247                  21977276.240
  21977274.660          48.150          42.050
 106180585.115 8  82738081.09948                  20205495.880
  20205491.760          49.050          48.100
 127424927.353 7  99292145.646 6  95154957.318 8  24248170.980    24248175.560
  24248175.200          45.550          41.800
 112383771.386 7  87409591.597 7                  21001605.760    21001609.660
  21001608.260          47.850          44.800
 108357149.938 8  84277798.720 7                  20306086.620    20306090.980
  20306090.300          49.000          46.000
 116118096.738 7  90314107.461 6                  21737550.240    21737556.500
  21737556.180          44.000          41.250
 126519415.954 6  98404069.109 6                  23693008.660    23693019.780
  23693017.960          38.400          38.250
 127823957.998 7  99418632.280 6                  23895339.260    23895345.320
  23895343.180          42.900          37.450
 110358891.000 7  85834720.360 7                  20615961.220    20615963.520
  20615962.360          46.400          46.200
 109372438.079 8  85067464.853 7                  20489143.160    20489148.440
  20489147.680          49.000          46.300
 121510453.659 7  94508165.529 6                  22739011.640    22739019.220
  22739017.300          44.750          36.050
 130570650.422 7 101554988.912 6                  24383143.820    24383151.320
  24383150.160          42.050          37.850
 127416928.845 7  99102045.873 5                  23835982.460    23835989.960
  23835989.160          43.300          30.850
 15  1 27 11  8 45.0000000  0 22G30G06G07G08G02G17G03G23G09G10G20G01
                                R17R02R12R13R19R03R18R11R04R01
 134769774.215 6 105015455.344 6 100639815.710 7  25645834.840    25645845.020
  25645845.360          41.850          36.050
 110446592.619 8  86062284.590 8  82476354.119 8  21017285.540    21017286.620
  21017285.800          49.550          49.200
 122993559.780 7  95839195.711 7                  23404880.940    23404882.080
  23404881.640          47.250          43.150
 126641863.860 7  98681992.67646                  24099136.120
  24099136.480          45.800          37.900
 128810079.074 7 100371484.68446                  24511741.980
  24511738.720          44.850          39.000
 121225265.534 7  94461189.201 7                  23068415.080    23068414.740
  23068414.300          47.550          43.900
 116937200.958 8  91119888.968 7  87323228.573 8  22252413.580    22252414.700
  22252414.020          48.450          46.800
 109570561.900 8  85379627.02147                  20850578.640
  20850573.100          50.300          45.750
 106613898.989 8  83075792.955 8  79614311.408 8  20287936.020    20287934.880
  20287934.320          50.750          50.050
 115479573.250 8  89984098.45347                  21975027.440
  21975025.920          48.350          42.650
 106179828.732 8  82737491.70748                  20205351.960
  20205347.820          49.000          48.050
 127442704.893 7  99305998.248 6  95168232.718 8  24251553.940    24251558.500
  24251558.100          44.900          41.650
 112401163.006 7  87423118.388 7                  21004855.800    21004859.640
  21004858.300          47.950          44.800
 108363990.543 8  84283119.183 7                  20307368.540    20307372.900
  20307372.220          49.050          46.200
 116107202.776 7  90305634.390 6                  21735510.900    21735517.120
  21735516.760          44.200          41.000
 126498477.739 6  98387783.891 6                  23689087.580    23689098.640
  23689096.860          37.850          38.900
 127805328.091 7  99404142.363 6                  23891856.600    23891862.700
  23891860.580          42.300          38.000
 110351969.729 7  85829337.152 7                  20614668.240    20614670.580
  20614669.380          47.000          46.200
 109371192.436 8  85066496.022 7                  20488909.860    20488915.080
  20488914.300          49.050          46.250
 121518277.891 7  94514251.027 6                  22740475.840    22740483.380
  22740481.540          44.600          36.300
 130556493.973 7 101543978.411 6                  24380500.200    24380507.780
  24380506.400          42.050          37.500
 127431468.264 7  99113354.291 5                  23838702.400    23838709.780
  23838709.000          42.850          31.250
