     2.11           OBSERVATION DATA    M (MIXED)           RINEX VERSION / TYPE
teqc  2011Oct11     IGN-E (SPG)         20150127 03:02:52UTCPGM / RUN BY / DATE
Linux 2.4.21-27.ELsmp|Opteron|gcc -static|Linux x86_64|=+   COMMENT
BIT 2 OF LLI FLAGS DATA COLLECTED UNDER A/S CONDITION       COMMENT
VALE                                                        MARKER NAME
13439M001                                                   MARKER NUMBER
Programas GeodesicosInstituto Geografico Nacional           OBSERVER / AGENCY
1700071             LEICA GR10          3.03/6.214          REC # / TYPE / VERS
10190012            LEIAR25.R3      LEIT                    ANT # / TYPE
  4929534.0457   -29050.6755  4033709.9250                  APPROX POSITION XYZ
        3.0390        0.0000        0.0000                  ANTENNA: DELTA H/E/N
     1     1                                                WAVELENGTH FACT L1/2
     8    L1    L2    L5    C1    C2    P2    S1    S2      # / TYPES OF OBSERV
     5.0000                                                 INTERVAL
Forced Modulo Decimation to 5 seconds                       COMMENT
DefaultJobName                                              COMMENT
DefaultUserDiscription                                      COMMENT
Project creator:                                            COMMENT
 SNR is mapped to RINEX snr flag value [0-9]                COMMENT
  L1 & L2: min(max(int(snr_dBHz/6), 0), 9)                  COMMENT
  2015     1    27     2     0    0.0000000     GPS         TIME OF FIRST OBS
    15                                                      LEAP SECONDS
                                                            END OF HEADER
 15  1 27  2  0  0.0000000  0 23G31G08G21G25G16G18G22G27G19G29R11R05
                                R21R10R04R22R12R06R20E12E19E18E11
 119934768.770 8  93455672.928 7                  22822823.220    22822819.040
  22822818.100          49.000          44.600
 110412107.179 8  86035388.04147                  21010724.160
  21010719.760          50.650          46.150
 111396250.531 8  86802330.98547                  21197970.920
  21197965.180          48.050          46.600
 133029266.821 7 103659339.343 6  99340193.441 7  25314548.020    25314547.040
  25314546.240          43.550          38.000
 112826074.082 8  87916422.21247                  21470085.780
  21470080.520          50.000          45.300
 122809345.213 8  95695586.73446                  23369833.680
  23369828.420          48.100          37.850
 130322643.348 7 101550116.62045                  24799563.420
  24799557.120          45.800          35.450
 119239228.905 8  92913693.657 7  89042284.092 8  22690466.560    22690465.060
  22690464.400          48.000          46.350
 132158956.168 7 102980979.40446                  25149011.640
  25149005.900          42.700          37.250
 124918362.676 7  97339120.421 6                  23771113.860    23771110.340
  23771109.580          47.050          41.600
 104487990.414 7  81268450.733 7                  19553501.620    19553505.160
  19553503.480          47.750          42.350
 122811652.123 7  95520192.146 7                  22974458.060    22974461.240
  22974461.220          46.650          42.650
 105264639.714 7  81872548.389 7                  19671194.060    19671195.640
  19671194.700          47.700          47.100
 113391779.297 7  88193640.662 6                  21272004.360    21272010.820
  21272009.440          47.700          40.050
 127807275.913 7  99405675.276 6                  23867103.600    23867106.320
  23867105.740          42.850          37.900
 116465170.069 8  90584049.584 7                  21817844.280    21817847.500
  21817846.260          49.050          43.650
 118874699.050 7  92458113.161 6                  22253592.900    22253596.260
  22253595.880          43.750          40.300
 128772767.070 7 100156583.115 5                  24131959.940    24131962.540
  24131962.320          44.150          35.050
 114473785.145 7  89035315.626 7                  21407128.420    21407132.840
  21407130.620          42.200          44.450
 137109458.038 8                 102387063.613 7  26091011.040
                        48.400
 147026876.641 7                 109792805.742 6  27978282.980
                        45.000
 118106695.572 8                  88196596.245 8  22474951.560
                        52.250
 122991997.631 8                  91844782.313 8  23404544.820
                        50.600
 15  1 27  2  0  5.0000000  0 23G31G08G21G25G16G18G22G27G19G29R11R05
                                R21R10R04R22R12R06R20E12E19E18E11
 119950482.488 8  93467917.385 7                  22825813.440    22825809.280
  22825808.340          49.100          44.650
 110418694.274 8  86040520.84647                  21011977.640
  21011973.240          50.400          46.650
 111400317.829 7  86805500.31247                  21198744.880
  21198739.160          47.950          46.550
 133046154.566 7 103672498.625 6  99352804.433 7  25317761.660    25317760.720
  25317759.840          43.650          38.350
 112815175.617 8  87907929.90247                  21468011.860
  21468006.600          49.900          45.150
 122797727.407 8  95686533.89446                  23367622.900
  23367617.620          48.050          37.550
 130307347.593 7 101538197.86646                  24796652.700
  24796646.440          45.100          36.400
 119227748.537 8  92904747.917 7  89033711.087 8  22688281.880    22688280.400
  22688279.760          48.100          46.650
 132143984.869 7 102969313.46945                  25146162.680
  25146156.960          44.400          34.950
 124931954.770 7  97349711.659 6                  23773700.380    23773696.840
  23773696.020          47.000          41.300
 104489175.475 7  81269372.449 7                  19553723.420    19553726.940
  19553725.260          47.600          42.400
 122802390.610 7  95512988.762 7                  22972725.540    22972728.760
  22972728.740          46.400          42.300
 105265746.854 7  81873409.501 7                  19671400.900    19671402.540
  19671401.600          47.750          47.050
 113411537.844 7  88209008.431 6                  21275711.040    21275717.520
  21275716.120          47.250          40.150
 127812644.924 7  99409851.168 6                  23868106.300    23868108.940
  23868108.320          42.250          37.200
 116452813.421 8  90574438.850 7                  21815529.460    21815532.680
  21815531.460          48.200          44.200
 118856416.410 7  92443893.328 6                  22250170.340    22250173.760
  22250173.320          43.250          40.250
 128754551.003 7 100142415.055 5                  24128546.280    24128548.800
  24128548.540          44.050          34.550
 114487702.219 7  89046140.010 7                  21409730.980    21409735.440
  21409733.200          42.700          44.650
 137120290.135 8                 102395152.501 7  26093072.260
                        48.350
 147023065.161 7                 109789959.507 6  27977557.720
                        45.200
 118133334.146 8                  88216488.686 8  22480020.720
                        52.300
 122995282.336 8                  91847235.175 8  23405169.880
                        50.600
 15  1 27  2  0 10.0000000  0 23G31G08G21G25G16G18G22G27G19G29R11R05
                                R21R10R04R22R12R06R20E12E19E18E11
 119966201.599 8  93480166.048 7                  22828804.680    22828800.500
  22828799.600          49.100          44.800
 110425297.838 8  86045666.48947                  21013234.240
  21013229.860          50.350          46.400
 111404395.865 8  86808678.00447                  21199520.860
  21199515.180          48.050          46.450
 133063044.481 7 103685659.612 6  99365417.030 7  25320975.720    25320974.800
  25320973.940          43.100          38.400
 112804284.159 8  87899443.06047                  21465939.280
  21465934.020          49.750          45.800
 122786114.640 7  95677484.99946                  23365413.060
  23365407.800          47.950          38.250
 130292048.758 7 101526276.71846                  24793741.400
  24793735.180          44.550          36.500
 119216271.873 7  92895805.070 7  89025140.863 8  22686097.940    22686096.460
  22686095.840          47.900          46.600
 132129015.412 7 102957648.94545                  25143314.000
  25143308.360          43.800          35.750
 124945547.045 7  97360303.050 6                  23776286.920    23776283.340
  23776282.500          47.100          41.300
 104490382.939 7  81270311.594 7                  19553949.400    19553952.940
  19553951.200          47.900          42.150
 122793144.835 7  95505797.624 7                  22970995.960    22970999.180
  22970999.180          46.650          42.700
 105266863.749 7  81874278.210 7                  19671609.580    19671611.280
  19671610.320          47.700          47.000
 113431307.411 7  88224384.767 6                  21279419.780    21279426.200
  21279424.820          47.150          40.250
 127818032.592 7  99414041.587 6                  23869112.520    23869114.980
  23869114.440          43.000          37.550
 116440464.415 7  90564834.084 7                  21813216.060    21813219.280
  21813218.100          47.050          44.350
 118838144.716 7  92429682.018 6                  22246749.780    22246753.280
  22246752.820          43.300          40.250
 128736334.665 7 100128246.796 5                  24125132.580    24125135.160
  24125134.780          44.850          34.700
 114501621.619 7  89056966.212 7                  21412333.940    21412338.420
  21412336.240          42.750          44.650
 137131122.342 8                 102403241.481 7  26095133.480
                        48.400
 147019263.321 7                 109787120.471 6  27976834.300
                        44.850
 118159971.978 8                  88236380.574 8  22485089.760
                        52.250
 122998571.365 8                  91849691.274 8  23405795.760
                        50.650
 15  1 27  2  0 15.0000000  0 23G31G08G21G25G16G18G22G27G19G29R11R05
                                R21R10R04R22R12R06R20E12E19E18E11
 119981927.430 8  93492419.937 7                  22831797.240    22831793.080
  22831792.140          49.250          44.650
 110431919.188 8  86050825.97447                  21014494.240
  21014489.860          50.600          46.300
 111408485.914 8  86811865.05847                  21200299.160
  21200293.480          48.100          46.600
 133079937.864 7 103698823.274 6  99378032.203 7  25324190.400    25324189.440
  25324188.660          42.550          38.500
 112793401.033 8  87890962.70247                  21463868.280
  21463863.020          49.700          44.900
 122774508.185 8  95668440.99846                  23363204.440
  23363199.160          48.100          38.800
 130276748.107 7 101514354.16446                  24790829.720
  24790823.520          44.050          36.900
 119204800.204 8  92886866.110 7  89016574.353 8  22683914.940    22683913.480
  22683912.880          48.050          46.800
 132114049.150 7 102945986.92645                  25140466.000
  25140460.420          43.600          35.300
 124959140.771 7  97370895.566 6                  23778873.720    23778870.100
  23778869.300          47.150          41.250
 104491614.180 7  81271269.224 7                  19554179.840    19554183.340
  19554181.580          47.750          42.000
 122783915.941 7  95498619.600 7                  22969269.500    22969272.720
  22969272.780          46.400          42.600
 105267991.672 7  81875155.471 7                  19671820.320    19671822.080
  19671821.080          47.800          47.100
 113451089.094 7  88239770.503 6                  21283130.760    21283137.280
  21283135.820          47.400          40.100
 127823440.379 7  99418247.655 6                  23870122.500    23870124.840
  23870124.260          42.850          37.650
 116428124.350 8  90555236.289 7                  21810904.320    21810907.560
  21810906.420          48.050          44.350
 118819885.492 7  92415480.402 6                  22243331.620    22243335.100
  22243334.680          43.450          40.300
 128718119.113 7 100114079.138 5                  24121719.000    24121721.560
  24121721.160          44.750          33.950
 114515544.628 7  89067795.218 7                  21414937.620    21414942.040
  21414939.960          42.800          44.400
 137141955.908 8                 102411331.480 7  26097194.980
                        48.550
 147015472.370 7                 109784289.580 6  27976112.920
                        44.550
 118186610.326 8                  88256272.846 8  22490158.920
                        52.250
 123001866.004 8                  91852151.553 8  23406422.720
                        50.700
 15  1 27  2  0 20.0000000  0 23G31G08G21G25G16G18G22G27G19G29R11R05
                                R21R10R04R22R12R06R20E12E19E18E11
 119997657.939 8  93504677.478 7                  22834790.660    22834786.520
  22834785.580          49.350          44.800
 110438556.330 8  86055997.76847                  21015757.240
  21015752.860          50.750          46.350
 111412586.001 8  86815059.93247                  21201079.360
  21201073.700          48.250          46.050
 133096832.704 7 103711988.081 6  99390648.463 7  25327405.360    25327404.440
  25327403.600          42.250          38.550
 112782524.279 8  87882487.31547                  21461798.460
  21461793.240          49.750          45.400
 122762906.146 8  95659400.44646                  23360996.640
  23360991.380          48.150          38.500
 130261443.723 7 101502428.68846                  24787917.320
  24787911.180          44.000          36.400
 119193331.586 8  92877929.534 7  89008010.131 8  22681732.540    22681731.100
  22681730.480          48.450          46.700
 132099084.073 7 102934325.82946                  25137618.200
  25137612.620          42.650          38.250
 124972733.947 7  97381487.654 6                  23781460.420    23781456.800
  23781456.000          47.150          41.700
 104492867.079 7  81272243.701 7                  19554414.320    19554417.860
  19554416.040          47.850          42.300
 122774701.958 7  95491453.173 6                  22967545.820    22967549.040
  22967549.080          46.400          41.850
 105269128.658 7  81876039.785 7                  19672032.760    19672034.580
  19672033.560          47.950          47.150
 113470880.917 7  88255164.140 6                  21286843.600    21286850.200
  21286848.720          47.300          39.950
 127828866.126 7  99422467.691 6                  23871135.840    23871138.000
  23871137.500          43.100          37.750
 116415791.297 8  90545643.924 7                  21808593.880    21808597.180
  21808596.020          48.350          43.750
 118801636.626 7  92401286.850 6                  22239915.400    22239918.840
  22239918.460          43.550          40.150
 128699902.473 7 100099910.642 5                  24118305.220    24118307.720
  24118307.320          44.550          33.650
 114529469.215 7  89078625.452 7                  21417541.540    21417546.000
  21417543.980          43.100          44.150
 137152788.846 8                 102419421.013 7  26099256.340
                        48.400
 147011690.400 7                 109781465.375 6  27975393.260
                        45.100
 118213247.220 8                  88276164.034 8  22495227.780
                        52.250
 123005164.272 8                  91854614.545 8  23407050.360
                        50.800
 15  1 27  2  0 25.0000000  0 23G31G08G21G25G16G18G22G27G19G29R11R05
                                R21R10R04R22R12R06R20E12E19E18E11
 120013394.792 8  93516939.956 7                  22837785.320    22837781.140
  22837780.200          49.350          44.750
 110445210.939 8  86061183.17647                  21017023.560
  21017019.200          50.800          46.400
 111416697.800 8  86818263.93647                  21201861.780
  21201856.140          48.050          46.300
 133113730.722 7 103725155.362 6  99403267.116 7  25330620.900    25330619.980
  25330619.140          42.650          38.700
 112771655.568 8  87874018.19347                  21459730.180
  21459724.980          49.750          45.200
 122751310.196 8  95650364.65346                  23358790.000
  23358784.760          48.400          37.900
 130246137.281 7 101490501.61946                  24785004.580
  24784998.600          43.750          37.450
 119181867.686 8  92868996.624 7  88999449.425 8  22679551.040    22679549.580
  22679548.960          48.300          46.850
 132084121.865 7 102922666.92546                  25134770.980
  25134765.520          43.250          37.600
 124986328.283 7  97392080.640 6                  23784047.360    23784043.800
  23784042.960          47.400          41.700
 104494143.437 7  81273236.416 7                  19554653.160    19554656.720
  19554654.920          47.850          42.300
 122765504.683 7  95484299.739 6                  22965825.280    22965828.480
  22965828.460          46.850          41.550
 105270276.354 8  81876932.436 7                  19672247.240    19672249.060
  19672248.060          48.350          47.150
 113490684.509 7  88270566.926 6                  21290558.640    21290565.300
  21290563.820          47.300          39.550
 127834311.793 7  99426703.217 6                  23872152.840    23872154.980
  23872154.380          43.150          37.000
 116403466.856 7  90536058.244 7                  21806285.040    21806288.420
  21806287.220          47.750          43.950
 118783399.979 7  92387102.793 6                  22236501.520    22236504.920
  22236504.520          43.700          39.750
 128681686.636 7 100085742.757 5                  24114891.560    24114893.880
  24114893.640          44.600          33.800
 114543397.193 7  89089458.328 7                  21420146.140    21420150.620
  21420148.600          42.950          44.550
 137163622.871 8                 102427511.351 7  26101317.940
                        48.650
 147007919.058 7                 109778649.127 6  27974675.640
                        45.050
 118239884.323 8                  88296055.384 8  22500296.660
                        52.200
 123008467.853 8                  91857081.513 8  23407679.020
                        50.800
 15  1 27  2  0 30.0000000  0 23G31G08G21G25G16G18G22G27G19G29R11R05
                                R21R10R04R22R12R06R20E12E19E18E11
 120029135.980 8  93529205.819 7                  22840780.820    22840776.580
  22840775.680          49.250          45.200
 110451880.984 8  86066380.61047                  21018292.820
  21018288.460          50.700          46.650
 111420819.330 8  86821475.51847                  21202646.060
  21202640.460          48.000          46.550
 133130629.834 7 103738323.495 6  99415886.580 7  25333836.700    25333835.840
  25333834.980          42.700          38.650
 112760792.878 8  87865553.76247                  21457663.020
  21457657.880          49.800          45.500
 122739718.355 8  95641332.04546                  23356584.160
  23356578.940          48.350          38.800
 130230826.843 7 101478571.40246                  24782091.080
  24782085.020          43.000          38.100
 119170406.493 8  92860065.820 7  88990890.738 8  22677370.040    22677368.600
  22677367.960          48.150          46.900
 132069160.466 7 102911008.70745                  25131923.900
  25131918.520          43.400          35.850
 124999921.754 7  97402672.953 6                  23786634.120    23786630.580
  23786629.720          46.950          41.550
 104495441.181 7  81274245.770 7                  19554896.040    19554899.500
  19554897.780          47.750          42.250
 122756321.969 7  95477157.634 6                  22964107.480    22964110.540
  22964110.520          46.600          40.700
 105271432.685 8  81877831.812 7                  19672463.300    19672465.120
  19672464.140          48.350          47.000
 113510497.883 7  88285977.332 6                  21294275.560    21294282.260
  21294280.740          47.250          39.750
 127839775.097 7  99430952.455 6                  23873173.140    23873175.180
  23873174.560          43.850          36.450
 116391148.998 7  90526477.725 7                  21803977.480    21803980.860
  21803979.680          47.300          43.800
 118765173.306 7  92372926.487 6                  22233089.480    22233092.860
  22233092.420          43.550          39.850
 128663469.379 7 100071573.761 5                  24111477.580    24111479.840
  24111479.720          43.700          34.300
 114557326.312 7  89100292.075 7                  21422750.960    21422755.460
  21422753.440          42.700          44.200
 137174455.953 8                 102435600.980 7  26103379.380
                        48.400
 147004156.345 7                 109775839.293 6  27973959.600
                        44.700
 118266519.593 8                  88315945.355 8  22505365.160
                        52.050
 123011774.710 8                  91859550.915 8  23408308.300
                        50.800
 15  1 27  2  0 35.0000000  0 23G31G08G21G25G16G18G22G27G19G29R11R05
                                R21R10R04R22R12R06R20E12E19E18E11
 120044884.339 8  93541477.269 7                  22843777.660    22843773.400
  22843772.520          49.450          45.150
 110458569.349 8  86071592.32147                  21019565.560
  21019561.240          50.550          46.750
 111424953.382 7  86824696.86147                  21203432.720
  21203427.140          47.950          46.600
 133147532.902 7 103751494.736 6  99428509.009 7  25337053.220    25337052.400
  25337051.540          42.950          39.150
 112749939.136 8  87857096.30947                  21455597.600
  21455592.480          49.950          45.600
 122728133.508 8  95632304.90046                  23354379.640
  23354374.440          48.500          38.250
 130215515.233 7 101466640.31446                  24779177.320
  24779171.300          42.800          36.650
 119158950.855 8  92851139.355 7  88982336.217 8  22675190.120    22675188.660
  22675188.040          48.300          46.900
 132054202.754 7 102899353.36946                  25129077.500
  25129072.220          44.000          36.000
 125013517.232 7  97413266.838 6                  23789221.200    23789217.760
  23789216.880          46.850          41.600
 104496763.201 7  81275274.010 7                  19555143.440    19555146.860
  19555145.180          47.900          42.100
 122747156.907 7  95470029.238 6                  22962392.960    22962395.940
  22962395.800          46.900          40.550
 105272600.638 8  81878740.223 7                  19672681.540    19672683.380
  19672682.380          48.650          46.900
 113530323.882 7  88301397.549 6                  21297994.820    21298001.520
  21298000.060          47.400          39.700
 127845259.018 7  99435217.741 6                  23874197.260    23874199.280
  23874198.580          43.800          36.750
 116378840.601 8  90516904.531 7                  21801671.700    21801675.100
  21801673.900          48.500          43.700
 118746959.624 7  92358760.301 6                  22229679.860    22229683.200
  22229682.780          43.450          40.150
 128645253.964 7 100057406.221 5                  24108063.940    24108066.400
  24108066.160          43.800          35.300
 114571259.770 7  89111129.209 7                  21425356.600    21425361.100
  21425359.060          42.750          44.050
 137185290.967 8                 102443692.068 7  26105441.180
                        48.700
 147000405.130 7                 109773038.071 6  27973245.720
                        45.000
 118293155.910 8                  88335836.109 8  22510433.840
                        52.050
 123015087.737 8                  91862024.932 8  23408938.780
                        50.850
 15  1 27  2  0 40.0000000  0 23G31G08G21G25G16G18G22G27G19G29R11R05
                                R21R10R04R22R12R06R20E12E19E18E11
 120060639.498 8  93553754.010 7                  22846775.800    22846771.540
  22846770.660          49.300          45.000
 110465275.634 8  86076817.98747                  21020841.700
  21020837.380          50.500          46.850
 111429099.511 8  86827927.60247                  21204221.660
  21204216.100          48.000          46.450
 133164439.626 7 103764668.791 6  99441134.146 7  25340270.480    25340269.600
  25340268.700          43.400          38.900
 112739093.881 8  87848645.45247                  21453533.820
  21453528.680          50.150          45.650
 122716555.254 8  95623282.88446                  23352176.380
  23352171.180          48.450          38.200
 130200202.109 7 101454707.99346                  24776263.260
  24776257.260          42.750          37.800
 119147500.432 8  92842216.943 7  88973785.569 8  22673011.200    22673009.720
  22673009.100          48.300          46.950
 132039248.421 7 102887700.63446                  25126231.740
  25126226.420          43.350          37.300
 125027114.326 7  97423861.958 7                  23791808.620    23791805.240
  23791804.380          47.000          42.000
 104498109.091 7  81276320.805 6                  19555395.300    19555398.700
  19555397.040          47.700          41.900
 122738008.939 7  95462914.144 6                  22960681.660    22960684.520
  22960684.260          46.800          40.700
 105273779.829 8  81879657.363 7                  19672901.880    19672903.740
  19672902.740          48.400          47.050
 113550162.253 7  88316827.385 6                  21301716.400    21301723.160
  21301721.680          47.150          39.700
 127850763.288 7  99439498.859 6                  23875225.200    23875227.080
  23875226.440          43.850          37.000
 116366541.407 8  90507338.469 7                  21799367.660    21799371.000
  21799369.840          48.400          43.800
 118728758.609 7  92344603.948 6                  22226272.540    22226275.920
  22226275.480          43.300          40.350
 128627039.823 7 100043239.695 6                  24104650.600    24104653.160
  24104652.900          43.650          36.350
 114585196.967 7  89121969.251 7                  21427962.920    21427967.440
  21427965.380          42.800          44.050
 137196127.544 8                 102451784.311 7  26107503.320
                        48.850
 146996665.058 7                 109770245.154 7  27972534.000
                        44.750
 118319792.870 8                  88355727.336 8  22515502.620
                        51.950
 123018406.549 8                  91864503.266 8  23409570.340
                        50.750
 15  1 27  2  0 45.0000000  0 23G31G08G21G25G16G18G22G27G19G29R11R05
                                R21R10R04R22R12R06R20E12E19E18E11
 120076399.972 8  93566034.893 7                  22849774.920    22849770.680
  22849769.780          49.400          45.000
 110471998.340 8  86082056.45747                  21022120.960
  21022116.680          50.550          46.600
 111433256.309 7  86831166.66447                  21205012.620
  21205007.100          47.950          46.300
 133181348.459 7 103777844.500 6  99453760.876 7  25343488.140    25343487.200
  25343486.380          44.300          38.800
 112728255.648 8  87840200.07347                  21451471.360
  21451466.220          50.200          45.300
 122704982.129 8  95614264.85846                  23349974.080
  23349968.920          48.350          38.000
 130184885.985 7 101442773.35946                  24773348.640
  24773342.740          43.200          36.800
 119136053.699 8  92833297.408 7  88965237.677 8  22670832.980    22670831.440
  22670830.880          48.550          46.800
 132024295.950 7 102876049.36046                  25123386.360
  25123381.020          42.300          37.350
 125040711.549 7  97434457.189 6                  23794396.040    23794392.700
  23794391.860          46.700          41.850
 104499477.361 7  81277385.006 6                  19555651.340    19555654.780
  19555653.080          47.850          41.900
 122728876.723 7  95455811.321 6                  22958973.300    22958976.040
  22958975.760          47.050          40.900
 105274968.639 8  81880581.978 7                  19673124.000    19673125.900
  19673124.900          48.100          47.050
 113570011.289 7  88332265.522 6                  21305440.000    21305446.760
  21305445.280          46.900          39.650
 127856286.222 7  99443794.470 6                  23876256.660    23876258.440
  23876257.820          43.900          37.300
 116354249.774 7  90497778.306 7                  21797065.040    21797068.300
  21797067.180          47.900          43.700
 118710568.808 7  92330456.337 6                  22222867.360    22222870.720
  22222870.320          43.450          39.900
 128608825.304 7 100029072.863 5                  24101237.160    24101239.820
  24101239.520          43.850          35.800
 114599136.527 7  89132811.133 7                  21430569.700    21430574.220
  21430572.120          42.850          43.950
 137206964.139 8                 102459876.569 7  26109565.460
                        48.850
 146992934.627 7                 109767459.441 7  27971824.080
                        44.550
 118346428.961 8                  88375617.917 8  22520571.200
                        52.000
 123021729.631 8                  91866984.777 8  23410202.720
                        50.700
 15  1 27  2  0 50.0000000  0 23G31G08G21G25G16G18G22G27G19G29R11R05
                                R21R10R04R22R12R06R20E12E19E18E11
 120092166.547 8  93578320.532 7                  22852775.220    22852770.940
  22852770.080          49.250          45.100
 110478738.267 8  86087308.35147                  21023403.520
  21023399.240          50.550          46.350
 111437424.627 7  86834414.70647                  21205805.800
  21205800.320          47.950          46.200
 133198260.167 7 103791022.468 6  99466389.753 7  25346706.360    25346705.360
  25346704.640          44.000          38.100
 112717425.341 8  87831760.87647                  21449410.440
  21449405.280          50.100          45.350
 122693415.021 8  95605251.52946                  23347772.920
  23347767.780          48.450          38.750
 130169567.638 7 101430837.02246                  24770433.600
  24770427.720          42.950          36.950
 119124611.479 8  92824381.399 7  88956693.174 8  22668655.620    22668654.080
  22668653.540          48.400          46.750
 132009346.168 7 102864400.14445                  25120541.460
  25120536.080          42.300          34.500
 125054309.694 7  97445053.142 6                  23796983.640    23796980.300
  23796979.540          46.600          41.850
 104500868.865 7  81278467.287 6                  19555911.720    19555915.160
  19555913.480          47.850          41.900
 122719761.045 7  95448721.333 6                  22957268.040    22957270.660
  22957270.400          47.150          41.200
 105276167.924 8  81881514.745 7                  19673348.140    19673350.020
  19673349.040          48.300          47.000
 113589871.827 7  88347712.612 6                  21309165.720    21309172.580
  21309171.060          46.850          39.550
 127861828.817 7  99448105.390 6                  23877291.700    23877293.520
  23877292.840          43.100          37.300
 116341966.592 8  90488224.751 7                  21794764.000    21794767.220
  21794766.120          48.400          43.800
 118692391.084 7  92316318.116 6                  22219464.440    22219467.800
  22219467.400          43.650          40.250
 128590611.348 7 100014906.453 5                  24097823.860    24097826.480
  24097826.200          44.550          35.550
 114613079.151 7  89143655.386 7                  21433177.080    21433181.600
  21433179.460          43.400          44.000
 137217801.620 8                 102467969.497 7  26111627.800
                        48.700
 146989214.634 7                 109764681.552 7  27971116.120
                        44.550
 118373064.983 8                  88395508.455 8  22525639.760
                        52.000
 123025057.813 8                  91869470.118 8  23410836.060
                        50.650
 15  1 27  2  0 55.0000000  0 23G31G08G21G25G16G18G22G27G19G29R11R05
                                R21R10R04R22R12R06R20E12E19E18E11
 120107938.345 8  93590610.239 7                  22855776.480    22855772.200
  22855771.340          49.300          44.900
 110485494.519 8  86092572.96147                  21024689.180
  21024684.920          50.600          46.400
 111441603.471 8  86837670.94847                  21206600.940
  21206595.540          48.000          46.350
 133215173.935 7 103804202.034 6  99479020.187 7  25349924.940    25349923.980
  25349923.180          44.050          38.250
 112706602.078 8  87823327.16747                  21447350.860
  21447345.680          50.200          45.450
 122681853.026 8  95596242.18146                  23345572.760
  23345567.660          48.300          39.050
 130154246.225 7 101418898.27145                  24767517.900
  24767512.080          42.450          35.600
 119113172.919 8  92815468.232 7  88948151.383 8  22666478.960    22666477.380
  22666476.860          48.550          46.800
 131994398.177 7 102852752.36146                  25117696.880
  25117691.580          42.500          37.600
 125067907.911 7  97455649.149 6                  23799571.280    23799567.920
  23799567.200          46.850          41.550
 104502282.711 7  81279566.935 7                  19556176.260    19556179.780
  19556178.040          47.700          42.000
 122710661.022 7  95441643.546 6                  22955565.700    22955568.340
  22955568.000          46.900          41.200
 105277376.827 8  81882455.013 7                  19673574.080    19673575.900
  19673574.960          48.550          47.150
 113609743.054 7  88363168.010 6                  21312893.460    21312900.360
  21312898.800          46.900          39.700
 127867389.924 7  99452430.691 6                  23878330.200    23878331.960
  23878331.320          43.650          37.400
 116329691.021 8  90478677.089 7                  21792464.380    21792467.600
  21792466.480          49.000          44.100
 118674224.450 7  92302188.503 6                  22216063.580    22216067.080
  22216066.580          43.650          40.500
 128572397.232 7 100000739.924 6                  24094410.580    24094413.260
  24094412.920          45.350          36.300
 114627023.954 7  89154501.356 7                  21435784.800    21435789.380
  21435787.200          43.100          44.250
 137228639.077 8                 102476062.403 7  26113690.160
                        48.850
 146985504.298 7                 109761910.825 6  27970410.000
                        44.200
 118399700.070 8                  88415398.287 8  22530708.200
                        51.950
 123028390.215 8                  91871958.599 8  23411470.240
                        50.650
 15  1 27  2  1  0.0000000  0 23G31G08G21G25G16G18G22G27G19G29R11R05
                                R21R10R04R22R12R06R20E12E19E18E11
 120123716.027 8  93602904.536 7                  22858778.860    22858774.580
  22858773.720          49.300          45.100
 110492267.805 8  86097850.84047                  21025978.080
  21025973.820          50.400          46.450
 111445793.668 7  86840936.03947                  21207398.260
  21207392.900          47.950          46.300
 133232090.451 7 103817383.733 6  99491652.649 7  25353144.020    25353143.140
  25353142.460          43.400          37.600
 112695786.545 8  87814899.47247                  21445292.760
  21445287.560          50.150          45.700
 122670296.803 8  95587237.33446                  23343373.680
  23343368.560          48.300          38.600
 130138922.458 7 101406957.69146                  24764601.800
  24764595.960          43.700          36.200
 119101738.714 8  92806558.457 7  88939612.847 8  22664303.140    22664301.540
  22664301.000          48.650          46.850
 131979452.628 7 102841106.48945                  25114852.780
  25114847.480          43.300          34.150
 125081506.873 7  97466245.739 6                  23802159.100    23802155.720
  23802155.020          47.000          41.900
 104503719.700 7  81280684.591 6                  19556445.160    19556448.720
  19556446.940          47.900          41.850
 122701577.405 7  95434578.510 6                  22953866.400    22953869.020
  22953868.700          47.150          41.650
 105278595.986 8  81883403.246 7                  19673801.900    19673803.720
  19673802.800          48.950          47.000
 113629625.488 7  88378632.123 6                  21316623.300    21316630.200
  21316628.680          47.300          39.750
 127872970.464 7  99456771.109 6                  23879372.380    23879374.200
  23879373.460          43.550          37.350
 116317423.605 8  90469135.763 7                  21790166.280    21790169.520
  21790168.360          48.750          43.800
 118656069.688 7  92288068.137 6                  22212664.940    22212668.420
  22212667.980          43.900          40.350
 128554183.559 7  99986573.719 6                  24090997.420    24091000.100
  24090999.680          45.250          37.150
 114640971.650 7  89165349.547 7                  21438393.120    21438397.660
  21438395.500          43.700          44.400
 137239477.217 8                 102484155.816 7  26115752.660
                        48.950
 146981804.204 7                 109759147.785 6  27969705.820
                        43.800
 118426334.886 8                  88435287.913 8  22535776.580
                        52.000
 123031727.525 8                  91874450.737 8  23412105.340
                        50.700
 15  1 27  2  1  5.0000000  0 23G31G08G21G25G16G18G22G27G19G29R11R05
                                R21R10R04R22R12R06R20E12E19E18E11
 120139500.582 8  93615204.192 7                  22861782.580    22861778.300
  22861777.420          49.150          45.050
 110499059.124 8  86103142.77347                  21027270.400
  21027266.160          50.250          46.600
 111449996.178 7  86844210.72447                  21208197.940
  21208192.620          47.950          46.600
 133249010.722 7 103830568.369 6  99504287.912 7  25356363.880    25356363.060
  25356362.400          42.850          36.950
 112684979.767 8  87806478.61047                  21443236.320
  21443231.100          50.000          45.900
 122658747.394 8  95578237.80046                  23341175.900
  23341170.780          48.100          38.750
 130123597.390 7 101395016.11246                  24761685.600
  24761679.740          43.800          36.850
 119090309.871 8  92797652.863 7  88931078.325 8  22662128.340    22662126.700
  22662126.140          48.500          46.800
 131964510.615 7 102829463.38545                  25112009.400
  25112004.120          43.100          31.700
 125095107.612 7  97476843.713 6                  23804747.280    23804743.880
  23804743.180          47.150          41.650
 104505180.667 7  81281820.909 7                  19556718.560    19556722.120
  19556720.340          47.700          42.000
 122692511.235 7  95427527.051 6                  22952170.400    22952173.000
  22952172.700          47.650          41.550
 105279826.449 8  81884360.279 7                  19674031.840    19674033.640
  19674032.740          48.450          47.050
 113649520.288 7  88394105.857 6                  21320355.460    21320362.340
  21320360.880          46.950          39.800
 127878571.363 7  99461127.379 6                  23880418.400    23880420.120
  23880419.380          43.400          37.100
 116305165.661 8  90459601.813 7                  21787869.980    21787873.200
  21787872.020          48.300          44.050
 118637927.880 7  92273957.840 6                  22209268.760    22209272.240
  22209271.800          43.750          40.550
 128535971.262 7  99972408.610 6                  24087584.480    24087587.140
  24087586.720          44.550          36.000
 114654923.330 7  89176200.854 7                  21441002.180    21441006.640
  21441004.540          43.700          44.350
 137250317.062 8                 102492250.492 7  26117815.480
                        48.800
 146978115.463 7                 109756393.200 6  27969003.740
                        43.750
 118452970.427 8                  88455178.095 8  22540845.140
                        52.150
 123035070.755 8                  91876947.307 8  23412741.540
                        50.700
 15  1 27  2  1 10.0000000  0 23G31G08G21G25G16G18G22G27G19G29R11R05
                                R21R10R04R22R12R06R20E12E19E18E11
 120155290.332 8  93627507.889 7                  22864787.260    22864782.960
  22864782.100          49.150          45.100
 110505866.760 8  86108447.40547                  21028565.840
  21028561.600          50.300          46.700
 111454209.313 7  86847493.68047                  21208999.620
  21208994.360          47.700          46.850
 133265933.000 7 103843754.550 6  99516924.682 7  25359584.060    25359583.220
  25359582.640          43.150          36.900
 112674180.033 8  87798063.22747                  21441181.200
  21441175.980          49.850          45.650
 122647203.117 8  95569242.25946                  23338979.080
  23338973.980          48.000          37.700
 130108269.310 7 101383072.15745                  24758768.800
  24758762.880          43.700          35.850
 119078884.696 8  92788750.127 7  88922546.525 8  22659954.260    22659952.560
  22659952.000          48.700          46.850
 131949570.463 6 102817821.69346                  25109166.340
  25109161.180          41.800          36.700
 125108708.450 7  97487441.764 6                  23807335.500    23807332.060
  23807331.400          47.200          41.850
 104506664.002 7  81282974.602 6                  19556996.100    19556999.760
  19556997.920          47.650          41.950
 122683460.814 7  95420487.838 6                  22950477.400    22950480.020
  22950479.660          47.850          41.350
 105281066.553 7  81885324.794 7                  19674263.580    19674265.380
  19674264.480          47.800          47.100
 113669425.742 7  88409587.866 6                  21324089.660    21324096.520
  21324095.080          47.100          39.050
 127884190.949 7  99465498.174 6                  23881467.880    23881469.480
  23881468.780          43.150          37.150
 116292915.160 8  90450073.654 7                  21785575.100    21785578.240
  21785577.080          48.600          44.050
 118619797.322 7  92259856.288 6                  22205874.720    22205878.160
  22205877.740          43.700          40.200
 128517758.859 7  99958243.406 5                  24084171.520    24084174.280
  24084173.700          43.400          34.900
 114668877.176 7  89187053.835 7                  21443611.680    21443616.040
  21443613.980          43.000          44.150
 137261156.887 8                 102500345.164 8  26119878.320
                        48.950
 146974436.324 7                 109753645.796 6  27968303.560
                        43.450
 118479604.994 8                  88475067.533 8  22545913.560
                        52.200
 123038418.192 8                  91879447.012 8  23413378.560
                        50.750
 15  1 27  2  1 15.0000000  0 23G31G08G21G25G16G18G22G27G19G29R11R05
                                R21R10R04R22R12R06R20E12E19E18E11
 120171084.344 8  93639814.907 7                  22867792.760    22867788.500
  22867787.600          49.250          44.950
 110512689.772 8  86113764.03847                  21029864.220
  21029859.980          50.200          46.700
 111458432.102 7  86850784.16347                  21209803.160
  21209797.940          47.700          46.700
 133282856.390 7 103856941.605 6  99529562.283 7  25362804.480    25362803.660
  25362803.220          43.550          36.950
 112663386.440 8  87789652.63947                  21439127.260
  21439122.020          49.900          45.950
 122635663.095 8  95560250.04746                  23336783.060
  23336778.020          48.250          38.700
 130092937.300 7 101371125.15845                  24755851.180
  24755845.040          44.150          34.050
 119067462.251 8  92779849.515 7  88914016.785 8  22657780.660    22657778.960
  22657778.360          48.400          46.800
 131934631.201 6 102806180.67745                  25106323.460
  25106318.380          40.550          34.500
 125122308.427 7  97498039.143 6                  23809923.560    23809920.060
  23809919.380          47.150          41.000
 104508168.702 7  81284144.928 6                  19557277.680    19557281.320
  19557279.500          47.800          41.750
 122674425.146 7  95413460.093 6                  22948787.180    22948789.760
  22948789.320          47.000          41.500
 105282315.288 8  81886296.030 7                  19674496.960    19674498.720
  19674497.840          48.000          47.200
 113689340.837 7  88425077.386 6                  21327825.700    21327832.560
  21327831.120          47.250          38.950
 127889828.104 7  99469882.630 6                  23882520.560    23882522.120
  23882521.440          43.300          37.700
 116280671.394 8  90440550.712 7                  21783281.460    21783284.540
  21783283.400          48.700          44.250
 118601677.058 7  92245762.760 6                  22202482.560    22202486.080
  22202485.560          43.900          40.100
 128499545.372 7  99944077.360 5                  24080758.240    24080761.100
  24080760.500          42.900          34.800
 114682832.171 7  89197907.720 7                  21446221.320    21446225.720
  21446223.640          43.200          43.950
 137271995.741 8                 102508439.110 8  26121940.940
                        49.050
 146970765.868 7                 109750904.870 6  27967605.060
                        43.300
 118506237.632 8                  88494955.553 8  22550981.620
                        52.200
 123041768.915 8                  91881949.174 8  23414016.180
                        50.800
 15  1 27  2  1 20.0000000  0 23G31G08G21G25G16G18G22G27G19G29R11R05
                                R21R10R04R22R12R06R20E12E19E18E11
 120186886.078 8  93652127.953 7                  22870799.740    22870795.460
  22870794.580          49.300          44.850
 110519531.725 8  86119095.44147                  21031166.200
  21031161.980          50.150          46.400
 111462668.018 7  86854084.88347                  21210609.200
  21210604.000          47.750          46.300
 133299784.417 7 103870132.274 6  99542203.342 7  25366025.780    25366024.920
  25366024.640          43.750          36.700
 112652602.550 8  87781249.61847                  21437075.140
  21437069.920          49.900          45.600
 122624130.854 8  95551263.88246                  23334588.540
  23334583.520          48.200          38.250
 130077604.943 7 101359177.88045                  24752933.500
  24752927.420          44.700          35.550
 119056046.059 8  92770953.793 7  88905491.713 8  22655608.260    22655606.520
  22655605.920          48.700          46.600
 131919696.366 6 102794543.14246                  25103481.440
  25103476.320          41.300          36.600
 125135911.073 7  97508638.626 6                  23812512.040    23812508.520
  23812507.860          46.950          41.150
 104509698.314 8  81285334.626 6                  19557563.920    19557567.540
  19557565.740          48.150          41.850
 122665407.945 7  95406446.737 6                  22947100.340    22947102.960
  22947102.440          47.100          41.700
 105283576.232 8  81887276.768 7                  19674732.660    19674734.340
  19674733.480          48.400          47.200
 113709269.172 7  88440577.213 6                  21331564.240    21331571.100
  21331569.660          47.550          39.300
 127895486.709 7  99474283.765 6                  23883577.300    23883578.760
  23883578.160          44.000          37.600
 116268437.778 8  90431035.669 7                  21780989.720    21780992.760
  21780991.660          48.100          44.400
 118583570.676 7  92231680.023 6                  22199093.040    22199096.480
  22199096.000          44.000          39.950
 128481334.351 7  99929913.237 5                  24077345.500    24077348.240
  24077347.700          42.850          34.950
 114696792.110 7  89208765.459 7                  21448831.960    21448836.260
  21448834.200          43.050          43.900
 137282837.216 8                 102516535.032 8  26124004.060
                        49.050
 146967107.677 7                 109748173.106 6  27966908.840
                        43.300
 118532871.860 8                  88514844.755 8  22556050.020
                        52.200
 123045126.439 8                  91884456.435 8  23414655.100
                        50.800
 15  1 27  2  1 25.0000000  0 23G31G08G21G25G16G18G22G27G19G29R11R05
                                R21R10R04R22R12R06R20E12E19E18E11
 120202694.447 8  93664446.154 7                  22873807.960    22873803.660
  22873802.820          49.550          45.000
 110526391.470 8  86124440.69647                  21032471.560
  21032467.360          50.300          46.450
 111466916.039 7  86857395.03347                  21211417.540
  21211412.360          47.800          46.250
 133316715.950 7 103883325.674 6  99554847.005 7  25369247.760    25369246.860
  25369246.600          43.550          36.900
 112641827.257 8  87772853.29147                  21435024.680
  21435019.460          50.000          45.700
 122612605.293 8  95542282.92246                  23332395.320
  23332390.280          48.150          38.100
 130062271.157 7 101347229.49145                  24750015.580
  24750009.580          44.900          35.100
 119044635.039 8  92762062.085 7  88896970.492 8  22653436.860    22653435.060
  22653434.440          48.650          46.400
 131904764.829 7 102782908.16145                  25100640.060
  25100634.900          43.050          32.700
 125149515.256 7  97519239.263 6                  23815100.820    23815097.280
  23815096.600          47.050          41.300
 104511251.817 7  81286542.898 6                  19557854.640    19557858.200
  19557856.460          47.650          41.850
 122656407.945 7  95399446.725 6                  22945416.720    22945419.380
  22945418.840          47.000          41.950
 105284848.247 8  81888266.114 7                  19674970.380    19674972.060
  19674971.200          48.750          47.000
 113729209.443 7  88456086.298 6                  21335304.980    21335311.780
  21335310.400          47.800          38.900
 127901165.360 7  99478700.512 6                  23884637.800    23884639.280
  23884638.580          44.350          37.350
 116256213.256 8  90421527.724 7                  21778699.700    21778702.700
  21778701.620          48.150          44.300
 118565477.129 7  92217607.256 6                  22195705.880    22195709.380
  22195708.840          43.600          40.100
 128463124.869 7  99915750.296 5                  24073932.980    24073935.820
  24073935.260          43.550          35.550
 114710755.568 7  89219625.916 7                  21451443.140    21451447.500
  21451445.400          43.350          44.000
 137293680.138 8                 102524632.017 8  26126067.440
                        49.000
 146963460.591 7                 109745449.666 6  27966214.740
                        43.300
 118559506.552 8                  88534734.293 8  22561118.500
                        52.300
 123048489.667 8                  91886967.928 8  23415295.100
                        50.700
 15  1 27  2  1 30.0000000  0 23G31G08G21G25G16G18G22G27G19G29R11R05
                                R21R10R04R22R12R06R20E12E19E18E11
 120218506.559 8  93676767.272 7                  22876816.900    22876812.620
  22876811.780          49.650          45.050
 110533266.092 8  86129797.54447                  21033779.740
  21033775.560          50.300          46.250
 111471173.277 7  86860712.35547                  21212227.620
  21212222.460          47.650          46.150
 133333648.039 7 103896519.522 6  99567491.110 7  25372469.840    25372468.920
  25372468.660          42.600          36.550
 112631057.640 8  87764461.37947                  21432975.300
  21432970.080          50.200          45.200
 122601083.475 8  95533304.87246                  23330202.800
  23330197.720          48.050          37.950
 130046932.965 7 101335277.65945                  24747096.780
  24747090.780          44.800          34.100
 119033226.254 8  92753172.117 7  88888450.944 8  22651265.880    22651264.020
  22651263.400          48.550          46.400
 131889833.689 7 102771273.53345                  25097798.780
  25097793.560          43.350          31.700
 125163118.086 7  97529838.871 6                  23817689.400    23817685.800
  23817685.080          47.300          41.000
 104512826.287 7  81287767.486 7                  19558149.260    19558152.780
  19558151.080          47.650          42.050
 122647422.408 7  95392457.993 6                  22943735.800    22943738.480
  22943738.020          46.900          41.950
 105286128.341 8  81889261.748 7                  19675209.600    19675211.300
  19675210.400          48.600          47.150
 113749158.842 7  88471602.493 6                  21339047.420    21339054.180
  21339052.840          47.650          38.950
 127906861.141 7  99483130.552 6                  23885701.440    23885702.840
  23885702.220          44.250          37.750
 116243994.998 8  90412024.630 7                  21776410.840    21776413.840
  21776412.820          48.650          44.700
 118547393.384 7  92203542.123 6                  22192320.560    22192324.140
  22192323.540          43.350          40.300
 128444913.675 7  99901586.044 5                  24070520.200    24070522.900
  24070522.480          43.900          34.600
 114724719.791 7  89230486.984 7                  21454054.520    21454058.860
  21454056.740          43.300          44.150
 137304521.639 8                 102532727.941 7  26128130.520
                        48.950
 146959821.736 7                 109742732.341 6  27965522.260
                        43.800
 118586138.783 8                  88554622.001 8  22566186.500
                        52.250
 123051855.675 8                  91889481.504 8  23415935.620
                        50.650
 15  1 27  2  1 35.0000000  0 23G31G08G21G25G16G18G22G27G19G29R11R05
                                R21R10R04R22R12R06R20E12E19E18E11
 120234324.276 8  93689092.758 7                  22879826.940    22879822.660
  22879821.840          49.800          45.150
 110540157.537 8  86135167.49847                  21035091.140
  21035086.940          50.300          46.250
 111475441.532 7  86864038.27347                  21213039.820
  21213034.680          47.650          46.250
 133350582.685 7 103909715.352 6  99580137.116 7  25375692.440    25375691.440
  25375691.220          42.300          36.550
 112620295.661 8  87756075.42047                  21430927.360
  21430922.160          50.300          45.350
 122589567.380 8  95524331.30246                  23328011.320
  23328006.300          48.050          38.850
 130031592.310 7 101323323.91645                  24744177.560
  24744171.500          45.000          35.350
 119021821.666 8  92744285.415 7  88879934.520 8  22649095.700    22649093.820
  22649093.160          48.500          46.650
 131874904.874 6 102759640.71945                  25094957.960
  25094952.720          41.950          34.550
 125176721.500 7  97540438.948 6                  23820278.060    23820274.420
  23820273.680          47.200          41.250
 104514423.731 7  81289009.938 7                  19558448.200    19558451.740
  19558450.020          47.750          42.300
 122638453.135 7  95385481.910 6                  22942057.880    22942060.580
  22942060.140          46.750          41.750
 105287418.598 8  81890265.284 7                  19675450.740    19675452.440
  19675451.540          48.300          47.050
 113769119.267 7  88487127.260 6                  21342791.920    21342798.740
  21342797.340          47.250          39.000
 127912576.085 7  99487575.515 6                  23886768.640    23886770.080
  23886769.400          44.100          37.400
 116231784.698 8  90402527.739 7                  21774123.460    21774126.420
  21774125.480          48.850          44.700
 118529321.484 7  92189486.215 6                  22188937.480    22188941.080
  22188940.460          43.300          40.350
 128426703.086 7  99887422.278 5                  24067107.580    24067110.160
  24067109.740          44.800          34.600
 114738686.775 7  89241350.185 7                  21456666.440    21456670.820
  21456668.640          43.950          44.000
 137315363.621 8                 102540824.228 7  26130193.660
                        48.900
 146956193.053 7                 109740022.577 6  27964831.820
                        44.500
 118612770.496 8                  88574509.318 8  22571254.400
                        52.200
 123055226.410 8                  91891998.611 8  23416577.060
                        50.550
 15  1 27  2  1 40.0000000  0 23G31G08G21G25G16G18G22G27G19G29R11R05
                                R21R10R04R22R12R06R20E12E19E18E11
 120250148.796 8  93701423.553 7                  22882838.260    22882833.980
  22882833.160          49.750          45.150
 110547066.955 8  86140551.45447                  21036405.940
  21036401.760          50.200          46.350
 111479722.090 7  86867373.77447                  21213854.360
  21213849.240          47.400          46.700
 133367521.039 6 103922914.087 6  99592785.872 7  25378915.700    25378914.720
  25378914.520          41.350          37.150
 112609542.458 8  87747696.29847                  21428881.140
  21428875.900          50.300          45.850
 122578058.135 8  95515363.06546                  23325821.180
  23325816.140          48.300          38.000
 130016250.428 7 101311369.20845                  24741258.140
  24741252.020          45.000          34.600
 119010422.459 8  92735402.911 7  88871422.122 8  22646926.560    22646924.600
  22646923.980          48.400          46.700
 131859979.636 6 102748010.66345                  25092117.800
  25092112.520          41.850          35.350
 125190326.676 7  97551040.374 6                  23822867.060    23822863.380
  23822862.660          47.100          41.300
 104516045.204 7  81290271.084 7                  19558751.620    19558755.200
  19558753.480          47.950          42.300
 122629501.455 7  95378519.461 6                  22940383.280    22940385.960
  22940385.500          46.400          41.950
 105288720.059 7  81891277.535 7                  19675693.940    19675695.680
  19675694.740          47.800          47.200
 113789091.897 7  88502661.517 6                  21346538.720    21346545.540
  21346544.160          47.650          39.350
 127918311.426 7  99492036.338 6                  23887839.700    23887841.040
  23887840.420          44.750          37.650
 116219583.810 8  90393038.168 7                  21771837.860    21771840.780
  21771839.860          48.650          44.400
 118511262.659 7  92175440.466 6                  22185556.820    22185560.440
  22185559.860          43.800          40.850
 128408494.025 7  99873259.679 5                  24063695.260    24063697.720
  24063697.360          45.250          35.700
 114752657.441 7  89252216.265 7                  21459279.080    21459283.400
  21459281.240          43.950          44.050
 137326207.294 8                 102548921.775 7  26132257.140
                        48.600
 146952575.705 7                 109737321.344 6  27964143.480
                        44.000
 118639402.837 8                  88594397.105 8  22576322.420
                        52.150
 123058603.025 8                  91894520.111 8  23417219.620
                        50.400
 15  1 27  2  1 45.0000000  0 23G31G08G21G25G16G18G22G27G19G29R11R05
                                R21R10R04R22R12R06R20E12E19E18E11
 120265977.391 8  93713757.517 7                  22885850.380    22885846.080
  22885845.260          49.850          44.850
 110553991.621 8  86145947.29947                  21037723.640
  21037719.480          50.300          46.400
 111484012.143 7  86870716.67147                  21214670.700
  21214665.600          47.450          46.800
 133384460.344 6 103936113.552 6  99605435.343 7  25382139.100    25382138.080
  25382137.900          41.350          38.000
 112598795.354 8  87739321.93347                  21426836.060
  21426830.780          50.250          45.750
 122566553.123 8  95506398.12146                  23323631.840
  23323626.800          48.400          38.850
 130000904.592 7 101299411.43045                  24738338.000
  24738331.740          45.350          34.700
 118999025.864 8  92726522.452 7  88862911.685 8  22644757.900    22644755.900
  22644755.280          48.400          46.750
 131845055.172 7 102736381.17245                  25089277.780
  25089272.520          42.200          34.000
 125203930.875 7  97561641.065 6                  23825455.900    23825452.200
  23825451.420          47.100          41.400
 104517687.910 8  81291548.752 7                  19559059.000    19559062.680
  19559060.920          48.000          42.200
 122620564.474 7  95371568.490 6                  22938711.440    22938714.160
  22938713.600          46.600          41.300
 105290030.052 8  81892296.412 7                  19675938.760    19675940.480
  19675939.520          48.100          47.050
 113809073.953 7  88518203.109 6                  21350287.320    21350294.220
  21350292.740          47.700          39.450
 127924064.313 7  99496510.817 6                  23888914.080    23888915.320
  23888914.680          44.800          38.300
 116207389.360 8  90383553.603 7                  21769553.440    21769556.360
  21769555.420          48.450          44.250
 118493214.189 7  92161402.771 6                  22182178.080    22182181.700
  22182181.180          43.800          40.600
 128390283.837 7  99859096.197 5                  24060282.720    24060285.220
  24060284.740          45.300          35.250
 114766629.340 7  89263083.285 7                  21461891.920    21461896.220
  21461894.060          43.800          44.300
 137337049.920 8                 102557018.544 7  26134320.360
                        48.350
 146948966.967 7                 109734626.511 6  27963456.820
                        44.500
 118666033.058 8                  88614283.310 8  22581390.000
                        52.200
 123061982.806 8                  91897043.974 8  23417862.780
                        50.550
 15  1 27  2  1 50.0000000  0 23G31G08G21G25G16G18G22G27G19G29R11R05
                                R21R10R04R22R12R06R20E12E19E18E11
 120281813.341 8  93726097.220 7                  22888863.860    22888859.560
  22888858.740          49.900          45.050
 110560934.820 8  86151357.58047                  21039044.880
  21039040.720          50.250          46.600
 111488315.037 7  86874069.57747                  21215489.500
  21215484.400          47.550          46.750
 133401403.923 6 103949316.343 6  99618088.016 7  25385363.360    25385362.480
  25385362.060          41.450          38.750
 112588057.671 8  87730954.90847                  21424792.760
  21424787.460          50.300          45.900
 122555055.636 8  95497439.05046                  23321443.960
  23321438.880          48.250          38.200
 129985558.155 7 101287453.17545                  24735417.760
  24735411.380          45.450          33.800
 118987635.240 8  92717646.641 7  88854405.696 8  22642590.360    22642588.340
  22642587.720          48.500          46.950
 131830134.865 7 102724754.94045                  25086438.600
  25086433.320          43.900          35.950
 125217537.418 7  97572243.564 6                  23828045.160    23828041.460
  23828040.700          47.400          41.950
 104519355.239 7  81292845.556 7                  19559370.980    19559374.720
  19559372.940          47.900          42.100
 122611645.720 7  95364631.685 6                  22937043.020    22937045.700
  22937045.140          47.150          41.350
 105291351.903 8  81893324.517 7                  19676185.780    19676187.520
  19676186.540          48.400          46.950
 113829068.668 7  88533754.555 6                  21354038.300    21354045.200
  21354043.720          47.850          40.100
 127929838.140 7  99501001.582 6                  23889992.360    23889993.540
  23889992.820          45.050          37.750
 116195204.763 8  90374076.710 7                  21767270.860    21767273.800
  21767272.820          48.600          44.450
 118475179.350 7  92147375.683 6                  22178801.880    22178805.560
  22178805.060          43.800          40.600
 128372075.865 7  99844934.419 5                  24056870.580    24056873.020
  24056872.540          44.750          35.750
 114780605.637 7  89273953.755 7                  21464505.540    21464509.860
  21464507.720          43.950          44.200
 137347894.776 8                 102565116.964 7  26136384.020
                        48.400
 146945370.168 7                 109731940.594 6  27962772.440
                        44.000
 118692664.453 8                  88634170.393 8  22586457.800
                        52.150
 123065369.022 8                  91899572.648 8  23418507.180
                        50.600
 15  1 27  2  1 55.0000000  0 23G31G08G21G25G16G18G22G27G19G29R11R05
                                R21R10R04R22R12R06R20E12E19E18E11
 120297654.299 8  93738440.825 7                  22891878.320    22891874.000
  22891873.200          49.950          45.100
 110567894.201 8  86156780.47847                  21040369.200
  21040365.060          50.250          46.350
 111492628.394 7  86877430.63847                  21216310.280
  21216305.220          47.700          46.650
 133418349.381 6 103962520.592 6  99630742.100 7  25388587.920    25388587.100
  25388586.600          41.200          39.100
 112577327.060 8  87722593.39847                  21422750.820
  21422745.460          50.400          45.800
 122543563.331 8  95488484.01146                  23319257.040
  23319251.920          48.400          38.150
 129970208.716 7 101275492.57945                  24732496.900
  24732490.560          45.700          35.950
 118976248.186 8  92708773.612 7  88845902.382 8  22640423.500    22640421.460
  22640420.820          48.750          46.950
 131815216.266 7 102713130.06246                  25083599.680
  25083594.440          44.400          37.150
 125231143.955 7  97582846.065 6                  23830634.440    23830630.660
  23830629.960          46.850          41.650
 104521044.852 7  81294159.705 7                  19559687.160    19559690.860
  19559689.140          47.850          42.100
 122602742.689 7  95357707.106 6                  22935377.560    22935380.160
  22935379.580          47.700          40.950
 105292683.196 8  81894359.978 7                  19676434.560    19676436.300
  19676435.320          48.550          46.950
 113849073.697 7  88549314.032 6                  21357791.220    21357798.100
  21357796.660          47.200          40.150
 127935630.362 7  99505506.664 6                  23891074.060    23891075.160
  23891074.420          44.800          37.850
 116183027.763 8  90364605.707 7                  21764989.680    21764992.680
  21764991.700          48.900          44.650
 118457155.848 7  92133357.403 6                  22175427.840    22175431.560
  22175431.040          44.100          40.700
 128353867.939 7  99830772.713 5                  24053458.500    24053460.840
  24053460.400          44.250          35.950
 114794583.896 7  89284825.751 7                  21467119.560    21467123.880
  21467121.760          43.550          44.400
 137358739.514 8                 102573215.309 7  26138447.660
                        48.350
 146941782.971 7                 109729261.834 6  27962089.900
                        44.600
 118719294.684 8                  88654056.599 8  22591525.340
                        52.100
 123068759.358 8                  91902104.390 8  23419152.340
                        50.700
 15  1 27  2  2  0.0000000  0 23G31G08G21G25G16G18G22G27G19G29R11R05
                                R21R10R04R22R12R06R20E12E19E18E11
 120313501.202 8  93750789.049 7                  22894893.880    22894889.560
  22894888.740          49.900          44.850
 110574870.709 8  86162216.71947                  21041696.780
  21041692.660          50.200          46.700
 111496953.117 7  86880800.55747                  21217133.220
  21217128.160          47.750          47.200
 133435297.743 6 103975727.094 6  99643398.335 7  25391813.120    25391812.260
  25391811.800          41.050          38.800
 112566604.507 8  87714238.15847                  21420710.420
  21420705.020          50.300          45.950
 122532077.153 8  95479533.73746                  23317071.280
  23317066.100          48.650          38.100
 129954857.305 7 101263530.46345                  24729575.680
  24729569.320          45.850          35.750
 118964865.695 8  92699904.134 7  88837402.470 8  22638257.520    22638255.440
  22638254.800          48.800          46.950
 131800300.408 7 102701507.32145                  25080761.300
  25080756.040          44.350          35.550
 125244751.420 7  97593449.270 6                  23833223.840    23833220.060
  23833219.320          47.000          41.350
 104522757.758 7  81295491.968 6                  19560007.700    19560011.380
  19560009.680          47.950          41.950
 122593856.510 7  95350795.636 6                  22933715.220    22933717.800
  22933717.160          47.100          40.950
 105294024.863 8  81895403.505 7                  19676685.260    19676687.020
  19676686.020          48.450          46.850
 113869090.042 7  88564882.303 6                  21361546.200    21361553.120
  21361551.720          47.100          40.050
 127941442.198 7  99510027.002 6                  23892159.380    23892160.420
  23892159.740          44.650          38.150
 116170859.143 8  90355141.230 7                  21762710.080    21762713.060
  21762712.140          48.950          44.950
 118439144.714 7  92119348.752 6                  22172056.080    22172059.760
  22172059.340          43.950          40.550
 128335660.944 7  99816611.717 6                  24050046.500    24050048.920
  24050048.460          44.600          36.000
 114808565.273 7  89295700.156 7                  21469734.180    21469738.520
  21469736.360          42.950          44.250
 137369585.111 8                 102581314.286 7  26140511.480
                        48.450
 146938206.309 7                 109726590.969 7  27961409.320
                        45.100
 118745924.684 8                  88673942.640 8  22596592.820
                        52.150
 123072154.757 8                  91904639.921 8  23419798.440
                        50.800
 15  1 27  2  2  5.0000000  0 23G31G08G21G25G16G18G22G27G19G29R11R05
                                R21R10R04R22R12R06R20E12E19E18E11
 120329353.847 8  93763141.756 7                  22897910.560    22897906.240
  22897905.400          49.950          44.900
 110581864.205 8  86167666.19247                  21043027.600
  21043023.500          50.250          46.250
 111501289.113 7  86884179.25547                  21217958.320
  21217953.260          47.550          47.000
 133452248.785 6 103988935.681 6  99656056.578 7  25395038.800    25395037.920
  25395037.480          41.550          38.700
 112555889.860 8  87705889.08547                  21418671.520
  21418666.100          50.250          45.850
 122520596.997 8  95470588.16346                  23314886.660
  23314881.500          48.300          37.550
 129939503.731 7 101251566.63145                  24726654.080
  24726647.500          45.400          35.450
 118953487.589 8  92691038.076 7  88828905.836 8  22636092.340    22636090.260
  22636089.600          48.650          46.850
 131785387.108 7 102689886.56945                  25077923.420
  25077918.160          43.750          35.950
 125258359.679 7  97604053.101 6                  23835813.360    23835809.600
  23835808.840          47.000          41.650
 104524493.744 7  81296842.176 7                  19560332.540    19560336.260
  19560334.540          47.700          42.250
 122584986.871 7  95343897.040 6                  22932055.920    22932058.520
  22932057.860          46.400          41.200
 105295376.780 8  81896454.996 7                  19676937.860    19676939.680
  19676938.660          48.500          47.000
 113889117.478 7  88580459.198 6                  21365303.300    21365310.200
  21365308.860          46.450          40.200
 127947273.286 7  99514562.301 6                  23893248.300    23893249.220
  23893248.600          44.650          38.300
 116158698.843 8  90345683.214 7                  21760432.060    21760435.080
  21760434.160          49.050          44.650
 118421145.704 7  92105349.530 6                  22168686.640    22168690.240
  22168689.860          44.650          40.350
 128317454.536 7  99802451.192 6                  24046634.640    24046637.000
  24046636.660          44.750          36.300
 114822549.353 7  89306576.644 7                  21472349.300    21472353.580
  21472351.460          43.100          44.350
 137380431.344 8                 102589413.752 7  26142575.460
                        48.600
 146934640.085 7                 109723927.863 7  27960730.720
                        44.800
 118772554.264 8                  88693828.361 8  22601660.220
                        52.150
 123075555.047 8                  91907179.100 8  23420445.480
                        50.650
 15  1 27  2  2 10.0000000  0 23G31G08G21G25G16G18G22G27G19G29R11R05
                                R21R10R04R22R12R06R20E12E19E18E11
 120345211.931 8  93775498.708 7                  22900928.280    22900923.920
  22900923.100          49.750          44.950
 110588874.317 8  86173128.61947                  21044361.580
  21044357.480          50.250          46.450
 111505636.025 7  86887566.46847                  21218785.500
  21218780.440          47.550          46.900
 133469202.181 6 104002146.122 6  99668716.578 7  25398264.940    25398264.020
  25398263.760          41.100          38.500
 112545182.743 8  87697545.88347                  21416634.060
  21416628.580          50.300          46.000
 122509122.551 8  95461647.04446                  23312703.120
  23312697.980          48.400          38.950
 129924147.695 7 101239600.89346                  24723732.000
  24723725.340          44.700          36.000
 118942113.561 8  92682175.207 7  88820412.242 8  22633927.920    22633925.860
  22633925.200          48.450          46.850
 131770476.037 7 102678267.51346                  25075085.980
  25075080.660          43.650          37.650
 125271968.318 7  97614657.230 6                  23838402.980    23838399.240
  23838398.460          46.600          41.650
 104526252.402 7  81298210.022 7                  19560661.620    19560665.360
  19560663.660          47.700          42.250
 122576133.597 7  95337011.168 6                  22930399.680    22930402.260
  22930401.580          46.650          41.050
 105296738.642 8  81897514.220 7                  19677192.320    19677194.180
  19677193.140          48.450          47.050
 113909155.674 7  88596044.455 6                  21369062.420    21369069.340
  21369068.040          47.000          40.050
 127953123.432 7  99519112.427 6                  23894340.720    23894341.640
  23894341.040          44.800          38.050
 116146546.547 8  90336231.437 7                  21758155.540    21758158.600
  21758157.620          49.150          44.600
 118403158.584 7  92091359.542 6                  22165319.420    22165322.960
  22165322.600          44.550          40.400
 128299248.576 7  99788290.992 6                  24043222.880    24043225.260
  24043224.900          45.350          36.050
 114836536.011 7  89317455.151 7                  21474964.840    21474969.120
  21474967.020          42.450          44.150
 137391277.944 8                 102597513.486 7  26144639.520
                        48.600
 146931083.876 7                 109721272.253 6  27960053.980
                        44.800
 118799183.084 8                  88713713.515 8  22606727.480
                        52.100
 123078959.897 8                  91909721.680 8  23421093.380
                        50.650
 15  1 27  2  2 15.0000000  0 23G31G08G21G25G16G18G22G27G19G29R11R05
                                R21R10R04R22R12R06R20E12E19E18E11
 120361075.346 8  93787859.807 7                  22903947.000    22903942.600
  22903941.760          49.700          44.650
 110595900.996 8  86178603.95347                  21045698.700
  21045694.620          50.300          46.300
 111509993.806 7  86890962.13647                  21219614.740
  21219609.680          47.550          46.750
 133486157.879 6 104015358.358 6  99681378.320 7  25401491.460    25401490.540
  25401490.360          41.550          37.950
 112534483.123 8  87689208.51947                  21414598.000
  21414592.500          50.300          45.750
 122497653.707 8  95452710.28046                  23310520.660
  23310515.540          48.100          38.400
 129908789.084 7 101227633.15246                  24720809.320
  24720802.680          44.150          37.750
 118930743.541 8  92673315.449 7  88811921.644 8  22631764.280    22631762.220
  22631761.560          48.450          46.800
 131755567.123 7 102666650.19046                  25072248.940
  25072243.620          43.300          37.050
 125285577.373 7  97625261.680 6                  23840992.680    23840988.980
  23840988.180          46.950          41.350
 104528033.732 7  81299595.501 7                  19560994.980    19560998.740
  19560997.020          47.750          42.300
 122567296.595 7  95330137.947 6                  22928746.520    22928749.080
  22928748.380          46.850          41.100
 105298110.311 8  81898581.060 7                  19677448.660    19677450.480
  19677449.460          48.650          47.150
 113929204.618 7  88611638.078 6                  21372823.560    21372830.440
  21372829.200          46.750          39.750
 127958992.425 7  99523677.212 6                  23895436.700    23895437.600
  23895436.980          44.750          38.150
 116134402.171 8  90326785.815 7                  21755880.520    21755883.580
  21755882.540          49.250          44.550
 118385183.235 7  92077378.711 6                  22161954.400    22161957.940
  22161957.540          43.750          40.500
 128281043.190 7  99774131.243 6                  24039811.180    24039813.540
  24039813.280          45.600          36.250
 114850525.013 7  89328335.470 7                  21477580.860    21477585.160
  21477583.020          43.350          44.550
 137402124.845 8                 102605613.452 7  26146703.640
                        48.800
 146927537.699 7                 109718624.153 6  27959379.140
                        44.850
 118825811.066 8                  88733598.049 8  22611794.600
                        52.150
 123082369.235 8                  91912267.630 8  23421742.120
                        50.650
 15  1 27  2  2 20.0000000  0 23G31G08G21G25G16G18G22G27G19G29R11R05
                                R21R10R04R22R12R06R20E12E19E18E11
 120376945.232 8  93800225.958 7                  22906966.960    22906962.500
  22906961.660          49.750          44.500
 110602945.379 8  86184093.08147                  21047039.200
  21047035.140          50.400          46.050
 111514363.588 7  86894367.15647                  21220446.280
  21220441.200          47.750          46.900
 133503116.990 6 104028573.235 6  99694042.577 7  25404718.600    25404717.800
  25404717.620          41.250          38.200
 112523792.195 8  87680877.92447                  21412563.620
  21412558.060          50.350          45.400
 122486191.686 8  95443778.84246                  23308339.500
  23308334.380          48.450          38.000
 129893429.114 7 101215664.37746                  24717886.400
  24717879.840          44.400          37.650
 118919378.646 8  92664459.681 7  88803434.871 8  22629601.600    22629599.580
  22629598.900          48.650          46.800
 131740661.538 7 102655035.45346                  25069412.500
  25069407.240          43.100          36.900
 125299187.944 7  97635867.320 6                  23843582.680    23843578.980
  23843578.240          46.950          41.750
 104529838.915 7  81300999.526 7                  19561332.800    19561336.540
  19561334.840          47.750          42.300
 122558477.089 7  95323278.331 6                  22927096.620    22927099.140
  22927098.380          46.800          40.350
 105299492.946 8  81899656.441 7                  19677707.060    19677708.860
  19677707.840          48.700          47.250
 113949265.360 7  88627240.871 6                  21376586.940    21376593.800
  21376592.520          46.650          39.750
 127964881.464 7  99528257.580 6                  23896536.460    23896537.340
  23896536.720          44.400          38.250
 116122266.957 8  90317347.307 7                  21753607.180    21753610.260
  21753609.200          49.050          44.850
 118367220.838 7  92063407.970 6                  22158591.820    22158595.280
  22158594.900          43.950          40.300
 128262839.276 7  99759972.646 5                  24036399.740    24036402.080
  24036401.880          44.750          35.700
 114864517.569 7  89339218.577 7                  21480197.600    21480201.840
  21480199.680          43.550          44.650
 137412973.151 8                 102613714.452 7  26148768.040
                        48.950
 146924002.679 7                 109715984.371 6  27958706.480
                        44.900
 118852439.345 8                  88753482.801 8  22616861.780
                        52.200
 123085784.212 8                  91914817.767 8  23422391.960
                        50.650
 15  1 27  2  2 25.0000000  0 23G31G08G21G25G16G18G22G27G19G29R11R05
                                R21R10R04R22R12R06R20E12E19E18E11
 120392819.896 8  93812595.836 7                  22909987.840    22909983.340
  22909982.480          49.700          44.500
 110610005.774 8  86189594.68747                  21048382.760
  21048378.680          50.250          46.050
 111518743.647 7  86897780.19347                  21221279.780
  21221274.700          47.850          46.400
 133520077.869 6 104041789.492 6  99706708.175 7  25407946.100    25407945.300
  25407945.040          41.600          37.550
 112513108.251 8  87672552.77647                  21410530.560
  21410524.960          50.450          45.700
 122474734.813 8  95434851.40246                  23306159.320
  23306154.200          48.100          38.000
 129878066.149 7 101203693.23646                  24714962.920
  24714956.400          44.950          36.650
 118908017.228 8  92655606.634 7  88794950.704 8  22627439.620    22627437.580
  22627436.900          48.600          46.950
 131725757.527 7 102643421.95846                  25066576.400
  25066571.080          43.300          36.950
 125312798.344 7  97646472.822 6                  23846172.640    23846168.940
  23846168.200          47.200          40.900
 104531666.214 7  81302420.760 7                  19561674.740    19561678.520
  19561676.800          47.750          42.100
 122549673.309 7  95316430.936 6                  22925449.660    22925452.200
  22925451.380          46.900          41.050
 105300884.863 8  81900739.052 7                  19677967.200    19677969.000
  19677967.980          48.700          47.150
 113969336.205 7  88642851.528 6                  21380352.220    21380359.060
  21380357.760          47.050          39.450
 127970788.902 7  99532852.265 6                  23897639.680    23897640.540
  23897639.940          44.800          38.150
 116110139.032 8  90307914.480 7                  21751335.220    21751338.340
  21751337.200          48.800          44.400
 118349269.847 7  92049446.099 6                  22155231.360    22155234.820
  22155234.400          43.850          40.350
 128244635.272 7  99745813.991 5                  24032988.280    24032990.640
  24032990.420          44.200          34.950
 114878512.032 7  89350103.155 7                  21482814.680    21482818.920
  21482816.700          43.800          44.300
 137423821.210 8                 102621815.281 7  26150832.420
                        49.000
 146920477.152 7                 109713351.659 6  27958035.640
                        44.600
 118879066.234 8                  88773366.518 8  22621928.720
                        52.250
 123089203.143 8                  91917370.867 8  23423042.540
                        50.650
 15  1 27  2  2 30.0000000  0 23G31G08G21G25G16G18G22G27G19G29R11R05
                                R21R10R04R22R12R06R20E12E19E18E11
 120408700.939 8  93824970.675 7                  22913009.920    22913005.380
  22913004.540          49.550          44.400
 110617083.787 8  86195110.01347                  21049729.660
  21049725.580          50.100          46.450
 111523135.638 7  86901202.51747                  21222115.540
  21222110.460          47.800          46.650
 133537042.082 6 104055008.370 6  99719376.266 7  25411174.260    25411173.420
  25411173.160          41.250          36.900
 112502432.962 8  87664234.36347                  21408499.120
  21408493.520          50.550          45.450
 122463284.700 8  95425929.23446                  23303980.400
  23303975.280          48.000          37.800
 129862701.779 7 101191721.00546                  24712039.220
  24712032.800          44.950          37.550
 118896660.918 8  92646757.557 7  88786470.331 8  22625278.580    22625276.560
  22625275.880          48.400          47.000
 131710856.869 7 102631811.05146                  25063741.000
  25063735.600          42.300          36.900
 125326410.202 7  97657079.481 6                  23848762.920    23848759.200
  23848758.440          47.000          41.200
 104533517.345 7  81303860.525 7                  19562021.160    19562024.920
  19562023.220          47.800          42.250
 122540886.951 7  95309597.104 6                  22923805.980    22923808.520
  22923807.660          47.200          41.100
 105302287.684 8  81901830.138 7                  19678229.300    19678231.160
  19678230.140          48.650          47.150
 113989418.807 7  88658471.317 6                  21384119.720    21384126.540
  21384125.200          47.650          39.250
 127976716.326 7  99537462.474 6                  23898746.640    23898747.440
  23898746.820          44.850          38.200
 116098020.176 8  90298488.712 7                  21749064.940    21749068.080
  21749066.940          48.800          45.000
 118331331.806 7  92035494.274 6                  22151873.300    22151876.820
  22151876.360          44.400          40.050
 128226432.879 7  99731656.562 5                  24029577.160    24029579.400
  24029579.240          44.400          35.000
 114892509.954 7  89360990.427 7                  21485432.380    21485436.580
  21485434.400          44.150          44.250
 137434670.640 8                 102629917.123 7  26152897.040
                        48.950
 146916962.736 7                 109710727.256 6  27957366.860
                        44.450
 118905693.333 8                  88793250.376 8  22626995.720
                        52.350
 123092627.645 8                  91919928.117 8  23423694.160
                        50.650
 15  1 27  2  2 35.0000000  0 23G31G08G21G25G16G18G22G27G19G29R11R05
                                R21R10R04R22R12R06R20E12E19E18E11
 120424586.593 8  93837349.100 7                  22916032.860    22916028.320
  22916027.460          49.450          44.600
 110624177.664 8  86200637.71047                  21051079.560
  21051075.500          50.050          46.200
 111527537.776 7  86904632.75847                  21222953.260
  21222948.160          47.750          46.100
 133554007.928 6 104068228.516 5  99732045.564 7  25414402.780    25414402.020
  25414401.620          41.350          35.950
 112491764.543 8  87655921.30647                  21406469.020
  21406463.380          50.450          45.600
 122451839.598 7  95417010.97746                  23301802.400
  23301797.380          47.800          38.200
 129847334.250 7 101179746.32446                  24709114.900
  24709108.540          44.950          37.100
 118885307.971 8  92637911.100 7  88777992.479 8  22623118.180    22623116.180
  22623115.500          48.250          47.100
 131695957.706 7 102620201.30146                  25060905.840
  25060900.380          42.550          36.900
 125340021.779 7  97667685.903 6                  23851353.080    23851349.400
  23851348.640          46.400          41.400
 104535390.420 7  81305317.359 7                  19562371.700    19562375.420
  19562373.760          47.650          42.300
 122532116.168 7  95302775.369 6                  22922165.240    22922167.780
  22922166.840          47.000          40.850
 105303699.609 8  81902928.298 7                  19678493.140    19678494.980
  19678494.000          48.400          47.200
 114009511.329 7  88674098.839 6                  21387889.060    21387895.860
  21387894.520          47.450          39.100
 127982662.015 7  99542086.918 6                  23899856.900    23899857.820
  23899857.160          44.250          38.300
 116085908.533 8  90289068.541 7                  21746796.020    21746799.200
  21746798.040          48.700          44.950
 118313404.961 7  92021551.172 6                  22148517.360    22148520.860
  22148520.420          44.050          40.400
 128208230.167 7  99717498.894 6                  24026165.960    24026168.200
  24026168.120          45.400          36.000
 114906509.603 7  89371879.043 7                  21488050.400    21488054.620
  21488052.400          43.800          44.200
 137445519.674 8                 102638018.670 7  26154961.600
                        48.800
 146913457.657 7                 109708109.840 6  27956699.900
                        44.400
 118932318.864 8                  88813133.089 8  22632062.460
                        52.350
 123096055.957 8                  91922488.225 8  23424346.540
                        50.600
 15  1 27  2  2 40.0000000  0 23G31G08G21G25G16G18G22G27G19G29R11R05
                                R21R10R04R22R12R06R20E12E19E18E11
 120440477.770 8  93849731.836 7                  22919056.820    22919052.280
  22919051.460          49.600          44.750
 110631288.313 8  86206178.47347                  21052432.640
  21052428.600          50.000          46.050
 111531950.986 7  86908071.61947                  21223793.080
  21223787.980          47.900          46.150
 133570976.240 6 104081450.559 5  99744716.699 7  25417631.740    25417630.980
  25417630.640          41.750          35.900
 112481103.910 8  87647614.31947                  21404440.380
  21404434.700          50.600          45.400
 122440400.434 7  95408097.34146                  23299625.560
  23299620.580          47.850          38.950
 129831964.506 7 101167769.89246                  24706190.160
  24706183.700          44.650          36.900
 118873959.230 8  92629067.930 7  88769517.778 8  22620958.560    22620956.600
  22620955.940          48.250          47.100
 131681060.989 7 102608593.50145                  25058071.140
  25058065.580          42.000          35.900
 125353633.963 7  97678292.779 6                  23853943.380    23853939.700
  23853938.900          47.100          40.950
 104537286.580 7  81306792.146 7                  19562726.560    19562730.260
  19562728.620          47.800          42.300
 122523362.043 7  95295966.602 6                  22920527.620    22920530.120
  22920529.200          47.200          40.900
 105305121.605 8  81904034.283 7                  19678758.880    19678760.700
  19678759.740          48.150          47.200
 114029614.762 7  88689734.843 6                  21391660.440    21391667.240
  21391665.920          46.950          39.200
 127988626.784 7  99546726.181 6                  23900970.820    23900971.760
  23900971.040          43.800          38.000
 116073805.120 8  90279654.767 7                  21744528.660    21744531.880
  21744530.700          48.350          45.100
 118295490.319 7  92007617.558 6                  22145163.700    22145167.280
  22145166.800          43.950          40.250
 128190028.260 7  99703341.855 6                  24022754.920    24022757.200
  24022757.200          45.350          36.400
 114920511.929 7  89382769.739 7                  21490668.940    21490673.140
  21490670.900          43.800          44.250
 137456369.199 8                 102646120.592 7  26157026.240
                        48.900
 146909962.869 7                 109705500.094 6  27956034.860
                        44.550
 118958943.748 8                  88833015.300 8  22637129.080
                        52.350
 123099488.995 8                  91925051.850 8  23424999.800
                        50.550
 15  1 27  2  2 45.0000000  0 23G31G08G21G25G16G18G22G27G19G29R11R05
                                R21R10R04R22R12R06R20E12E19E18E11
 120456375.524 8  93862119.706 7                  22922082.060    22922077.540
  22922076.740          49.600          44.850
 110638416.771 8  86211733.11847                  21053789.120
  21053785.120          50.200          46.100
 111536376.299 7  86911519.93147                  21224635.200
  21224630.080          47.950          46.400
 133587948.150 6 104094675.440 5  99757390.517 7  25420861.360    25420860.560
  25420860.240          41.450          35.950
 112470452.143 8  87639314.24247                  21402413.440
  21402407.740          50.600          45.350
 122428968.291 7  95399189.18346                  23297450.080
  23297445.120          47.900          38.850
 129816593.601 7 101155792.58446                  24703265.140
  24703258.700          44.600          37.200
 118862615.797 8  92620228.898 7  88761047.037 8  22618799.940    22618798.040
  22618797.380          48.250          47.400
 131666167.711 7 102596988.32545                  25055237.100
  25055231.400          43.400          35.550
 125367247.795 7  97688900.974 6                  23856533.980    23856530.300
  23856529.540          46.650          41.350
 104539206.723 8  81308285.592 7                  19563085.920    19563089.640
  19563087.960          48.100          42.200
 122514625.557 7  95289171.554 6                  22918893.300    22918895.800
  22918894.880          47.050          41.800
 105306554.700 8  81905148.914 7                  19679026.700    19679028.520
  19679027.560          48.400          47.300
 114049730.046 7  88705380.059 6                  21395434.080    21395440.820
  21395439.540          46.950          40.000
 127994611.668 7  99551381.101 6                  23902088.460    23902089.420
  23902088.720          44.550          37.400
 116061710.865 8  90270248.129 7                  21742263.000    21742266.240
  21742265.120          48.350          45.150
 118277588.874 7  91993694.227 6                  22141812.480    22141816.080
  22141815.620          44.250          40.150
 128171828.260 7  99689186.296 5                  24019344.320    24019346.620
  24019346.620          45.800          35.950
 114934517.864 7  89393663.244 7                  21493288.140    21493292.280
  21493290.060          43.350          44.300
 137467220.293 8                 102654223.680 7  26159091.160
                        49.000
 146906479.427 7                 109702898.826 6  27955371.980
                        44.500
 118985569.016 8                  88852897.805 8  22642195.780
                        52.350
 123102927.793 8                  91927619.794 8  23425654.160
                        50.550
 15  1 27  2  2 50.0000000  0 23G31G08G21G25G16G18G22G27G19G29R11R05
                                R21R10R04R22R12R06R20E12E19E18E11
 120472279.245 8  93874512.210 7                  22925108.420    22925103.940
  22925103.140          49.600          44.800
 110645562.437 8  86217301.17047                  21055148.880
  21055144.900          50.250          45.900
 111540813.128 7  86914977.19947                  21225479.520
  21225474.360          47.850          46.850
 133604923.010 6 104107902.608 5  99770066.551 7  25424091.540    25424090.700
  25424090.220          40.350          35.250
 112459808.673 8  87631020.62747                  21400388.080
  21400382.340          50.450          45.850
 122417542.564 7  95390286.02246                  23295275.800
  23295270.880          47.900          38.700
 129801220.962 7 101143813.93646                  24700339.820
  24700333.460          44.800          37.800
 118851277.102 8  92611393.548 7  88752579.817 8  22616642.240    22616640.380
  22616639.720          48.150          47.300
 131651277.295 7 102585385.43645                  25052403.540
  25052397.860          42.650          34.250
 125380862.677 7  97699509.961 6                  23859124.820    23859121.160
  23859120.420          46.800          41.550
 104541150.228 8  81309797.203 7                  19563449.680    19563453.360
  19563451.640          48.050          42.050
 122505906.181 7  95282389.839 7                  22917262.120    22917264.680
  22917263.820          46.600          42.050
 105307998.304 8  81906271.726 7                  19679296.460    19679298.280
  19679297.360          48.250          47.250
 114069856.494 7  88721033.947 6                  21399209.780    21399216.460
  21399215.260          47.600          40.600
 128000616.206 7  99556051.320 6                  23903209.760    23903210.700
  23903210.000          44.050          37.950
 116049625.183 8  90260848.156 7                  21739998.920    21740002.180
  21740001.100          48.600          45.350
 118259700.130 7  91979780.769 6                  22138463.660    22138467.260
  22138466.820          44.250          40.100
 128153629.600 7  99675031.775 6                  24015933.960    24015936.320
  24015936.300          45.350          36.600
 114948526.906 7  89404559.164 7                  21495907.880    21495912.020
  21495909.820          43.150          44.500
 137478072.349 8                 102662327.497 7  26161156.240
                        48.900
 146903006.723 7                 109700305.583 7  27954711.160
                        44.650
 119012194.044 8                  88872780.139 8  22647262.440
                        52.300
 123106371.767 8                  91930191.596 8  23426309.520
                        50.550
 15  1 27  2  2 55.0000000  0 23G31G08G21G25G16G18G22G27G19G29R11R05
                                R21R10R04R22R12R06R20E12E19E18E11
 120488186.511 8  93886907.486 7                  22928135.480    22928131.060
  22928130.240          49.600          45.050
 110652722.906 8  86222880.75047                  21056511.460
  21056507.480          50.100          46.150
 111545259.001 7  86918441.51547                  21226325.560
  21226320.380          47.750          46.700
 133621898.388 6 104121130.175 6  99782742.980 7  25427321.820    25427321.080
  25427320.460          40.350          36.850
 112449171.088 8  87622731.60347                  21398363.820
  21398358.080          50.250          45.800
 122406120.847 7  95381385.99746                  23293102.280
  23293097.400          47.850          39.600
 129785844.189 7 101131832.04846                  24697413.700
  24697407.360          44.850          36.850
 118839940.690 7  92602559.976 7  88744114.328 8  22614484.960    22614483.140
  22614482.500          47.950          47.400
 131636387.391 7 102573782.89345                  25049570.100
  25049564.360          42.600          35.750
 125394476.272 7  97710117.955 6                  23861715.360    23861711.720
  23861711.080          45.950          41.050
 104543114.587 7  81311325.040 7                  19563817.300    19563821.000
  19563819.220          47.850          42.000
 122497201.423 7  95275619.492 6                  22915633.640    22915636.320
  22915635.520          46.450          41.750
 105309449.936 8  81907400.777 7                  19679567.780    19679569.560
  19679568.640          48.300          47.100
 114089991.781 7  88736694.729 6                  21402987.140    21402993.800
  21402992.640          47.800          40.350
 128006637.809 7  99560734.789 6                  23904334.220    23904335.320
  23904334.520          44.000          37.900
 116037545.739 8  90251453.036 7                  21737736.040    21737739.300
  21737738.240          48.950          45.000
 118241821.620 7  91965875.261 6                  22135116.820    22135120.340
  22135119.920          44.400          39.650
 128135429.470 7  99660876.118 6                  24012523.300    24012525.760
  24012525.640          44.700          36.850
 114962536.509 7  89415455.510 7                  21498527.720    21498531.860
  21498529.700          42.850          44.100
 137488922.978 8                 102670430.240 7  26163221.020
                        48.600
 146899542.373 7                 109697718.570 7  27954051.960
                        44.750
 119038816.435 8                  88892660.496 8  22652328.580
                        52.250
 123109818.508 8                  91932765.460 8  23426965.400
                        50.450
 15  1 27  2  3  0.0000000  0 23G31G08G21G25G16G18G22G27G19G29R11R05
                                R21R10R04R22R12R06R20E12E19E18E11
 120504100.077 8  93899307.654 7                  22931163.740    22931159.380
  22931158.500          49.650          45.100
 110659900.956 8  86228474.02747                  21057877.380
  21057873.420          50.000          46.250
 111549716.805 7  86921915.12347                  21227173.860
  21227168.680          47.800          46.750
 133638877.126 6 104134360.338 6  99795421.888 7  25430552.720    25430552.040
  25430551.440          39.850          37.900
 112438542.206 8  87614449.35347                  21396341.220
  21396335.460          50.350          45.800
 122394705.990 7  95372491.30346                  23290930.060
  23290925.240          47.850          38.850
 129770466.056 7 101119849.09346                  24694487.320
  24694480.980          44.450          38.150
 118828609.399 8  92593730.401 7  88735652.644 8  22612328.680    22612326.880
  22612326.260          48.150          47.500
 131621500.769 7 102562182.92346                  25046737.260
  25046731.440          42.200          37.000
 125408091.310 7  97720727.061 6                  23864306.200    23864302.580
  23864301.940          46.700          41.150
 104545102.763 7  81312871.393 7                  19564189.360    19564193.080
  19564191.260          47.750          42.050
 122488514.105 7  95268862.702 6                  22914008.440    22914011.200
  22914010.440          46.700          41.650
 105310912.417 8  81908538.252 7                  19679841.100    19679842.900
  19679841.960          48.200          47.050
 114110138.640 7  88752364.509 6                  21406766.600    21406773.400
  21406772.160          47.050          40.550
 128012679.435 7  99565433.809 6                  23905462.460    23905463.600
  23905462.740          43.900          37.750
 116025475.356 8  90242064.954 7                  21735474.840    21735478.080
  21735477.080          48.750          45.000
 118223956.211 7  91951979.918 6                  22131772.360    22131775.860
  22131775.460          44.100          39.900
 128117231.013 7  99646721.767 6                  24009112.860    24009115.420
  24009115.300          44.800          36.900
 114976549.578 7  89426354.559 7                  21501148.260    21501152.400
  21501150.220          43.300          44.100
 137499774.962 8                 102678533.987 7  26165286.020
                        48.400
 146896089.147 7                 109695139.861 7  27953394.900
                        44.300
 119065438.962 8                  88912540.955 8  22657394.740
                        52.300
 123113270.799 8                  91935343.469 8  23427622.340
                        50.600
 15  1 27  2  3  5.0000000  0 23G31G08G21G25G16G18G22G27G19G29R11R05
                                R21R10R04R22R12R06R20E12E19E18E11
 120520020.483 8  93911713.167 7                  22934193.260    22934188.920
  22934188.080          49.600          45.100
 110667097.134 8  86234081.44247                  21059246.740
  21059242.820          49.800          46.550
 111554187.064 7  86925398.45047                  21228024.560
  21228019.340          47.850          46.650
 133655859.756 6 104147593.558 6  99808103.724 7  25433784.400    25433783.640
  25433783.160          40.450          38.100
 112427922.578 8  87606174.32447                  21394320.360
  21394314.620          50.300          45.900
 122383298.530 7  95363602.38646                  23288759.280
  23288754.520          47.900          38.800
 129755087.189 7 101107865.56346                  24691560.740
  24691554.500          44.700          37.100
 118817283.775 8  92584905.250 7  88727195.206 8  22610173.460    22610171.700
  22610171.080          48.150          47.400
 131606618.025 7 102550585.98245                  25043905.100
  25043899.300          42.750          35.000
 125421708.363 7  97731337.755 6                  23866897.440    23866893.800
  23866893.200          47.100          41.550
 104547115.319 7  81314436.731 7                  19564566.020    19564569.620
  19564567.880          47.850          42.000
 122479844.922 7  95262120.016 6                  22912386.660    22912389.420
  22912388.720          46.950          41.600
 105312386.392 8  81909684.673 7                  19680116.560    19680118.340
  19680117.420          48.050          47.200
 114130297.666 7  88768043.749 6                  21410548.340    21410555.180
  21410553.980          46.900          40.250
 128018741.696 7  99570148.919 6                  23906594.540    23906595.680
  23906594.840          44.300          37.650
 116013414.592 8  90232684.379 7                  21733215.420    21733218.700
  21733217.720          48.600          45.050
 118206104.576 7  91938095.324 6                  22128430.520    22128433.980
  22128433.620          43.750          40.050
 128099034.912 7  99632569.275 6                  24005702.940    24005705.540
  24005705.400          44.650          36.800
 114990566.663 7  89437256.750 7                  21503769.540    21503773.700
  21503771.480          43.200          44.550
 137510628.831 8                 102686639.144 7  26167351.380
                        48.300
 146892647.661 7                 109692569.926 7  27952740.020
                        43.850
 119092062.173 8                  88932421.927 8  22662461.000
                        52.250
 123116729.206 8                  91937926.051 8  23428280.440
                        50.550
 15  1 27  2  3 10.0000000  0 23G31G08G21G25G16G18G22G27G19G29R11R05
                                R21R10R04R22R12R06R20E12E19E18E11
 120535944.875 8  93924121.780 7                  22937223.540    22937219.260
  22937218.380          49.400          45.150
 110674308.553 8  86239700.72847                  21060619.000
  21060615.080          49.900          46.450
 111558666.916 8  86928889.24447                  21228877.060
  21228871.840          48.050          46.650
 133672843.390 6 104160827.567 6  99820786.309 7  25437016.280    25437015.500
  25437014.860          40.750          38.600
 112417309.275 8  87597904.21747                  21392300.700
  21392295.000          50.300          45.750
 122371895.613 8  95354716.98946                  23286589.360
  23286584.620          48.050          39.150
 129739704.720 7 101095879.26246                  24688633.520
  24688627.400          44.800          36.550
 118805960.968 7  92576082.290 7  88718739.871 8  22608018.760    22608017.040
  22608016.420          47.850          47.350
 131591736.240 7 102538989.79446                  25041073.140
  25041067.380          43.300          36.450
 125435324.546 7  97741947.756 6                  23869488.540    23869484.840
  23869484.260          47.250          41.100
 104549149.379 8  81316018.769 7                  19564946.700    19564950.260
  19564948.500          48.000          42.000
 122471191.048 7  95255389.224 6                  22910767.760    22910770.500
  22910769.840          47.050          41.250
 105313868.878 8  81910837.713 7                  19680393.660    19680395.400
  19680394.480          48.250          47.300
 114150466.087 7  88783730.289 6                  21414331.880    21414338.680
  21414337.500          46.800          39.650
 128024821.511 7  99574877.675 6                  23907729.940    23907731.040
  23907730.220          43.650          37.550
 116001360.525 8  90223308.987 7                  21730957.280    21730960.520
  21730959.580          48.350          45.350
 118188263.622 7  91924219.033 6                  22125090.700    22125094.100
  22125093.780          43.800          40.350
 128080838.149 7  99618416.253 6                  24002292.900    24002295.460
  24002295.320          45.600          36.800
 115004584.910 7  89448159.826 7                  21506391.080    21506395.200
  21506393.000          43.300          44.800
 137521481.772 8                 102694743.601 7  26169416.560
                        48.150
 146889215.014 7                 109690006.579 7  27952086.740
                        44.400
 119118683.197 8                  88952301.260 8  22667526.840
                        52.300
 123120190.874 8                  91940511.055 8  23428939.160
                        50.600
 15  1 27  2  3 15.0000000  0 23G31G08G21G25G16G18G22G27G19G29R11R05
                                R21R10R04R22R12R06R20E12E19E18E11
 120551876.101 8  93936535.708 7                  22940255.140    22940250.840
  22940249.980          49.400          45.100
 110681538.100 8  86245334.13747                  21061994.720
  21061990.800          50.050          46.450
 111563159.160 8  86932389.69147                  21229731.940
  21229726.680          48.100          46.750
 133689830.891 6 104174064.574 6  99833471.760 7  25440248.880    25440248.140
  25440247.540          41.750          38.850
 112406705.241 8  87589641.33047                  21390282.820
  21390277.140          50.300          45.850
 122360500.111 7  95345837.37346                  23284420.880
  23284416.180          47.950          39.900
 129724321.484 7 101083892.31546                  24685706.200
  24685700.020          45.000          36.350
 118794643.784 7  92567263.711 7  88710288.739 8  22605865.120    22605863.460
  22605862.840          47.950          47.550
 131576858.328 7 102527396.59445                  25038241.940
  25038236.180          43.650          35.800
 125448942.739 7  97752559.345 6                  23872079.980    23872076.300
  23872075.660          46.750          40.850
 104551207.819 7  81317619.766 7                  19565331.920    19565335.480
  19565333.660          47.950          42.100
 122462555.238 7  95248672.480 6                  22909152.260    22909154.980
  22909154.300          47.100          41.100
 105315362.760 8  81911999.621 7                  19680672.880    19680674.560
  19680673.660          48.600          47.200
 114170646.582 7  88799426.227 6                  21418117.640    21418124.420
  21418123.280          47.250          39.750
 128030921.851 7  99579622.371 6                  23908869.160    23908870.220
  23908869.400          43.950          37.650
 115989315.951 8  90213940.983 7                  21728700.920    21728704.160
  21728703.240          48.400          45.150
 118170436.386 7  91910353.406 6                  22121753.400    22121756.840
  22121756.480          43.700          40.250
 128062643.675 7  99604264.967 6                  23998883.280    23998885.800
  23998885.680          45.350          37.000
 115018607.131 7  89459065.983 7                  21509013.300    21509017.440
  21509015.280          43.300          45.000
 137532336.586 8                 102702849.461 7  26171482.080
                        48.400
 146885794.065 7                 109687451.990 7  27951435.700
                        44.600
 119145304.852 8                  88972181.067 8  22672592.780
                        52.250
 123123658.609 8                  91943100.597 8  23429599.040
                        50.600
 15  1 27  2  3 20.0000000  0 23G31G08G21G25G16G18G22G27G19G29R11R05
                                R21R10R04R22R12R06R20E12E19E18E11
 120567811.271 8  93948952.723 7                  22943287.500    22943283.220
  22943282.340          49.450          44.850
 110688782.891 8  86250979.41747                  21063373.340
  21063369.440          50.150          45.950
 111567660.954 7  86935897.57947                  21230588.620
  21230583.360          47.850          47.050
 133706819.401 7 104187302.372 6  99846157.969 7  25443481.640    25443480.960
  25443480.240          42.700          39.400
 112396107.655 8  87581383.47147                  21388266.160
  21388260.480          50.300          46.000
 122349109.206 8  95336961.35246                  23282253.260
  23282248.600          48.100          39.000
 129708934.677 7 101071902.57946                  24682778.180
  24682771.980          44.150          37.300
 118783329.420 7  92558447.325 7  88701839.691 8  22603712.040    22603710.400
  22603709.780          47.950          47.350
 131561981.333 7 102515804.13445                  25035410.900
  25035405.200          43.700          35.850
 125462560.044 7  97763170.228 6                  23874671.280    23874667.600
  23874666.940          47.250          41.550
 104553287.567 7  81319237.341 7                  19565721.120    19565724.660
  19565722.820          47.650          42.050
 122453934.611 7  95241967.556 6                  22907539.600    22907542.300
  22907541.620          46.850          41.050
 105316865.142 8  81913168.145 7                  19680953.640    19680955.280
  19680954.400          48.400          46.950
 114190836.123 7  88815129.216 6                  21421905.160    21421911.880
  21421910.780          47.000          39.600
 128037039.742 7  99584380.733 6                  23910011.700    23910012.720
  23910011.840          43.250          37.950
 115977278.178 8  90204578.269 7                  21726445.800    21726449.080
  21726448.160          48.100          45.100
 118152620.076 7  91896496.283 6                  22118418.180    22118421.580
  22118421.260          44.050          40.300
 128044448.812 7  99590113.407 6                  23995473.580    23995475.960
  23995476.020          45.150          37.000
 115032630.387 7  89469972.955 7                  21511635.740    21511639.900
  21511637.740          42.750          44.750
 137543190.444 8                 102710954.607 7  26173547.460
                        48.300
 146882381.970 7                 109684904.005 7  27950786.380
                        44.550
 119171924.282 8                  88992059.203 8  22677658.280
                        52.150
 123127129.570 8                  91945692.549 8  23430259.540
                        50.600
 15  1 27  2  3 25.0000000  0 23G31G08G21G25G16G18G22G27G19G29R11R05
                                R21R10R04R22R12R06R20E12E19E18E11
 120583752.855 8  93961374.740 7                  22946321.080    22946316.780
  22946315.920          49.450          45.000
 110696045.390 8  86256638.50747                  21064755.320
  21064751.460          50.300          46.200
 111572174.680 7  86939414.76847                  21231447.600
  21231442.280          47.950          46.400
 133723811.348 7 104200542.853 6  99858846.759 7  25446715.100    25446714.360
  25446713.660          42.850          39.050
 112385518.977 8  87573132.55547                  21386251.200
  21386245.520          50.250          46.000
 122337725.328 8  95328090.79746                  23280087.000
  23280082.320          48.100          39.350
 129693546.741 7 101059912.01446                  24679849.900
  24679843.780          44.100          37.450
 118772020.302 7  92549635.028 7  88693394.574 8  22601559.940    22601558.360
  22601557.720          47.950          47.450
 131547107.804 7 102504214.37146                  25032580.620
  25032574.900          42.800          37.050
 125476178.963 7  97773782.354 6                  23877262.880    23877259.220
  23877258.600          47.100          41.000
 104555391.290 7  81320873.576 7                  19566114.820    19566118.340
  19566116.480          47.650          42.300
 122445331.643 7  95235276.347 6                  22905930.280    22905932.880
  22905932.240          47.000          41.000
 105318378.537 8  81914345.232 7                  19681236.480    19681238.060
  19681237.220          48.700          47.000
 114211037.511 7  88830841.400 6                  21425694.860    21425701.580
  21425700.500          47.450          39.600
 128043177.709 7  99589154.724 6                  23911157.920    23911158.960
  23911158.120          43.000          37.800
 115965249.539 8  90195222.675 7                  21724192.400    21724195.740
  21724194.800          48.100          45.050
 118134817.055 7  91882649.482 6                  22115085.440    22115088.760
  22115088.480          44.350          40.250
 128026255.937 7  99575963.394 6                  23992064.220    23992066.720
  23992066.720          45.050          36.800
 115046657.201 7  89480882.693 7                  21514258.820    21514263.000
  21514260.880          42.950          44.700
 137554045.779 8                 102719060.854 8  26175613.120
                        48.250
 146878981.198 7                 109682364.452 7  27950139.180
                        44.550
 119198543.921 8                  89011937.505 8  22682723.820
                        52.150
 123130606.215 8                  91948288.743 8  23430921.120
                        50.650
 15  1 27  2  3 30.0000000  0 23G31G08G21G25G16G18G22G27G19G29R11R05
                                R21R10R04R22R12R06R20E12E19E18E11
 120599698.724 8  93973800.089 7                  22949355.480    22949351.160
  22949350.300          49.400          45.000
 110703323.485 8  86262309.74447                  21066140.260
  21066136.440          50.050          46.550
 111576698.317 8  86942939.68447                  21232308.440
  21232303.100          48.050          46.750
 133740804.645 7 104213784.387 6  99871536.569 7  25449948.780    25449948.060
  25449947.380          42.150          39.000
 112374937.120 8  87564886.95447                  21384237.540
  21384231.860          50.100          46.150
 122326346.445 8  95319224.15446                  23277921.680
  23277917.000          48.150          38.750
 129678155.606 7 101047918.93046                  24676920.980
  24676914.920          44.300          36.050
 118760714.354 7  92540825.198 7  88684951.824 8  22599408.460    22599406.920
  22599406.300          47.650          47.600
 131532235.638 7 102492625.64646                  25029750.580
  25029744.800          42.600          37.550
 125489797.390 7  97784394.113 6                  23879854.380    23879850.800
  23879850.100          46.800          41.000
 104557516.916 7  81322526.852 7                  19566512.600    19566516.120
  19566514.280          47.650          42.350
 122436744.464 7  95228597.421 6                  22904323.900    22904326.480
  22904325.840          47.350          41.150
 105319900.798 8  81915529.209 7                  19681520.980    19681522.560
  19681521.660          48.450          46.900
 114231248.455 7  88846561.025 6                  21429486.400    21429493.120
  21429492.000          47.000          39.650
 128049333.652 7  99593942.680 6                  23912307.500    23912308.520
  23912307.740          42.300          37.400
 115953227.930 8  90185872.543 7                  21721940.340    21721943.700
  21721942.740          48.400          44.900
 118117025.312 7  91868811.458 6                  22111754.780    22111758.100
  22111757.840          44.300          40.350
 128008062.738 7  99561813.125 6                  23988654.840    23988657.280
  23988657.380          44.850          36.900
 115060685.491 7  89491793.582 7                  21516882.120    21516886.360
  21516884.260          42.900          44.850
 137564900.522 8                 102727166.667 7  26177678.700
                        48.400
 146875589.635 7                 109679831.824 6  27949493.800
                        44.300
 119225161.682 8                  89031814.410 8  22687789.000
                        52.000
 123134086.457 8                  91950887.637 8  23431583.400
                        50.550
 15  1 27  2  3 35.0000000  0 23G31G08G21G25G16G18G22G27G19G29R11R05
                                R21R10R04R22R12R06R20E12E19E18E11
 120615650.991 8  93986230.427 7                  22952391.100    22952386.800
  22952385.920          49.400          44.800
 110710619.261 8  86267994.76647                  21067528.580
  21067524.800          49.950          46.300
 111581234.017 8  86946473.99647                  21233171.580
  21233166.220          48.300          46.350
 133757801.424 6 104227028.625 6  99884228.974 7  25453183.160    25453182.400
  25453181.660          41.850          37.750
 112364364.157 8  87556648.28147                  21382225.580
  21382219.900          50.150          46.100
 122314974.635 8  95310362.99946                  23275757.720
  23275753.060          48.250          39.200
 129662763.379 7 101035924.97046                  24673991.920
  24673985.880          44.550          36.650
 118749413.689 7  92532019.485 7  88676513.016 8  22597257.980    22597256.460
  22597255.880          47.750          47.400
 131517366.923 7 102481039.60546                  25026921.140
  25026915.460          42.950          36.800
 125503417.454 7  97795007.148 6                  23882446.140    23882442.640
  23882441.880          46.900          41.300
 104559666.493 7  81324198.743 7                  19566914.840    19566918.340
  19566916.580          47.950          42.100
 122428175.061 7  95221932.343 6                  22902720.840    22902723.360
  22902722.780          47.300          41.000
 105321434.068 8  81916721.750 7                  19681807.520    19681809.080
  19681808.160          48.300          46.850
 114251471.013 7  88862289.665 6                  21433280.100    21433286.820
  21433285.720          47.050          39.000
 128055509.738 7  99598746.312 6                  23913460.920    23913461.840
  23913461.100          42.800          37.300
 115941215.630 8  90176529.639 7                  21719690.000    21719693.380
  21719692.420          48.550          44.500
 118099246.956 7  91854983.856 6                  22108426.620    22108430.020
  22108429.700          44.150          40.100
 127989871.533 7  99547664.424 6                  23985245.800    23985248.160
  23985248.400          45.150          36.550
 115074717.383 7  89502707.265 7                  21519506.180    21519510.400
  21519508.320          43.100          44.650
 137575756.755 8                 102735273.604 7  26179744.580
                        48.750
 146872209.433 7                 109677307.652 7  27948850.540
                        44.250
 119251779.667 8                  89051691.475 8  22692854.200
                        52.000
 123137572.400 8                  91953490.772 8  23432246.740
                        50.450
 15  1 27  2  3 40.0000000  0 23G31G08G21G25G16G18G22G27G19G29R11R05
                                R21R10R04R22R12R06R20E12E19E18E11
 120631608.862 8  93998665.130 7                  22955427.780    22955423.460
  22955422.580          49.350          45.050
 110717931.922 8  86273692.93947                  21068920.120
  21068916.360          49.850          46.050
 111585780.916 8  86950017.03847                  21234036.860
  21234031.480          48.350          46.150
 133774800.852 6 104240274.932 6  99896923.350 7  25456418.020    25456417.340
  25456416.460          40.900          37.600
 112353799.360 8  87548415.97247                  21380215.160
  21380209.460          50.150          45.850
 122303609.128 8  95301506.75846                  23273594.980
  23273590.240          48.250          39.450
 129647369.265 7 101023929.58946                  24671062.460
  24671056.580          45.000          37.250
 118738117.496 8  92523217.253 7  88668077.542 8  22595108.360    22595106.840
  22595106.280          48.000          47.300
 131502500.808 7 102469455.61245                  25024092.220
  25024086.600          43.800          32.850
 125517038.269 7  97805620.760 6                  23885038.040    23885034.520
  23885033.880          46.300          40.500
 104561839.093 7  81325888.526 7                  19567321.420    19567324.920
  19567323.160          47.850          42.300
 122419622.676 7  95215280.481 6                  22901120.940    22901123.440
  22901122.800          47.350          41.150
 105322977.467 8  81917922.173 7                  19682095.960    19682097.500
  19682096.560          48.400          47.000
 114271704.454 7  88878026.783 6                  21437075.820    21437082.560
  21437081.420          46.900          38.650
 128061705.006 7  99603564.854 6                  23914617.820    23914618.820
  23914618.060          42.650          37.750
 115929211.703 8  90167193.256 7                  21717441.280    21717444.620
  21717443.640          48.500          44.400
 118081481.266 7  91841166.101 6                  22105100.880    22105104.280
  22105103.960          44.550          40.500
 127971681.619 7  99533516.699 5                  23981837.000    23981839.400
  23981839.620          45.850          35.750
 115088751.994 7  89513623.071 7                  21522130.700    21522134.960
  21522132.860          43.150          44.550
 137586613.667 8                 102743381.020 7  26181810.640
                        48.950
 146868839.773 7                 109674791.353 6  27948209.320
                        44.400
 119278397.041 8                  89071568.066 8  22697919.260
                        52.000
 123141063.231 8                  91956097.556 8  23432911.020
                        50.550
 15  1 27  2  3 45.0000000  0 23G31G08G21G25G16G18G22G27G19G29R11R05
                                R21R10R04R22R12R06R20E12E19E18E11
 120647570.741 8  94011102.955 7                  22958465.220    22958460.900
  22958460.020          49.250          44.800
 110725259.911 8  86279403.06047                  21070314.580
  21070310.840          49.850          46.250
 111590337.496 8  86953567.62847                  21234904.000
  21234898.580          48.100          46.050
 133791801.375 6 104253522.078 6  99909618.575 7  25459653.080    25459652.400
  25459651.580          40.550          36.550
 112343241.192 8  87540188.82847                  21378206.020
  21378200.320          49.950          46.000
 122292248.404 8  95292654.23746                  23271433.160
  23271428.360          48.150          39.350
 129631971.756 7 101011931.54346                  24668132.380
  24668126.600          44.750          37.000
 118726824.254 8  92514417.328 7  88659644.284 8  22592959.320    22592957.800
  22592957.220          48.000          47.050
 131487635.837 7 102457872.53045                  25021263.500
  25021257.900          43.500          35.050
 125530658.346 7  97816233.805 6                  23887629.840    23887626.380
  23887625.680          47.100          40.950
 104564033.255 7  81327595.097 7                  19567732.000    19567735.560
  19567733.760          47.800          42.250
 122411085.668 7  95208640.580 6                  22899523.920    22899526.420
  22899525.760          46.850          41.200
 105324529.489 8  81919129.312 7                  19682386.020    19682387.520
  19682386.560          48.650          47.050
 114291947.082 7  88893771.048 6                  21440873.280    21440880.080
  21440878.900          47.600          39.050
 128067917.993 7  99608397.187 6                  23915778.060    23915778.980
  23915778.280          43.000          37.850
 115917214.569 8  90157862.151 7                  21715193.760    21715197.140
  21715196.160          48.750          44.600
 118063726.686 7  91827356.980 6                  22101777.200    22101780.580
  22101780.260          44.750          40.200
 127953491.340 7  99519368.708 5                  23978428.220    23978430.560
  23978430.780          45.550          35.550
 115102787.771 7  89524539.791 7                  21524755.460    21524759.700
  21524757.620          43.650          44.250
 137597469.768 8                 102751487.853 7  26183876.540
                        48.950
 146865479.175 7                 109672281.796 6  27947569.880
                        44.200
 119305012.272 8                  89091443.078 8  22702983.920
                        51.950
 123144557.417 8                  91958706.854 8  23433575.920
                        50.400
 15  1 27  2  3 50.0000000  0 23G31G08G21G25G16G18G22G27G19G29R11R05
                                R21R10R04R22R12R06R20E12E19E18E11
 120663539.469 8  94023546.118 7                  22961503.960    22961499.640
  22961498.780          49.300          45.000
 110732606.098 8  86285127.36247                  21071712.480
  21071708.800          50.000          46.050
 111594906.568 8  86957127.94247                  21235773.500
  21235768.040          48.050          46.550
 133808805.895 6 104266772.364 6  99922316.732 7  25462888.940    25462888.300
  25462887.220          39.800          36.450
 112332692.436 8  87531969.01047                  21376198.640
  21376192.960          49.850          46.050
 122280895.309 8  95283807.67846                  23269272.780
  23269267.900          48.050          39.100
 129616573.687 7 100999933.06446                  24665202.200
  24665196.420          45.350          37.800
 118715536.806 8  92505621.918 7  88651215.358 8  22590811.380    22590809.840
  22590809.260          48.100          47.000
 131472774.844 7 102446292.50445                  25018435.500
  25018430.040          43.350          35.300
 125544280.560 7  97826848.513 6                  23890222.040    23890218.640
  23890217.900          46.950          40.850
 104566251.971 7  81329320.757 7                  19568147.180    19568150.720
  19568148.960          47.600          42.550
 122402567.005 7  95202014.968 6                  22897930.320    22897932.800
  22897932.180          46.950          41.400
 105326093.046 8  81920345.423 7                  19682678.220    19682679.700
  19682678.720          48.800          47.100
 114312201.845 7  88909524.758 6                  21444673.020    21444679.820
  21444678.640          47.850          39.650
 128074151.647 7  99613245.585 6                  23916942.140    23916943.100
  23916942.380          42.400          38.050
 115905227.169 8  90148538.624 7                  21712948.080    21712951.460
  21712950.440          48.600          44.650
 118045985.972 7  91813558.632 6                  22098456.140    22098459.500
  22098459.140          44.700          40.400
 127935303.525 7  99505222.593 5                  23975019.820    23975022.120
  23975022.400          44.950          35.850
 115116827.692 7  89535459.725 7                  21527381.020    21527385.220
  21527383.160          43.600          44.050
 137608327.873 8                 102759596.176 7  26185942.860
                        48.950
 146862130.406 7                 109669781.104 7  27946932.660
                        44.200
 119331628.186 8                  89111318.592 8  22708048.720
                        52.000
 123148057.801 8                  91961320.782 8  23434242.020
                        50.450
 15  1 27  2  3 55.0000000  0 23G31G08G21G25G16G18G22G27G19G29R11R05
                                R21R10R04R22R12R06R20E12E19E18E11
 120679513.700 8  94035993.558 7                  22964543.760    22964539.440
  22964538.600          49.450          45.000
 110739969.089 8  86290864.74547                  21073113.600
  21073109.940          49.900          46.000
 111599486.752 8  86960696.91447                  21236645.120
  21236639.620          48.100          46.300
 133825812.992 6 104280024.643 6  99935016.833 7  25466125.240    25466124.680
  25466123.640          40.300          36.750
 112322151.760 8  87523755.49847                  21374192.800
  21374187.120          50.000          45.800
 122269548.474 8  95274965.98246                  23267113.560
  23267108.640          48.250          38.700
 129601173.787 7 100987933.15146                  24662271.780
  24662265.980          45.900          36.900
 118704253.777 7  92496829.949 7  88642789.715 8  22588664.260    22588662.740
  22588662.180          47.900          47.100
 131457916.470 7 102434714.54046                  25015607.980
  25015602.580          43.000          36.250
 125557903.540 7  97837463.804 6                  23892814.400    23892810.960
  23892810.180          46.300          39.950
 104568493.762 7  81331064.375 7                  19568566.700    19568570.280
  19568568.480          47.650          42.400
 122394065.371 7  95195402.592 6                  22896339.920    22896342.360
  22896341.740          47.600          41.100
 105327666.704 8  81921569.360 7                  19682972.280    19682973.720
  19682972.780          48.600          47.050
 114332467.354 7  88925286.823 6                  21448474.800    21448481.580
  21448480.400          47.700          39.950
 128080404.475 7  99618108.892 6                  23918109.780    23918110.800
  23918110.020          42.600          37.750
 115893248.069 8  90139221.565 7                  21710703.960    21710707.360
  21710706.280          48.600          44.700
 118028257.952 7  91799770.169 6                  22095137.380    22095140.720
  22095140.380          44.200          40.000
 127917117.037 7  99491077.567 6                  23971611.640    23971614.040
  23971614.280          44.300          36.200
 115130870.144 7  89546381.631 7                  21530007.040    21530011.280
  21530009.200          43.400          44.200
 137619186.584 8                 102767704.953 7  26188009.300
                        49.100
 146858792.127 7                 109667288.262 7  27946297.440
                        44.850
 119358243.385 8                  89131193.575 8  22713113.420
                        52.100
 123151563.010 8                  91963938.300 8  23434909.040
                        50.450
 15  1 27  2  4  0.0000000  0 23G31G08G21G25G16G18G22G27G19G29R11R05
                                R21R10R04R22R12R06R20E12E19E18E11
 120695492.671 8  94048444.706 7                  22967584.440    22967580.160
  22967579.320          49.400          44.850
 110747348.157 8  86296614.68147                  21074517.780
  21074514.160          49.900          45.950
 111604077.359 8  86964274.01747                  21237518.700
  21237513.200          48.100          46.300
 133842821.937 6 104293278.378 6  99947718.312 7  25469361.940    25469361.380
  25469360.320          40.200          38.200
 112311618.519 8  87515547.78547                  21372188.380
  21372182.720          49.850          45.950
 122258207.235 8  95266128.66546                  23264955.400
  23264950.440          48.450          38.550
 129585771.260 7 100975931.19145                  24659340.840
  24659335.040          44.950          35.800
 118692974.469 7  92488040.890 7  88634366.863 8  22586517.860    22586516.340
  22586515.800          47.700          47.000
 131443059.978 7 102423138.03245                  25012780.880
  25012775.400          43.200          35.350
 125571526.552 7  97848079.157 6                  23895406.680    23895403.280
  23895402.480          45.950          40.700
 104570757.793 7  81332825.286 7                  19568990.340    19568994.000
  19568992.180          47.700          42.400
 122385579.942 7  95188802.814 6                  22894752.620    22894754.920
  22894754.320          47.600          40.850
 105329249.694 8  81922800.582 7                  19683268.100    19683269.540
  19683268.580          48.350          47.300
 114352742.803 7  88941056.619 6                  21452278.440    21452285.220
  21452284.020          47.450          40.050
 128086675.665 7  99622986.480 6                  23919280.900    23919281.840
  23919281.080          42.400          37.650
 115881276.566 8  90129910.400 7                  21708461.280    21708464.660
  21708463.560          48.700          44.750
 118010541.788 7  91785990.935 6                  22091820.840    22091824.180
  22091823.860          44.150          40.350
 127898931.043 7  99476932.928 6                  23968203.520    23968205.920
  23968206.300          44.100          36.750
 115144914.603 7  89557305.104 7                  21532633.460    21532637.700
  21532635.620          43.250          44.550
 137630045.197 8                 102775813.664 7  26190075.680
                        49.250
 146855463.695 7                 109664802.725 6  27945664.140
                        44.800
 119384857.165 8                  89151067.505 8  22718177.840
                        52.150
 123155072.317 8                  91966558.894 8  23435576.840
                        50.450
 15  1 27  2  4  5.0000000  0 23G31G08G21G25G16G18G22G27G19G29R11R05
                                R21R10R04R22R12R06R20E12E19E18E11
 120711477.185 8  94060900.166 7                  22970626.180    22970621.960
  22970621.100          49.250          45.100
 110754744.102 8  86302377.75147                  21075925.160
  21075921.560          49.900          46.250
 111608679.170 8  86967859.84047                  21238394.420
  21238388.920          48.200          46.250
 133859833.501 6 104306534.138 6  99960421.776 7  25472599.060    25472598.600
  25472597.440          39.950          37.750
 112301093.482 8  87507346.45547                  21370185.500
  21370179.880          49.850          45.950
 122246872.365 8  95257296.29346                  23262798.480
  23262793.440          48.600          38.700
 129570366.928 7 100963927.82246                  24656409.520
  24656403.720          44.900          37.950
 118681699.643 7  92479255.305 7  88625947.344 8  22584372.300    22584370.820
  22584370.280          47.650          47.150
 131428206.176 7 102411563.65646                  25009954.300
  25009948.860          42.650          37.950
 125585150.337 7  97858695.082 6                  23897999.140    23897995.800
  23897994.980          46.350          41.500
 104573044.988 7  81334604.212 7                  19569418.340    19569422.060
  19569420.200          47.700          42.550
 122377111.619 7  95182216.327 6                  22893168.460    22893170.700
  22893170.060          47.400          41.150
 105330842.813 8  81924039.671 7                  19683565.840    19683567.260
  19683566.280          48.550          47.200
 114373028.979 7  88956834.741 6                  21456084.080    21456090.820
  21456089.660          47.500          39.900
 128092966.106 7  99627879.062 6                  23920455.500    23920456.580
  23920455.760          42.700          37.600
 115869313.486 8  90120605.787 7                  21706220.180    21706223.560
  21706222.440          48.550          44.900
 117992838.290 7  91772221.554 6                  22088506.640    22088509.960
  22088509.720          44.100          40.300
 127880746.321 7  99462789.245 6                  23964795.660    23964798.060
  23964798.480          43.950          36.400
 115158961.745 7  89568230.658 7                  21535260.380    21535264.640
  21535262.560          43.350          44.950
 137640904.536 8                 102783922.895 7  26192142.220
                        49.150
 146852145.826 7                 109662325.098 6  27945032.860
                        44.800
 119411470.283 8                  89170940.930 8  22723242.180
                        52.200
 123158586.515 8                  91969183.126 8  23436245.560
                        50.350
 15  1 27  2  4 10.0000000  0 23G31G08G21G25G16G18G22G27G19G29R11R05
                                R21R10R04R22R12R06R20E12E19E18E11
 120727467.446 8  94073360.102 7                  22973669.020    22973664.820
  22973663.980          49.100          45.300
 110762157.107 8  86308154.11047                  21077335.800
  21077332.180          49.950          46.100
 111613292.400 8  86971454.56047                  21239272.320
  21239266.780          48.050          46.500
 133876847.939 6 104319792.153 6  99973127.346 7  25475836.720    25475836.360
  25475835.240          39.750          38.350
 112290576.827 8  87499151.65447                  21368184.220
  21368178.640          49.900          46.000
 122235544.075 8  95248469.05446                  23260642.780
  23260637.760          48.000          39.300
 129554961.013 7 100951923.23246                  24653477.820
  24653472.100          44.150          39.300
 118670429.526 7  92470473.394 7  88617531.342 8  22582227.620    22582226.180
  22582225.640          47.700          47.250
 131413355.264 7 102399991.51745                  25007128.260
  25007122.800          42.000          35.800
 125598775.162 7  97869311.823 6                  23900591.800    23900588.560
  23900587.740          45.500          41.600
 104575355.528 7  81336401.292 7                  19569850.720    19569854.420
  19569852.600          47.850          42.250
 122368660.580 7  95175643.300 6                  22891587.560    22891589.760
  22891589.100          47.550          41.350
 105332446.341 8  81925286.862 7                  19683865.500    19683866.920
  19683865.940          49.050          47.150
 114393326.053 7  88972621.350 6                  21459891.760    21459898.480
  21459897.360          47.450          39.850
 128099276.082 7  99632786.812 6                  23921633.820    23921634.900
  23921634.100          43.050          37.900
 115857358.982 8  90111307.818 7                  21703980.720    21703984.080
  21703982.960          49.000          44.950
 117975147.855 7  91758462.318 6                  22085194.920    22085198.260
  22085198.060          44.650          40.500
 127862563.016 7  99448646.693 6                  23961388.000    23961390.580
  23961390.900          44.500          36.250
 115173011.853 7  89579158.513 7                  21537887.820    21537892.080
  21537890.020          43.400          44.800
 137651764.766 8                 102792032.827 7  26194208.900
                        49.150
 146848838.737 7                 109659855.523 6  27944403.600
                        45.150
 119438082.942 8                  89190814.011 8  22728306.400
                        52.150
 123162105.799 8                  91971811.165 8  23436915.260
                        50.400
 15  1 27  2  4 15.0000000  0 23G31G08G21G25G16G18G22G27G19G29R11R05
                                R21R10R04R22R12R06R20E12E19E18E11
 120743462.271 8  94085823.587 7                  22976712.720    22976708.540
  22976707.720          49.350          45.250
 110769586.030 8  86313942.87947                  21078749.480
  21078745.860          50.250          45.750
 111617915.881 8  86975057.27247                  21240152.160
  21240146.600          48.250          46.300
 133893864.096 6 104333051.469 6  99985834.198 7  25479074.720    25479074.400
  25479073.260          40.350          37.850
 112280067.473 8  87490962.54647                  21366184.340
  21366178.760          50.200          45.450
 122224221.278 8  95239646.10046                  23258488.100
  23258483.060          48.450          38.150
 129539552.406 7 100939916.54946                  24650545.600
  24650539.940          44.550          37.500
 118659162.979 7  92461694.261 7  88609118.004 8  22580083.660    22580082.200
  22580081.680          47.800          47.200
 131398506.105 6 102388420.75645                  25004302.460
  25004296.980          41.550          35.600
 125612399.892 7  97879928.465 6                  23903184.400    23903181.260
  23903180.520          45.800          41.600
 104577688.340 7  81338215.693 7                  19570287.260    19570291.040
  19570289.120          47.350          42.100
 122360225.752 7  95169082.884 7                  22890009.660    22890011.880
  22890011.240          47.200          42.000
 105334059.105 8  81926541.225 7                  19684166.880    19684168.300
  19684167.320          49.050          47.200
 114413632.973 7  88988415.617 6                  21463701.240    21463708.060
  21463706.900          47.500          39.850
 128105604.385 7  99637708.818 6                  23922815.580    23922816.620
  23922815.880          42.350          37.750
 115845411.961 8  90102015.691 7                  21701742.640    21701746.000
  21701744.860          48.850          44.650
 117957469.191 7  91744712.234 6                  22081885.400    22081888.820
  22081888.600          44.250          40.800
 127844380.325 7  99434504.600 6                  23957980.520    23957983.180
  23957983.380          44.150          36.000
 115187063.683 7  89590087.704 7                  21540515.600    21540519.860
  21540517.800          43.400          44.800
 137662624.749 8                 102800142.544 7  26196275.560
                        49.250
 146845541.331 7                 109657393.158 6  27943776.180
                        45.000
 119464693.976 8                  89210685.895 8  22733370.320
                        52.250
 123165629.037 8                  91974442.145 8  23437585.700
                        50.500
 15  1 27  2  4 20.0000000  0 23G31G08G21G25G16G18G22G27G19G29R11R05
                                R21R10R04R22R12R06R20E12E19E18E11
 120759464.007 8  94098292.474 7                  22979757.740    22979753.560
  22979752.780          49.150          45.150
 110777033.203 8  86319745.86747                  21080166.600
  21080163.040          50.100          45.900
 111622551.967 8  86978669.81147                  21241034.400
  21241028.820          48.200          46.400
 133910884.297 6 104346313.957 6  99998544.090 7  25482313.580    25482313.300
  25482311.920          40.450          37.850
 112269567.765 8  87482780.95547                  21364186.320
  21364180.740          50.150          45.550
 122212906.317 8  95230829.25346                  23256334.920
  23256329.880          48.200          39.050
 129524143.433 7 100927909.56846                  24647613.380
  24647607.680          44.650          36.650
 118647902.368 7  92452919.759 7  88600709.120 8  22577940.800    22577939.380
  22577938.860          47.750          47.150
 131383661.058 6 102376853.15846                  25001477.480
  25001472.060          41.750          37.700
 125626026.840 7  97890546.854 6                  23905777.440    23905774.420
  23905773.680          45.900          41.150
 104580045.848 7  81340049.315 7                  19570728.420    19570732.200
  19570730.280          47.450          42.100
 122351809.458 7  95162536.890 7                  22888435.160    22888437.440
  22888436.860          46.850          42.300
 105335683.428 8  81927804.575 7                  19684470.440    19684471.840
  19684470.840          48.750          47.300
 114433952.071 7  89004219.362 6                  21467513.000    21467519.880
  21467518.740          47.300          40.400
 128111953.340 7  99642646.885 6                  23924001.220    23924002.240
  23924001.520          42.600          38.600
 115833474.800 8  90092731.249 7                  21699506.420    21699509.780
  21699508.620          48.850          44.850
 117939804.813 7  91730973.286 6                  22078578.540    22078582.080
  22078581.860          44.000          41.050
 127826200.437 7  99420364.679 5                  23954573.540    23954576.240
  23954576.420          44.800          35.700
 115201119.667 7  89601020.134 7                  21543144.180    21543148.420
  21543146.340          43.000          44.950
 137673486.860 8                 102808253.867 7  26198342.600
                        49.050
 146842255.933 7                 109654939.804 6  27943151.020
                        45.000
 119491305.741 8                  89230558.325 8  22738434.400
                        52.200
 123169158.582 8                  91977077.848 8  23438257.360
                        50.550
 15  1 27  2  4 25.0000000  0 23G31G08G21G25G16G18G22G27G19G29R11R05
                                R21R10R04R22R12R06R20E12E19E18E11
 120775468.753 8  94110763.701 7                  22982803.320    22982799.180
  22982798.420          49.250          45.150
 110784494.718 8  86325560.03247                  21081586.480
  21081582.920          50.050          46.000
 111627196.743 8  86982289.12347                  21241918.300
  21241912.700          48.250          46.450
 133927904.631 6 104359576.537 6 100011254.065 7  25485552.480    25485552.140
  25485550.840          41.200          37.500
 112259073.822 8  87474603.86047                  21362189.400
  21362183.800          50.050          45.700
 122201595.279 8  95222015.45546                  23254182.500
  23254177.420          48.050          38.800
 129508730.249 7 100915899.31246                  24644680.300
  24644674.680          45.000          37.650
 118636643.775 7  92444146.835 7  88592301.729 8  22575798.340    22575796.960
  22575796.420          47.900          47.300
 131368816.214 7 102365285.76145                  24998652.580
  24998647.220          42.750          35.500
 125639652.091 7  97901163.939 6                  23908370.240    23908367.220
  23908366.500          46.350          41.000
 104582423.951 7  81341898.959 7                  19571173.420    19571177.220
  19571175.300          47.400          42.100
 122343407.850 7  95156002.324 7                  22886863.420    22886865.760
  22886865.240          47.100          42.000
 105337315.362 8  81929073.861 7                  19684775.440    19684776.820
  19684775.800          48.300          47.250
 114454279.380 7  89020029.479 6                  21471326.320    21471333.240
  21471332.120          47.100          40.100
 128118318.964 7  99647597.960 6                  23925190.020    23925191.000
  23925190.340          42.550          38.500
 115821543.517 8  90083451.383 7                  21697271.300    21697274.620
  21697273.440          48.900          44.500
 117922150.689 7  91717242.305 6                  22075273.660    22075277.120
  22075277.000          44.050          40.950
 127808019.392 7  99406223.854 5                  23951166.440    23951169.040
  23951169.200          44.400          35.300
 115215175.831 7  89611952.697 7                  21545772.720    21545777.020
  21545774.940          43.050          44.750
 137684347.174 8                 102816363.847 7  26200409.260
                        48.900
 146838978.662 7                 109652492.499 6  27942527.460
                        45.300
 119517914.322 8                  89250428.365 8  22743497.860
                        52.150
 123172690.515 8                  91979715.327 8  23438929.440
                        50.500
 15  1 27  2  4 30.0000000  0 23G31G08G21G25G16G18G22G27G19G29R11R05
                                R21R10R04R22R12R06R20E12E19E18E11
 120791480.200 8  94123240.149 7                  22985850.180    22985846.080
  22985845.300          49.200          44.900
 110791974.278 8  86331388.26147                  21083009.800
  21083006.260          50.000          46.300
 111631853.914 8  86985918.08947                  21242804.560
  21242798.940          48.150          46.400
 133944928.787 6 104372842.106 6 100023966.920 7  25488792.100    25488791.640
  25488790.540          41.350          37.350
 112248589.346 8  87466434.14347                  21360194.260
  21360188.660          50.100          45.900
 122190291.940 8  95213207.65846                  23252031.540
  23252026.380          48.150          38.250
 129493316.589 7 100903888.68446                  24641747.160
  24641741.520          45.300          37.150
 118625390.916 8  92435378.383 7  88583898.639 8  22573656.980    22573655.600
  22573655.060          48.050          47.250
 131353975.332 7 102353721.41945                  24995828.460
  24995823.080          42.450          35.850
 125653279.389 7  97911782.627 6                  23910963.420    23910960.460
  23910959.700          45.900          41.350
 104584826.373 7  81343767.505 7                  19571623.000    19571626.800
  19571624.880          47.500          42.450
 122335024.601 7  95149482.008 6                  22885295.200    22885297.480
  22885297.000          47.900          41.750
 105338958.700 8  81930352.020 7                  19685082.540    19685083.900
  19685082.900          48.400          47.250
 114474618.643 7  89035848.906 6                  21475141.920    21475148.860
  21475147.740          47.150          40.700
 128124705.141 7  99652564.995 6                  23926382.620    23926383.520
  23926383.000          42.200          38.850
 115809621.900 8  90074179.021 7                  21695038.020    21695041.280
  21695040.080          48.900          44.850
 117904510.705 7  91703522.322 6                  22071971.400    22071974.860
  22071974.760          44.200          41.050
 127789841.013 7  99392085.110 5                  23947759.740    23947762.380
  23947762.460          44.350          35.650
 115229235.947 7  89622888.335 7                  21548402.040    21548406.280
  21548404.220          43.100          44.900
 137695209.424 8                 102824475.268 7  26202476.300
                        48.650
 146835713.254 7                 109650054.050 6  27941906.140
                        45.000
 119544523.417 8                  89270298.791 8  22748561.380
                        52.100
 123176228.549 8                  91982357.375 8  23439602.700
                        50.450
 15  1 27  2  4 35.0000000  0 23G31G08G21G25G16G18G22G27G19G29R11R05
                                R21R10R04R22R12R06R20E12E19E18E11
 120807496.092 8  94135720.063 7                  22988897.880    22988893.780
  22988893.020          49.000          45.050
 110799469.598 8  86337228.77447                  21084436.100
  21084432.600          49.950          46.550
 111636521.181 8  86989554.91547                  21243692.760
  21243687.100          48.250          46.750
 133961954.555 6 104386108.931 6 100036680.964 7  25492032.040    25492031.480
  25492030.580          41.400          36.950
 112238112.079 8  87458270.03747                  21358200.500
  21358194.900          50.200          45.750
 122178994.042 8  95204404.09946                  23249881.600
  23249876.480          48.400          39.050
 129477900.196 7 100891875.90346                  24638813.540
  24638807.740          45.300          36.450
 118614141.543 8  92426612.642 7  88575498.124 8  22571516.320    22571514.940
  22571514.380          48.200          47.100
 131339136.086 7 102342158.36645                  24993004.680
  24992999.180          42.400          35.650
 125666906.484 7  97922401.116 6                  23913556.560    23913553.660
  23913552.840          46.400          41.500
 104587250.966 7  81345653.291 7                  19572076.720    19572080.560
  19572078.600          47.700          42.400
 122326657.464 7  95142974.236 6                  22883729.960    22883732.160
  22883731.780          47.700          41.550
 105340611.042 8  81931637.174 7                  19685391.300    19685392.700
  19685391.660          48.600          47.100
 114494967.323 7  89051675.648 6                  21478959.260    21478966.240
  21478965.160          47.250          40.150
 128131109.573 7  99657546.228 6                  23927578.600    23927579.600
  23927579.060          42.400          38.550
 115797707.589 8  90064912.353 7                  21692806.080    21692809.220
  21692808.080          48.700          44.800
 117886882.575 7  91689811.547 6                  22068671.400    22068674.840
  22068674.780          44.650          41.350
 127771663.041 7  99377946.683 5                  23944353.140    23944355.760
  23944355.840          43.250          35.150
 115243297.693 7  89633825.249 7                  21551031.680    21551035.900
  21551033.840          42.950          44.700
 137706071.319 8                 102832586.398 7  26204543.240
                        48.600
 146832457.425 7                 109647622.719 6  27941286.620
                        45.100
 119571130.750 8                  89290167.895 8  22753624.560
                        52.100
 123179770.416 8                  91985002.270 8  23440276.680
                        50.550
 15  1 27  2  4 40.0000000  0 23G31G08G21G25G16G18G22G27G19G29R11R05
                                R21R10R04R22R12R06R20E12E19E18E11
 120823517.350 8  94148204.156 7                  22991946.620    22991942.540
  22991941.780          48.950          44.850
 110806981.674 8  86343082.34047                  21085865.580
  21085862.100          49.950          46.600
 111641199.563 8  86993200.41047                  21244583.060
  21244577.380          48.350          46.400
 133978982.859 6 104399377.745 6 100049396.893 7  25495272.480    25495271.760
  25495271.000          41.300          37.100
 112227643.019 8  87450112.33247                  21356208.320
  21356202.720          50.200          45.550
 122167702.513 8  95195605.50546                  23247732.880
  23247727.740          48.150          38.550
 129462482.014 7 100879861.74546                  24635879.540
  24635873.660          45.500          36.250
 118602896.616 8  92417850.355 7  88567100.930 8  22569376.480    22569375.100
  22569374.520          48.050          47.050
 131324299.484 6 102330597.36845                  24990181.360
  24990175.880          41.900          35.400
 125680534.304 7  97933020.199 6                  23916149.840    23916146.940
  23916146.120          46.450          41.100
 104589698.609 7  81347557.011 7                  19572534.760    19572538.600
  19572536.660          47.350          42.300
 122318307.505 7  95136479.822 6                  22882167.960    22882170.040
  22882169.800          47.600          41.550
 105342273.484 8  81932930.174 7                  19685701.980    19685703.360
  19685702.320          48.300          47.300
 114515326.605 7  89067510.650 6                  21482778.600    21482785.580
  21482784.520          47.150          39.800
 128137532.935 7  99662542.195 6                  23928778.160    23928779.040
  23928778.640          42.550          38.550
 115785801.760 8  90055652.265 7                  21690575.760    21690578.820
  21690577.700          48.750          44.650
 117869267.083 7  91676110.611 6                  22065373.760    22065377.220
  22065377.160          44.200          41.350
 127753486.374 7  99363809.278 5                  23940946.820    23940949.500
  23940949.500          43.400          35.300
 115257362.106 7  89644764.230 7                  21553661.760    21553666.000
  21553663.940          43.050          44.300
 137716933.814 8                 102840698.005 7  26206610.260
                        48.700
 146829212.147 7                 109645199.293 6  27940669.080
                        45.400
 119597737.262 8                  89310036.401 8  22758687.560
                        52.050
 123183317.085 8                  91987650.758 8  23440951.560
                        50.550
 15  1 27  2  4 45.0000000  0 23G31G08G21G25G16G18G22G27G19G29R11R05
                                R21R10R04R22R12R06R20E12E19E18E11
 120839543.264 8  94160691.879 7                  22994996.260    22994992.160
  22994991.380          48.750          44.550
 110814509.796 8  86348948.40347                  21087298.120
  21087294.680          50.150          46.100
 111645888.313 8  86996853.97747                  21245475.340
  21245469.620          48.350          46.300
 133996013.010 6 104412647.982 6 100062114.204 7  25498513.220    25498512.480
  25498511.740          41.950          36.800
 112217181.467 8  87441960.47147                  21354217.560
  21354211.940          50.200          45.450
 122156416.733 8  95186811.39946                  23245585.240
  23245580.140          48.350          38.750
 129447061.396 7 100867845.67345                  24632945.120
  24632939.100          45.650          34.850
 118591655.440 8  92409090.996 7  88558706.556 8  22567237.340    22567235.980
  22567235.380          48.100          46.950
 131309464.855 7 102319037.90445                  24987358.480
  24987353.020          42.850          32.500
 125694162.193 7  97943639.333 6                  23918743.140    23918740.200
  23918739.360          46.650          40.750
 104592168.634 7  81349478.146 7                  19572996.960    19573000.780
  19572998.880          47.200          42.350
 122309973.907 7  95129998.136 6                  22880608.980    22880611.060
  22880610.820          47.350          41.100
 105343945.242 7  81934230.433 7                  19686014.400    19686015.760
  19686014.720          47.950          47.300
 114535695.740 7  89083353.306 6                  21486599.820    21486606.780
  21486605.760          47.200          39.750
 128143974.924 7  99667552.639 6                  23929981.160    23929982.080
  23929981.640          42.300          38.350
 115773903.593 8  90046398.142 7                  21688346.840    21688349.860
  21688348.760          48.550          44.750
 117851663.760 7  91662419.142 6                  22062078.280    22062081.840
  22062081.800          44.000          41.150
 127735310.430 7  99349672.431 5                  23937540.620    23937543.380
  23937543.320          43.650          35.350
 115271428.280 7  89655704.598 7                  21556292.200    21556296.500
  21556294.400          42.850          44.550
 137727796.259 8                 102848809.571 7  26208677.280
                        48.550
 146825976.727 7                 109642783.254 6  27940053.420
                        45.350
 119624342.280 8                  89329903.786 8  22763750.260
                        52.000
 123186867.865 8                  91990302.318 8  23441627.220
                        50.550
 15  1 27  2  4 50.0000000  0 23G31G08G21G25G16G18G22G27G19G29R11R05
                                R21R10R04R22R12R06R20E12E19E18E11
 120855574.735 8  94173183.934 7                  22998046.940    22998042.840
  22998042.060          48.800          44.650
 110822054.871 8  86354827.68047                  21088733.900
  21088730.460          50.100          46.050
 111650588.365 8  87000516.35947                  21246369.740
  21246364.000          48.300          46.200
 134013045.915 6 104425920.394 6 100074833.604 7  25501754.500    25501753.780
  25501752.960          41.650          36.900
 112206728.369 8  87433815.20047                  21352228.420
  21352222.780          50.100          45.450
 122145137.588 8  95178022.45946                  23243438.880
  23243433.740          48.350          37.750
 129431639.233 7 100855828.42646                  24630010.340
  24630004.400          45.550          36.900
 118580418.913 8  92400335.263 7  88550315.648 8  22565099.120    22565097.720
  22565097.120          48.150          46.950
 131294633.083 7 102307480.68545                  24984536.180
  24984530.700          43.300          34.350
 125707791.059 7  97954259.237 6                  23921336.600    23921333.680
  23921332.880          46.450          41.650
 104594661.965 7  81351417.412 7                  19573463.520    19573467.380
  19573465.500          47.350          42.250
 122301657.748 7  95123530.004 6                  22879053.260    22879055.340
  22879055.100          46.450          41.000
 105345627.221 7  81935538.653 7                  19686328.660    19686330.100
  19686329.040          47.750          47.350
 114556075.654 7  89099204.346 6                  21490423.060    21490430.080
  21490429.000          47.150          39.400
 128150436.199 7  99672578.085 6                  23931187.720    23931188.680
  23931188.200          42.450          37.800
 115762013.933 8  90037150.641 7                  21686119.480    21686122.440
  21686121.380          48.050          44.500
 117834073.468 7  91648737.800 6                  22058785.320    22058789.000
  22058788.860          43.750          40.900
 127717136.106 7  99335536.837 5                  23934134.740    23934137.460
  23934137.420          43.350          35.500
 115285497.350 7  89666647.199 7                  21558923.220    21558927.520
  21558925.400          43.200          44.550
 137738659.528 8                 102856921.747 7  26210744.440
                        48.450
 146822752.090 7                 109640375.255 6  27939439.800
                        45.250
 119650946.682 8                  89349770.698 8  22768812.860
                        52.100
 123190423.663 8                  91992957.625 8  23442303.840
                        50.650
 15  1 27  2  4 55.0000000  0 23G31G08G21G25G16G18G22G27G19G29R11R05
                                R21R10R04R22R12R06R20E12E19E18E11
 120871611.755 8  94185680.310 7                  23001098.640    23001094.560
  23001093.780          48.700          44.550
 110829616.828 8  86360720.11047                  21090172.900
  21090169.480          50.100          46.250
 111655299.648 8  87004187.49747                  21247266.280
  21247260.520          48.300          46.750
 134030081.505 6 104439194.896 6 100087554.989 7  25504996.300    25504995.480
  25504994.560          41.150          37.700
 112196283.710 8  87425676.50747                  21350240.860
  21350235.240          49.900          45.650
 122133865.077 8  95169238.68246                  23241293.780
  23241288.640          48.350          38.550
 129416215.507 7 100843809.94845                  24627075.280
  24627069.340          45.900          35.400
 118569187.048 8  92391583.168 7  88541928.214 8  22562961.800    22562960.380
  22562959.760          48.450          47.150
 131279804.108 7 102295925.62245                  24981714.340
  24981708.820          43.400          33.600
 125721420.861 7  97964879.845 6                  23923930.240    23923927.420
  23923926.620          46.750          41.850
 104597178.472 7  81353374.689 7                  19573934.420    19573938.260
  19573936.460          47.450          42.450
 122293358.978 7  95117075.424 6                  22877500.740    22877502.900
  22877502.540          45.950          41.100
 105347319.429 8  81936854.815 7                  19686644.860    19686646.320
  19686645.300          48.000          47.550
 114576466.190 7  89115063.656 6                  21494248.280    21494255.220
  21494254.220          47.250          39.800
 128156916.770 7  99677618.540 6                  23932397.980    23932398.920
  23932398.380          42.800          38.500
 115750132.774 8  90027909.756 7                  21683893.720    21683896.680
  21683895.620          48.450          44.550
 117816496.234 7  91635066.622 6                  22055494.760    22055498.580
  22055498.340          43.900          41.000
 127698963.444 7  99321402.540 5                  23930729.160    23930731.980
  23930731.860          43.600          35.300
 115299569.155 7  89677591.934 7                  21561554.740    21561559.020
  21561556.920          42.900          44.550
 137749523.621 8                 102865034.543 7  26212811.780
                        48.500
 146819538.212 7                 109637975.284 6  27938828.220
                        45.100
 119677550.405 8                  89369637.118 8  22773875.380
                        52.150
 123193984.433 8                  91995616.641 8  23442981.440
                        50.650
 15  1 27  2  5  0.0000000  0 23G31G08G21G25G16G18G22G27G19G29R11R05
                                R21R10R04R22R12R06R20E12E19E18E11
 120887653.915 8  94198180.694 7                  23004151.340    23004147.300
  23004146.480          48.750          44.500
 110837195.285 8  86366625.40547                  21091615.040
  21091611.620          50.050          46.600
 111660021.821 8  87007867.11647                  21248164.900
  21248159.120          48.250          46.300
 134047119.441 6 104452471.229 6 100100278.111 7  25508238.580    25508237.780
  25508236.820          40.250          38.000
 112185847.086 8  87417544.07947                  21348254.820
  21348249.240          49.700          45.850
 122122598.832 8  95160459.80546                  23239149.860
  23239144.740          48.200          39.000
 129400789.865 7 100831789.97045                  24624139.920
  24624133.860          46.350          35.800
 118557959.423 8  92382834.371 7  88533543.947 8  22560825.280    22560823.840
  22560823.200          48.300          47.000
 131264977.580 7 102284372.50545                  24978893.040
  24978887.500          43.250          35.200
 125735051.190 7  97975500.885 6                  23926524.020    23926521.260
  23926520.480          47.000          41.800
 104599717.939 7  81355349.824 7                  19574409.600    19574413.440
  19574411.700          47.200          42.450
 122285077.122 7  95110633.985 6                  22875951.380    22875953.540
  22875953.200          46.700          41.350
 105349021.507 7  81938178.651 7                  19686962.900    19686964.400
  19686963.400          47.950          47.550
 114596867.087 7  89130931.017 6                  21498075.480    21498082.420
  21498081.360          47.350          39.400
 128163416.242 7  99682673.706 6                  23933611.700    23933612.660
  23933612.120          42.850          38.000
 115738259.811 8  90018675.238 7                  21681669.480    21681672.460
  21681671.380          48.600          44.600
 117798931.784 7  91621405.389 6                  22052206.620    22052210.460
  22052210.200          43.900          40.850
 127680791.985 7  99307269.183 6                  23927323.800    23927326.640
  23927326.520          43.050          36.300
 115313643.388 7  89688538.560 7                  21564186.720    21564190.980
  21564188.880          42.850          44.300
 137760388.104 8                 102873147.616 7  26214879.220
                        48.750
 146816334.711 7                 109635583.055 6  27938218.580
                        45.250
 119704153.078 8                  89389502.747 8  22778937.700
                        52.200
 123197549.788 8                  91998279.084 8  23443659.900
                        50.550
 15  1 27  2  5  5.0000000  0 23G31G08G21G25G16G18G22G27G19G29R11R05
                                R21R10R04R22R12R06R20E12E19E18E11
 120903699.685 8  94210683.896 7                  23007204.720    23007200.700
  23007199.860          48.650          44.600
 110844788.704 8  86372542.36147                  21093060.020
  21093056.640          50.100          46.050
 111664753.255 8  87011553.95047                  21249065.280
  21249059.480          48.400          46.200
 134064158.153 6 104465748.147 6 100113001.844 7  25511480.900    25511480.220
  25511479.380          40.800          38.000
 112175416.997 8  87409416.73647                  21346270.000
  21346264.460          49.800          45.600
 122111337.315 8  95151684.59046                  23237006.860
  23237001.720          48.250          38.550
 129385360.800 7 100819767.32245                  24621203.900
  24621197.840          46.600          34.050
 118546734.535 8  92374087.704 7  88525161.736 8  22558689.300    22558687.800
  22558687.180          48.500          47.050
 131250152.027 7 102272820.11445                  24976071.900
  24976066.240          42.400          34.350
 125748680.409 7  97986121.059 6                  23929117.600    23929114.800
  23929114.120          47.050          41.700
 104602278.732 7  81357341.551 7                  19574888.780    19574892.620
  19574890.940          47.250          42.450
 122276810.698 7  95104204.546 6                  22874404.920    22874407.140
  22874406.820          46.650          41.800
 105350731.837 8  81939508.906 7                  19687282.500    19687284.040
  19687283.080          48.600          47.250
 114617276.810 7  89146805.247 6                  21501904.340    21501911.320
  21501910.200          47.550          39.850
 128169933.096 7  99687742.359 6                  23934828.640    23934829.640
  23934829.080          42.200          38.400
 115726393.422 8  90009445.831 7                  21679446.460    21679449.440
  21679448.360          48.350          44.650
 117781378.527 7  91607752.847 6                  22048920.600    22048924.480
  22048924.140          43.750          41.000
 127662620.303 7  99293135.660 6                  23923918.380    23923921.300
  23923921.220          44.850          36.500
 115327718.409 7  89699485.805 7                  21566818.780    21566823.060
  21566820.980          43.300          44.350
 137771251.477 8                 102881259.881 7  26216946.460
                        48.900
 146813140.083 7                 109633197.464 7  27937610.640
                        45.600
 119730753.159 8                  89409366.450 8  22783999.540
                        52.250
 123201118.220 8                  92000943.826 8  23444338.960
                        50.650
 15  1 27  2  5 10.0000000  0 23G31G08G21G25G16G18G22G27G19G29R11R05
                                R21R10R04R22R12R06R20E12E19E18E11
 120919752.825 8  94223192.822 7                  23010259.480    23010255.500
  23010254.640          49.150          44.550
 110852400.870 8  86378473.91347                  21094508.580
  21094505.220          50.600          45.800
 111669497.764 8  87015250.96147                  21249968.160
  21249962.340          49.050          45.400
 134081201.462 6 104479028.636 6 100125728.977 7  25514724.120    25514723.460
  25514722.600          41.850          38.300
 112164997.265 8  87401297.46547                  21344287.140
  21344281.680          50.150          45.450
 122100084.332 8  95142916.03246                  23234865.460
  23234860.320          48.750          37.750
 129369932.076 7 100807744.92145                  24618267.940
  24618261.840          46.750          33.100
 118535516.149 8  92365346.104 7  88516784.369 8  22556554.540    22556553.020
  22556552.420          49.150          47.000
 131235331.148 7 102261271.34845                  24973251.620
  24973245.860          43.650          32.600
 125762312.504 7  97996743.451 6                  23931711.740    23931708.960
  23931708.260          47.850          41.900
 104604864.678 8  81359352.849 7                  19575372.660    19575376.520
  19575374.900          48.300          42.450
 122268563.660 7  95097790.198 6                  22872862.080    22872864.420
  22872864.080          47.700          41.950
 105352454.234 8  81940848.539 7                  19687604.360    19687605.900
  19687605.000          49.150          47.450
 114637698.995 8  89162689.159 6                  21505735.540    21505742.460
  21505741.340          48.600          39.950
 128176471.163 7  99692827.517 6                  23936049.620    23936050.540
  23936050.020          43.450          38.400
 115714537.541 8  90000224.596 7                  21677225.420    21677228.460
  21677227.300          49.050          44.550
 117763840.187 7  91594111.921 6                  22045637.300    22045641.300
  22045640.920          44.750          41.050
 127644452.414 7  99279005.089 6                  23920513.760    23920516.580
  23920516.580          46.250          36.800
 115341798.083 7  89710436.665 7                  21569451.700    21569455.980
  21569453.960          44.300          44.400
 137782117.503 8                 102889374.121 7  26219014.220
                        49.600
 146809958.096 7                 109630821.280 6  27937005.120
                        46.300
 119757354.403 8                  89429231.013 8  22789061.600
                        52.600
 123204693.476 8                  92003613.663 8  23445019.320
                        51.050
 15  1 27  2  5 15.0000000  0 23G31G08G21G25G16G18G22G27G19G29R11R05
                                R21R10R04R22R12R06R20E12E19E18E11
 120935810.853 8  94235705.568 7                  23013315.200    23013311.240
  23013310.380          49.050          44.650
 110860029.321 8  86384418.15247                  21095960.220
  21095956.900          50.600          46.000
 111674252.953 8  87018956.30447                  21250873.060
  21250867.240          48.800          45.800
 134098246.835 6 104492310.744 6 100138457.662 7  25517967.800    25517967.180
  25517966.360          41.550          38.250
 112154585.390 8  87393184.31747                  21342305.780
  21342300.380          50.000          45.000
 122088837.445 8  95134152.22246                  23232725.240
  23232720.120          48.600          38.700
 129354501.230 7 100795720.90145                  24615331.520
  24615325.300          45.900          33.250
 118524301.803 8  92356607.653 7  88508410.022 8  22554420.560    22554418.980
  22554418.400          48.850          47.150
 131220512.534 7 102249724.33745                  24970431.780
  24970426.060          44.000          33.700
 125775944.951 7  98007366.129 6                  23934305.940    23934303.200
  23934302.440          47.400          41.700
 104607473.187 7  81361381.685 7                  19575860.780    19575864.700
  19575863.060          47.650          42.400
 122260333.410 7  95091388.898 6                  22871322.400    22871324.780
  22871324.460          47.050          41.950
 105354186.265 8  81942195.677 7                  19687928.020    19687929.580
  19687928.700          48.450          47.350
 114658131.159 7  89178580.846 6                  21509568.600    21509575.580
  21509574.380          47.700          39.700
 128183028.014 7  99697927.295 6                  23937274.060    23937274.980
  23937274.460          42.850          38.400
 115702689.620 8  89991009.548 7                  21675005.840    21675008.900
  21675007.780          48.350          44.900
 117746314.416 7  91580480.766 6                  22042356.400    22042360.440
  22042360.040          43.850          40.700
 127626285.518 7  99264875.287 6                  23917109.320    23917112.160
  23917112.140          45.400          37.150
 115355879.912 7  89721389.188 7                  21572085.100    21572089.360
  21572087.320          42.900          44.350
 137792983.715 8                 102897488.487 7  26221082.000
                        49.400
 146806786.265 7                 109628452.735 6  27936401.540
                        45.850
 119783954.355 8                  89449094.614 8  22794123.440
                        52.350
 123208273.124 8                  92006286.764 8  23445700.500
                        50.850
 15  1 27  2  5 20.0000000  0 23G31G08G21G25G16G18G22G27G19G29R11R05
                                R21R10R04R22R12R06R20E12E19E18E11
 120951872.580 8  94248221.191 7                  23016371.620    23016367.720
  23016366.820          49.100          44.600
 110867672.854 8  86390374.14647                  21097414.740
  21097411.440          50.600          46.150
 111679017.618 8  87022669.02847                  21251779.760
  21251773.940          48.700          46.150
 134115293.161 7 104505593.583 6 100151187.064 7  25521211.640    25521210.980
  25521210.220          42.000          37.950
 112144180.212 8  87385076.38947                  21340325.700
  21340320.360          50.050          45.350
 122077595.481 8  95125392.25646                  23230585.940
  23230580.840          48.600          37.950
 129339067.146 7 100783694.34245                  24612394.460
  24612388.240          45.800          34.350
 118513090.330 8  92347871.437 7  88500037.818 8  22552287.120    22552285.520
  22552284.940          48.850          47.100
 131205694.944 7 102238178.17445                  24967612.060
  24967606.300          44.200          32.850
 125789576.566 7  98017988.162 6                  23936899.980    23936897.220
  23936896.460          47.550          41.550
 104610103.218 7  81363427.257 7                  19576352.980    19576356.880
  19576355.240          47.650          42.250
 122252118.737 7  95084999.706 6                  22869785.660    22869788.040
  22869787.740          47.400          41.850
 105355926.650 8  81943549.310 7                  19688253.240    19688254.780
  19688253.940          48.850          47.300
 114678572.068 7  89194479.335 6                  21513403.340    21513410.200
  21513409.040          47.750          39.650
 128189602.216 7  99703040.568 6                  23938501.740    23938502.640
  23938502.220          43.700          38.000
 115690848.338 8  89981799.673 7                  21672787.540    21672790.620
  21672789.500          48.600          44.800
 117728800.019 7  91566858.448 6                  22039077.640    22039081.740
  22039081.320          43.700          41.000
 127608118.581 7  99250745.449 6                  23913704.900    23913707.560
  23913707.700          45.600          36.800
 115369962.717 7  89732342.472 7                  21574718.720    21574722.960
  21574720.900          42.700          44.500
 137803848.982 8                 102905602.156 7  26223149.640
                        49.350
 146803623.477 7                 109626090.898 6  27935799.620
                        45.450
 119810551.813 8                  89468956.350 8  22799184.800
                        52.350
 123211855.945 8                  92008962.254 8  23446382.280
                        50.800
 15  1 27  2  5 25.0000000  0 23G31G08G21G25G16G18G22G27G19G29R11R05
                                R21R10R04R22R12R06R20E12E19E18E11
 120967940.723 8  94260741.826 7                  23019429.280    23019425.380
  23019424.480          49.150          44.600
 110875334.231 8  86396344.04847                  21098872.680
  21098869.380          50.300          46.100
 111683794.534 8  87026391.30447                  21252688.780
  21252682.980          48.600          45.850
 134132343.179 6 104518879.305 6 100163919.208 7  25524456.140    25524455.540
  25524454.800          41.250          37.600
 112133784.499 8  87376975.83947                  21338347.420
  21338342.140          50.150          44.900
 122066361.206 8  95116638.26746                  23228448.100
  23228443.060          48.300          38.750
 129323632.571 7 100771667.40945                  24609457.340
  24609451.000          45.600          35.100
 118501884.516 8  92339139.638 7  88491669.838 8  22550154.760    22550153.120
  22550152.600          48.800          47.000
 131190881.186 7 102226635.03745                  24964793.100
  24964787.360          43.800          34.500
 125803210.093 7  98028611.700 6                  23939494.400    23939491.580
  23939490.840          47.550          40.850
 104612757.601 7  81365491.775 7                  19576849.740    19576853.580
  19576851.980          47.550          42.250
 122243922.581 7  95078624.920 7                  22868252.440    22868254.820
  22868254.500          47.550          42.550
 105357678.256 8  81944911.672 7                  19688580.580    19688582.140
  19688581.280          48.850          47.400
 114699024.595 7  89210386.856 6                  21517240.220    21517247.000
  21517245.900          47.550          40.150
 128196196.781 7  99708169.672 6                  23939733.240    23939734.180
  23939733.720          43.450          38.500
 115679016.674 8  89972597.261 7                  21670571.040    21670574.220
  21670573.040          48.250          44.900
 117711299.777 7  91553247.151 6                  22035801.580    22035805.680
  22035805.280          43.450          41.000
 127589954.350 7  99236617.716 6                  23910300.900    23910303.640
  23910303.700          45.350          36.600
 115384049.302 7  89743298.701 7                  21577352.980    21577357.220
  21577355.200          42.250          44.700
 137814716.009 8                 102913717.144 7  26225217.600
                        49.400
 146800472.458 7                 109623737.878 6  27935199.960
                        45.600
 119837149.523 8                  89488818.273 8  22804246.220
                        52.250
 123215444.732 8                  92011642.191 8  23447065.200
                        50.700
 15  1 27  2  5 30.0000000  0 23G31G08G21G25G16G18G22G27G19G29R11R05
                                R21R10R04R22R12R06R20E12E19E18E11
 120984013.677 8  94273266.202 7                  23022487.860    23022483.960
  23022483.080          49.200          44.600
 110883011.835 8  86402326.59247                  21100333.720
  21100330.380          50.350          46.250
 111688582.040 8  87030121.83247                  21253599.800
  21253594.040          48.600          45.750
 134149395.251 6 104532166.628 6 100176652.861 7  25527701.020    25527700.420
  25527699.800          41.400          37.850
 112123396.641 8  87368881.40147                  21336370.680
  21336365.400          50.250          44.850
 122055133.034 8  95107889.05546                  23226311.420
  23226306.420          48.300          38.550
 129308195.846 7 100759638.80445                  24606519.820
  24606513.540          46.350          35.450
 118490682.701 8  92330410.953 7  88483304.844 8  22548023.160    22548021.500
  22548020.980          48.700          46.850
 131176069.682 7 102215093.59745                  24961974.600
  24961968.820          43.050          33.550
 125816843.923 7  98039235.484 6                  23942088.840    23942085.980
  23942085.220          46.750          40.850
 104615434.651 7  81367573.915 7                  19577350.720    19577354.600
  19577352.960          47.650          42.500
 122235743.162 7  95072263.148 7                  22866722.320    22866724.740
  22866724.400          47.700          42.050
 105359439.425 8  81946281.454 7                  19688909.700    19688911.300
  19688910.380          48.900          47.300
 114719487.224 7  89226302.223 6                  21521079.000    21521085.720
  21521084.660          47.800          39.950
 128202810.000 7  99713313.298 6                  23940968.260    23940969.120
  23940968.680          43.950          38.400
 115667192.883 8  89963400.993 7                  21668356.020    21668359.220
  21668358.060          48.250          44.850
 117693812.109 7  91539645.638 6                  22032527.840    22032531.940
  22032531.560          43.700          41.500
 127571791.222 7  99222490.840 6                  23906897.160    23906899.840
  23906899.940          44.950          37.000
 115398137.829 7  89754256.432 7                  21579987.580    21579991.860
  21579989.840          42.850          44.800
 137825583.209 8                 102921832.251 7  26227285.640
                        49.400
 146797331.586 7                 109621392.433 6  27934602.260
                        45.750
 119863745.875 8                  89508679.171 8  22809307.380
                        52.250
 123219037.844 8                  92014325.353 8  23447748.960
                        50.700
 15  1 27  2  5 35.0000000  0 23G31G08G21G25G16G18G22G27G19G29R11R05
                                R21R10R04R22R12R06R20E12E19E18E11
 121000091.098 8  94285794.065 7                  23025547.300    23025543.400
  23025542.560          49.150          44.750
 110890705.325 8  86408321.52647                  21101797.780
  21101794.420          50.200          46.600
 111693379.801 8  87033860.35147                  21254512.800
  21254507.000          48.300          46.650
 134166448.989 7 104545455.241 6 100189387.827 7  25530946.220    25530945.740
  25530945.120          42.150          38.550
 112113016.315 8  87360792.83647                  21334395.320
  21334390.100          50.050          45.550
 122043910.622 8  95099144.31846                  23224175.860
  23224170.900          48.150          38.750
 129292756.754 7 100747608.35845                  24603581.860
  24603575.620          45.750          35.600
 118479484.601 8  92321685.170 7  88474942.645 8  22545892.240    22545890.580
  22545890.080          48.600          47.100
 131161260.104 6 102203553.64146                  24959156.480
  24959150.820          41.700          36.850
 125830477.721 7  98049859.202 6                  23944683.260    23944680.400
  23944679.640          47.050          41.350
 104618133.977 7  81369673.392 7                  19577855.880    19577859.760
  19577858.120          47.700          42.350
 122227580.349 7  95065914.278 7                  22865195.300    22865197.780
  22865197.400          47.550          42.200
 105361209.737 8  81947658.375 7                  19689240.560    19689242.120
  19689241.200          48.450          47.250
 114739959.338 7  89242224.981 6                  21524919.520    21524926.260
  21524925.160          47.800          39.650
 128209441.466 7  99718471.134 6                  23942206.720    23942207.460
  23942207.060          44.250          38.750
 115655376.669 8  89954210.632 7                  21666142.460    21666145.680
  21666144.480          48.450          44.550
 117676336.629 7  91526053.604 6                  22029256.360    22029260.480
  22029260.160          43.350          41.600
 127553629.096 7  99208364.768 6                  23903493.580    23903496.240
  23903496.340          44.900          37.000
 115412228.245 7  89765215.643 7                  21582622.560    21582626.820
  21582624.840          43.050          44.550
 137836450.213 8                 102929947.231 7  26229353.620
                        49.300
 146794200.578 7                 109619054.363 6  27934006.420
                        45.650
 119890340.504 8                  89528538.806 8  22814368.180
                        52.250
 123222634.950 8                  92017011.515 8  23448433.460
                        50.700
 15  1 27  2  5 40.0000000  0 23G31G08G21G25G16G18G22G27G19G29R11R05
                                R21R10R04R22R12R06R20E12E19E18E11
 121016174.825 8  94298326.835 7                  23028607.940    23028604.020
  23028603.180          49.200          44.800
 110898416.540 8  86414330.26947                  21103265.200
  21103261.820          50.200          46.700
 111698189.671 8  87037608.30447                  21255428.100
  21255422.300          48.300          46.250
 134183506.341 7 104558746.694 6 100202125.446 7  25534192.140    25534191.680
  25534191.160          42.050          38.550
 112102645.355 8  87352711.56947                  21332421.760
  21332416.580          50.000          45.850
 122032695.809 8  95090405.51546                  23222041.700
  23222036.820          48.250          39.000
 129277317.134 7 100735577.51145                  24600643.800
  24600637.500          46.600          34.750
 118468292.035 8  92312963.706 7  88466584.565 8  22543762.360    22543760.720
  22543760.200          48.650          47.050
 131146454.288 6 102192016.66745                  24956339.100
  24956333.460          41.750          34.550
 125844113.332 7  98060484.356 6                  23947278.040    23947275.220
  23947274.420          47.050          41.150
 104620857.443 7  81371791.650 7                  19578365.580    19578369.480
  19578367.800          47.850          42.700
 122219435.940 7  95059579.753 6                  22863671.700    22863674.240
  22863673.860          47.000          41.400
 105362991.138 8  81949043.912 7                  19689573.460    19689575.020
  19689574.080          48.650          47.300
 114760442.875 7  89258156.623 6                  21528762.200    21528768.960
  21528767.800          47.800          39.700
 128216093.177 7  99723644.692 6                  23943448.920    23943449.700
  23943449.300          44.300          39.000
 115643569.885 8  89945027.580 7                  21663930.600    21663933.840
  21663932.640          48.400          44.850
 117658875.353 7  91512472.626 6                  22025987.600    22025991.700
  22025991.420          43.650          41.850
 127535469.577 7  99194240.695 6                  23900090.500    23900093.040
  23900093.220          45.100          36.950
 115426322.242 7  89776177.653 7                  21585258.180    21585262.460
  21585260.520          42.750          44.750
 137847318.893 8                 102938063.455 7  26231421.900
                        49.250
 146791081.257 7                 109616724.982 6  27933412.860
                        45.600
 119916935.250 8                  89548398.513 8  22819429.020
                        52.250
 123226237.915 8                  92019702.039 8  23449119.080
                        50.750
 15  1 27  2  5 45.0000000  0 23G31G08G21G25G16G18G22G27G19G29R11R05
                                R21R10R04R22R12R06R20E12E19E18E11
 121032261.774 8  94310862.109 7                  23031669.180    23031665.240
  23031664.420          49.300          44.900
 110906142.375 8  86420350.38847                  21104735.420
  21104732.000          50.600          46.450
 111703008.547 8  87041363.26647                  21256345.120
  21256339.280          48.350          46.800
 134200564.167 7 104572038.507 6 100214863.423 7  25537438.160    25537437.660
  25537437.180          42.350          38.350
 112092280.707 8  87344635.22047                  21330449.400
  21330444.260          49.900          45.650
 122021485.576 8  95081670.26246                  23219908.460
  23219903.560          48.150          38.500
 129261873.907 7 100723543.81545                  24597705.100
  24597698.680          46.350          35.700
 118457101.894 8  92304244.112 7  88458228.303 8  22541632.940    22541631.340
  22541630.780          48.650          47.000
 131131649.111 7 102180480.13345                  24953521.800
  24953516.080          43.350          31.950
 125857747.656 7  98071108.502 7                  23949872.640    23949869.740
  23949869.000          47.350          42.000
 104623601.896 8  81373926.216 7                  19578879.180    19578883.060
  19578881.420          48.000          42.600
 122211306.746 7  95053257.054 7                  22862150.920    22862153.500
  22862153.160          47.400          42.000
 105364780.441 8  81950435.585 7                  19689907.840    19689909.440
  19689908.460          48.700          47.400
 114780934.720 7  89274094.719 6                  21532606.420    21532613.140
  21532612.000          47.900          39.600
 128222761.870 7  99728831.452 6                  23944694.260    23944695.000
  23944694.640          44.150          38.300
 115631769.440 8  89935849.460 7                  21661719.980    21661723.240
  21661722.040          48.300          44.700
 117641425.084 7  91498900.196 6                  22022720.860    22022724.960
  22022724.720          43.650          41.350
 127517309.756 7  99180116.378 6                  23896687.380    23896689.980
  23896690.080          45.350          37.250
 115440416.718 7  89787140.021 7                  21587893.900    21587898.220
  21587896.260          42.800          44.450
 137858186.159 8                 102946178.619 7  26233489.920
                        49.200
 146787970.526 7                 109614402.041 6  27932820.900
                        45.700
 119943527.004 8                  89568256.000 8  22824489.280
                        52.250
 123229843.613 8                  92022394.602 8  23449805.220
                        50.800
 15  1 27  2  5 50.0000000  0 23G31G08G21G25G16G18G22G27G19G29R11R05
                                R21R10R04R22R12R06R20E12E19E18E11
 121048355.853 8  94323402.947 7                  23034731.780    23034727.880
  23034727.020          49.350          44.750
 110913886.782 8  86426384.98647                  21106209.180
  21106205.720          50.700          46.550
 111707840.368 8  87045128.31847                  21257264.580
  21257258.740          48.500          46.400
 134217626.356 6 104585333.708 6 100227604.684 7  25540685.000    25540684.440
  25540683.980          41.900          38.100
 112081926.345 8  87336566.88247                  21328478.960
  21328473.900          49.750          45.650
 122010283.832 8  95072941.63546                  23217776.820
  23217771.960          48.500          38.100
 129246431.018 7 100711510.41045                  24594766.440
  24594759.980          46.300          34.200
 118445918.186 8  92295529.533 7  88449876.825 8  22539504.760    22539503.120
  22539502.600          48.700          46.950
 131116848.496 7 102168947.20445                  24950705.380
  24950699.560          43.700          32.150
 125871384.635 7  98081734.716 6                  23952467.720    23952464.800
  23952464.120          46.650          41.650
 104626371.382 8  81376080.257 7                  19579397.500    19579401.360
  19579399.700          48.150          42.450
 122203196.888 7  95046949.396 6                  22860633.760    22860636.400
  22860636.060          47.200          41.850
 105366581.669 8  81951836.536 7                  19690244.460    19690246.020
  19690245.080          48.700          47.600
 114801438.844 8  89290042.364 6                  21536452.940    21536459.660
  21536458.480          48.050          38.950
 128229451.662 7  99734034.630 6                  23945943.580    23945944.320
  23945943.900          44.150          38.350
 115619979.324 8  89926679.374 7                  21659511.260    21659514.560
  21659513.360          48.700          44.850
 117623989.841 7  91485339.448 6                  22019456.880    22019460.980
  22019460.780          43.750          40.800
 127499153.674 7  99165994.968 6                  23893284.980    23893287.580
  23893287.640          45.000          36.800
 115454515.645 7  89798105.845 7                  21590530.420    21590534.820
  21590532.840          42.350          44.050
 137869055.963 8                 102954295.673 7  26235558.420
                        49.200
 146784872.394 7                 109612088.479 6  27932231.360
                        46.100
 119970119.735 8                  89588114.200 8  22829549.740
                        52.250
 123233456.006 8                  92025092.166 8  23450492.640
                        50.850
 15  1 27  2  5 55.0000000  0 23G31G08G21G25G16G18G22G27G19G29R11R05
                                R21R10R04R22R12R06R20E12E19E18E11
 121064453.299 8  94335946.406 7                  23037795.020    23037791.120
  23037790.260          49.550          44.700
 110921645.957 8  86432431.09947                  21107685.760
  21107682.240          50.650          46.550
 111712681.409 8  87048900.56247                  21258185.800
  21258179.960          48.650          46.200
 134234689.211 6 104598629.426 6 100240346.399 7  25543931.940    25543931.340
  25543931.040          41.550          37.850
 112071578.510 8  87328503.64647                  21326509.800
  21326504.800          49.800          45.650
 121999086.872 8  95064216.73546                  23215646.100
  23215641.280          48.600          39.000
 129230984.708 7 100699474.34346                  24591827.120
  24591820.700          46.100          36.700
 118434737.091 8  92286816.999 7  88441527.310 8  22537377.060    22537375.420
  22537374.900          48.650          47.000
 131102048.747 7 102157414.94745                  24947889.120
  24947883.400          44.100          34.400
 125885020.522 7  98092360.074 6                  23955062.580    23955059.680
  23955059.000          47.300          41.950
 104629162.093 7  81378250.807 7                  19579919.780    19579923.620
  19579921.980          47.900          42.300
 122195102.549 7  95040653.787 6                  22859119.520    22859122.160
  22859121.820          46.700          41.650
 105368391.007 8  81953243.797 7                  19690582.620    19690584.160
  19690583.240          48.900          47.300
 114821951.428 7  89305996.607 6                  21540301.040    21540307.760
  21540306.540          47.700          38.950
 128236158.467 7  99739251.042 6                  23947196.040    23947196.820
  23947196.380          43.800          38.150
 115608195.761 8  89917514.382 7                  21657303.820    21657307.140
  21657305.920          48.650          44.800
 117606565.829 7  91471787.443 6                  22016195.040    22016199.140
  22016198.920          43.650          40.650
 127480997.314 7  99151873.365 6                  23889882.480    23889885.080
  23889885.180          45.600          36.900
 115468615.236 7  89809072.186 7                  21593167.060    21593171.520
  21593169.540          42.100          43.700
 137879924.514 8                 102962411.793 7  26237626.660
                        49.350
 146781783.024 7                 109609781.500 6  27931643.520
                        46.000
 119996709.624 8                  89607970.284 8  22834609.640
                        52.350
 123237071.326 8                  92027791.920 8  23451180.600
                        50.750
 15  1 27  2  6  0.0000000  0 23G31G08G21G25G16G18G22G27G19G29R11R05
                                R21R10R04R22R12R06R20E12E19E18E11
 121080557.089 8  94348494.815 7                  23040859.480    23040855.580
  23040854.720          49.350          44.950
 110929422.939 8  86438491.07947                  21109165.700
  21109162.160          50.700          46.350
 111717534.587 8  87052682.26047                  21259109.320
  21259103.480          48.450          46.450
 134251755.741 7 104611927.999 6 100253090.883 7  25547179.580    25547179.080
  25547178.520          42.350          38.650
 112061240.195 8  87320447.82247                  21324542.440
  21324537.500          49.850          46.000
 121987897.743 8  95055497.94446                  23213516.880
  23213512.000          48.450          39.450
 129215538.010 7 100687437.97345                  24588887.720
  24588881.260          46.100          35.600
 118423561.662 8  92278108.870 7  88433182.032 8  22535250.420    22535248.780
  22535248.260          48.750          47.150
 131087252.895 7 102145885.71345                  24945073.580
  24945067.900          43.550          35.700
 125898658.354 7  98102986.953 6                  23957657.780    23957654.860
  23957654.260          47.150          41.850
 104631977.136 7  81380440.286 7                  19580446.600    19580450.440
  19580448.800          47.800          42.650
 122187026.733 7  95034372.619 6                  22857608.720    22857611.460
  22857611.080          46.950          41.600
 105370211.499 8  81954659.738 7                  19690922.840    19690924.380
  19690923.460          48.700          47.350
 114842475.478 7  89321959.748 6                  21544151.300    21544158.020
  21544156.760          47.350          39.100
 128242885.581 7  99744483.248 6                  23948452.280    23948453.040
  23948452.620          43.600          38.600
 115596421.704 8  89908356.787 7                  21655098.160    21655101.460
  21655100.280          48.800          45.250
 117589156.161 7  91458246.585 6                  22012935.920    22012940.000
  22012939.740          43.800          41.000
 127462844.073 7  99137754.178 6                  23886480.640    23886483.080
  23886483.280          45.350          36.450
 115482718.465 6  89820041.359 7                  21595804.420    21595808.860
  21595806.900          41.400          43.750
 137890794.855 8                 102970529.259 7  26239695.240
                        49.250
 146778705.507 7                 109607483.354 7  27931057.860
                        46.050
 120023299.704 8                  89627826.522 8  22839669.560
                        52.300
 123240692.592 8                  92030496.116 8  23451869.720
                        50.750
 15  1 27  2  6  5.0000000  0 23G31G08G21G25G16G18G22G27G19G29R11R05
                                R21R10R04R22R12R06R20E12E19E18E11
 121096666.027 8  94361047.228 7                  23043924.920    23043921.000
  23043920.160          49.000          44.750
 110937216.483 8  86444563.97047                  21110648.820
  21110645.220          50.600          46.250
 111722398.616 8  87056472.41547                  21260034.920
  21260029.080          48.350          46.600
 134268824.653 7 104625228.438 6 100265837.153 7  25550427.680    25550427.240
  25550426.660          42.750          38.750
 112050910.217 8  87312398.48747                  21322576.660
  21322571.760          49.900          45.750
 121976715.138 8  95046784.22546                  23211388.900
  23211384.000          48.350          39.600
 129200089.729 7 100675400.33546                  24585948.020
  24585941.580          45.650          36.550
 118412390.684 8  92269404.215 7  88424840.069 8  22533124.640    22533123.020
  22533122.480          48.550          47.050
 131072459.718 7 102134358.57345                  24942258.460
  24942252.820          42.800          35.750
 125912296.889 7  98113614.378 6                  23960253.100    23960250.180
  23960249.600          46.800          41.600
 104634815.200 7  81382647.671 7                  19580977.740    19580981.560
  19580979.920          47.850          42.400
 122178968.292 7  95028104.947 7                  22856101.160    22856104.000
  22856103.700          47.000          42.400
 105372041.931 8  81956083.403 7                  19691264.920    19691266.440
  19691265.540          48.600          47.100
 114863009.744 7  89337930.838 6                  21548003.440    21548010.160
  21548008.920          47.150          38.950
 128249631.814 7  99749730.335 6                  23949712.100    23949712.840
  23949712.440          43.800          38.250
 115584655.933 8  89899205.621 7                  21652894.080    21652897.360
  21652896.180          48.600          44.950
 117571759.713 7  91444716.011 6                  22009679.260    22009683.340
  22009683.040          43.950          40.750
 127444692.425 7  99123636.225 6                  23883079.080    23883081.480
  23883081.640          45.200          36.000
 115496824.253 7  89831012.504 7                  21598442.200    21598446.680
  21598444.720          42.350          43.450
 137901665.765 8                 102978647.137 7  26241763.900
                        48.950
 146775638.574 7                 109605193.129 7  27930474.220
                        45.650
 120049888.741 8                  89647681.964 8  22844729.280
                        52.150
 123244318.571 8                  92033203.830 8  23452559.740
                        50.700
 15  1 27  2  6 10.0000000  0 23G31G08G21G25G16G18G22G27G19G29R11R05
                                R21R10R04R22R12R06R20E12E19E18E11
 121112779.656 8  94373603.302 7                  23046991.220    23046987.280
  23046986.480          48.900          44.900
 110945026.125 8  86450649.40847                  21112135.020
  21112131.340          50.500          46.700
 111727273.171 8  87060270.77247                  21260962.500
  21260956.680          48.250          46.750
 134285895.491 7 104638530.415 6 100278584.866 7  25553676.180    25553675.720
  25553675.100          42.700          39.000
 112040588.087 8  87304355.27347                  21320612.420
  21320607.540          50.100          45.800
 121965538.658 8  95038075.28446                  23209262.100
  23209257.220          48.450          39.450
 129184639.345 7 100663361.09546                  24583007.900
  24583001.500          45.050          37.250
 118401223.662 8  92260702.646 7  88416501.062 8  22530999.640    22530998.000
  22530997.440          48.700          47.150
 131057668.696 7 102122833.09645                  24939443.780
  24939438.140          42.650          32.650
 125925935.669 7  98124241.988 6                  23962848.460    23962845.580
  23962844.920          47.050          41.250
 104637675.724 8  81384872.523 7                  19581513.080    19581516.900
  19581515.260          48.000          42.450
 122170926.679 7  95021850.357 7                  22854596.760    22854599.640
  22854599.400          46.950          42.000
 105373881.739 8  81957514.375 7                  19691608.720    19691610.280
  19691609.380          48.800          47.350
 114883553.855 7  89353909.591 6                  21551857.420    21551864.180
  21551862.920          46.900          38.850
 128256396.589 7  99754991.839 6                  23950975.400    23950976.100
  23950975.660          43.800          37.800
 115572898.155 8  89890060.685 7                  21650691.440    21650694.740
  21650693.620          48.700          45.250
 117554375.845 7  91431195.221 6                  22006424.980    22006429.020
  22006428.660          43.200          40.700
 127426541.927 7  99109519.154 5                  23879677.720    23879680.060
  23879680.140          45.300          35.550
 115510931.934 7  89841985.160 7                  21601080.360    21601084.860
  21601082.900          42.600          43.650
 137912536.723 8                 102986765.068 7  26243832.580
                        48.850
 146772581.804 7                 109602910.484 7  27929892.560
                        45.850
 120076476.233 8                  89667536.258 8  22849788.680
                        52.100
 123247948.800 8                  92035914.713 8  23453250.580
                        50.700
 15  1 27  2  6 15.0000000  0 23G31G08G21G25G16G18G22G27G19G29R11R05
                                R21R10R04R22R12R06R20E12E19E18E11
 121128897.719 8  94386162.830 7                  23050058.400    23050054.440
  23050053.680          48.650          45.250
 110952851.640 8  86456747.20747                  21113624.220
  21113620.460          50.650          46.750
 111732157.989 8  87064077.12047                  21261892.040
  21261886.200          48.150          47.050
 134302968.095 7 104651833.761 6 100291333.893 7  25556924.980    25556924.560
  25556923.860          43.250          39.100
 112030273.624 8  87296318.02947                  21318649.660
  21318644.780          50.100          45.800
 121954368.092 8  95029370.93246                  23207136.460
  23207131.560          48.450          38.900
 129169186.745 7 100651320.12846                  24580067.380
  24580061.000          44.800          37.200
 118390060.398 8  92252003.999 7  88408164.856 8  22528875.360    22528873.700
  22528873.140          48.800          47.350
 131042879.660 7 102111309.19146                  24936629.520
  24936623.940          42.450          37.000
 125939574.415 7  98134869.609 6                  23965443.840    23965440.980
  23965440.240          47.050          41.650
 104640558.683 7  81387114.824 7                  19582052.620    19582056.420
  19582054.780          47.750          42.300
 122162901.814 7  95015608.791 6                  22853095.520    22853098.420
  22853098.180          47.100          41.150
 105375730.745 8  81958952.493 7                  19691954.240    19691955.820
  19691954.920          48.700          47.250
 114904107.412 7  89369895.682 6                  21555713.220    21555719.920
  21555718.720          47.100          38.950
 128263179.555 7  99760267.489 6                  23952242.120    23952242.720
  23952242.280          43.300          37.650
 115561147.949 8  89880921.644 7                  21648490.240    21648493.560
  21648492.440          48.700          44.700
 117537004.448 7  91417684.148 6                  22003172.980    22003177.000
  22003176.640          42.700          40.600
 127408392.496 7  99095402.928 5                  23876276.520    23876278.880
  23876278.920          45.250          35.500
 115525041.426 7  89852959.211 7                  21603718.960    21603723.380
  21603721.440          43.000          43.650
 137923407.565 8                 102994882.897 7  26245901.220
                        48.650
 146769534.963 7                 109600635.236 7  27929312.760
                        45.900
 120103061.962 8                  89687389.237 8  22854847.740
                        52.050
 123251583.043 8                  92038628.594 8  23453942.160
                        50.750
 15  1 27  2  6 20.0000000  0 23G31G08G21G25G16G18G22G27G19G29R11R05
                                R21R10R04R22R12R06R20E12E19E18E11
 121145021.253 8  94398726.612 7                  23053126.640    23053122.640
  23053121.920          48.450          44.900
 110960694.095 8  86462858.20347                  21115116.660
  21115112.840          50.650          46.350
 111737054.216 8  87067892.35547                  21262823.760
  21262817.920          48.350          46.250
 134320043.500 7 104665139.271 6 100304085.001 7  25560174.320    25560173.880
  25560173.300          42.950          39.300
 112019967.942 8  87288287.62147                  21316688.560
  21316683.660          50.100          45.600
 121943204.505 8  95020672.03546                  23205012.120
  23205007.200          48.550          39.100
 129153732.920 7 100639278.18946                  24577126.580
  24577120.240          44.100          37.500
 118378901.985 8  92243309.123 7  88399832.275 8  22526752.020    22526750.320
  22526749.740          48.750          47.100
 131028093.664 6 102099787.62945                  24933815.780
  24933810.280          41.350          35.300
 125953214.279 7  98145498.054 6                  23968039.400    23968036.560
  23968035.780          46.250          41.350
 104643465.058 7  81389375.326 7                  19582596.560    19582600.280
  19582598.660          47.600          42.450
 122154894.693 7  95009381.024 6                  22851597.620    22851600.520
  22851600.280          46.600          41.850
 105377590.076 8  81960398.629 7                  19692301.720    19692303.280
  19692302.380          48.700          47.200
 114924671.502 7  89385889.967 6                  21559570.940    21559577.700
  21559576.520          47.550          39.350
 128269981.951 7  99765558.242 6                  23953512.380    23953513.060
  23953512.480          43.200          37.550
 115549406.562 8  89871789.462 7                  21646290.700    21646294.040
  21646292.920          49.000          45.050
 117519646.728 7  91404183.704 6                  21999923.560    21999927.560
  21999927.180          43.150          40.650
 127390245.285 7  99081288.441 5                  23872875.680    23872878.160
  23872878.100          44.600          35.350
 115539153.754 7  89863935.470 7                  21606358.060    21606362.480
  21606360.500          43.000          43.850
 137934279.354 8                 103003001.438 7  26247970.020
                        48.450
 146766499.137 7                 109598368.239 7  27928735.060
                        45.700
 120129647.002 8                  89707241.703 8  22859906.680
                        52.000
 123255222.402 8                  92041346.293 8  23454634.720
                        50.800
 15  1 27  2  6 25.0000000  0 23G31G08G21G25G16G18G22G27G19G29R11R05
                                R21R10R04R22R12R06R20E12E19E18E11
 121161151.106 8  94411295.331 7                  23056196.060    23056192.040
  23056191.340          48.350          45.100
 110968554.345 8  86468983.07847                  21116612.480
  21116608.580          50.550          46.550
 111741962.648 8  87071717.10947                  21263757.780
  21263751.960          48.400          46.350
 134337122.552 7 104678447.637 6 100316838.834 7  25563424.380    25563423.960
  25563423.380          42.550          38.950
 112009671.917 8  87280264.74947                  21314729.300
  21314724.380          50.050          45.950
 121932048.834 8  95011979.31146                  23202889.300
  23202884.400          48.650          38.800
 129138278.833 7 100627236.05246                  24574185.740
  24574179.380          45.050          36.300
 118367749.244 8  92234618.676 7  88391503.937 8  22524629.740    22524628.020
  22524627.420          48.600          47.100
 131013311.569 6 102088269.11646                  24931002.760
  24930997.320          41.800          37.650
 125966855.984 7  98156127.943 6                  23970635.280    23970632.420
  23970631.700          46.200          41.300
 104646395.694 7  81391654.713 7                  19583145.020    19583148.720
  19583147.100          47.750          42.300
 122146906.274 7  95003167.828 7                  22850103.200    22850106.120
  22850105.940          46.300          42.450
 105379460.541 8  81961853.430 7                  19692651.300    19692652.860
  19692651.940          49.000          47.250
 114945246.989 7  89401893.119 6                  21563430.840    21563437.620
  21563436.440          47.700          39.350
 128276804.549 7  99770864.713 6                  23954786.480    23954787.080
  23954786.480          43.100          37.850
 115537674.636 8  89862664.648 7                  21644092.920    21644096.240
  21644095.180          48.700          45.000
 117502303.335 7  91390694.401 6                  21996676.900    21996680.800
  21996680.440          43.450          40.700
 127372101.145 7  99067176.355 5                  23869475.440    23869478.100
  23869477.840          45.250          35.100
 115553269.779 7  89874914.603 7                  21608997.800    21609002.300
  21609000.280          42.750          43.800
 137945152.963 8                 103011121.329 7  26250039.120
                        48.450
 146763475.179 7                 109596110.091 6  27928159.640
                        45.400
 120156232.200 8                  89727094.276 8  22864965.640
                        52.000
 123258867.705 8                  92044068.441 8  23455328.380
                        50.700
 15  1 27  2  6 30.0000000  0 23G31G08G21G25G16G18G22G27G19G29R11R05
                                R21R10R04R22R12R06R20E12E19E18E11
 121177283.929 8  94423866.355 7                  23059266.060    23059262.060
  23059261.340          48.250          44.750
 110976429.008 8  86475119.17247                  21118111.040
  21118107.080          50.650          46.350
 111746879.900 8  87075548.73447                  21264693.480
  21264687.680          48.400          46.100
 134354201.906 6 104691756.225 6 100329592.897 7  25566674.480    25566674.100
  25566673.520          41.300          38.500
 111999382.190 8  87272246.77547                  21312771.240
  21312766.300          50.050          45.700
 121920897.712 8  95003290.11546                  23200767.320
  23200762.380          48.550          39.400
 129122821.094 7 100615191.05246                  24571244.240
  24571237.740          44.900          37.300
 118356598.857 8  92225930.069 7  88383177.348 8  22522507.940    22522506.200
  22522505.560          48.650          46.950
 130998530.016 6 102076751.03546                  24928189.840
  24928184.440          41.400          36.350
 125980496.282 7  98166756.737 6                  23973230.920    23973228.120
  23973227.320          46.700          41.150
 104649347.240 8  81393950.349 7                  19583697.380    19583701.080
  19583699.400          48.000          42.050
 122138933.069 7  94996966.444 6                  22848611.620    22848614.560
  22848614.440          46.450          41.700
 105381338.711 8  81963314.219 7                  19693002.320    19693003.820
  19693002.920          48.700          47.250
 114965830.448 7  89417902.482 6                  21567292.280    21567299.100
  21567297.860          47.100          39.300
 128283644.052 7  99776184.329 6                  23956063.760    23956064.260
  23956063.700          43.650          37.850
 115525948.935 8  89853544.660 7                  21641896.320    21641899.600
  21641898.580          48.700          45.100
 117484971.104 7  91377213.772 6                  21993432.300    21993436.200
  21993435.820          43.550          41.050
 127353956.741 7  99053064.051 5                  23866075.220    23866077.860
  23866077.480          45.400          35.150
 115567386.083 7  89885893.942 7                  21611637.580    21611642.100
  21611640.100          42.250          44.150
 137956024.966 8                 103019240.029 7  26252107.920
                        48.250
 146760459.740 7                 109593858.306 7  27927585.780
                        45.450
 120182814.164 8                  89746944.451 8  22870024.020
                        52.050
 123262515.608 8                  92046792.517 8  23456022.580
                        50.700
 15  1 27  2  6 35.0000000  0 23G31G08G21G25G16G18G22G27G19G29R11R05
                                R21R10R04R22R12R06R20E12E19E18E11
 121193421.420 8  94436441.020 7                  23062336.920    23062332.940
  23062332.240          48.400          44.650
 110984319.793 8  86481267.84047                  21119612.660
  21119608.660          50.650          46.150
 111751807.705 8  87079388.58847                  21265631.180
  21265625.400          48.400          46.350
 134371283.272 6 104705066.360 6 100342348.452 7  25569924.980    25569924.520
  25569923.920          41.900          38.050
 111989100.479 8  87264235.05747                  21310814.720
  21310809.760          50.050          45.950
 121909752.841 8  94994605.82246                  23198646.540
  23198641.560          48.850          39.250
 129107361.407 7 100603144.56346                  24568302.380
  24568295.800          45.750          36.250
 118345452.499 8  92217244.599 7  88374853.778 8  22520386.880    22520385.120
  22520384.460          48.900          47.000
 130983750.747 6 102065234.70545                  24925377.380
  24925372.060          41.950          35.100
 125994136.891 7  98177385.789 6                  23975826.680    23975823.780
  23975823.000          47.000          41.200
 104652321.397 8  81396263.583 7                  19584253.960    19584257.680
  19584255.940          48.150          42.350
 122130977.014 7  94990778.427 6                  22847123.240    22847126.300
  22847126.060          45.950          41.350
 105383226.382 8  81964782.420 7                  19693355.120    19693356.600
  19693355.660          48.900          47.250
 114986423.750 7  89433919.488 6                  21571155.540    21571162.280
  21571161.120          47.150          39.400
 128290502.124 7  99781518.389 6                  23957344.440    23957344.960
  23957344.420          43.000          38.600
 115514231.211 8  89844430.873 7                  21639701.200    21639704.460
  21639703.460          48.500          45.100
 117467651.688 7  91363743.119 6                  21990190.080    21990194.000
  21990193.600          43.900          41.150
 127335813.735 7  99038952.814 5                  23862675.260    23862677.740
  23862677.400          44.950          35.050
 115581504.315 7  89896874.785 7                  21614277.680    21614282.280
  21614280.280          42.000          43.800
 137966897.117 8                 103027358.845 7  26254176.740
                        48.450
 146757454.564 7                 109591614.185 7  27927013.880
                        45.400
 120209394.609 8                  89766793.487 8  22875082.120
                        52.100
 123266167.795 8                  92049519.815 8  23456717.560
                        50.700
 15  1 27  2  6 40.0000000  0 23G31G08G21G25G16G18G22G27G19G29R11R05
                                R21R10R04R22R12R06R20E12E19E18E11
 121209565.244 8  94449020.621 7                  23065409.000    23065405.060
  23065404.320          48.350          44.600
 110992228.414 8  86487430.40247                  21121117.680
  21121113.620          50.650          46.400
 111756747.717 8  87083237.94647                  21266571.220
  21266565.440          48.400          46.350
 134388368.336 7 104718379.364 6 100355106.759 7  25573176.160    25573175.700
  25573175.200          42.600          39.250
 111978828.511 8  87256230.92247                  21308860.040
  21308855.060          50.100          45.750
 121898615.954 8  94985927.73346                  23196527.280
  23196522.280          48.800          39.300
 129091901.545 7 100591097.89946                  24565360.500
  24565353.760          46.050          36.200
 118334311.929 8  92208563.631 7  88366534.517 8  22518266.940    22518265.120
  22518264.500          49.100          47.000
 130968975.387 7 102053721.45046                  24922565.640
  24922560.420          42.400          37.050
 126007779.496 7  98188016.391 6                  23978422.880    23978419.920
  23978419.060          47.050          41.200
 104655319.975 8  81398595.810 7                  19584815.140    19584818.800
  19584817.060          48.000          42.400
 122123039.571 7  94984604.857 7                  22845638.340    22845641.440
  22845641.180          46.400          42.300
 105385125.214 8  81966259.285 7                  19693710.020    19693711.440
  19693710.460          48.850          46.950
 115007028.414 7  89449945.334 6                  21575020.920    21575027.720
  21575026.520          47.150          39.350
 128297380.437 7  99786868.179 6                  23958628.980    23958629.500
  23958628.920          43.300          38.350
 115502523.029 8  89835324.501 7                  21637507.860    21637511.080
  21637510.120          48.500          45.100
 117450346.906 7  91350283.842 6                  21986950.620    21986954.560
  21986954.140          43.850          41.350
 127317673.842 7  99024844.023 5                  23859275.880    23859278.420
  23859277.920          45.200          35.200
 115595626.381 7  89907858.614 7                  21616918.580    21616923.240
  21616921.160          42.100          44.150
 137977771.149 8                 103035479.048 7  26256245.940
                        48.600
 146754461.304 7                 109589378.964 7  27926444.260
                        45.650
 120235975.219 8                  89786642.638 8  22880140.280
                        52.200
 123269825.996 8                  92052251.578 8  23457413.720
                        50.650
 15  1 27  2  6 45.0000000  0 23G31G08G21G25G16G18G22G27G19G29R11R05
                                R21R10R04R22R12R06R20E12E19E18E11
 121225713.266 8  94461603.497 7                  23068481.860    23068477.980
  23068477.200          48.550          44.750
 111000152.711 8  86493605.17847                  21122625.680
  21122621.540          50.650          46.400
 111761697.726 8  87087095.09847                  21267513.160
  21267507.380          48.300          46.800
 134405454.934 7 104731693.592 6 100367866.235 7  25576427.640    25576427.120
  25576426.600          42.800          38.600
 111968564.147 8  87248232.71847                  21306906.800
  21306901.820          50.150          45.850
 121887484.951 8  94977254.22246                  23194409.140
  23194404.120          48.900          39.200
 129076439.344 7 100579049.43946                  24562418.180
  24562411.420          46.000          36.450
 118323174.974 8  92199885.489 7  88358217.962 8  22516147.680    22516145.820
  22516145.200          49.000          47.050
 130954201.911 6 102042209.66746                  24919754.300
  24919749.100          41.400          36.650
 126021421.968 7  98198646.869 6                  23981019.080    23981016.000
  23981015.080          47.850          41.250
 104658340.764 8  81400945.317 7                  19585380.480    19585384.160
  19585382.360          48.050          42.300
 122115118.877 7  94978444.320 6                  22844156.640    22844159.700
  22844159.400          46.900          41.950
 105387033.056 8  81967743.167 7                  19694066.560    19694067.980
  19694066.960          48.950          46.950
 115027642.172 7  89465978.250 6                  21578888.000    21578894.840
  21578893.620          47.450          39.700
 128304276.930 7  99792232.127 6                  23959916.820    23959917.420
  23959916.880          43.300          38.700
 115490822.425 8  89826224.037 7                  21635315.940    21635319.160
  21635318.200          48.800          45.000
 117433054.621 7  91336834.298 6                  21983713.460    21983717.420
  21983717.000          43.700          41.250
 127299535.161 7  99010736.168 6                  23855876.720    23855879.180
  23855878.700          45.100          36.200
 115609749.965 7  89918843.618 7                  21619559.760    21619564.440
  21619562.340          42.100          44.150
 137988644.866 8                 103043599.039 7  26258315.100
                        48.700
 146751477.878 7                 109587151.095 7  27925876.500
                        45.250
 120262553.867 8                  89806490.328 8  22885198.060
                        52.200
 123273488.065 8                  92054986.240 8  23458110.600
                        50.700
 15  1 27  2  6 50.0000000  0 23G31G08G21G25G16G18G22G27G19G29R11R05
                                R21R10R04R22R12R06R20E12E19E18E11
 121241866.367 8  94474190.317 7                  23071555.680    23071551.860
  23071551.080          48.950          44.550
 111008093.590 8  86499792.87647                  21124136.820
  21124132.620          50.800          46.100
 111766658.763 8  87090960.83647                  21268457.180
  21268451.440          48.450          45.900
 134422543.989 7 104745009.755 6 100380627.552 7  25579679.620    25579679.020
  25579678.500          42.150          37.600
 111958308.286 8  87240241.13447                  21304955.180
  21304950.200          50.350          45.700
 121876360.716 8  94968585.98546                  23192292.300
  23192287.240          48.750          38.850
 129060975.737 7 100566999.88146                  24559475.600
  24559468.780          46.050          36.350
 118312042.534 8  92191210.860 7  88349904.782 8  22514029.240    22514027.380
  22514026.760          48.900          47.100
 130939431.112 7 102030699.92546                  24916943.480
  24916938.280          42.700          36.200
 126035065.196 7  98209277.965 6                  23983615.400    23983612.320
  23983611.280          47.600          41.250
 104661384.593 8  81403312.741 7                  19585950.120    19585953.820
  19585951.980          48.250          42.400
 122107215.701 7  94972297.397 6                  22842678.180    22842681.240
  22842680.900          47.550          41.800
 105388950.849 8  81969234.777 7                  19694424.960    19694426.340
  19694425.340          48.650          47.050
 115048266.257 7  89482019.191 6                  21582757.020    21582763.900
  21582762.680          47.550          39.450
 128311192.471 7  99797610.892 6                  23961208.240    23961208.880
  23961208.340          43.550          39.000
 115479130.324 8  89817130.175 7                  21633125.640    21633128.880
  21633127.840          48.700          44.950
 117415775.536 7  91323395.022 6                  21980478.820    21980482.760
  21980482.320          43.950          40.900
 127281398.403 7  98996629.793 6                  23852477.920    23852480.380
  23852479.900          45.000          36.550
 115623876.082 7  89929830.595 7                  21622201.420    21622206.060
  21622204.000          42.050          44.200
 137999519.184 8                 103051719.454 7  26260384.400
                        48.850
 146748505.189 7                 109584931.213 7  27925310.760
                        45.250
 120289131.425 8                  89826337.201 8  22890255.640
                        52.300
 123277154.900 8                  92057724.455 8  23458808.420
                        50.800
 15  1 27  2  6 55.0000000  0 23G31G08G21G25G16G18G22G27G19G29R11R05
                                R21R10R04R22R12R06R20E12E19E18E11
 121258023.570 8  94486780.342 7                  23074630.300    23074626.500
  23074625.700          48.800          44.400
 111016050.031 8  86505992.69947                  21125650.900
  21125646.700          50.800          46.200
 111771629.812 8  87094834.37547                  21269403.120
  21269397.400          48.550          45.750
 134439634.489 6 104758327.048 6 100393389.948 7  25582931.860    25582931.200
  25582930.720          41.050          37.750
 111948059.929 8  87232255.39947                  21303005.000
  21302999.980          50.350          45.550
 121865242.291 8  94959922.27346                  23190176.560
  23190171.500          48.700          39.950
 129045509.724 7 100554948.46545                  24556532.500
  24556525.720          45.800          35.950
 118300913.622 8  92182538.991 7  88341594.243 8  22511911.480    22511909.620
  22511909.000          48.750          47.200
 130924662.108 7 102019191.62946                  24914132.940
  24914127.860          42.450          37.050
 126048708.227 7  98219908.892 6                  23986211.660    23986208.500
  23986207.460          47.400          41.000
 104664450.581 8  81405697.397 7                  19586523.920    19586527.540
  19586525.740          48.400          42.300
 122099329.134 7  94966163.394 6                  22841202.880    22841205.860
  22841205.520          47.300          41.500
 105390877.507 8  81970733.287 7                  19694785.020    19694786.400
  19694785.380          48.750          47.200
 115068899.421 7  89498067.214 6                  21586627.780    21586634.640
  21586633.460          47.650          39.750
 128318125.970 7  99803003.623 6                  23962502.960    23962503.720
  23962503.120          43.050          38.950
 115467445.533 8  89808042.021 7                  21630936.680    21630939.900
  21630938.900          48.700          45.050
 117398508.894 7  91309965.410 6                  21977246.540    21977250.360
  21977249.960          44.350          41.100
 127263262.657 7  98982524.202 6                  23849079.260    23849081.840
  23849081.300          44.900          36.250
 115638003.602 7  89940818.658 7                  21624843.320    21624847.980
  21624845.940          42.650          44.250
 138010393.135 8                 103059839.620 7  26262453.660
                        49.100
 146745542.202 7                 109582718.594 6  27924746.880
                        45.000
 120315706.872 8                  89846182.509 8  22895312.800
                        52.300
 123280825.492 8                  92060465.480 8  23459506.940
                        50.800
 15  1 27  2  7  0.0000000  0 23G31G08G21G25G16G18G22G27G19G29R11R05
                                R21R10R04R22R12R06R20E12E19E18E11
 121274187.164 8  94499375.345 7                  23077706.120    23077702.340
  23077701.520          48.850          44.350
 111024024.343 8  86512206.45047                  21127168.380
  21127164.160          50.700          46.450
 111776613.120 8  87098717.47747                  21270351.400
  21270345.680          48.500          46.050
 134456728.720 6 104771647.226 6 100406155.134 7  25586184.760    25586184.120
  25586183.600          41.100          37.450
 111937821.407 8  87224277.33047                  21301056.700
  21301051.640          50.250          46.100
 121854132.000 8  94951264.91446                  23188062.340
  23188057.280          48.750          38.650
 129030043.626 7 100542896.95646                  24553589.420
  24553582.640          45.700          36.650
 118289790.548 8  92173871.665 7  88333288.044 8  22509794.820    22509792.940
  22509792.340          48.800          47.350
 130909897.169 7 102007686.50045                  24911323.240
  24911318.160          43.400          34.800
 126062353.350 7  98230541.459 6                  23988808.280    23988804.980
  23988804.000          46.950          40.950
 104667541.015 8  81408101.063 7                  19587102.300    19587105.860
  19587104.060          48.050          42.350
 122091461.442 7  94960044.095 6                  22839731.100    22839734.020
  22839733.680          46.900          41.600
 105392815.461 8  81972240.590 7                  19695147.160    19695148.560
  19695147.540          48.750          47.350
 115089543.896 7  89514124.030 6                  21590500.640    21590507.640
  21590506.340          47.650          40.050
 128325079.850 7  99808412.190 6                  23963801.500    23963802.280
  23963801.700          42.800          38.700
 115455770.565 8  89798961.492 7                  21628749.560    21628752.820
  21628751.800          48.250          45.150
 117381256.908 7  91296547.194 6                  21974016.920    21974020.740
  21974020.360          43.750          40.900
 127245130.126 7  98968421.118 5                  23845681.220    23845683.860
  23845683.260          44.700          35.450
 115652134.927 7  89951809.682 7                  21627485.940    21627490.640
  21627488.560          42.200          44.200
 138021268.991 8                 103067961.188 7  26264523.300
                        49.250
 146742591.271 7                 109580514.977 7  27924185.340
                        45.400
 120342282.524 8                  89866027.956 8  22900370.000
                        52.300
 123284502.146 8                  92063211.027 8  23460206.620
                        50.850
 15  1 27  2  7  5.0000000  0 23G31G08G21G25G16G18G22G27G19G29R11R05
                                R21R10R04R22R12R06R20E12E19E18E11
 121290353.684 8  94511972.625 7                  23080782.520    23080778.700
  23080777.900          49.100          44.350
 111032013.068 8  86518431.43147                  21128688.580
  21128684.380          50.700          46.350
 111781605.288 8  87102607.47647                  21271301.360
  21271295.640          48.450          46.250
 134473823.321 6 104784967.691 6 100418920.556 7  25589437.720    25589437.140
  25589436.580          41.100          38.250
 111927589.306 8  87216304.26647                  21299109.620
  21299104.520          50.250          46.150
 121843026.363 8  94942611.17246                  23185949.000
  23185943.980          49.050          38.700
 129014574.034 7 100530842.74146                  24550645.640
  24550638.800          45.850          37.000
 118278669.895 8  92165206.225 7  88324983.666 8  22507678.600    22507676.780
  22507676.140          48.900          47.200
 130895132.837 7 101996181.82545                  24908513.640
  24908508.540          43.450          35.600
 126075997.124 7  98241172.966 6                  23991404.640    23991401.280
  23991400.300          46.800          41.200
 104670652.243 8  81410520.910 7                  19587684.560    19587688.100
  19587686.260          48.000          42.450
 122083609.220 7  94953936.832 6                  22838262.180    22838265.060
  22838264.700          47.200          41.350
 105394761.147 8  81973753.906 7                  19695510.760    19695512.140
  19695511.140          48.450          47.250
 115110196.277 7  89530186.999 6                  21594374.980    21594381.980
  21594380.720          47.650          40.300
 128332050.499 7  99813833.819 6                  23965103.180    23965104.000
  23965103.400          42.650          38.700
 115444101.695 8  89789885.717 7                  21626563.560    21626566.860
  21626565.840          48.700          45.000
 117364016.231 7  91283137.770 6                  21970789.460    21970793.200
  21970792.840          44.100          40.750
 127226997.429 7  98954317.920 5                  23842283.180    23842285.740
  23842285.200          44.900          35.200
 115666266.535 7  89962800.923 7                  21630128.560    21630133.260
  21630131.240          42.250          44.350
 138032143.309 8                 103076081.631 7  26266592.640
                        49.400
 146739648.948 7                 109578317.793 6  27923625.420
                        45.250
 120368854.932 8                  89885870.989 8  22905426.540
                        52.200
 123288181.425 8                  92065958.549 8  23460906.800
                        50.800
 15  1 27  2  7 10.0000000  0 23G31G08G21G25G16G18G22G27G19G29R11R05
                                R21R10R04R22R12R06R20E12E19E18E11
 121306526.492 8  94524574.807 7                  23083860.080    23083856.280
  23083855.460          48.850          44.200
 111040019.567 8  86524670.25547                  21130212.160
  21130207.960          50.550          46.550
 111786609.690 8  87106507.00647                  21272253.640
  21272247.940          48.350          45.950
 134490921.593 6 104798291.018 6 100431688.731 7  25592691.380    25592690.820
  25592690.320          40.200          38.350
 111917367.009 8  87208338.83847                  21297164.420
  21297159.260          50.300          46.050
 121831928.795 8  94933963.71946                  23183837.200
  23183832.160          48.900          39.350
 128999104.355 7 100518788.44846                  24547701.860
  24547695.020          45.850          37.050
 118267555.001 8  92156545.266 7  88316683.598 8  22505563.480    22505561.660
  22505561.020          48.900          47.300
 130880372.499 7 101984680.28946                  24905704.840
  24905699.780          43.650          36.550
 126089642.901 7  98251806.014 6                  23994001.320    23993997.980
  23993997.080          46.400          41.000
 104673787.837 7  81412959.703 7                  19588271.340    19588274.840
  19588273.040          47.900          42.350
 122075775.938 7  94947844.254 6                  22836796.820    22836799.660
  22836799.200          46.950          41.100
 105396717.977 8  81975275.875 7                  19695876.460    19695877.800
  19695876.800          48.500          47.150
 115130859.971 7  89546258.755 6                  21598251.440    21598258.540
  21598257.220          47.400          40.250
 128339041.569 7  99819271.342 6                  23966408.640    23966409.540
  23966408.900          42.450          37.800
 115432442.570 8  89780817.513 7                  21624379.400    21624382.720
  21624381.700          48.800          45.050
 117346790.414 7  91269739.914 6                  21967564.840    21967568.480
  21967568.080          43.850          40.700
 127208868.180 7  98940217.376 5                  23838885.760    23838888.220
  23838887.680          44.900          34.550
 115680401.865 7  89973795.058 7                  21632771.900    21632776.660
  21632774.580          42.100          43.900
 138043019.517 8                 103084203.459 7  26268662.380
                        49.550
 146736718.625 7                 109576129.572 7  27923067.780
                        44.900
 120395427.455 8                  89905714.093 8  22910483.080
                        52.100
 123291866.710 8                  92068710.547 8  23461608.100
                        50.750
 15  1 27  2  7 15.0000000  0 23G31G08G21G25G16G18G22G27G19G29R11R05
                                R21R10R04R22R12R06R20E12E19E18E11
 121322704.160 8  94537180.777 7                  23086938.580    23086934.760
  23086933.960          48.950          44.200
 111048042.419 8  86530921.83047                  21131738.840
  21131734.660          50.550          46.250
 111791624.872 8  87110414.94647                  21273207.960
  21273202.320          48.400          46.050
 134508022.078 6 104811616.069 6 100444458.573 7  25595945.520    25595944.940
  25595944.440          41.200          38.600
 111907153.106 8  87200379.95347                  21295220.800
  21295215.600          50.300          45.850
 121820837.903 8  94925321.47246                  23181726.660
  23181721.640          49.050          38.650
 128983633.132 7 100506732.96746                  24544757.760
  24544751.000          45.600          37.150
 118256444.479 8  92147887.725 7  88308386.780 8  22503449.200    22503447.400
  22503446.760          48.900          47.250
 130865614.709 7 101973180.72545                  24902896.500
  24902891.460          43.100          35.800
 126103289.235 7  98262439.517 6                  23996598.120    23996594.820
  23996593.880          47.100          41.100
 104676946.351 7  81415416.329 7                  19588862.440    19588865.900
  19588864.120          47.850          42.550
 122067959.991 7  94941765.178 6                  22835334.700    22835337.480
  22835337.020          46.900          41.600
 105398684.574 8  81976805.454 7                  19696243.940    19696245.300
  19696244.300          48.300          47.200
 115151533.586 7  89562338.229 6                  21602129.760    21602136.900
  21602135.580          47.450          40.350
 128346051.378 7  99824723.427 6                  23967717.660    23967718.640
  23967717.960          42.650          38.150
 115420791.709 8  89771755.736 7                  21622196.840    21622200.140
  21622199.080          48.800          45.150
 117329577.754 7  91256352.296 6                  21964342.640    21964346.220
  21964345.800          43.950          40.600
 127190740.660 7  98926118.198 5                  23835488.700    23835491.160
  23835490.540          45.250          34.650
 115694539.369 7  89984790.894 7                  21635415.720    21635420.400
  21635418.340          43.200          43.800
 138053896.121 8                 103092325.606 7  26270732.200
                        49.550
 146733798.875 7                 109573949.241 6  27922512.180
                        44.850
 120421998.656 8                  89925556.230 8  22915539.360
                        52.050
 123295556.560 8                  92071465.960 8  23462310.260
                        50.800
 15  1 27  2  7 20.0000000  0 23G31G08G21G25G16G18G22G27G19G29R11R05
                                R21R10R04R22R12R06R20E12E19E18E11
 121338886.601 8  94549790.464 7                  23090018.000    23090014.160
  23090013.360          49.050          44.250
 111056081.536 8  86537186.06747                  21133268.600
  21133264.440          50.550          46.150
 111796650.751 8  87114331.21647                  21274164.340
  21274158.720          48.450          45.850
 134525124.788 7 104824942.821 6 100457230.050 7  25599200.060    25599199.500
  25599199.040          42.050          38.550
 111896947.525 8  87192427.54847                  21293278.780
  21293273.520          50.250          45.750
 121809753.607 8  94916684.35546                  23179617.400
  23179612.360          48.900          38.400
 128968160.366 7 100494676.27445                  24541813.420
  24541806.620          46.100          35.900
 118245338.251 8  92139233.525 7  88300093.174 8  22501335.780    22501333.960
  22501333.340          49.100          47.250
 130850859.394 7 101961683.08646                  24900088.620
  24900083.660          42.400          37.750
 126116936.081 7  98273073.417 6                  23999195.060    23999191.760
  23999190.860          47.250          41.200
 104680127.721 7  81417890.718 7                  19589457.800    19589461.240
  19589459.480          47.900          42.350
 122060161.438 7  94935699.670 6                  22833875.780    22833878.560
  22833878.100          46.600          41.100
 105400660.797 8  81978342.508 7                  19696613.260    19696614.580
  19696613.580          48.700          47.200
 115172217.062 7  89578425.365 6                  21606009.920    21606017.080
  21606015.800          47.350          40.350
 128353079.962 7  99830190.105 6                  23969030.160    23969031.160
  23969030.460          42.050          38.650
 115409148.964 8  89762700.273 7                  21620015.740    21620019.040
  21620017.940          48.800          44.700
 117312378.307 7  91242974.945 6                  21961122.880    21961126.480
  21961125.960          43.950          40.700
 127172615.175 7  98912020.594 5                  23832091.960    23832094.360
  23832093.780          44.600          35.300
 115708679.159 7  89995788.504 7                  21638059.900    21638064.600
  21638062.500          43.350          43.850
 138064773.072 8                 103100448.005 7  26272802.100
                        49.650
 146730889.619 7                 109571776.743 6  27921958.560
                        45.300
 120448568.454 8                  89945397.307 8  22920595.360
                        52.050
 123299250.923 8                  92074224.734 8  23463013.280
                        50.850
 15  1 27  2  7 25.0000000  0 23G31G08G21G25G16G18G22G27G19G29R11R05
                                R21R10R04R22R12R06R20E12E19E18E11
 121355073.579 8  94562403.700 7                  23093098.260    23093094.440
  23093093.640          49.000          44.550
 111064136.685 8  86543462.81147                  21134801.420
  21134797.280          50.350          46.400
 111801687.119 8  87118255.66747                  21275122.700
  21275117.120          48.400          46.300
 134542229.405 7 104838271.082 6 100470002.982 7  25602454.920    25602454.400
  25602453.940          42.350          38.550
 111886750.029 8  87184481.45747                  21291338.260
  21291332.980          50.200          46.000
 121798675.671 8  94908052.21046                  23177509.320
  23177504.240          48.950          37.800
 128952685.778 7 100482618.15545                  24538868.700
  24538861.860          45.750          35.800
 118234236.076 8  92130582.491 7  88291802.601 8  22499223.120    22499221.300
  22499220.660          49.150          47.400
 130836106.392 7 101950187.21746                  24897281.180
  24897276.240          42.800          38.700
 126130583.227 7  98283707.569 6                  24001792.020    24001788.760
  24001787.900          47.000          41.750
 104683331.660 8  81420382.672 7                  19590057.360    19590060.840
  19590059.060          48.100          42.400
 122052380.251 7  94929647.646 6                  22832420.120    22832422.920
  22832422.360          47.150          40.800
 105402646.347 8  81979886.833 7                  19696984.300    19696985.640
  19696984.600          49.000          47.050
 115192910.053 7  89594519.930 6                  21609891.880    21609899.040
  21609897.800          47.350          40.400
 128360127.045 7  99835671.180 6                  23970346.140    23970347.140
  23970346.420          42.700          38.500
 115397514.191 8  89753651.010 7                  21617836.180    21617839.460
  21617838.320          48.850          44.850
 117295192.018 7  91229607.834 6                  21957905.560    21957909.220
  21957908.620          44.350          40.500
 127154491.248 7  98897924.219 5                  23828695.520    23828698.000
  23828697.300          45.350          35.600
 115722820.823 7  90006787.583 7                  21640704.480    21640709.180
  21640707.000          43.250          43.450
 138075650.152 8                 103108570.505 7  26274872.020
                        49.750
 146727990.642 7                 109569611.934 6  27921406.860
                        45.050
 120475136.608 8                  89965237.168 8  22925651.040
                        52.050
 123302949.546 8                  92076986.699 8  23463717.120
                        50.850
 15  1 27  2  7 30.0000000  0 23G31G08G21G25G16G18G22G27G19G29R11R05
                                R21R10R04R22R12R06R20E12E19E18E11
 121371265.386 8  94575020.685 7                  23096179.460    23096175.660
  23096174.880          48.900          44.550
 111072208.186 8  86549752.28847                  21136337.340
  21136333.220          50.100          46.400
 111806734.247 8  87122188.48547                  21276083.100
  21276077.540          48.250          46.100
 134559336.306 7 104851601.114 6 100482777.608 7  25605710.260    25605709.800
  25605709.320          42.450          39.550
 111876560.815 8  87176541.80847                  21289399.340
  21289394.020          50.100          46.100
 121787604.463 8  94899425.28846                  23175402.540
  23175397.400          48.650          38.800
 128937209.733 7 100470558.90945                  24535923.700
  24535916.860          46.000          34.800
 118223138.267 8  92121934.851 7  88283515.279 8  22497111.300    22497109.480
  22497108.820          48.950          47.350
 130821355.946 7 101938693.35346                  24894474.280
  24894469.240          42.750          37.400
 126144230.935 7  98294342.122 6                  24004389.100    24004385.880
  24004385.120          47.000          41.550
 104686558.556 8  81422892.472 7                  19590661.240    19590664.660
  19590662.940          48.000          42.200
 122044616.472 7  94923609.116 6                  22830967.720    22830970.500
  22830969.880          47.150          41.250
 105404641.660 8  81981438.745 7                  19697357.180    19697358.520
  19697357.480          48.800          47.000
 115213612.773 7  89610622.045 6                  21613775.660    21613782.800
  21613781.600          47.200          40.350
 128367192.929 6  99841166.878 6                  23971665.520    23971666.660
  23971665.940          41.750          38.150
 115385887.657 8  89744608.169 7                  21615658.140    21615661.420
  21615660.280          48.850          44.800
 117278019.010 7  91216251.043 6                  21954690.760    21954694.380
  21954693.780          44.150          40.400
 127136369.293 7  98883829.363 6                  23825299.480    23825302.080
  23825301.260          45.450          36.000
 115736964.760 7  90017788.427 7                  21643349.480    21643354.120
  21643351.940          43.200          42.900
 138086527.676 8                 103116693.322 7  26276942.040
                        49.450
 146725102.282 7                 109567455.041 6  27920857.200
                        45.050
 120501703.421 8                  89985076.012 8  22930706.460
                        51.950
 123306652.746 8                  92079752.079 8  23464421.820
                        50.700
 15  1 27  2  7 35.0000000  0 23G31G08G21G25G16G18G22G27G19G29R11R05
                                R21R10R04R22R12R06R20E12E19E18E11
 121387462.039 8  94587641.455 7                  23099261.600    23099257.800
  23099257.000          48.750          44.550
 111080296.048 8  86556054.51847                  21137876.360
  21137872.280          50.000          46.650
 111811792.106 8  87126129.67447                  21277045.540
  21277040.020          48.300          46.200
 134576445.427 7 104864932.887 6 100495553.894 7  25608965.960    25608965.600
  25608965.140          43.050          39.550
 111866380.082 8  87168608.77447                  21287462.040
  21287456.700          50.150          46.300
 121776539.935 8  94890803.57546                  23173297.040
  23173291.860          48.500          38.600
 128921732.227 7 100458498.51446                  24532978.440
  24532971.580          45.000          36.050
 118212044.871 8  92113290.648 7  88275231.244 8  22495000.280    22494998.500
  22494997.820          48.650          47.350
 130806608.152 7 101927201.57346                  24891667.840
  24891662.860          43.150          37.600
 126157879.224 7  98304977.154 6                  24006986.300    24006983.080
  24006982.280          47.100          40.450
 104689808.381 7  81425420.114 7                  19591269.400    19591272.840
  19591271.080          47.950          42.250
 122036870.231 7  94917584.268 6                  22829518.600    22829521.380
  22829520.800          46.900          41.700
 105406646.646 8  81982998.178 7                  19697731.840    19697733.180
  19697732.140          48.950          47.050
 115234325.399 7  89626731.855 6                  21617661.280    21617668.460
  21617667.260          47.300          40.250
 128374277.617 7  99846677.193 6                  23972988.420    23972989.680
  23972989.000          42.300          38.100
 115374269.395 8  89735571.751 7                  21613481.680    21613484.900
  21613483.780          48.900          44.600
 117260859.507 7  91202904.762 6                  21951478.480    21951482.060
  21951481.480          44.250          40.350
 127118249.382 7  98869736.108 5                  23821903.840    23821906.220
  23821905.600          45.900          35.650
 115751110.945 7  90028791.034 7                  21645994.880    21645999.520
  21645997.300          43.250          43.150
 138097405.623 8                 103124816.470 7  26279012.120
                        49.450
 146722224.512 7                 109565306.052 6  27920309.600
                        45.000
 120528268.884 8                  90004913.852 8  22935761.640
                        51.900
 123310360.526 8                  92082520.872 8  23465127.400
                        50.600
 15  1 27  2  7 40.0000000  0 23G31G08G21G25G16G18G22G27G19G29R11R05
                                R21R10R04R22R12R06R20E12E19E18E11
 121403663.392 8  94600265.882 7                  23102344.620    23102340.820
  23102340.020          48.850          44.500
 111088400.125 8  86562369.37947                  21139418.480
  21139414.440          50.100          46.350
 111816860.609 8  87130079.15647                  21278010.040
  21278004.540          48.250          46.200
 134593556.679 7 104878266.322 6 100508331.767 7  25612222.140    25612221.760
  25612221.400          42.900          38.950
 111856207.721 8  87160682.25847                  21285526.320
  21285520.980          50.300          45.950
 121765482.069 8  94882187.05346                  23171192.800
  23171187.640          48.400          38.100
 128906253.168 7 100446436.92845                  24530032.860
  24530025.980          45.300          35.400
 118200955.729 8  92104649.759 7  88266950.395 8  22492890.120    22492888.280
  22492887.620          48.500          47.350
 130791862.856 7 101915711.72646                  24888861.900
  24888856.900          43.050          37.950
 126171527.996 7  98315612.569 6                  24009583.580    24009580.260
  24009579.420          46.900          40.250
 104693081.045 7  81427965.513 7                  19591881.840    19591885.320
  19591883.520          47.850          42.350
 122029141.382 7  94911572.985 7                  22828072.760    22828075.540
  22828075.040          47.200          42.250
 105408661.245 8  81984565.091 7                  19698108.300    19698109.640
  19698108.600          48.600          47.100
 115255047.770 7  89642849.244 6                  21621548.740    21621555.960
  21621554.700          47.050          39.950
 128381380.943 6  99852202.000 6                  23974314.840    23974316.200
  23974315.520          41.950          38.150
 115362659.199 8  89726541.599 7                  21611306.700    21611309.920
  21611308.760          49.200          44.800
 117243713.305 7  91189568.831 6                  21948268.680    21948272.320
  21948271.680          44.100          40.700
 127100131.342 7  98855644.302 6                  23818508.520    23818510.920
  23818510.340          46.250          36.250
 115765259.299 7  90039795.291 7                  21648640.740    21648645.360
  21648643.060          43.600          43.450
 138108283.899 8                 103132939.842 7  26281082.220
                        49.350
 146719357.283 7                 109563164.926 7  27919763.980
                        44.950
 120554832.881 8                  90024750.593 8  22940816.560
                        51.900
 123314072.780 8                  92085293.004 8  23465833.840
                        50.600
 15  1 27  2  7 45.0000000  0 23G31G08G21G25G16G18G22G27G19G29R11R05
                                R21R10R04R22R12R06R20E12E19E18E11
 121419868.868 8  94612893.523 7                  23105428.440    23105424.640
  23105423.860          48.850          44.650
 111096519.872 8  86568696.45047                  21140963.580
  21140959.580          50.300          46.100
 111821939.196 8  87134036.50147                  21278976.440
  21278970.980          48.350          46.150
 134610669.521 7 104891601.012 6 100521110.836 7  25615478.580    25615478.280
  25615477.800          42.800          38.300
 111846043.179 8  87152761.83247                  21283592.120
  21283586.740          50.550          46.050
 121754430.283 8  94873575.27446                  23169089.680
  23169084.540          48.500          38.650
 128890771.994 7 100434373.66546                  24527086.820
  24527079.980          44.750          36.600
 118189870.319 8  92096011.783 7  88258672.339 8  22490780.620    22490778.800
  22490778.140          48.600          47.300
 130777119.507 7 101904223.37646                  24886056.320
  24886051.280          43.050          39.000
 126185176.724 7  98326247.939 6                  24012180.840    24012177.540
  24012176.720          47.150          40.300
 104696375.854 7  81430528.144 7                  19592498.380    19592501.960
  19592500.080          47.850          42.300
 122021429.450 7  94905574.815 6                  22826630.040    22826632.860
  22826632.360          47.250          41.550
 105410684.893 8  81986139.035 7                  19698486.480    19698487.820
  19698486.740          48.750          47.150
 115275779.208 7  89658973.700 6                  21625437.900    21625445.140
  21625443.880          47.000          40.000
 128388502.419 7  99857740.926 6                  23975644.600    23975646.300
  23975645.480          42.050          38.550
 115351056.649 8  89717517.396 7                  21609133.200    21609136.340
  21609135.220          49.350          45.100
 117226579.797 7  91176242.772 6                  21945061.280    21945064.940
  21945064.280          44.150          40.550
 127082014.544 7  98841553.460 6                  23815113.440    23815115.860
  23815115.340          46.400          36.550
 115779409.150 7  90050800.737 7                  21651286.820    21651291.420
  21651289.140          42.950          43.600
 138119161.927 8                 103141063.053 7  26283152.260
                        49.450
 146716499.968 7                 109561031.229 6  27919220.300
                        44.800
 120581394.826 8                  90044585.815 8  22945871.120
                        52.050
 123317788.933 8                  92088068.054 8  23466541.000
                        50.750
 15  1 27  2  7 50.0000000  0 23G31G08G21G25G16G18G22G27G19G29R11R05
                                R21R10R04R22R12R06R20E12E19E18E11
 121436079.094 8  94625524.874 7                  23108513.160    23108509.340
  23108508.600          48.900          44.300
 111104655.902 8  86575036.21447                  21142511.800
  21142507.840          50.600          46.050
 111827028.485 8  87138002.18947                  21279944.880
  21279939.420          48.300          45.850
 134627784.533 7 104904937.403 6 100533891.540 7  25618735.460    25618735.180
  25618734.680          42.900          38.050
 111835887.043 8  87144847.95947                  21281659.520
  21281654.100          50.650          45.900
 121743385.252 8  94864968.77346                  23166987.860
  23166982.740          48.750          38.500
 128875289.366 7 100422309.30545                  24524140.500
  24524133.760          44.700          35.250
 118178789.249 8  92087377.191 7  88250397.528 8  22488671.920    22488670.140
  22488669.480          48.700          47.250
 130762378.710 7 101892737.05546                  24883251.200
  24883246.300          44.150          36.650
 126198825.977 7  98336883.729 6                  24014778.260    24014774.860
  24014774.100          47.500          40.850
 104699693.563 7  81433108.593 7                  19593119.220    19593122.840
  19593120.960          47.950          42.300
 122013735.056 7  94899590.272 6                  22825190.680    22825193.480
  22825192.860          46.700          41.000
 105412718.181 8  81987720.486 7                  19698866.420    19698867.760
  19698866.740          48.450          47.200
 115296520.305 7  89675105.656 6                  21629328.840    21629336.180
  21629334.840          46.900          39.900
 128395642.633 6  99863294.426 6                  23976977.960    23976979.720
  23976978.920          41.800          38.350
 115339462.363 8  89708499.630 7                  21606961.220    21606964.360
  21606963.220          49.300          45.250
 117209459.695 7  91162927.148 6                  21941856.340    21941860.000
  21941859.360          44.050          40.650
 127063899.809 7  98827464.219 6                  23811718.760    23811721.180
  23811720.700          46.000          37.200
 115793561.239 7  90061807.911 7                  21653933.340    21653937.940
  21653935.680          42.350          44.050
 138130040.371 8                 103149186.570 7  26285222.360
                        49.400
 146713653.257 7                 109558905.436 6  27918678.580
                        45.050
 120607955.357 8                  90064419.980 8  22950925.420
                        52.100
 123321509.614 8                  92090846.492 8  23467249.020
                        50.900
 15  1 27  2  7 55.0000000  0 23G31G08G21G25G16G18G22G27G19G29R11R05
                                R21R10R04R22R12R06R20E12E19E18E11
 121452296.188 8  94638161.572 7                  23111599.200    23111595.360
  23111594.620          48.800          44.650
 111112810.337 8  86581390.32147                  21144063.520
  21144059.580          50.550          45.900
 111832130.528 8  87141977.80547                  21280915.740
  21280910.320          48.050          46.650
 134644903.888 7 104918277.167 6 100546675.482 7  25621993.180    25621992.800
  25621992.540          42.000          38.000
 111825741.411 8  87136942.27247                  21279728.900
  21279723.460          50.650          46.050
 121732349.136 8  94856369.20046                  23164887.720
  23164882.620          49.050          37.650
 128859807.478 7 100410245.50646                  24521194.360
  24521187.720          44.950          36.550
 118167714.703 8  92078747.689 7  88242127.579 8  22486564.460    22486562.720
  22486562.060          48.700          47.550
 130747642.668 7 101881254.43346                  24880447.000
  24880442.100          44.600          38.000
 126212477.942 7  98347521.622 6                  24017376.180    24017372.800
  24017372.060          47.050          40.850
 104703036.529 7  81435708.675 7                  19593744.780    19593748.380
  19593746.580          47.850          42.400
 122006060.339 7  94893621.054 6                  22823754.920    22823757.780
  22823757.120          46.400          41.700
 105414763.303 8  81989311.139 7                  19699248.620    19699249.940
  19699248.960          48.850          47.200
 115317273.273 7  89691246.858 6                  21633222.040    21633229.360
  21633228.040          47.050          39.600
 128402803.851 6  99868864.268 6                  23978315.260    23978316.980
  23978316.260          41.450          38.600
 115327878.310 8  89699489.809 7                  21604791.180    21604794.240
  21604793.140          49.250          44.900
 117192355.250 7  91149623.695 6                  21938654.400    21938658.020
  21938657.400          43.900          40.800
 127045789.359 7  98813378.314 6                  23808324.860    23808327.420
  23808326.940          45.950          37.400
 115807717.577 7  90072818.377 7                  21656580.600    21656585.240
  21656583.040          42.800          44.600
 138140921.366 8                 103157311.984 7  26287292.940
                        49.250
 146710819.256 7                 109556789.150 6  27918139.240
                        45.300
 120634516.597 8                  90084254.671 8  22955979.840
                        52.150
 123325236.982 8                  92093629.912 8  23467958.320
                        50.950
 15  1 27  2  8  0.0000000  0 23G31G08G21G25G16G18G22G27G19G29R11R05
                                R21R10R04R22R12R06R20E12E19E18E11
 121468516.951 8  94650801.125 7                  23114685.920    23114682.120
  23114681.340          48.750          44.700
 111120979.934 8  86587756.23347                  21145618.100
  21145614.160          50.400          46.050
 111837242.214 8  87145960.92947                  21281888.440
  21281883.040          48.050          46.700
 134662024.376 6 104931617.792 6 100559460.248 7  25625251.120    25625250.680
  25625250.640          41.600          37.750
 111815603.178 8  87129042.34747                  21277799.700
  21277794.220          50.650          46.400
 121721318.659 8  94847774.01746                  23162788.700
  23162783.560          48.900          38.550
 128844323.035 7 100398179.69645                  24518247.720
  24518241.120          45.200          35.050
 118156643.386 8  92070120.693 7  88233860.045 8  22484457.640    22484455.900
  22484455.280          48.650          47.600
 130732908.058 7 101869772.91546                  24877643.080
  24877638.200          44.300          37.250
 126226129.383 7  98358159.090 6                  24019973.980    24019970.640
  24019969.840          47.050          40.850
 104706401.051 7  81438325.518 7                  19594374.380    19594377.980
  19594376.220          47.750          42.250
 121998402.012 7  94887664.588 7                  22822322.240    22822325.180
  22822324.480          47.000          42.150
 105416816.953 8  81990908.411 7                  19699632.420    19699633.720
  19699632.780          48.950          47.250
 115338034.855 7  89707394.745 6                  21637116.840    21637124.160
  21637122.860          47.200          40.000
 128409982.639 7  99874447.772 6                  23979655.900    23979657.620
  23979656.900          42.250          38.100
 115316301.520 8  89690485.632 7                  21602622.460    21602625.520
  21602624.380          49.150          44.900
 117175263.155 7  91136329.845 6                  21935454.700    21935458.320
  21935457.760          43.750          40.750
 127027679.790 7  98799293.099 6                  23804931.120    23804933.720
  23804933.320          45.650          36.650
 115821875.051 7  90083829.735 7                  21659228.140    21659232.780
  21659230.620          42.800          44.650
 138151801.649 8                 103165436.871 7  26289363.360
                        49.150
 146707994.793 7                 109554679.962 6  27917601.760
                        45.250
 120661075.289 8                  90104087.460 8  22961033.820
                        52.150
 123328967.768 8                  92096415.889 8  23468668.260
                        50.900
 15  1 27  2  8  5.0000000  0 23G31G08G21G25G16G18G22G27G19G29R11R05
                                R21R10R04R22R12R06R20E12E19E18E11
 121484740.972 8  94663443.215 7                  23117773.280    23117769.460
  23117768.680          48.650          44.650
 111129164.339 8  86594133.69347                  21147175.500
  21147171.580          50.400          46.300
 111842363.164 8  87149951.28647                  21282862.920
  21282857.520          48.300          46.400
 134679145.576 6 104944958.985 6 100572245.562 7  25628509.240    25628508.760
  25628508.700          41.950          38.200
 111805471.990 8  87121147.91947                  21275871.840
  21275866.320          50.700          46.250
 121710293.490 8  94839182.97646                  23160690.680
  23160685.520          48.450          39.350
 128828835.707 7 100386111.66746                  24515300.560
  24515294.060          44.650          38.000
 118145574.989 8  92061495.972 7  88225594.691 8  22482351.360    22482349.640
  22482349.040          48.650          47.650
 130718174.610 7 101858292.32246                  24874839.400
  24874834.540          44.650          37.800
 126239779.908 7  98368795.873 6                  24022571.640    24022568.240
  24022567.480          47.250          41.000
 104709787.021 7  81440959.051 7                  19595008.020    19595011.580
  19595009.840          47.750          42.000
 121990759.874 7  94881720.709 6                  22820892.620    22820895.580
  22820894.880          47.300          41.650
 105418878.726 8  81992512.014 7                  19700017.720    19700019.040
  19700018.120          48.900          47.050
 115358804.689 7  89723549.046 6                  21641013.200    21641020.440
  21641019.200          47.050          39.450
 128417178.670 6  99880044.704 6                  23980999.720    23981001.520
  23981000.720          41.750          38.200
 115304731.404 8  89681486.660 7                  21600455.060    21600458.060
  21600456.880          49.000          44.700
 117158183.039 7  91123045.308 6                  21932257.280    21932260.860
  21932260.340          43.900          41.000
 127009570.916 7  98785208.426 5                  23801537.560    23801540.060
  23801539.700          45.900          34.500
 115836033.236 7  90094841.655 7                  21661875.860    21661880.420
  21661878.340          43.000          44.500
 138162680.889 8                 103173560.973 7  26291433.580
                        49.050
 146705179.463 7                 109552577.628 6  27917066.060
                        45.550
 120687631.090 8                  90123918.085 8  22966087.240
                        52.200
 123332701.644 8                  92099204.171 8  23469378.780
                        50.900
 15  1 27  2  8 10.0000000  0 23G31G08G21G25G16G18G22G27G19G29R11R05
                                R21R10R04R22R12R06R20E12E19E18E11
 121500970.805 8  94676089.840 7                  23120861.720    23120857.880
  23120857.120          48.500          44.550
 111137366.101 8  86600524.67547                  21148736.220
  21148732.300          50.350          46.250
 111847495.910 8  87153950.83447                  21283839.640
  21283834.240          48.350          46.250
 134696270.086 7 104958302.751 6 100585033.353 7  25631767.940    25631767.460
  25631767.320          42.250          37.900
 111795350.416 8  87113260.98447                  21273945.800
  21273940.240          50.750          46.200
 121699276.232 8  94830598.11646                  23158594.140
  23158589.040          48.600          39.100
 128813348.114 7 100374043.40846                  24512353.340
  24512346.860          44.950          37.000
 118134512.072 8  92052875.522 7  88217333.430 8  22480246.140    22480244.440
  22480243.840          48.700          47.650
 130703444.861 7 101846814.61246                  24872036.440
  24872031.600          44.350          38.000
 126253432.136 7  98379433.974 6                  24025169.640    24025166.180
  24025165.360          47.200          41.000
 104713197.031 8  81443611.280 7                  19595646.160    19595649.700
  19595647.980          48.000          42.050
 121983136.469 7  94875791.377 6                  22819466.500    22819469.500
  22819468.760          46.850          41.700
 105420951.302 8  81994124.016 7                  19700405.060    19700406.300
  19700405.460          49.100          47.150
 115379585.315 7  89739711.748 6                  21644911.580    21644918.760
  21644917.580          47.150          39.600
 128424394.549 7  99885657.052 6                  23982347.200    23982348.960
  23982348.280          42.300          38.100
 115293170.745 8  89672495.051 7                  21598289.400    21598292.320
  21598291.140          49.350          44.600
 117141117.640 7  91109772.235 6                  21929062.560    21929066.180
  21929065.660          43.950          41.150
 126991465.325 7  98771126.281 5                  23798144.600    23798146.980
  23798146.620          45.650          34.950
 115850194.736 7  90105856.147 7                  21664524.140    21664528.700
  21664526.680          43.550          44.100
 138173561.639 8                 103181686.201 7  26293504.100
                        48.950
 146702375.854 7                 109550484.024 6  27916532.560
                        45.300
 120714186.532 8                  90143748.453 8  22971140.640
                        52.250
 123336441.156 8                  92101996.669 8  23470090.380
                        50.850
 15  1 27  2  8 15.0000000  0 23G31G08G21G25G16G18G22G27G19G29R11R05
                                R21R10R04R22R12R06R20E12E19E18E11
 121517205.228 8  94688740.027 7                  23123951.060    23123947.260
  23123946.440          48.550          44.200
 111145583.999 8  86606928.22347                  21150300.040
  21150296.080          50.400          45.800
 111852639.252 8  87157958.62947                  21284818.380
  21284812.960          48.300          46.400
 134713396.686 6 104971648.143 6 100597822.675 7  25635027.040    25635026.540
  25635026.240          41.000          38.200
 111785237.237 8  87105380.57447                  21272021.360
  21272015.740          50.900          45.950
 121688265.661 8  94822018.45046                  23156498.900
  23156493.820          48.650          38.500
 128797858.989 7 100361973.94446                  24509405.820
  24509399.400          44.550          36.800
 118123453.402 8  92044258.372 7  88209075.336 8  22478141.720    22478140.040
  22478139.420          48.750          47.550
 130688717.590 7 101835338.82546                  24869233.980
  24869229.120          43.900          38.300
 126267084.794 7  98390072.414 6                  24027767.660    24027764.120
  24027763.380          46.900          41.250
 104716629.782 7  81446281.187 7                  19596288.560    19596292.120
  19596290.340          47.900          42.150
 121975530.520 7  94869875.648 7                  22818043.600    22818046.640
  22818045.940          47.050          42.100
 105423033.356 8  81995743.391 7                  19700794.180    19700795.360
  19700794.540          48.750          47.300
 115400375.317 7  89755881.729 6                  21648811.780    21648818.900
  21648817.700          47.250          39.650
 128431629.020 6  99891283.861 6                  23983698.140    23983699.900
  23983699.300          41.300          38.650
 115281618.157 8  89663509.690 7                  21596125.240    21596128.080
  21596126.900          49.250          44.800
 117124065.601 7  91096509.529 6                  21925870.400    21925873.940
  21925873.480          43.950          40.800
 126973361.695 7  98757045.673 5                  23794751.960    23794754.320
  23794753.960          45.100          34.600
 115864358.301 7  90116872.240 7                  21667172.780    21667177.340
  21667175.380          43.250          43.950
 138184442.621 8                 103189811.601 7  26295574.640
                        49.000
 146699582.766 7                 109548398.275 6  27916001.040
                        45.000
 120740740.381 8                  90163577.624 8  22976193.720
                        52.200
 123340185.083 8                  92104792.453 8  23470802.800
                        50.750
 15  1 27  2  8 20.0000000  0 23G31G08G21G25G16G18G22G27G19G29R11R05
                                R21R10R04R22R12R06R20E12E19E18E11
 121533444.178 8  94701393.747 7                  23127041.240    23127037.400
  23127036.620          48.350          44.250
 111153817.949 8  86613344.29047                  21151866.900
  21151862.920          50.300          46.150
 111857793.110 8  87161974.62447                  21285799.120
  21285793.720          48.150          46.250
 134730525.298 7 104984995.109 6 100610613.524 7  25638286.520    25638286.000
  25638285.640          42.600          37.600
 111775132.377 8  87097506.65347                  21270098.520
  21270092.820          50.800          46.100
 121677261.750 8  94813443.97646                  23154404.900
  23154399.860          48.850          38.350
 128782368.311 7 100349903.30646                  24506457.980
  24506451.620          44.800          36.400
 118112398.928 8  92035644.498 7  88200820.367 8  22476038.140    22476036.440
  22476035.840          48.800          47.350
 130673992.762 7 101823864.92946                  24866431.980
  24866427.100          44.450          38.100
 126280737.857 7  98400711.144 6                  24030365.740    24030362.140
  24030361.440          46.700          40.950
 104720085.268 7  81448968.787 7                  19596935.220    19596938.780
  19596937.000          47.700          42.300
 121967942.089 7  94863973.539 7                  22816624.040    22816627.060
  22816626.460          47.400          42.200
 105425124.895 8  81997370.144 7                  19701185.060    19701186.220
  19701185.400          49.100          47.100
 115421174.856 7  89772059.158 6                  21652713.740    21652720.840
  21652719.640          47.100          39.650
 128438882.111 6  99896925.145 6                  23985052.600    23985054.360
  23985053.820          41.850          38.500
 115270073.657 8  89654530.650 7                  21593962.600    21593965.380
  21593964.220          49.200          44.950
 117107026.927 7  91083257.229 6                  21922680.700    21922684.200
  21922683.780          43.600          40.700
 126955260.007 7  98742966.595 5                  23791359.680    23791362.000
  23791361.660          45.000          34.900
 115878523.865 7  90127889.903 7                  21669821.820    21669826.360
  21669824.420          42.850          43.900
 138195323.863 8                 103197937.204 7  26297645.260
                        49.050
 146696800.138 7                 109546320.346 6  27915471.500
                        44.950
 120767292.585 8                  90183405.565 8  22981246.480
                        52.300
 123343933.350 8                  92107591.485 8  23471516.060
                        50.850
 15  1 27  2  8 25.0000000  0 23G31G08G21G25G16G18G22G27G19G29R11R05
                                R21R10R04R22R12R06R20E12E19E18E11
 121549687.627 8  94714050.975 7                  23130132.300    23130128.400
  23130127.660          48.600          44.300
 111162067.989 8  86619772.89947                  21153436.840
  21153432.860          50.300          46.300
 111862957.551 8  87165998.86247                  21286781.880
  21286776.480          48.150          46.550
 134747655.938 7 104998343.671 6 100623405.882 7  25641546.400    25641545.900
  25641545.340          42.850          37.800
 111765035.911 8  87089639.27347                  21268177.280
  21268171.520          50.750          46.100
 121666264.511 8  94804874.68946                  23152312.200
  23152307.180          48.650          38.350
 128766876.130 7 100337831.47746                  24503509.880
  24503503.540          45.050          37.200
 118101348.708 8  92027033.937 7  88192568.574 8  22473935.340    22473933.640
  22473933.060          48.700          47.400
 130659270.434 7 101812392.99346                  24863630.440
  24863625.580          44.300          37.700
 126294391.317 7  98411350.205 6                  24032963.920    24032960.280
  24032959.540          46.700          40.850
 104723563.456 7  81451674.050 7                  19597586.140    19597589.700
  19597587.880          47.900          42.700
 121960371.159 7  94858085.038 7                  22815207.760    22815210.840
  22815210.240          47.200          42.100
 105427225.902 8  81999004.267 7                  19701577.700    19701578.840
  19701578.020          49.050          47.150
 115441983.845 7  89788243.920 6                  21656617.500    21656624.500
  21656623.360          47.100          39.700
 128446153.689 7  99902580.824 6                  23986410.560    23986412.320
  23986411.720          42.400          38.150
 115258537.270 8  89645557.911 7                  21591801.460    21591804.160
  21591803.080          49.300          44.950
 117090001.763 7  91070015.441 6                  21919493.500    21919497.080
  21919496.640          43.750          40.550
 126937160.488 7  98728889.194 5                  23787967.800    23787970.060
  23787969.680          45.150          35.250
 115892691.403 7  90138909.095 7                  21672471.280    21672475.700
  21672473.780          42.800          43.200
 138206205.331 8                 103206062.958 7  26299715.900
                        48.850
 146694027.986 7                 109544250.225 6  27914943.880
                        44.700
 120793843.156 8                  90203232.290 8  22986298.920
                        52.300
 123347686.015 8                  92110393.798 8  23472230.160
                        50.750
 15  1 27  2  8 30.0000000  0 23G31G08G21G25G16G18G22G27G19G29R11R05
                                R21R10R04R22R12R06R20E12E19E18E11
 121565935.416 8  94726711.584 7                  23133224.160    23133220.260
  23133219.500          48.250          44.300
 111170333.900 8  86626213.86447                  21155009.780
  21155005.800          50.350          46.050
 111868132.319 8  87170031.14847                  21287766.600
  21287761.200          48.100          46.400
 134764788.405 7 105011693.647 6 100636199.605 7  25644806.620    25644806.100
  25644805.600          42.750          38.200
 111754947.623 8  87081778.27347                  21266257.600
  21266251.780          50.850          45.950
 121655273.765 8  94796310.47746                  23150220.740
  23150215.720          48.850          37.750
 128751382.304 7 100325758.38046                  24500561.560
  24500555.200          45.700          36.950
 118090302.481 8  92018426.490 7  88184319.784 8  22471833.280    22471831.600
  22471831.020          48.500          47.400
 130644550.354 7 101800922.79746                  24860829.340
  24860824.480          45.150          38.550
 126308044.997 7  98421989.439 6                  24035562.120    24035558.480
  24035557.720          46.700          41.100
 104727064.189 7  81454396.839 7                  19598241.280    19598244.760
  19598243.020          47.800          42.750
 121952817.621 7  94852210.064 7                  22813794.740    22813797.860
  22813797.260          46.650          42.150
 105429336.127 8  82000645.553 7                  19701972.060    19701973.200
  19701972.380          48.500          47.250
 115462802.073 7  89804435.870 6                  21660522.960    21660530.000
  21660528.740          46.800          39.550
 128453443.651 7  99908250.819 6                  23987771.920    23987773.660
  23987773.020          42.000          37.550
 115247008.687 8  89636591.234 7                  21589641.760    21589644.480
  21589643.380          49.150          44.850
 117072989.734 7  91056783.859 6                  21916308.780    21916312.420
  21916311.920          43.200          40.400
 126919062.786 7  98714813.212 5                  23784576.280    23784578.600
  23784578.060          45.600          35.700
 115906860.764 7  90149929.718 7                  21675121.060    21675125.420
  21675123.460          43.050          43.000
 138217086.854 8                 103214188.779 7  26301786.560
                        49.000
 146691266.118 7                 109542187.801 6  27914418.220
                        44.750
 120820391.873 8                  90223057.635 8  22991351.000
                        52.250
 123351442.845 8                  92113199.229 8  23472945.060
                        50.750
 15  1 27  2  8 35.0000000  0 23G31G08G21G25G16G18G22G27G19G29R11R05
                                R21R10R04R22R12R06R20E12E19E18E11
 121582188.460 8  94739376.286 7                  23136317.020    23136313.080
  23136312.340          48.250          44.200
 111178616.632 8  86632667.94347                  21156585.940
  21156581.940          50.350          45.850
 111873318.324 8  87174072.18547                  21288753.480
  21288748.080          48.350          45.800
 134781923.639 7 105025045.779 6 100648995.396 7  25648067.340    25648066.880
  25648066.320          43.400          37.700
 111744868.483 8  87073924.39047                  21264339.640
  21264333.780          50.850          45.750
 121644290.504 8  94787752.09046                  23148130.700
  23148125.700          48.850          38.000
 128735887.756 7 100313684.71645                  24497613.120
  24497606.740          46.450          35.800
 118079261.257 8  92009822.945 7  88176074.722 8  22469732.140    22469730.540
  22469729.940          48.400          47.300
 130629833.493 7 101789455.13546                  24858028.840
  24858024.000          44.500          36.700
 126321699.844 7  98432629.571 6                  24038160.540    24038156.840
  24038156.080          46.600          40.600
 104730588.376 7  81457137.875 7                  19598900.800    19598904.360
  19598902.540          47.900          42.550
 121945282.306 7  94846349.288 6                  22812385.100    22812388.200
  22812387.600          46.600          41.600
 105431456.651 8  82002294.845 7                  19702368.360    19702369.460
  19702368.660          48.750          47.400
 115483630.495 7  89820635.744 6                  21664430.320    21664437.320
  21664436.080          47.000          39.300
 128460752.888 7  99913935.781 6                  23989136.840    23989138.620
  23989137.980          42.200          38.050
 115235488.966 8  89627631.463 7                  21587483.740    21587486.400
  21587485.340          49.200          44.750
 117055991.973 7  91043563.380 6                  21913126.640    21913130.340
  21913129.880          43.450          40.850
 126900967.902 7  98700739.409 5                  23781185.300    23781187.740
  23781187.060          44.800          35.750
 115921032.946 7  90160952.526 7                  21677771.340    21677775.640
  21677773.680          43.000          43.150
 138227969.368 8                 103222315.329 7  26303857.420
                        49.050
 146688515.480 7                 109540133.753 6  27913894.720
                        45.000
 120846939.682 8                  90242882.297 8  22996402.900
                        52.200
 123355204.804 8                  92116008.481 8  23473660.920
                        50.850
 15  1 27  2  8 40.0000000  0 23G31G08G21G25G16G18G22G27G19G29R11R05
                                R21R10R04R22R12R06R20E12E19E18E11
 121598446.339 8  94752044.769 7                  23139410.800    23139406.840
  23139406.100          48.250          44.200
 111186915.796 8  86639134.82347                  21158165.220
  21158161.180          50.350          46.100
 111878515.231 8  87178121.73147                  21289742.420
  21289737.020          48.550          45.600
 134799061.268 7 105038399.774 6 100661792.982 7  25651328.540    25651327.980
  25651327.480          42.550          37.500
 111734798.088 8  87066077.32947                  21262423.340
  21262417.460          50.700          45.850
 121633314.330 8  94779199.23546                  23146042.000
  23146037.020          48.950          39.100
 128720392.041 7 100301610.14046                  24494664.420
  24494658.140          46.200          36.250
 118068224.627 8  92001222.989 7  88167833.092 8  22467631.880    22467630.320
  22467629.760          48.000          47.300
 130615119.483 7 101777989.66946                  24855228.900
  24855224.120          43.450          38.050
 126335355.482 7  98443270.338 6                  24040759.060    24040755.440
  24040754.660          46.550          40.600
 104734135.642 7  81459896.866 7                  19599564.620    19599568.160
  19599566.360          47.900          42.400
 121937764.979 7  94840502.476 6                  22810978.820    22810981.880
  22810981.260          47.000          41.200
 105433586.975 8  82003951.762 7                  19702766.500    19702767.580
  19702766.800          48.750          47.500
 115504468.779 7  89836843.308 6                  21668339.540    21668346.500
  21668345.240          46.850          39.250
 128468081.093 7  99919635.496 6                  23990505.340    23990507.180
  23990506.520          42.800          38.000
 115223977.761 8  89618678.317 7                  21585327.300    21585329.920
  21585328.900          49.150          45.050
 117039008.132 7  91030353.729 6                  21909947.220    21909950.940
  21909950.460          43.650          40.900
 126882875.589 7  98686667.643 5                  23777794.760    23777797.240
  23777796.540          44.850          35.850
 115935207.407 7  90171977.106 7                  21680422.080    21680426.320
  21680424.320          43.150          43.200
 138238852.515 8                 103230442.337 7  26305928.420
                        49.050
 146685775.717 7                 109538087.850 6  27913373.320
                        44.750
 120873486.174 8                  90262705.978 8  23001454.540
                        52.150
 123358971.495 8                  92118821.271 8  23474377.680
                        50.700
 15  1 27  2  8 45.0000000  0 23G31G08G21G25G16G18G22G27G19G29R11R05
                                R21R10R04R22R12R06R20E12E19E18E11
 121614707.392 7  94764715.718 7                  23142505.140    23142501.200
  23142500.460          47.850          44.100
 111195229.714 8  86645613.19447                  21159747.300
  21159743.260          50.350          45.750
 111883721.379 8  87182178.46847                  21290733.120
  21290727.700          48.650          45.750
 134816199.605 6 105051754.315 6 100674591.077 7  25654589.860    25654589.340
  25654588.900          41.650          36.800
 111724734.813 8  87058235.81247                  21260508.400
  21260502.480          50.600          45.800
 121622343.613 8  94770650.62346                  23143954.360
  23143949.380          49.000          38.950
 128704893.583 7 100289533.42346                  24491715.160
  24491708.960          45.900          36.700
 118057190.944 8  91992625.325 7  88159593.668 8  22465532.180    22465530.700
  22465530.100          48.100          47.400
 130600406.677 7 101766525.14046                  24852429.180
  24852424.420          43.150          38.850
 126349010.214 7  98453910.389 6                  24043357.420    24043353.840
  24043353.080          46.300          41.050
 104737704.377 7  81462672.544 7                  19600232.460    19600236.100
  19600234.200          47.700          42.650
 121930263.844 7  94834668.243 7                  22809575.580    22809578.580
  22809578.000          46.800          42.450
 105435725.377 8  82005614.967 7                  19703166.140    19703167.220
  19703166.420          48.650          47.500
 115525315.032 7  89853057.073 6                  21672250.280    21672257.180
  21672255.920          46.300          40.000
 128475426.460 7  99925348.559 6                  23991877.040    23991878.860
  23991878.180          42.350          38.200
 115212473.358 8  89609730.447 7                  21583172.100    21583174.760
  21583173.720          48.900          45.300
 117022036.365 7  91017153.465 6                  21906770.040    21906773.780
  21906773.280          43.500          40.950
 126864783.973 7  98672596.368 6                  23774404.400    23774406.860
  23774406.160          45.100          36.800
 115949382.629 7  90183002.281 7                  21683072.940    21683077.200
  21683075.120          42.900          43.700
 138249734.582 8                 103238568.564 7  26307999.200
                        49.100
 146683045.190 7                 109536048.814 6  27912853.640
                        44.650
 120900029.692 8                  90282527.434 8  23006505.580
                        52.100
 123362741.258 8                  92121636.352 8  23475095.020
                        50.750
