     2.11           OBSERVATION DATA    M (MIXED)           RINEX VERSION / TYPE
teqc  2011Oct11     IGN-E (SPG)         20150128 01:00:44UTCPGM / RUN BY / DATE
Linux 2.4.21-27.ELsmp|Opteron|gcc -static|Linux x86_64|=+   COMMENT
BIT 2 OF LLI FLAGS DATA COLLECTED UNDER A/S CONDITION       COMMENT
VALE                                                        MARKER NAME
13439M001                                                   MARKER NUMBER
Programas GeodesicosInstituto Geografico Nacional           OBSERVER / AGENCY
1700071             LEICA GR10          3.03/6.214          REC # / TYPE / VERS
10190012            LEIAR25.R3      LEIT                    ANT # / TYPE
  4929534.0457   -29050.6755  4033709.9250                  APPROX POSITION XYZ
        3.0390        0.0000        0.0000                  ANTENNA: DELTA H/E/N
     1     1                                                WAVELENGTH FACT L1/2
     8    L1    L2    L5    C1    C2    P2    S1    S2      # / TYPES OF OBSERV
     5.0000                                                 INTERVAL
Forced Modulo Decimation to 5 seconds                       COMMENT
DefaultJobName                                              COMMENT
DefaultUserDiscription                                      COMMENT
Project creator:                                            COMMENT
 SNR is mapped to RINEX snr flag value [0-9]                COMMENT
  L1 & L2: min(max(int(snr_dBHz/6), 0), 9)                  COMMENT
  2015     1    27    23     0    0.0000000     GPS         TIME OF FIRST OBS
    15                                                      LEAP SECONDS
                                                            END OF HEADER
 15  1 27 23  0  0.0000000  0 17G08G14G31G21G24G12G25G29G02R02R20R22
                                R11R09R19R10R21
 129448721.288 7 100869111.65446                  24633272.380
  24633268.380          44.600          36.400
 118603247.820 7  92418114.95146                  22569440.780
  22569436.300          47.350          41.100
 113599996.509 8  88519479.660 7                  21617355.540    21617350.980
  21617350.140          50.200          47.000
 128100151.771 7  99818358.03945                  24376623.940
  24376619.400          43.000          33.900
 130296566.073 7 101529875.241 6  97299481.000 7  24794581.660    24794580.940
  24794580.280          43.100          41.050
 121094970.603 8  94359827.611 7                  23043540.440    23043536.500
  23043535.740          48.300          43.550
 109053437.733 8  84976813.619 8  81436141.994 8  20752134.540    20752132.920
  20752132.140          49.800          49.050
 105198497.612 8  81973013.224 8                  20018540.340    20018536.400
  20018535.740          50.550          50.200
 125131110.304 7  97504752.62546                  23811649.580
  23811641.900          47.550          40.000
 130057852.032 5 101156098.796 4                  24372786.180    24372789.360
  24372788.280          34.400          29.100
 104152205.346 7  81007303.992 7                  19476936.460    19476940.000
  19476937.840          43.750          46.600
 128506793.178 7  99949790.321 6                  24073636.620    24073646.600
  24073645.100          42.400          38.900
 111092103.608 7  86404993.637 6                  20789366.260    20789369.220
  20789367.820          47.350          41.150
 119813620.332 7  93188315.466 5                  22437208.740    22437211.700
  22437209.520          46.200          33.650
 123079115.445 7  95728200.766 6                  23008287.840    23008288.760
  23008286.960          44.850          39.100
 103536372.959 8  80528336.983 7                  19423146.740    19423153.060
  19423151.720          48.600          42.300
 107253594.810 8  83419449.145 7                  20042846.220    20042848.000
  20042847.020          48.250          46.650
 15  1 27 23  0  5.0000000  0 17G08G14G31G21G24G12G25G29G02R02R20R22
                                R11R09R19R10R21
 129430927.094 7 100855246.04045                  24629886.280
  24629882.240          45.600          35.350
 118614827.945 7  92427138.41946                  22571644.420
  22571639.920          47.400          40.350
 113589047.395 8  88510947.887 7                  21615272.020    21615267.420
  21615266.600          50.300          46.950
 128084454.754 7  99806126.61245                  24373636.900
  24373632.380          43.000          32.850
 130314530.882 7 101543873.775 6  97312896.256 7  24798000.220    24797999.600
  24797998.880          43.000          41.000
 121107221.231 8  94369373.550 7                  23045871.700    23045867.680
  23045866.940          48.550          43.700
 109058044.686 8  84980403.446 8  81439582.242 8  20753011.240    20753009.580
  20753008.820          49.950          49.100
 105198553.016 8  81973056.390 8                  20018550.880    20018546.940
  20018546.280          50.650          50.200
 125138965.249 7  97510873.35846                  23813144.320
  23813136.700          47.400          39.600
 130062891.518 6 101160018.465 5                  24373730.560    24373733.780
  24373732.660          36.550          30.300
 104158888.035 7  81012501.643 7                  19478186.160    19478189.660
  19478187.520          43.700          46.750
 128484918.483 7  99932776.827 6                  24069538.620    24069548.580
  24069547.140          43.100          39.900
 111077548.340 7  86393672.879 6                  20786642.460    20786645.440
  20786644.040          47.150          40.950
 119829775.964 7  93200880.960 5                  22440234.180    22440236.960
  22440235.000          46.200          33.800
 123099529.408 7  95744078.299 6                  23012104.000    23012104.940
  23012103.120          44.950          39.350
 103538579.657 8  80530053.293 7                  19423560.680    19423567.040
  19423565.680          48.650          42.200
 107240769.145 8  83409473.628 7                  20040449.400    20040451.220
  20040450.220          48.400          46.950
 15  1 27 23  0 10.0000000  0 17G08G14G31G21G24G12G25G29G02R02R20R22
                                R11R09R19R10R21
 129413134.078 7 100841381.33646                  24626500.420
  24626496.360          45.300          36.300
 118626418.961 7  92436170.38646                  22573850.120
  22573845.620          47.550          40.850
 113578108.550 8  88502424.108 7                  21613190.440    21613185.820
  21613185.000          50.150          46.850
 128068759.148 7  99793896.28845                  24370650.180
  24370645.560          43.200          34.850
 130332499.120 7 101557874.997 6  97326314.090 7  24801419.480    24801418.860
  24801418.100          42.850          40.850
 121119475.451 8  94378922.291 7                  23048203.640    23048199.580
  23048198.840          48.400          43.800
 109062659.204 8  84983999.174 8  81443028.152 8  20753889.360    20753887.700
  20753886.940          49.650          49.000
 105198623.081 8  81973110.986 8                  20018564.220    20018560.260
  20018559.600          50.600          50.200
 125146833.236 7  97517004.25446                  23814641.540
  23814633.900          47.200          40.350
 130067949.315 5 101163952.319 5                  24374678.460    24374681.760
  24374680.640          32.000          30.050
 104165591.012 7  81017715.074 7                  19479439.640    19479443.160
  19479441.000          43.650          46.650
 128463047.879 7  99915766.510 6                  24065441.360    24065451.300
  24065450.000          42.850          39.900
 111063000.978 7  86382358.268 6                  20783920.140    20783923.140
  20783921.720          46.950          41.150
 119845941.190 7  93213453.909 5                  22443261.440    22443264.060
  22443262.200          46.400          32.900
 123119948.819 7  95759960.070 6                  23015921.180    23015922.060
  23015920.280          44.450          39.050
 103540802.867 8  80531782.444 7                  19423977.720    19423984.080
  19423982.700          48.750          42.200
 107227961.297 8  83399511.979 7                  20038055.960    20038057.780
  20038056.760          48.800          46.950
 15  1 27 23  0 15.0000000  0 17G08G14G31G21G24G12G25G29G02R02R20R22
                                R11R09R19R10R21
 129395340.972 7 100827516.58846                  24623114.540
  24623110.420          45.000          37.200
 118638019.575 7  92445209.81946                  22576057.640
  22576053.160          47.700          40.550
 113567178.704 8  88493907.345 7                  21611110.600    21611105.920
  21611105.100          50.150          46.800
 128053063.658 7  99781666.05445                  24367663.380
  24367658.720          43.550          34.750
 130350469.539 7 101571877.913 6  97339733.549 7  24804839.180    24804838.540
  24804837.820          42.950          41.150
 121131731.983 8  94388472.836 7                  23050536.020    23050531.920
  23050531.220          48.650          43.750
 109067279.985 8  84987599.779 8  81446478.727 8  20754768.640    20754767.020
  20754766.240          49.600          48.950
 105198706.545 8  81973176.024 8                  20018580.120    20018576.140
  20018575.480          50.800          50.200
 125154713.022 7  97523144.34646                  23816141.000
  23816133.380          47.250          39.650
 130073024.463 5 101167899.652 5                  24375629.760    24375632.800
  24375631.740          34.550          31.500
 104172312.962 7  81022943.257 7                  19480696.740    19480700.180
  19480698.000          43.700          46.800
 128441180.031 7  99898758.365 6                  24061344.580    24061354.580
  24061353.380          42.900          39.950
 111048460.186 7  86371048.772 6                  20781199.060    20781202.120
  20781200.620          47.200          41.150
 119862114.592 7  93226033.224 5                  22446290.200    22446292.900
  22446291.000          46.350          32.700
 123140372.165 7  95775844.897 6                  23019739.100    23019739.980
  23019738.180          43.850          39.700
 103543041.370 8  80533523.498 7                  19424397.640    19424404.040
  19424402.620          48.700          42.400
 107215170.006 8  83389563.197 7                  20035665.620    20035667.420
  20035666.380          49.150          47.000
 15  1 27 23  0 20.0000000  0 17G08G14G31G21G24G12G25G29G02R02R20R22
                                R11R09R19R10R21
 129377547.813 7 100813651.78546                  24619728.640
  24619724.520          44.750          37.250
 118649629.741 7  92454256.69746                  22578266.960
  22578262.500          47.650          40.650
 113556257.910 8  88485397.639 7                  21609032.480    21609027.720
  21609026.940          50.350          47.000
 128037368.343 7  99769435.94845                  24364676.660
  24364672.020          43.000          33.300
 130368442.157 7 101585882.528 6  97353154.636 7  24808259.260    24808258.660
  24808257.960          43.150          41.150
 121143990.827 8  94398025.182 7                  23052868.780    23052864.720
  23052864.040          48.400          44.000
 109071907.049 8  84991205.275 8  81449933.995 8  20755649.140    20755647.500
  20755646.760          49.600          48.950
 105198803.416 8  81973251.511 8                  20018598.560    20018594.580
  20018593.900          50.800          50.150
 125162604.596 7  97529293.62646                  23817642.720
  23817635.100          47.300          40.200
 130078116.767 5 101171860.333 5                  24376583.880    24376587.080
  24376586.060          33.600          32.850
 104179053.986 7  81028186.263 7                  19481957.360    19481960.780
  19481958.580          43.800          46.500
 128419315.003 7  99881752.386 6                  24057248.400    24057258.300
  24057257.160          42.750          39.300
 111033926.041 7  86359744.437 6                  20778479.160    20778482.300
  20778480.720          47.300          40.750
 119878296.185 7  93238618.901 5                  22449320.460    22449323.160
  22449321.320          45.750          33.200
 123160799.664 7  95791732.948 6                  23023557.820    23023558.720
  23023556.860          43.450          39.400
 103545295.329 8  80535276.575 7                  19424820.460    19424826.840
  19424825.440          48.650          42.450
 107202395.357 8  83379627.352 7                  20033278.380    20033280.180
  20033279.120          49.100          47.000
 15  1 27 23  0 25.0000000  0 17G08G14G31G21G24G12G25G29G02R02R20R22
                                R11R09R19R10R21
 129359754.938 7 100799787.22846                  24616342.780
  24616338.680          45.350          38.250
 118661249.846 7  92463311.31246                  22580478.200
  22580473.720          47.700          40.300
 113545346.478 8  88476895.229 7                  21606956.140    21606951.360
  21606950.540          50.400          46.850
 128021673.513 7  99757206.25645                  24361690.000
  24361685.440          42.800          33.350
 130386417.318 7 101599889.137 6  97366577.630 7  24811679.800    24811679.280
  24811678.620          43.700          40.950
 121156252.315 8  94407579.588 7                  23055202.060    23055198.020
  23055197.320          48.550          43.800
 109076540.740 8  84994815.937 8  81453394.218 8  20756530.900    20756529.280
  20756528.520          49.550          48.950
 105198913.977 8  81973337.672 8                  20018619.600    20018615.620
  20018614.940          50.850          50.150
 125170508.261 7  97535452.32446                  23819146.760
  23819139.080          47.250          39.950
 130083226.642 6 101175834.645 5                  24377541.460    24377544.640
  24377543.800          37.350          32.300
 104185814.304 7  81033444.298 7                  19483221.600    19483224.980
  19483222.780          43.650          46.500
 128397452.996 7  99864748.770 6                  24053152.780    24053162.640
  24053161.600          43.050          38.650
 111019398.875 7  86348445.524 6                  20775760.600    20775763.660
  20775762.140          47.450          40.600
 119894486.289 7  93251211.194 5                  22452352.340    22452354.940
  22452353.200          46.050          33.200
 123181231.406 7  95807624.283 6                  23027377.280    23027378.220
  23027376.340          44.050          39.300
 103547564.907 8  80537041.809 7                  19425246.220    19425252.540
  19425251.220          48.650          42.350
 107189637.602 8  83369704.664 7                  20030894.320    20030896.060
  20030895.020          48.950          46.950
 15  1 27 23  0 30.0000000  0 17G08G14G31G21G24G12G25G29G02R02R20R22
                                R11R09R19R10R21
 129341964.139 7 100785924.27146                  24612957.360
  24612953.200          46.050          37.800
 118672881.633 7  92472375.04946                  22582691.640
  22582687.180          47.700          40.350
 113534446.168 8  88468401.483 7                  21604881.900    21604877.100
  21604876.260          50.250          46.750
 128005980.978 7  99744978.33845                  24358703.760
  24358699.320          43.000          35.300
 130404396.828 7 101613899.147 6  97380003.880 7  24815101.240    24815100.680
  24815100.040          43.550          40.750
 121168518.214 8  94417137.437 7                  23057536.160    23057532.160
  23057531.480          48.150          43.900
 109081182.788 8  84998433.120 8  81456860.673 8  20757414.240    20757412.660
  20757411.880          49.550          48.900
 105199040.011 8  81973435.887 8                  20018643.580    20018639.600
  20018638.920          50.800          50.100
 125178425.794 7  97541621.82646                  23820653.440
  23820645.720          47.500          39.400
 130088355.720 5 101179823.914 5                  24378502.580    24378505.780
  24378505.120          34.750          31.700
 104192595.741 7  81038718.754 7                  19484489.760    19484493.120
  19484490.920          43.200          46.400
 128375596.008 7  99847749.045 6                  24049058.140    24049067.880
  24049066.880          43.250          39.250
 111004880.348 7  86337153.346 6                  20773043.640    20773046.720
  20773045.140          47.400          40.750
 119910686.724 7  93263811.543 5                  22455386.180    22455388.980
  22455387.020          46.100          33.450
 123201669.280 7  95823520.408 6                  23031197.900    23031198.820
  23031196.940          44.150          39.750
 103549851.966 8  80538820.635 7                  19425675.260    19425681.580
  19425680.280          48.700          42.400
 107176898.608 8  83359796.560 7                  20028513.760    20028515.440
  20028514.440          48.800          46.850
 15  1 27 23  0 35.0000000  0 17G08G14G31G21G24G12G25G29G02R02R20R22
                                R11R09R19R10R21
 129324170.678 7 100772059.22746                  24609571.460
  24609567.260          46.250          37.700
 118684520.388 7  92481444.20746                  22584906.420
  22584901.980          47.400          40.700
 113523552.291 8  88459912.747 7                  21602808.880    21602804.060
  21602803.220          50.250          46.800
 127990286.013 7  99732748.50645                  24355717.080
  24355712.720          43.050          34.250
 130422375.881 7 101627908.782 6  97393429.775 7  24818522.540    24818522.020
  24818521.340          42.350          40.650
 121180783.785 7  94426695.006 7                  23059870.180    23059866.280
  23059865.600          47.950          44.000
 109085828.484 8  85002053.139 8  81460329.860 8  20758298.280    20758296.720
  20758295.920          49.700          48.800
 105199176.810 8  81973542.475 8                  20018669.620    20018665.640
  20018664.940          50.700          50.050
 125186352.440 7  97547798.45046                  23822161.840
  23822154.120          47.350          39.800
 130093499.278 6 101183824.442 4                  24379466.480    24379469.680
  24379469.080          37.750          29.250
 104199393.413 7  81044005.824 7                  19485760.940    19485764.300
  19485762.080          43.400          46.650
 128353739.131 7  99830749.398 6                  24044963.560    24044973.200
  24044972.220          43.400          39.650
 110990366.017 7  86325864.419 6                  20770327.480    20770330.600
  20770328.940          47.300          40.950
 119926892.649 7  93276416.132 5                  22458421.000    22458423.940
  22458421.960          46.400          33.400
 123222108.468 7  95839417.560 6                  23035018.880    23035019.740
  23035017.840          44.600          40.050
 103552151.662 8  80540609.278 7                  19426106.660    19426113.020
  19426111.740          48.700          42.600
 107164173.506 8  83349899.256 7                  20026135.780    20026137.460
  20026136.460          48.850          46.850
 15  1 27 23  0 40.0000000  0 17G08G14G31G21G24G12G25G29G02R02R20R22
                                R11R09R19R10R21
 129306380.518 7 100758196.75046                  24606186.140
  24606181.860          45.700          36.850
 118696172.018 7  92490523.38746                  22587123.660
  22587119.200          47.350          40.100
 113512670.799 8  88451433.659 7                  21600738.220    21600733.360
  21600732.520          50.300          46.850
 127974594.548 7  99720521.40945                  24352731.060
  24352726.740          42.850          33.350
 130440360.352 7 101641922.618 6  97406859.707 7  24821944.800    24821944.360
  24821943.560          42.250          40.650
 121193054.986 8  94436256.957 7                  23062205.260    23062201.440
  23062200.780          48.550          44.000
 109090483.765 8  85005680.626 8  81463806.202 8  20759184.140    20759182.580
  20759181.800          49.800          48.800
 105199330.294 8  81973662.067 8                  20018698.840    20018694.840
  20018694.160          50.700          50.000
 125194294.133 7  97553986.78046                  23823673.120
  23823665.420          46.900          40.350
 130098663.282 6                                  24380434.220    24380438.060
                        37.300          28.250
 104206213.382 7  81049310.240 7                  19487036.320    19487039.660
  19487037.440          43.550          46.650
 128331888.417 7  99813754.548 6                  24040870.080    24040879.640
  24040878.660          42.800          39.750
 110975861.653 7  86314583.242 6                  20767613.180    20767616.320
  20767614.620          47.600          40.850
 119943110.118 7  93289029.707 5                  22461458.020    22461460.960
  22461459.020          46.350          33.100
 123242554.963 7  95855320.392 6                  23038841.160    23038842.060
  23038840.120          44.650          39.800
 103554470.163 8  80542412.553 7                  19426541.600    19426547.960
  19426546.700          48.650          42.350
 107151468.428 8  83340017.525 7                  20023761.560    20023763.200
  20023762.200          49.150          46.900
 15  1 27 23  0 45.0000000  0 17G08G14G31G21G24G12G25G29G02R02R20R22
                                R11R09R19R10R21
 129288589.001 7 100744333.24346                  24602800.540
  24602796.200          46.000          36.600
 118707831.899 7  92499609.01646                  22589342.460
  22589338.000          47.350          40.100
 113501797.056 8  88442960.618 7                  21598669.020    21598664.160
  21598663.300          50.200          46.550
 127958902.014 7  99708293.48845                  24349744.860
  24349740.500          42.150          35.450
 130458345.671 7 101655937.135 6  97420290.277 7  24825367.280    24825366.840
  24825366.060          43.200          40.750
 121205327.186 8  94445819.708 7                  23064540.580    23064536.780
  23064536.180          48.550          43.850
 109095144.030 8  85009312.004 8  81467286.270 8  20760070.960    20760069.400
  20760068.620          50.000          48.700
 105199495.854 8  81973791.078 8                  20018730.340    20018726.340
  20018725.640          50.800          50.000
 125202246.268 7  97560183.24346                  23825186.340
  23825178.660          47.250          39.600
 130103843.189 5 101191907.736 4                  24381404.900    24381410.060
                        35.050          29.000
 104213050.984 7  81054628.383 7                  19488314.980    19488318.340
  19488316.100          43.550          46.700
 128310039.244 7  99796760.926 6                  24036776.880    24036786.380
  24036785.400          43.700          40.700
 110961362.577 7  86303306.191 6                  20764899.880    20764903.020
  20764901.320          47.350          41.200
 119959334.465 7  93301648.639 5                  22464496.300    22464499.340
  22464497.340          46.550          33.100
 123263004.031 7  95871225.231 6                  23042663.900    23042664.780
  23042662.880          44.700          40.850
 103556802.700 8  80544226.759 7                  19426979.180    19426985.520
  19426984.280          48.800          42.350
 107138778.625 8  83330147.688 7                  20021390.200    20021391.840
  20021390.820          49.200          47.000
 15  1 27 23  0 50.0000000  0 17G08G14G31G21G24G12G25G29G02R02R20R22
                                R11R09R19R10R21
 129270799.837 7 100730471.55246                  24599415.440
  24599411.040          46.050          36.100
 118719503.614 7  92508703.85946                  22591563.520
  22591559.100          47.550          40.400
 113490934.706 8  88434496.460 7                  21596601.980    21596597.120
  21596596.260          50.350          46.600
 127943212.034 7  99696067.55046                  24346759.120
  24346754.740          42.600          36.550
 130476335.492 7 101669955.174 6  97433724.238 7  24828790.680    24828790.200
  24828789.440          43.900          40.950
 121217604.024 8  94455386.071 7                  23066876.800    23066873.020
  23066872.400          48.350          43.450
 109099812.880 8  85012950.072 8  81470772.764 8  20760959.400    20760957.860
  20760957.080          50.100          48.750
 105199677.081 8  81973932.299 8                  20018764.840    20018760.840
  20018760.120          50.850          50.000
 125210212.461 7  97566390.67246                  23826702.300
  23826694.560          47.100          39.950
 130109042.540 6 101195951.665 4                  24382379.280    24382381.440
                        38.000          29.900
 104219909.812 7  81059963.031 7                  19489597.580    19489600.960
  19489598.740          43.250          46.750
 128288195.248 7  99779771.308 6                  24032684.680    24032694.060
  24032693.140          43.700          40.950
 110946872.579 7  86292036.199 6                  20762188.280    20762191.460
  20762189.760          47.100          41.500
 119975569.356 7  93314275.774 5                  22467536.560    22467539.660
  22467537.600          46.600          33.650
 123283459.454 7  95887134.994 6                  23046487.820    23046488.740
  23046486.880          44.850          40.950
 103559152.834 8  80546054.638 7                  19427420.020    19427426.380
  19427425.180          48.700          42.550
 107126107.824 8  83320292.627 7                  20019022.360    20019024.020
  20019022.960          49.000          47.100
 15  1 27 23  0 55.0000000  0 17G08G14G31G21G24G12G25G29G02R02R20R22
                                R11R09R19R10R21
 129253007.868 7 100716607.67446                  24596029.780
  24596025.400          45.750          36.550
 118731182.019 7  92517803.91246                  22593785.860
  22593781.420          47.350          40.550
 113480078.646 8  88426037.186 7                  21594536.160    21594531.260
  21594530.420          50.550          46.800
 127927519.449 7  99683839.59146                  24343772.900
  24343768.540          43.100          36.900
 130494324.574 7 101683972.633 6  97447157.620 7  24832213.960    24832213.400
  24832212.680          43.500          41.100
 121229880.365 8  94464952.047 7                  23069212.940    23069209.200
  23069208.480          48.800          42.950
 109104485.211 8  85016590.856 8  81474261.837 8  20761848.500    20761846.960
  20761846.200          50.000          48.750
 105199868.869 8  81974081.748 8                  20018801.340    20018797.320
  20018796.600          50.750          50.000
 125218187.589 7  97572605.06446                  23828219.920
  23828212.160          46.850          39.850
 130114256.156 6 101200006.717 4                  24383356.460    24383358.200
                        37.800          28.600
 104226784.763 7  81065310.217 7                  19490883.200    19490886.620
  19490884.380          43.500          46.550
 128266351.316 7  99762781.739 6                  24028592.440    24028601.800
  24028600.880          43.750          41.400
 110932386.477 7  86280769.231 6                  20759477.420    20759480.660
  20759478.920          47.350          41.350
 119991809.480 7  93326906.992 5                  22470577.860    22470580.960
  22470578.880          46.750          33.400
 123303915.909 7  95903045.570 6                  23050311.940    23050312.900
  23050311.040          45.000          41.100
 103561515.544 8  80547892.306 7                  19427863.260    19427869.620
  19427868.420          48.750          42.500
 107113450.797 8  83310448.275 7                  20016657.120    20016658.760
  20016657.680          49.050          46.950
 15  1 27 23  1  0.0000000  0 17G08G14G31G21G24G12G25G29G02R02R20R22
                                R11R09R19R10R21
 129235218.430 7 100702745.78946                  24592644.620
  24592640.180          45.700          38.200
 118742872.439 7  92526913.32946                  22596010.500
  22596006.060          47.650          40.700
 113469234.195 8  88417586.962 7                  21592472.540    21592467.620
  21592466.800          50.450          46.950
 127911829.655 7  99671613.78845                  24340787.200
  24340782.940          43.250          35.750
 130512318.399 7 101697993.779 6  97460594.547 7  24835638.080    24835637.480
  24835636.900          43.550          41.150
 121242161.501 8  94474521.782 7                  23071550.020    23071546.200
  23071545.460          49.050          43.550
 109109166.328 8  85020238.478 8  81477757.478 8  20762739.300    20762737.780
  20762736.980          50.300          48.900
 105200076.503 8  81974243.541 8                  20018840.840    20018836.820
  20018836.120          50.750          50.100
 125226176.977 7  97578830.56346                  23829740.240
  23829732.500          47.050          40.200
 130119489.376 6 101204076.996 4                  24384337.200    24384339.660
                        37.650          29.950
 104233681.136 7  81070674.061 7                  19492172.780    19492176.280
  19492174.040          43.550          46.650
 128244512.792 7  99745796.380 6                  24024501.240    24024510.520
  24024509.660          44.150          41.500
 110917909.675 7  86269509.503 6                  20756768.280    20756771.620
  20756769.820          47.200          41.100
 120008060.425 7  93339546.615 5                  22473621.140    22473624.340
  22473622.180          46.400          33.100
 123324378.821 7  95918961.170 6                  23054137.280    23054138.240
  23054136.420          45.150          41.050
 103563896.200 8  80549743.927 7                  19428309.860    19428316.240
  19428315.000          48.850          42.450
 107100813.040 8  83300618.907 7                  20014295.480    20014297.080
  20014296.000          49.150          47.050
 15  1 27 23  1  5.0000000  0 17G08G14G31G21G24G12G25G29G02R02R20R22
                                R11R09R19R10R21
 129217430.093 7 100688884.74146                  24589259.620
  24589255.140          45.900          36.250
 118754573.393 7  92536030.94746                  22598237.160
  22598232.660          47.550          40.900
 113458399.933 8  88409144.682 7                  21590410.880    21590405.940
  21590405.120          50.450          47.250
 127896141.189 7  99659389.02345                  24337801.840
  24337797.540          43.650          33.900
 130530315.421 7 101712017.416 6  97474033.871 7  24839062.800    24839062.200
  24839061.660          44.000          41.500
 121254446.008 8  94484094.123 7                  23073887.780    23073883.860
  23073883.120          49.050          44.000
 109113854.776 8  85023891.814 8  81481258.594 8  20763631.500    20763629.960
  20763629.180          50.150          49.100
 105200298.534 8  81974416.542 8                  20018883.120    20018879.060
  20018878.360          50.700          50.250
 125234179.130 7  97585065.99646                  23831263.000
  23831255.300          47.350          39.750
 130124740.772 6 101208161.385 5                  24385321.380    24385324.020
                        38.850          30.800
 104240597.436 7  81076053.391 7                  19493466.140    19493469.680
  19493467.420          43.550          46.550
 128222678.170 7  99728814.041 6                  24020410.800    24020420.020
  24020419.180          43.650          40.900
 110903440.668 7  86258255.820 6                  20754060.600    20754063.920
  20754062.160          46.950          41.150
 120024320.486 7  93352193.314 5                  22476666.120    22476669.360
  22476667.120          46.150          33.200
 123344846.668 7  95934880.596 6                  23057963.520    23057964.480
  23057962.700          45.050          40.750
 103566293.320 8  80551608.341 7                  19428759.560    19428765.880
  19428764.700          48.700          42.250
 107088193.001 8  83290803.312 7                  20011937.180    20011938.660
  20011937.640          49.000          46.950
 15  1 27 23  1 10.0000000  0 17G08G14G31G21G24G12G25G29G02R02R20R22
                                R11R09R19R10R21
 129199640.469 7 100675022.70446                  24585874.380
  24585869.940          45.800          37.300
 118766282.481 7  92545154.91646                  22600465.360
  22600460.840          47.500          40.800
 113447573.509 8  88400708.512 7                  21588350.700    21588345.740
  21588344.920          50.450          47.000
 127880451.752 7  99647163.50045                  24334816.280
  24334811.920          43.400          35.250
 130548313.158 7 101726041.619 6  97487473.743 7  24842487.680    24842487.080
  24842486.560          44.350          41.550
 121266731.524 8  94493667.250 7                  23076225.700    23076221.660
  23076221.000          48.950          44.250
 109118548.169 8  85027549.005 8  81484763.408 8  20764524.620    20764523.080
  20764522.300          50.050          49.050
 105200532.598 8  81974598.932 8                  20018927.660    20018923.620
  20018922.920          50.700          50.200
 125242191.695 7  97591309.56646                  23832787.720
  23832780.040          47.200          39.600
 130130007.887 6 101212258.023 4                  24386308.500    24386311.580
                        37.800          29.200
 104247531.209 7  81081446.330 7                  19494762.820    19494766.340
  19494764.080          43.850          46.600
 128200845.187 7  99711832.998 6                  24016320.660    24016329.880
  24016329.040          44.500          40.700
 110888977.108 7  86247006.391 6                  20751353.900    20751357.360
  20751355.520          46.900          41.000
 120040587.350 7  93364845.321 5                  22479712.380    22479715.560
  22479713.340          45.800          32.400
 123365317.061 7  95950802.019 6                  23061790.280    23061791.260
  23061789.460          45.000          40.700
 103568704.512 8  80553483.707 7                  19429211.880    19429218.200
  19429217.020          48.850          42.100
 107075588.277 8  83280999.648 7                  20009581.740    20009583.180
  20009582.140          49.050          46.750
 15  1 27 23  1 15.0000000  0 17G08G14G31G21G24G12G25G29G02R02R20R22
                                R11R09R19R10R21
 129181852.644 7 100661162.05946                  24582489.500
  24582485.040          45.600          37.850
 118778002.792 7  92554287.62646                  22602695.680
  22602691.180          47.400          41.200
 113436757.968 8  88392280.813 7                  21586292.600    21586287.600
  21586286.780          50.450          47.050
 127864764.318 7  99634939.53345                  24331831.080
  24331826.720          42.950          35.900
 130566314.797 7 101740068.868 6  97500916.510 7  24845913.360    24845912.740
  24845912.200          43.750          41.200
 121279021.095 8  94503243.517 7                  23078564.420    23078560.240
  23078559.640          49.050          43.850
 109123249.586 8  85031212.451 8  81488274.207 8  20765419.320    20765417.720
  20765416.960          49.950          49.150
 105200781.695 8  81974793.033 8                  20018975.060    20018971.040
  20018970.320          50.750          50.200
 125250217.719 7  97597563.60446                  23834315.020
  23834307.340          47.300          39.900
 130135293.838 6 101216369.288 4                  24387299.060    24387303.060
                        38.300          26.600
 104254485.647 7  81086855.343 7                  19496063.340    19496066.900
  19496064.620          43.700          46.550
 128179016.898 7  99694855.567 6                  24012231.400    24012240.620
  24012239.740          44.500          41.000
 110874522.029 7  86235763.564 6                  20748648.820    20748652.320
  20748650.480          46.800          41.100
 120056864.127 7  93377505.026 5                  22482760.500    22482763.640
  22482761.400          45.750          32.800
 123385793.004 7  95966727.749 6                  23065617.980    23065619.040
  23065617.240          44.550          40.350
 103571132.764 8  80555372.352 7                  19429667.380    19429673.760
  19429672.540          48.850          42.100
 107063001.958 8  83271210.291 7                  20007229.720    20007231.120
  20007230.080          48.950          46.650
 15  1 27 23  1 20.0000000  0 17G08G14G31G21G24G12G25G29G02R02R20R22
                                R11R09R19R10R21
 129164064.793 7 100647301.40646                  24579104.560
  24579100.120          45.500          36.200
 118789732.452 7  92563427.61046                  22604927.800
  22604923.240          47.600          40.950
 113425951.563 8  88383860.236 7                  21584236.240    21584231.220
  21584230.380          50.350          47.000
 127849077.049 7  99622715.71445                  24328845.860
  24328841.480          43.000          35.350
 130584318.470 7 101754097.687 6  97514360.789 7  24849339.360    24849338.760
  24849338.260          43.300          41.550
 121291312.875 8  94512821.525 7                  23080903.540    23080899.280
  23080898.640          49.300          43.300
 109127957.218 8  85034880.730 8  81491789.636 8  20766315.160    20766313.560
  20766312.800          49.750          49.150
 105201044.066 8  81974997.480 8                  20019025.000    20019020.980
  20019020.240          50.700          50.200
 125258255.380 7  97603826.72146                  23835844.540
  23835836.820          47.250          39.100
 130140596.831 6                                  24388292.800
                        37.300
 104261458.844 7  81092278.947 7                  19497367.340    19497370.960
  19497368.660          43.800          46.450
 128157191.412 7  99677880.332 6                  24008142.640    24008151.820
  24008150.960          44.450          40.850
 110860073.693 7  86224525.980 6                  20745944.940    20745948.520
  20745946.680          46.550          40.800
 120073148.928 7  93390170.987 5                  22485810.100    22485813.240
  22485811.040          45.800          32.150
 123406272.801 7  95982656.482 6                  23069446.460    23069447.540
  23069445.720          44.550          40.550
 103573576.361 8  80557272.929 7                  19430125.780    19430132.180
  19430130.980          48.750          42.200
 107050432.297 8  83261433.893 7                  20004880.800    20004882.180
  20004881.120          48.700          46.600
 15  1 27 23  1 25.0000000  0 17G08G14G31G21G24G12G25G29G02R02R20R22
                                R11R09R19R10R21
 129146277.184 7 100633440.93346                  24575719.680
  24575715.280          45.850          36.800
 118801471.668 7  92572575.05746                  22607161.740
  22607157.120          47.450          40.600
 113415154.438 8  88375446.892 7                  21582181.640    21582176.600
  21582175.740          50.450          46.900
 127833390.240 7  99610492.23945                  24325860.740
  24325856.260          43.650          34.550
 130602324.384 7 101768128.237 6  97527806.733 7  24852765.780    24852765.180
  24852764.740          42.850          40.850
 121303607.088 8  94522401.450 7                  23083243.140    23083238.740
  23083238.040          49.150          42.900
 109132671.253 8  85038553.997 8  81495309.851 8  20767212.220    20767210.620
  20767209.860          49.600          49.050
 105201319.929 8  81975212.434 8                  20019077.480    20019073.460
  20019072.740          50.650          50.200
 125266304.880 7  97610099.05546                  23837376.320
  23837368.520          47.200          39.300
 130145917.025 6                                  24389289.760    24389293.500
                        37.950          28.700
 104268450.936 7  81097717.233 7                  19498674.900    19498678.480
  19498676.240          43.800          46.400
 128135369.142 7  99660907.580 6                  24004054.500    24004063.640
  24004062.780          43.950          40.950
 110845632.326 7  86213293.789 6                  20743242.360    20743246.000
  20743244.160          46.900          40.800
 120089442.003 7  93402843.370 5                  22488861.240    22488864.320
  22488862.180          45.850          32.750
 123426756.482 7  95998588.227 6                  23073275.660    23073276.740
  23073274.940          44.200          40.650
 103576035.504 8  80559185.594 7                  19430587.120    19430593.540
  19430592.320          48.700          42.100
 107037879.536 8  83251670.623 7                  20002535.020    20002536.380
  20002535.300          48.750          46.650
 15  1 27 23  1 30.0000000  0 17G08G14G31G21G24G12G25G29G02R02R20R22
                                R11R09R19R10R21
 129128491.230 7 100619581.73646                  24572335.100
  24572330.740          45.600          37.600
 118813221.917 7  92581731.09746                  22609397.740
  22609393.080          47.800          40.800
 113404368.023 8  88367041.896 7                  21580129.080    21580124.000
  21580123.160          50.400          46.950
 127817705.373 7  99598270.28145                  24322876.000
  24322871.540          44.250          33.000
 130620333.966 7 101782161.661 6  97541255.442 7  24856192.900    24856192.300
  24856191.740          43.550          40.650
 121315905.169 8  94531984.391 7                  23085583.440    23085578.940
  23085578.180          48.950          43.500
 109137393.160 8  85042233.401 8  81498835.945 8  20768110.780    20768109.180
  20768108.420          49.650          49.100
 105201610.711 8  81975439.021 8                  20019132.820    20019128.800
  20019128.080          50.650          50.200
 125274367.660 7  97616381.73646                  23838910.620
  23838902.780          47.200          39.750
 130151255.847 6 101228774.254 4                  24390290.360    24390293.280
                        38.150          27.950
 104275463.584 7  81103171.512 7                  19499986.320    19499989.900
  19499987.640          44.100          46.350
 128113551.378 7  99643938.340 6                  23999967.220    23999976.320
  23999975.400          44.300          40.700
 110831199.471 7  86202068.237 6                  20740541.400    20740545.100
  20740543.240          46.900          40.700
 120105744.778 7  93415523.316 5                  22491914.220    22491917.420
  22491915.180          45.750          31.950
 123447245.517 7  96014524.127 6                  23077105.880    23077106.920
  23077105.140          44.600          40.300
 103578511.724 8  80561111.540 7                  19431051.680    19431058.100
  19431056.900          48.800          42.250
 107025345.057 8  83241921.576 7                  20000192.680    20000194.000
  20000192.920          49.100          46.700
 15  1 27 23  1 35.0000000  0 17G08G14G31G21G24G12G25G29G02R02R20R22
                                R11R09R19R10R21
 129110704.711 7 100605722.13046                  24568950.460
  24568946.080          44.850          38.200
 118824980.965 8  92590893.99446                  22611635.420
  22611630.720          48.050          40.450
 113393590.124 8  88358643.535 7                  21578078.120    21578073.060
  21578072.200          50.400          47.150
 127802020.177 7  99586048.08145                  24319891.220
  24319886.740          44.650          33.450
 130638345.116 7 101796196.326 6  97554705.312 7  24859620.400    24859619.720
  24859619.080          43.600          40.600
 121328204.890 8  94541568.586 7                  23087924.020    23087919.480
  23087918.700          48.900          43.700
 109142120.708 8  85045917.209 8  81502366.262 8  20769010.420    20769008.800
  20769008.060          49.950          49.100
 105201914.205 8  81975675.514 8                  20019190.580    20019186.520
  20019185.840          50.800          50.300
 125282441.486 7  97622673.04746                  23840446.980
  23840439.180          47.550          39.150
 130156611.091 6 101232939.450 4                  24391294.040    24391296.580
                        37.900          28.600
 104282494.266 7  81108639.833 7                  19501301.100    19501304.700
  19501302.400          44.300          46.400
 128091735.900 7  99626970.886 6                  23995880.360    23995889.420
  23995888.440          44.600          40.400
 110816772.708 7  86190847.444 6                  20737841.580    20737845.280
  20737843.460          46.950          40.900
 120122055.058 7  93428209.094 5                  22494968.600    22494971.580
  22494969.520          46.200          32.250
 123467737.795 7  96030462.569 6                  23080936.700    23080937.800
  23080935.940          44.850          40.400
 103581002.658 8  80563048.940 7                  19431518.980    19431525.420
  19431524.220          48.900          42.350
 107012826.650 8  83232185.046 7                  19997853.340    19997854.640
  19997853.560          49.100          46.850
 15  1 27 23  1 40.0000000  0 17G08G14G31G21G24G12G25G29G02R02R20R22
                                R11R09R19R10R21
 129092917.414 7 100591861.90746                  24565565.600
  24565561.300          45.600          36.200
 118836748.518 8  92600063.51446                  22613874.720
  22613870.000          48.050          39.800
 113382820.507 8  88350251.629 7                  21576028.740    21576023.660
  21576022.820          50.550          47.150
 127786334.461 7  99573825.47045                  24316906.320
  24316901.820          44.700          33.350
 130656357.386 7 101810231.846 6  97568156.035 7  24863048.040    24863047.300
  24863046.580          43.750          40.200
 121340506.069 8  94551153.908 7                  23090264.880    23090260.300
  23090259.540          48.800          43.850
 109146853.650 8  85049605.212 8  81505900.608 8  20769911.100    20769909.460
  20769908.700          50.000          49.000
 105202230.112 8  81975921.673 8                  20019250.700    20019246.640
  20019245.940          50.900          50.250
 125290526.124 7  97628972.74946                  23841985.380
  23841977.600          47.350          39.450
 130161982.406 6 101237117.093 4                  24392300.660    24392303.240
                        37.200          27.700
 104289542.830 7  81114122.056 7                  19502619.200    19502622.840
  19502620.500          44.250          46.450
 128069922.551 7  99610005.074 6                  23991793.860    23991802.900
  23991801.840          44.800          40.350
 110802351.845 7  86179631.213 6                  20735142.880    20735146.600
  20735144.760          47.150          41.150
 120138372.518 7  93440900.435 5                  22498024.320    22498027.260
  22498025.200          45.950          32.100
 123488232.848 7  96046403.164 6                  23084768.020    23084769.100
  23084767.240          44.850          40.400
 103583508.073 8  80564997.594 7                  19431989.000    19431995.440
  19431994.280          48.800          42.550
 107000324.099 8  83222460.846 7                  19995516.940    19995518.220
  19995517.180          48.950          46.800
 15  1 27 23  1 45.0000000  0 17G08G14G31G21G24G12G25G29G02R02R20R22
                                R11R09R19R10R21
 129075133.741 7 100578004.49746                  24562181.440
  24562177.280          45.700          36.900
 118848528.955 8  92609243.07346                  22616116.480
  22616111.720          48.100          39.950
 113372063.573 8  88341869.607 7                  21573981.740    21573976.680
  21573975.840          50.550          47.000
 127770652.531 7  99561605.78245                  24313922.140
  24313917.560          44.300          33.400
 130674375.208 7 101824271.708 6  97581610.867 7  24866476.760    24866475.960
  24866475.220          43.900          40.900
 121352812.946 8  94560743.675 7                  23092606.820    23092602.260
  23092601.460          48.950          43.600
 109151596.346 8  85053300.825 8  81509442.224 8  20770813.620    20770811.980
  20770811.220          50.200          48.800
 105202562.816 8  81976180.929 8                  20019314.000    20019309.940
  20019309.240          50.900          50.100
 125298625.899 7  97635284.26746                  23843526.700
  23843518.920          46.900          39.600
 130167374.401 6 101241310.838 4                  24393311.200    24393313.680
                        37.000          29.150
 104296613.736 7  81119621.653 7                  19503941.480    19503945.160
  19503942.820          44.000          46.600
 128048115.764 7  99593044.379 6                  23987708.620    23987717.620
  23987716.520          44.800          40.600
 110787941.473 7  86168423.150 6                  20732446.140    20732449.900
  20732448.040          47.050          41.100
 120154701.621 7  93453600.853 5                  22501082.220    22501085.180
  22501083.080          46.000          32.150
 123508735.102 7  96062349.372 6                  23088600.720    23088601.760
  23088599.900          44.650          40.250
 103586032.540 8  80566961.074 7                  19432462.580    19432469.020
  19432467.880          48.650          42.150
 106987841.829 8  83212752.428 7                  19993184.320    19993185.600
  19993184.580          48.800          46.600
 15  1 27 23  1 50.0000000  0 17G08G14G31G21G24G12G25G29G02R02R20R22
                                R11R09R19R10R21
 129057348.812 7 100564146.10846                  24558797.040
  24558792.860          45.200          36.350
 118860317.405 8  92618428.87946                  22618359.760
  22618354.960          48.000          39.650
 113361314.482 8  88333493.688 7                  21571936.240    21571931.180
  21571930.340          50.400          46.800
 127754969.608 7  99549385.35645                  24310937.740
  24310933.040          44.400          34.400
 130692393.726 7 101838312.087 6  97595066.236 7  24869905.640    24869904.820
  24869904.100          44.200          40.400
 121365120.804 8  94570334.202 7                  23094948.920    23094944.400
  23094943.560          48.750          43.050
 109156343.958 8  85057000.263 8  81512987.521 8  20771717.080    20771715.420
  20771714.680          50.200          48.750
 105202907.496 8  81976449.507 8                  20019379.580    20019375.540
  20019374.840          50.900          50.050
 125306736.027 7  97641603.83646                  23845070.000
  23845062.180          47.100          39.400
 130172781.881 5                                  24394324.560
                        34.700
 104303702.053 7  81125134.778 7                  19505267.040    19505270.700
  19505268.380          43.800          46.700
 128026310.586 7  99576084.923 6                  23983623.700    23983632.660
  23983631.460          43.750          39.900
 110773536.537 7  86157219.307 6                  20729750.440    20729754.200
  20729752.340          46.850          40.800
 120171037.453 7  93466306.481 5                  22504141.380    22504144.400
  22504142.220          45.950          32.500
 123529239.813 7  96078297.474 6                  23092433.820    23092434.920
  23092433.020          44.800          40.400
 103588571.063 8  80568935.465 7                  19432938.820    19432945.220
  19432944.120          48.700          42.350
 106975374.917 8  83203055.949 7                  19990854.560    19990855.860
  19990854.860          49.050          46.700
 15  1 27 23  1 55.0000000  0 17G08G14G31G21G24G12G25G29G02R02R20R22
                                R11R09R19R10R21
 129039564.742 7 100550288.40446                  24555412.820
  24555408.660          45.500          36.300
 118872115.921 8  92627622.52446                  22620604.940
  22620600.160          48.000          40.100
 113350575.312 8  88325125.512 7                  21569892.620    21569887.540
  21569886.740          50.450          46.800
 127739287.834 7  99537165.84445                  24307953.580
  24307948.960          44.650          33.450
 130710414.985 7 101852354.626 6  97608523.667 7  24873335.020    24873334.180
  24873333.440          43.600          40.400
 121377431.742 8  94579927.144 7                  23097291.580    23097287.100
  23097286.260          48.450          43.250
 109161098.596 8  85060705.178 8  81516538.066 8  20772621.880    20772620.200
  20772619.480          50.100          48.900
 105203266.210 8  81976729.031 8                  20019447.840    20019443.800
  20019443.080          50.800          50.000
 125314858.528 7  97647933.06046                  23846615.680
  23846607.880          47.050          39.600
 130178207.195 6 101249729.354 5                  24395341.140    24395343.580
  24395343.120          36.350          30.400
 104310809.861 7  81130663.076 7                  19506596.220    19506599.920
  19506597.600          43.650          46.600
 128004509.271 7  99559128.480 6                  23979539.520    23979548.480
  23979547.200          43.600          40.600
 110759139.167 7  86146021.360 6                  20727056.140    20727059.940
  20727058.080          46.900          40.900
 120187382.064 7  93479018.960 5                  22507202.200    22507205.160
  22507203.020          46.300          32.350
 123549748.962 7  96094249.026 6                  23096267.780    23096268.860
  23096266.960          44.200          39.400
 103591125.802 8  80570922.486 7                  19433418.120    19433424.540
  19433423.400          48.800          42.100
 106962925.490 8  83193373.068 7                  19988528.100    19988529.420
  19988528.400          49.000          46.650
 15  1 27 23  2  0.0000000  0 17G08G14G31G21G24G12G25G29G02R02R20R22
                                R11R09R19R10R21
 129021780.246 7 100536430.34946                  24552028.480
  24552024.440          45.900          36.350
 118883923.243 7  92636823.02546                  22622851.800
  22622847.000          47.850          39.950
 113339844.822 8  88316764.080 7                  21567850.660    21567845.620
  21567844.780          50.300          46.950
 127723605.875 7  99524946.13645                  24304969.380
  24304964.800          44.750          31.050
 130728437.694 7 101866398.265 6  97621982.162 7  24876764.620    24876763.880
  24876763.100          43.150          40.200
 121389744.448 8  94589521.444 7                  23099634.580    23099630.140
  23099629.300          48.600          43.700
 109165858.922 8  85064414.521 8  81520092.859 8  20773527.740    20773526.060
  20773525.340          50.000          49.050
 105203637.652 8  81977018.464 8                  20019518.520    20019514.480
  20019513.760          50.750          50.100
 125322992.093 7  97654270.90146                  23848163.440
  23848155.660          47.050          39.100
 130183648.974 5 101253961.809 4                  24396360.900    24396364.180
  24396362.360          35.700          29.350
 104317935.765 7  81136205.446 7                  19507928.840    19507932.500
  19507930.200          43.750          46.450
 127982710.454 7  99542173.983 6                  23975455.780    23975464.680
  23975463.440          44.250          39.900
 110744748.276 7  86134828.454 6                  20724363.060    20724366.920
  20724365.020          47.000          41.000
 120203734.247 7  93491737.319 5                  22510264.420    22510267.520
  22510265.300          46.300          32.500
 123570261.214 7  96110202.989 6                  23100102.340    23100103.380
  23100101.440          44.400          39.100
 103593695.253 8  80572920.948 7                  19433900.140    19433906.520
  19433905.400          48.700          42.200
 106950492.288 8  83183702.789 7                  19986204.640    19986205.960
  19986204.960          48.950          46.750
 15  1 27 23  2  5.0000000  0 17G08G14G31G21G24G12G25G29G02R02R20R22
                                R11R09R19R10R21
 129003997.850 7 100522573.93245                  24548644.560
  24548640.560          45.750          35.950
 118895741.862 7  92646032.34146                  22625100.800
  22625095.980          47.850          40.000
 113329125.506 8  88308411.373 7                  21565810.820    21565805.800
  21565804.940          50.100          47.250
 127707926.297 7  99512728.30445                  24301985.580
  24301981.060          44.350          32.650
 130746464.426 7 101880445.062 6  97635443.673 7  24880194.980    24880194.240
  24880193.540          43.600          39.950
 121402061.421 8  94599119.081 7                  23101978.420    23101974.000
  23101973.180          49.050          44.000
 109170627.507 8  85068130.303 8  81523653.805 8  20774435.180    20774433.500
  20774432.780          49.900          49.200
 105204024.344 8  81977319.782 8                  20019592.120    20019588.060
  20019587.340          50.800          50.250
 125331139.269 7  97660619.35146                  23849713.800
  23849706.080          47.200          39.950
 130189109.544 6 101258208.931 4                  24397384.180    24397386.240
  24397384.720          37.050          27.150
 104325082.492 7  81141764.017 7                  19509265.300    19509268.960
  19509266.680          43.750          46.300
 127960916.497 7  99525223.236 6                  23971372.960    23971381.820
  23971380.620          44.650          39.750
 110730366.213 7  86123642.413 6                  20721671.600    20721675.520
  20721673.620          46.950          40.850
 120220096.439 7  93504463.468 5                  22513328.520    22513331.620
  22513329.400          46.600          32.550
 123590779.117 7  96126161.365 6                  23103937.980    23103938.920
  23103936.960          44.650          39.100
 103596282.109 8  80574932.953 6                  19434385.400    19434391.800
  19434390.680          48.400          41.850
 106938077.839 8  83174047.107 7                  19983884.700    19983886.000
  19983885.020          49.050          46.550
 15  1 27 23  2 10.0000000  0 17G08G14G31G21G24G12G25G29G02R02R20R22
                                R11R09R19R10R21
 128986214.765 7 100508716.99546                  24545260.520
  24545256.620          45.450          36.700
 118907568.966 7  92655248.26846                  22627351.440
  22627346.620          47.750          39.450
 113318414.632 8  88300065.243 7                  21563772.580    21563767.600
  21563766.720          50.100          47.000
 127692246.291 7  99500510.16645                  24299001.700
  24298997.280          44.650          33.300
 130764492.282 7 101894492.755 6  97648906.039 7  24883625.600    24883624.860
  24883624.060          43.850          40.100
 121414379.891 8  94608717.889 7                  23104322.540    23104318.120
  23104317.380          48.900          43.650
 109175401.546 8  85071850.338 8  81527218.841 8  20775343.660    20775342.000
  20775341.280          49.900          49.200
 105204423.524 8  81977630.836 8                  20019668.080    20019664.020
  20019663.300          50.850          50.200
 125339297.262 7  97666976.24446                  23851266.200
  23851258.500          47.150          38.400
 130194586.347 5 101262468.675 5                  24398410.560    24398412.980
  24398411.160          34.950          30.750
 104332246.944 7  81147336.370 7                  19510605.120    19510608.780
  19510606.460          43.650          46.450
 127939124.868 7  99508274.317 6                  23967290.560    23967299.420
  23967298.240          44.450          38.850
 110715990.196 7  86112461.067 6                  20718981.320    20718985.280
  20718983.360          46.900          40.900
 120236465.923 7  93517195.298 5                  22516394.040    22516397.200
  22516394.880          46.650          32.550
 123611299.844 7  96142121.933 6                  23107774.140    23107774.980
  23107773.060          44.800          39.200
 103598883.727 8  80576956.432 6                  19434873.480    19434879.940
  19434878.720          48.400          41.750
 106925679.364 8  83164403.858 7                  19981567.700    19981569.040
  19981568.060          49.050          46.750
 15  1 27 23  2 15.0000000  0 17G08G14G31G21G24G12G25G29G02R02R20R22
                                R11R09R19R10R21
 128968432.771 7 100494860.90245                  24541876.700
  24541872.780          45.950          35.600
 118919406.340 7  92664472.18046                  22629604.040
  22629599.200          47.750          39.750
 113307713.966 8  88291727.054 7                  21561736.280    21561731.300
  21561730.460          50.200          46.900
 127676567.637 7  99488293.03445                  24296018.140
  24296013.700          45.250          33.800
 130782523.068 7 101908542.708 6  97662370.571 7  24887056.700    24887055.940
  24887055.160          43.600          40.150
 121426701.622 8  94618319.218 7                  23106667.300    23106662.860
  23106662.180          49.100          43.250
 109180182.785 8  85075575.971 8  81530789.246 8  20776253.520    20776251.860
  20776251.140          49.850          49.050
 105204836.898 8  81977952.940 8                  20019746.740    20019742.680
  20019741.960          50.850          50.100
 125347467.812 7  97673342.90046                  23852821.020
  23852813.300          47.100          39.650
 130200080.981 5 101266742.265 5                  24399440.220    24399442.960
  24399442.560          35.000          31.900
 104339431.164 7  81152924.089 7                  19511948.640    19511952.280
  19511949.960          43.550          46.700
 127917337.360 7  99491328.573 6                  23963208.960    23963217.820
  23963216.620          43.550          38.800
 110701622.185 7  86101285.949 6                  20716292.540    20716296.500
  20716294.560          47.100          40.650
 120252844.408 7  93529934.092 5                  22519461.220    22519464.320
  22519462.060          46.700          32.000
 123631825.258 7  96158086.145 6                  23111611.180    23111611.920
  23111610.020          44.700          38.900
 103601501.660 8  80578992.589 7                  19435364.620    19435371.020
  19435369.820          48.650          42.150
 106913298.620 8  83154774.393 7                  19979254.040    19979255.400
  19979254.420          49.200          46.850
 15  1 27 23  2 20.0000000  0 17G08G14G31G21G24G12G25G29G02R02R20R22
                                R11R09R19R10R21
 128950652.395 7 100481006.07046                  24538493.220
  24538489.240          46.300          36.000
 118931254.422 7  92673704.45446                  22631858.640
  22631853.860          47.250          40.400
 113297024.002 8  88283397.216 7                  21559702.040    21559697.080
  21559696.240          50.150          47.200
 127660890.852 7  99476077.40245                  24293034.940
  24293030.540          44.950          33.550
 130800557.373 7 101922595.406 6  97675837.731 7  24890488.480    24890487.680
  24890486.980          43.150          40.350
 121439027.069 8  94627923.464 7                  23109012.800    23109008.320
  23109007.600          49.200          43.300
 109184971.728 8  85079307.622 8  81534365.409 8  20777164.840    20777163.180
  20777162.460          49.900          49.200
 105205265.026 8  81978286.556 8                  20019828.220    20019824.140
  20019823.440          50.750          50.200
 125355651.448 7  97679719.76946                  23854378.320
  23854370.600          46.700          39.950
 130205594.046 6 101271030.171 5                  24400473.320    24400477.120
  24400476.680          38.050          32.000
 104346635.473 7  81158527.442 7                  19513295.880    19513299.540
  19513297.240          43.550          46.850
 127895554.269 7  99474386.300 6                  23959128.120    23959136.940
  23959135.760          42.600          37.400
 110687262.584 7  86090117.383 6                  20713605.320    20713609.320
  20713607.320          46.900          40.500
 120269232.376 7  93542680.308 5                  22522530.240    22522533.300
  22522530.980          46.000          31.950
 123652355.678 7  96174054.263 6                  23115449.140    23115449.840
  23115447.920          44.950          39.050
 103604136.573 8  80581041.976 7                  19435858.960    19435865.340
  19435864.080          48.650          42.100
 106900936.123 8  83145159.138 7                  19976943.800    19976945.160
  19976944.180          49.000          46.850
 15  1 27 23  2 25.0000000  0 17G08G14G31G21G24G12G25G29G02R02R20R22
                                R11R09R19R10R21
 128932872.303 7 100467151.43945                  24535109.800
  24535105.740          46.200          35.800
 118943111.876 7  92682944.02446                  22634115.020
  22634110.280          47.500          40.000
 113286343.416 8  88275074.685 7                  21557669.560    21557664.620
  21557663.800          50.100          47.000
 127645214.616 7  99463862.15345                  24290051.860
  24290047.460          44.450          32.050
 130818593.753 7 101936649.708 6  97689306.443 7  24893920.700    24893919.940
  24893919.180          43.950          40.600
 121451354.896 8  94637529.561 7                  23111358.780    23111354.220
  23111353.480          49.650          43.150
 109189767.048 8  85083044.225 8  81537946.321 8  20778077.360    20778075.720
  20778075.000          49.900          49.100
 105205706.520 8  81978630.575 8                  20019912.240    20019908.140
  20019907.440          50.700          50.050
 125363846.799 7  97686105.74346                  23855937.840
  23855930.160          46.650          39.850
 130211124.206 5 101275331.404 5                  24401509.700    24401513.460
  24401512.860          35.100          31.200
 104353858.583 7  81164145.404 7                  19514646.640    19514650.260
  19514648.040          43.700          46.850
 127873774.399 7  99457446.493 6                  23955047.920    23955056.700
  23955055.520          43.200          37.950
 110672909.911 7  86078954.191 6                  20710919.400    20710923.420
  20710921.340          46.700          40.150
 120285628.509 7  93555432.844 5                  22525600.740    22525603.600
  22525601.480          46.050          31.600
 123672889.870 7  96190025.305 6                  23119287.820    23119288.480
  23119286.520          44.750          39.250
 103606787.134 8  80583103.522 7                  19436356.200    19436362.560
  19436361.300          48.450          42.150
 106888590.552 8  83135557.028 7                  19974636.720    19974638.100
  19974637.100          48.650          46.850
 15  1 27 23  2 30.0000000  0 17G08G14G31G21G24G12G25G29G02R02R20R22
                                R11R09R19R10R21
 128915091.888 7 100453296.58445                  24531726.320
  24531722.260          46.150          35.400
 118954978.096 7  92692190.42946                  22636373.060
  22636368.380          47.350          40.300
 113275671.613 8  88266758.999 7                  21555638.760    21555633.840
  21555633.040          50.100          47.000
 127629538.352 7  99451646.89245                  24287068.740
  24287064.260          44.250          33.750
 130836631.596 7 101950705.158 6  97702776.245 7  24897353.200    24897352.440
  24897351.740          43.550          40.650
 121463684.518 8  94647137.085 7                  23113705.100    23113700.420
  23113699.680          49.200          43.550
 109194568.151 8  85086785.344 8  81541531.563 8  20778990.960    20778989.320
  20778988.620          49.900          49.150
 105206160.752 8  81978984.524 8                  20019998.680    20019994.580
  20019993.880          50.750          50.100
 125372053.259 7  97692500.38746                  23857499.480
  23857491.820          46.650          40.150
 130216670.686 6 101279645.400 4                  24402549.080    24402552.940
  24402552.200          36.400          29.550
 104361099.848 7  81169777.497 7                  19516000.780    19516004.440
  19516002.240          43.900          46.850
 127851997.199 7  99440508.794 6                  23950968.240    23950976.940
  23950975.820          43.350          37.100
 110658563.833 7  86067796.121 6                  20708234.700    20708238.740
  20708236.580          46.700          40.350
 120302032.108 7  93568191.202 5                  22528672.600    22528675.280
  22528673.320          46.150          32.750
 123693427.114 7  96205998.706 6                  23123127.060    23123127.780
  23123125.720          44.750          38.800
 103609452.562 8  80585176.626 6                  19436856.240    19436862.620
  19436861.280          48.850          41.950
 106876261.324 8  83125967.630 7                  19972332.660    19972334.060
  19972333.060          48.350          46.800
 15  1 27 23  2 35.0000000  0 17G08G14G31G21G24G12G25G29G02R02R20R22
                                R11R09R19R10R21
 128897312.022 7 100439442.14946                  24528342.920
  24528338.860          46.650          37.150
 118966853.893 7  92701444.28746                  22638632.920
  22638628.300          47.550          40.300
 113265009.433 8  88258450.805 7                  21553609.800    21553604.900
  21553604.100          49.900          46.800
 127613862.880 7  99439432.26446                  24284085.800
  24284081.300          43.650          37.000
 130854671.760 7 101964762.418 6  97716247.786 7  24900786.120    24900785.400
  24900784.700          43.250          40.500
 121476016.785 8  94656746.642 7                  23116051.940    23116047.140
  23116046.440          49.000          43.450
 109199375.838 8  85090531.592 8  81545121.717 8  20779905.820    20779904.200
  20779903.500          49.950          49.100
 105206628.592 8  81979349.071 8                  20020087.700    20020083.600
  20020082.920          50.800          50.150
 125380271.638 7  97698904.32146                  23859063.380
  23859055.760          46.700          39.450
 130222234.485 6 101283972.730 5                  24403591.760    24403595.660
  24403594.260          36.550          30.000
 104368360.034 7  81175424.315 7                  19517358.440    19517362.140
  19517359.940          44.200          46.750
 127830223.414 7  99423573.731 6                  23946889.100    23946897.840
  23946896.720          42.350          37.200
 110644225.147 7  86056643.810 6                  20705551.400    20705555.380
  20705553.220          46.800          40.800
 120318444.103 7  93580956.075 5                  22531746.080    22531748.680
  22531746.780          46.400          32.500
 123713968.310 7  96221975.201 6                  23126967.060    23126967.780
  23126965.660          45.050          39.400
 103612133.739 8  80587261.982 7                  19437359.240    19437365.560
  19437364.260          49.100          42.100
 106863949.211 8  83116391.540 7                  19970031.780    19970033.220
  19970032.220          48.500          46.700
 15  1 27 23  2 40.0000000  0 17G08G14G31G21G24G12G25G29G02R02R20R22
                                R11R09R19R10R21
 128879533.556 7 100425588.78745                  24524959.800
  24524955.720          46.300          35.800
 118978740.105 7  92710706.26846                  22640894.780
  22640890.180          47.550          40.000
 113254357.728 8  88250150.775 7                  21551582.840    21551577.940
  21551577.120          49.850          47.000
 127598189.101 7  99427218.95445                  24281103.160
  24281098.660          43.700          32.250
 130872715.168 7 101978822.189 6  97729721.719 7  24904219.660    24904218.980
  24904218.280          43.150          40.100
 121488352.542 8  94666358.906 7                  23118399.420    23118394.560
  23118393.860          48.950          43.400
 109204190.985 8  85094283.651 8  81548717.430 8  20780822.100    20780820.500
  20780819.800          49.900          49.100
 105207110.862 8  81979724.870 8                  20020179.460    20020175.360
  20020174.700          50.700          50.200
 125388502.803 7  97705318.21746                  23860629.680
  23860622.080          46.550          39.650
 130227816.336 6 101288314.203 4                  24404637.920    24404640.740
  24404639.560          36.700          28.150
 104375640.097 7  81181086.597 7                  19518719.900    19518723.580
  19518721.360          44.200          46.550
 127808454.023 7  99406642.113 6                  23942810.860    23942819.440
  23942818.460          42.400          37.650
 110629894.632 7  86045497.854 6                  20702869.580    20702873.600
  20702871.400          46.650          40.700
 120334865.326 7  93593728.137 5                  22534821.300    22534823.760
  22534821.900          45.950          32.500
 123734514.214 7  96237955.346 6                  23130807.900    23130808.620
  23130806.500          45.100          39.450
 103614831.657 8  80589360.358 7                  19437865.380    19437871.680
  19437870.380          48.800          42.450
 106851655.151 8  83106829.489 7                  19967734.340    19967735.780
  19967734.760          48.650          46.700
 15  1 27 23  2 45.0000000  0 17G08G14G31G21G24G12G25G29G02R02R20R22
                                R11R09R19R10R21
 128861754.594 7 100411735.03245                  24521576.520
  24521572.500          45.750          35.550
 118990634.854 7  92719974.89446                  22643158.280
  22643153.600          47.850          39.300
 113243714.676 8  88241857.487 7                  21549557.500    21549552.640
  21549551.800          50.100          46.950
 127582515.117 7  99415005.47045                  24278120.480
  24278116.040          43.850          35.050
 130890759.731 7 101992882.880 6  97743196.550 7  24907653.400    24907652.720
  24907652.040          43.200          40.550
 121500689.923 8  94675972.441 7                  23120747.180    23120742.320
  23120741.560          48.850          43.250
 109209011.689 8  85098040.043 8  81552317.318 8  20781739.460    20781737.840
  20781737.160          50.050          49.100
 105207605.658 8  81980110.427 8                  20020273.620    20020269.540
  20020268.860          50.650          50.250
 125396744.863 7  97711740.59646                  23862198.060
  23862190.520          46.250          39.800
 130233414.433 5 101292668.206 4                  24405687.100    24405690.120
  24405687.980          35.750          26.200
 104382938.018 7  81186762.757 7                  19520084.640    19520088.320
  19520086.080          44.100          46.600
 127786686.989 7  99389712.316 6                  23938733.040    23938741.600
  23938740.640          42.850          37.100
 110615570.492 7  86034356.857 6                  20700188.940    20700193.000
  20700190.820          46.650          40.900
 120351293.851 7  93606505.886 5                  22537897.860    22537900.380
  22537898.440          45.900          32.700
 123755062.989 7  96253937.722 6                  23134649.320    23134649.940
  23134647.900          44.800          39.350
 103617544.321 8  80591470.207 7                  19438374.280    19438380.560
  19438379.280          48.500          42.400
 106839377.260 8  83097280.016 7                  19965439.900    19965441.360
  19965440.320          48.900          46.750
 15  1 27 23  2 50.0000000  0 17G08G14G31G21G24G12G25G29G02R02R20R22
                                R11R09R19R10R21
 128843977.009 7 100397882.39945                  24518193.520
  24518189.540          45.700          35.700
 119002539.948 7  92729251.59646                  22645423.760
  22645419.040          47.750          40.300
 113233082.102 8  88233572.363 7                  21547534.180    21547529.340
  21547528.500          50.000          46.950
 127566842.767 7  99402793.26645                  24275138.120
  24275133.680          43.950          34.100
 130908807.419 7 102006946.002 6  97756673.699 7  24911087.740    24911087.120
  24911086.360          43.100          40.200
 121513030.706 8  94685588.634 7                  23123095.580    23123090.700
  23123089.900          48.700          43.150
 109213839.837 8  85101802.241 8  81555922.761 8  20782658.200    20782656.620
  20782655.940          50.100          49.100
 105208114.868 8  81980507.214 8                  20020370.500    20020366.440
  20020365.760          50.550          50.250
 125404999.681 7  97718172.92746                  23863768.840
  23863761.360          46.050          39.550
 130239030.527 6 101297036.327 4                  24406739.600    24406743.440
  24406740.280          36.650          27.700
 104390255.735 7  81192454.317 7                  19521453.100    19521456.760
  19521454.540          43.850          46.650
 127764924.428 7  99372785.988 6                  23934656.120    23934664.680
  23934663.620          43.100          36.050
 110601254.472 7  86023222.184 6                  20697509.860    20697513.880
  20697511.780          46.900          40.800
 120367731.537 7  93619290.736 5                  22540976.100    22540978.660
  22540976.740          46.050          32.700
 123775616.384 7  96269923.694 6                  23138491.580    23138492.260
  23138490.180          44.750          39.000
 103620273.569 8  80593592.953 7                  19438886.260    19438892.580
  19438891.320          48.450          42.300
 106827117.367 8  83087744.555 7                  19963148.820    19963150.280
  19963149.260          48.700          46.650
 15  1 27 23  2 55.0000000  0 17G08G14G31G21G24G12G25G29G02R02R20R22
                                R11R09R19R10R21
 128826200.908 7 100384030.88845                  24514810.840
  24514806.800          46.000          35.300
 119014455.460 7  92738536.40446                  22647691.220
  22647686.480          47.600          40.550
 113222460.096 8  88225295.480 7                  21545512.860    21545508.040
  21545507.200          50.050          47.050
 127551172.136 7  99390582.39145                  24272156.140
  24272151.540          43.600          33.950
 130926858.230 7 102021011.548 6  97770153.185 7  24914522.680    24914522.060
  24914521.300          43.150          40.550
 121525374.998 8  94695207.576 7                  23125444.640    23125439.720
  23125438.880          48.500          43.200
 109218675.468 8  85105570.271 8  81559533.772 8  20783578.400    20783576.820
  20783576.160          50.150          49.150
 105208638.554 8  81980915.283 8                  20020470.160    20020466.100
  20020465.420          50.600          50.200
 125413267.325 7  97724615.24446                  23865342.060
  23865334.680          45.900          40.750
 130244664.835 5 101301418.613 4                  24407795.540    24407799.840
                        34.200          29.950
 104397593.313 7  81198161.318 7                  19522825.260    19522828.960
  19522826.720          44.200          46.900
 127743166.311 7  99355863.099 6                  23930580.060    23930588.460
  23930587.420          43.300          36.950
 110586946.772 7  86012093.982 6                  20694832.360    20694836.380
  20694834.300          47.100          41.100
 120384178.539 7  93632082.854 5                  22544056.100    22544058.880
  22544056.740          45.950          32.600
 123796174.624 7  96285913.447 6                  23142334.720    23142335.400
  23142333.340          44.650          39.100
 103623019.611 8  80595728.764 7                  19439401.420    19439407.780
  19439406.480          48.850          42.250
 106814875.620 8  83078223.206 7                  19960861.100    19960862.640
  19960861.600          48.300          46.750
 15  1 27 23  3  0.0000000  0 17G08G14G31G21G24G12G25G29G02R02R20R22
                                R11R09R19R10R21
 128808424.382 7 100370179.04545                  24511428.080
  24511423.920          45.400          35.800
 119026379.458 7  92747827.83446                  22649960.300
  22649955.540          47.300          40.450
 113211846.782 8  88217025.365 7                  21543493.200    21543488.360
  21543487.540          50.050          47.100
 127535501.352 7  99378371.40945                  24269174.060
  24269169.520          43.800          34.950
 130944910.322 7 102035078.089 6  97783633.620 7  24917957.820    24917957.240
  24917956.480          42.400          40.100
 121537720.913 8  94704827.766 7                  23127793.980    23127789.080
  23127788.160          48.750          43.250
 109223516.709 8  85109342.671 8  81563148.998 8  20784499.640    20784498.080
  20784497.420          50.100          49.100
 105209174.809 8  81981333.144 8                  20020572.200    20020568.120
  20020567.460          50.650          50.150
 125421545.872 7  97731066.06146                  23866917.380
  23866910.020          45.800          40.200
 130250315.401 4 101305813.430 4                  24408854.600    24408858.640
                        29.900          28.650
 104404948.729 7  81203882.204 7                  19524200.740    19524204.480
  19524202.260          43.950          46.600
 127721410.623 7  99338942.118 5                  23926504.420    23926512.740
  23926511.740          43.100          35.900
 110572645.417 7  86000970.704 6                  20692156.080    20692160.060
  20692158.000          47.150          40.750
 120400632.819 7  93644880.632 5                  22547137.480    22547140.120
  22547138.080          45.850          31.500
 123816735.624 7  96301905.344 6                  23146178.340    23146179.080
  23146177.040          44.250          38.950
 103625780.515 8  80597876.135 6                  19439919.340    19439925.720
  19439924.420          48.850          41.800
 106802650.021 8  83068714.411 7                  19958576.400    19958577.960
  19958576.960          48.100          46.350
 15  1 27 23  3  5.0000000  0 16G08G14G31G21G24G12G25G29G02R20R22R11
                                R09R19R10R21
 128790648.520 7 100356327.72445                  24508045.440
  24508041.300          44.900          35.150
 119038313.016 7  92757126.71446                  22652231.180
  22652226.420          47.150          41.100
 113201243.243 8  88208762.866 7                  21541475.400    21541470.580
  21541469.740          49.850          47.150
 127519831.504 7  99366161.12745                  24266192.220
  24266187.580          43.900          33.600
 130962964.811 7 102049146.504 6  97797115.866 7  24921393.440    24921392.860
  24921392.140          43.000          40.100
 121550069.392 8  94714449.955 7                  23130143.780    23130138.920
  23130138.000          48.850          43.900
 109228364.637 8  85113120.279 8  81566769.206 8  20785422.140    20785420.600
  20785419.960          49.900          49.250
 105209724.706 8  81981761.636 8                  20020676.840    20020672.780
  20020672.120          50.700          50.200
 125429836.429 7  97737526.21946                  23868494.960
  23868487.600          45.800          40.200
 104412323.202 7  81209617.909 7                  19525579.820    19525583.560
  19525581.340          43.750          46.600
 127699658.642 7  99322024.013 6                  23922429.480    23922437.700
  23922436.760          42.800          37.100
 110558351.581 7  85989853.270 6                  20689481.180    20689485.100
  20689483.140          47.600          40.650
 120417095.543 7  93657684.975 5                  22550220.400    22550223.040
  22550221.000          45.700          32.050
 123837300.473 7  96317900.222 6                  23150022.720    23150023.520
  23150021.460          44.600          39.250
 103628557.291 8  80600035.853 6                  19440440.260    19440446.640
  19440445.340          48.750          41.750
 106790441.754 8  83059219.088 7                  19956294.980    19956296.540
  19956295.540          48.250          46.400
 15  1 27 23  3 10.0000000  0 16G08G14G31G21G24G12G25G29G02R20R22R11
                                R09R19R10R21
 128772873.975 7 100342477.45845                  24504663.040
  24504658.920          45.850          34.750
 119050256.768 7  92766433.54446                  22654503.980
  22654499.280          47.200          40.550
 113190650.095 8  88200508.472 7                  21539459.540    21539454.780
  21539453.920          49.700          47.050
 127504163.258 7  99353952.16045                  24263210.640
  24263206.080          44.750          33.900
 130981022.225 7 102063217.201 6  97810600.282 7  24924829.660    24924829.080
  24924828.260          42.950          39.800
 121562421.243 8  94724074.760 7                  23132494.240    23132489.360
  23132488.560          48.850          43.750
 109233219.872 8  85116903.577 8  81570394.875 8  20786346.060    20786344.500
  20786343.900          50.050          49.100
 105210288.905 8  81982201.273 8                  20020784.180    20020780.160
  20020779.480          50.700          50.200
 125438139.561 7  97743996.19646                  23870074.960
  23870067.680          46.150          39.700
 104419717.203 7  81215368.802 7                  19526962.540    19526966.280
  19526964.040          43.600          46.550
 127677910.937 7  99305109.266 6                  23918355.360    23918363.580
  23918362.640          42.850          37.450
 110544065.988 7  85978742.263 6                  20686807.860    20686811.780
  20686809.800          47.650          40.800
 120433567.344 7  93670496.373 5                  22553305.000    22553307.620
  22553305.640          45.450          31.150
 123857869.868 7  96333898.645 6                  23153867.960    23153868.800
  23153866.760          44.650          39.750
 103631350.673 8  80602208.478 7                  19440964.300    19440970.720
  19440969.380          48.900          42.100
 106778251.424 8  83049737.720 7                  19954016.900    19954018.500
  19954017.480          48.300          46.700
 15  1 27 23  3 15.0000000  0 16G08G14G31G21G24G12G25G29G02R20R22R11
                                R09R19R10R21
 128755099.624 7 100328627.28645                  24501280.680
  24501276.560          45.900          35.700
 119062209.578 7  92775747.40546                  22656778.480
  22656773.880          47.550          39.300
 113180066.272 8  88192261.335 7                  21537445.460    21537440.760
  21537439.880          49.700          46.900
 127488495.459 7  99341743.48745                  24260229.200
  24260224.500          44.600          33.400
 130999081.432 7 102077289.301 6  97824086.029 7  24928266.200    24928265.580
  24928264.840          42.950          39.850
 121574775.321 8  94733701.296 7                  23134845.140    23134840.260
  23134839.560          49.050          43.650
 109238081.276 8  85120691.682 8  81574025.128 8  20787271.140    20787269.600
  20787269.000          49.900          49.100
 105210866.174 8  81982651.091 8                  20020894.040    20020890.000
  20020889.340          50.650          50.150
 125446454.130 7  97750475.07546                  23871657.180
  23871649.900          46.500          39.000
 104427129.685 7  81221134.054 7                  19528348.700    19528352.400
  19528350.180          43.600          46.300
 127656166.387 7  99288196.942 6                  23914281.800    23914289.960
  23914289.060          43.200          37.200
 110529787.374 7  85967636.678 6                  20684135.820    20684139.620
  20684137.760          47.050          40.850
 120450046.978 7  93683313.860 5                  22556391.080    22556393.780
  22556391.720          45.850          32.000
 123878442.645 7  96349899.681 6                  23157713.860    23157714.660
  23157712.720          44.400          39.900
 103634159.533 8  80604393.141 7                  19441491.240    19441497.620
  19441496.340          48.950          42.050
 106766077.849 8  83040269.390 7                  19951741.940    19951743.560
  19951742.560          48.400          46.650
 15  1 27 23  3 20.0000000  0 16G08G14G31G21G24G12G25G29G02R20R22R11
                                R09R19R10R21
 128737326.343 7 100314777.95946                  24497898.540
  24497894.360          45.150          36.000
 119074172.311 7  92785069.00446                  22659054.900
  22659050.300          47.850          40.650
 113169492.634 8  88184022.132 7                  21535433.320    21535428.680
  21535427.760          49.650          47.100
 127472828.987 7  99329535.85545                  24257247.960
  24257243.100          44.200          31.850
 131017143.362 7 102091363.512 6  97837573.814 7  24931703.220    24931702.620
  24931701.960          42.550          39.850
 121587132.471 8  94743330.240 7                  23137196.620    23137191.740
  23137191.040          49.150          43.100
 109242949.759 8  85124485.297 8  81577660.680 8  20788197.560    20788196.060
  20788195.440          49.800          49.100
 105211457.476 8  81983111.848 8                  20021006.560    20021002.540
  20021001.860          50.650          50.200
 125454781.036 7  97756963.57846                  23873241.740
  23873234.460          46.500          39.650
 104434561.495 7  81226914.346 7                  19529738.460    19529742.180
  19529739.940          43.750          46.400
 127634425.792 7  99271287.690 6                  23910208.960    23910216.940
  23910216.220          42.450          36.200
 110515516.650 7  85956537.218 6                  20681465.260    20681469.040
  20681467.200          46.900          40.950
 120466535.374 7  93696138.162 5                  22559478.820    22559481.460
  22559479.400          45.450          31.150
 123899019.615 7  96365903.983 6                  23161560.560    23161561.340
  23161559.480          44.600          40.000
 103636984.700 8  80606590.486 7                  19442021.220    19442027.620
  19442026.320          48.950          42.100
 106753922.045 8  83030814.893 7                  19949470.280    19949471.960
  19949470.940          48.350          46.650
 15  1 27 23  3 25.0000000  0 17G08G14G31G21G24G12G25G29G02R02R20R22
                                R11R09R19R10R21
 128719552.302 7 100300928.07845                  24494516.220
  24494512.120          44.850          35.500
 119086143.111 8  92794396.89846                  22661332.840
  22661328.320          48.000          39.250
 113158927.296 8  88175789.409 7                  21533422.740    21533418.160
  21533417.240          49.600          47.050
 127457162.048 7  99317327.87245                  24254266.600
  24254261.720          43.850          32.300
 131035206.207 7 102105438.429 6  97851062.272 7  24935140.500    24935139.840
  24935139.200          42.800          39.850
 121599490.906 8  94752960.192 7                  23139548.380    23139543.460
  23139542.720          48.750          42.850
 109247823.460 8  85128282.988 8  81581300.134 8  20789124.980    20789123.500
  20789122.860          49.900          48.900
 105212060.964 8  81983582.096 8                  20021121.380    20021117.380
  20021116.720          50.800          50.150
 125463118.426 7  97763460.25546                  23874828.280
  23874820.980          46.300          39.750
 130278830.81615                                  24414196.560
                        32.200
 104442010.778 7  81232708.235 7                  19531131.520    19531135.220
  19531133.000          44.150          46.750
 127612687.448 7  99254380.172 6                  23906136.580    23906144.500
  23906143.780          42.900          36.850
 110501251.966 7  85945442.470 6                  20678795.800    20678799.540
  20678797.780          47.350          40.900
 120483030.732 7  93708967.879 5                  22562567.820    22562570.520
  22562568.440          45.500          31.800
 123919599.065 7  96381910.215 6                  23165407.660    23165408.520
  23165406.660          44.950          40.200
 103639824.328 8  80608799.082 7                  19442553.920    19442560.320
  19442559.040          48.900          42.250
 106741782.075 7  83021372.702 7                  19947201.540    19947203.320
  19947202.300          47.950          46.750
 15  1 27 23  3 30.0000000  0 17G08G14G31G21G24G12G25G29G02R02R20R22
                                R11R09R19R10R21
 128701781.096 7 100287080.39945                  24491134.400
  24491130.340          45.600          34.150
 119098125.388 7  92803733.73346                  22663612.980
  22663608.500          47.850          40.300
 113148373.884 8  88167565.975 7                  21531414.440    21531409.920
  21531408.980          49.800          47.150
 127441498.224 7  99305122.33745                  24251285.860
  24251280.940          43.750          35.300
 131053273.402 7 102119516.751 6  97864553.992 7  24938578.620    24938577.900
  24938577.240          42.450          39.750
 121611854.129 8  94762593.863 7                  23141901.040    23141896.120
  23141895.300          48.850          43.050
 109252705.940 8  85132087.520 8  81584946.136 8  20790054.060    20790052.620
  20790051.960          49.900          49.100
 105212680.186 8  81984064.607 8                  20021239.200    20021235.220
  20021234.560          50.850          50.250
 125471469.831 7  97769967.82946                  23876417.480
  23876410.220          46.350          39.000
 130284585.989 5                                  24415276.340
                        32.500
 104449481.066 7  81238518.468 7                  19532528.480    19532532.220
  19532530.000          44.100          46.800
 127590954.951 7  99237477.228 6                  23902065.280    23902073.080
  23902072.420          43.400          37.700
 110486997.062 7  85934355.331 6                  20676128.180    20676131.860
  20676130.160          47.350          40.600
 120499536.579 7  93721805.752 5                  22565658.800    22565661.520
  22565659.440          45.250          31.650
 123940184.367 7  96397921.022 6                  23169255.840    23169256.700
  23169254.920          44.850          40.550
 103642681.949 8  80611021.674 7                  19443090.000    19443096.420
  19443095.140          48.850          42.400
 106729661.605 7  83011945.670 7                  19944936.500    19944938.320
  19944937.320          47.900          46.850
 15  1 27 23  3 35.0000000  0 17G08G14G31G21G24G12G25G29G02R02R20R22
                                R11R09R19R10R21
 128684009.570 7 100273232.45745                  24487752.540
  24487748.540          45.350          35.500
 119110115.994 7  92813077.06246                  22665894.700
  22665890.260          47.700          40.050
 113137829.211 8  88159349.343 7                  21529407.800    21529403.340
  21529402.420          49.900          47.300
 127425834.340 7  99292916.72745                  24248305.040
  24248300.280          44.000          32.500
 131071341.859 7 102133596.055 6  97878046.672 7  24942016.960    24942016.260
  24942015.460          42.550          40.150
 121624218.980 8  94772228.821 7                  23144254.000    23144249.100
  23144248.260          49.300          43.550
 109257594.024 8  85135896.404 8  81588596.331 8  20790984.220    20790982.760
  20790982.120          50.100          49.000
 105213311.943 8  81984556.887 8                  20021359.400    20021355.440
  20021354.780          50.700          50.200
 125479832.124 7  97776483.90446                  23878008.780
  23878001.520          46.700          39.300
 130290357.134 4                                  24416358.020
                        29.600
 104456969.206 7  81244342.577 7                  19533928.780    19533932.520
  19533930.340          44.100          46.950
 127569225.088 7  99220576.320 6                  23897994.540    23898002.180
  23898001.620          44.200          38.900
 110472748.663 7  85923273.231 6                  20673461.780    20673465.520
  20673463.740          47.300          40.850
 120516049.695 7  93734649.282 5                  22568751.180    22568753.840
  22568751.760          45.800          31.850
 123960772.456 7  96413933.980 6                  23173104.600    23173105.500
  23173103.680          44.750          40.600
 103645554.477 8  80613255.857 7                  19443628.860    19443635.320
  19443634.020          48.750          42.250
 106717557.395 8  83002531.285 7                  19942674.480    19942676.340
  19942675.360          48.150          46.850
 15  1 27 23  3 40.0000000  0 17G08G14G31G21G24G12G25G29G02R02R20R22
                                R11R09R19R10R21
 128666238.719 7 100259385.02245                  24484370.820
  24484366.760          44.700          32.900
 119122116.070 7  92822427.76746                  22668178.240
  22668173.800          47.800          40.150
 113127294.321 8  88151140.338 7                  21527403.020    21527398.640
  21527397.700          49.700          47.400
 127410171.442 7  99280711.88546                  24245324.460
  24245319.620          43.650          37.200
 131089412.683 7 102147677.201 6  97891541.099 7  24945455.760    24945455.120
  24945454.260          42.600          40.200
 121636586.483 8  94781865.842 7                  23146607.520    23146602.540
  23146601.760          49.300          43.300
 109262488.746 8  85139710.483 8  81592251.484 8  20791915.640    20791914.180
  20791913.560          50.000          48.950
 105213957.296 8  81985059.757 8                  20021482.200    20021478.240
  20021477.580          50.750          50.100
 125488206.294 7  97783009.23146                  23879602.340
  23879595.100          46.400          39.650
                                                                  24417445.420
                                        30.000
 104464476.143 7  81250181.299 7                  19535332.560    19535336.360
  19535334.180          44.350          46.850
 127547498.965 7  99203678.326 6                  23893924.440    23893932.180
  23893931.520          44.100          39.850
 110458507.901 7  85912197.082 6                  20670796.840    20670800.520
  20670798.760          47.350          40.750
 120532571.143 7  93747499.305 5                  22571845.080    22571847.780
  22571845.680          45.200          32.650
 123981364.246 7  96429949.815 6                  23176953.980    23176955.040
  23176953.120          44.400          40.600
 103648442.928 8  80615502.429 7                  19444170.720    19444177.220
  19444175.900          48.600          42.250
 106705470.472 8  82993130.349 7                  19940415.720    19940417.620
  19940416.640          48.150          46.850
 15  1 27 23  3 45.0000000  0 16G08G14G31G21G24G12G25G29G02R20R22R11
                                R09R19R10R21
 128648468.370 7 100245538.02545                  24480989.180
  24480985.220          44.850          35.300
 119134125.413 7  92831785.69846                  22670463.540
  22670459.100          47.750          40.300
 113116769.055 8  88142938.840 7                  21525400.080    21525395.740
  21525394.820          49.800          47.300
 127394509.358 7  99268507.70945                  24242344.060
  24242339.180          44.000          35.300
 131107485.436 7 102161759.849 6  97905036.957 7  24948894.900    24948894.240
  24948893.440          42.550          40.050
 121648956.476 8  94791504.783 7                  23148961.480    23148956.480
  23148955.700          48.800          43.000
 109267389.949 8  85143529.595 8  81595911.467 8  20792848.320    20792846.860
  20792846.200          50.150          48.950
 105214616.033 8  81985573.065 8                  20021607.540    20021603.600
  20021602.940          50.750          50.050
 125496592.174 7  97789543.67946                  23881198.100
  23881190.940          46.300          40.000
 104472001.697 7  81256034.512 7                  19536739.860    19536743.660
  19536741.500          44.650          46.750
 127525776.309 7  99186783.034 6                  23889855.040    23889862.660
  23889862.040          44.300          39.900
 110444274.497 7  85901126.669 6                  20668133.240    20668136.940
  20668135.140          47.450          40.750
 120549100.732 7  93760355.644 5                  22574940.540    22574943.140
  22574941.120          45.400          31.650
 124001959.485 7  96445968.328 6                  23180804.020    23180805.100
  23180803.260          44.500          40.850
 103651347.205 8  80617761.316 7                  19444715.540    19444722.040
  19444720.720          48.350          42.300
 106693400.729 8  82983742.777 7                  19938160.160    19938162.080
  19938161.100          48.450          46.800
 15  1 27 23  3 50.0000000  0 16G08G14G31G21G24G12G25G29G02R20R22R11
                                R09R19R10R21
 128630699.408 7 100231692.08145                  24477607.820
  24477603.980          45.400          35.950
 119146144.822 7  92841151.47046                  22672750.780
  22672746.300          47.850          40.700
 113106254.246 8  88134745.483 7                  21523399.120    21523394.820
  21523393.940          49.650          47.350
 127378848.924 7  99256304.77245                  24239363.960
  24239359.120          44.050          34.400
 131125560.990 7 102175844.679 6  97918534.918 7  24952334.580    24952333.880
  24952333.160          42.950          40.000
 121661329.736 8  94801146.280 7                  23151316.060    23151311.020
  23151310.200          48.750          42.950
 109272298.404 8  85147354.369 8  81599576.876 8  20793782.360    20793780.900
  20793780.240          50.100          48.900
 105215288.980 8  81986097.439 8                  20021735.580    20021731.640
  20021731.000          50.750          50.150
 125504990.564 7  97796087.87746                  23882796.260
  23882789.120          46.400          39.850
 104479546.780 7  81261902.916 7                  19538150.840    19538154.660
  19538152.480          44.400          46.600
 127504058.006 7  99169891.121 6                  23885786.440    23885794.040
  23885793.360          44.350          40.300
 110430049.304 7  85890062.634 6                  20665471.160    20665474.860
  20665473.080          47.300          41.050
 120565639.273 7  93773218.971 5                  22578037.660    22578040.220
  22578038.220          45.450          31.750
 124022559.203 7  96461990.325 6                  23184654.860    23184656.020
  23184654.240          44.100          40.850
 103654267.978 8  80620033.030 7                  19445263.480    19445269.940
  19445268.640          48.350          42.300
 106681348.947 8  82974369.181 7                  19935907.940    19935909.920
  19935908.920          48.500          46.850
 15  1 27 23  3 55.0000000  0 16G08G14G31G21G24G12G25G29G02R20R22R11
                                R09R19R10R21
 128612930.586 7 100217846.23945                  24474226.500
  24474222.640          45.300          34.500
 119158173.026 7  92850524.10246                  22675039.660
  22675035.180          47.600          40.100
 113095748.626 8  88126559.292 7                  21521399.940    21521395.660
  21521394.820          49.550          47.300
 127363188.873 7  99244102.16445                  24236383.940
  24236379.100          44.350          35.150
 131143638.125 7 102189930.755 6  97932034.056 7  24955774.560    24955773.820
  24955773.100          43.200          40.100
 121673705.011 8  94810789.370 7                  23153670.980    23153665.940
  23153665.100          48.450          43.100
 109277212.887 8  85151183.840 8  81603246.774 8  20794717.560    20794716.100
  20794715.440          49.950          48.950
 105215974.841 8  81986631.878 8                  20021866.060    20021862.160
  20021861.520          50.700          50.200
 125513400.213 7  97802640.85046                  23884396.540
  23884389.460          46.200          40.450
 104487109.942 7  81267785.381 7                  19539565.220    19539569.020
  19539566.800          43.850          46.650
 127482342.783 7  99153001.609 6                  23881718.380    23881725.920
  23881725.240          44.650          40.100
 110415831.014 7  85879003.956 6                  20662810.400    20662814.100
  20662812.300          47.150          41.000
 120582185.555 7  93786088.301 5                  22581136.280    22581139.000
  22581136.780          45.650          32.500
 124043161.853 7  96478014.600 6                  23188506.320    23188507.500
  23188505.740          44.700          40.550
 103657203.878 8  80622316.504 7                  19445814.240    19445820.660
  19445819.420          48.750          42.200
 106669313.898 8  82965008.592 7                  19933658.880    19933660.840
  19933659.860          48.400          46.800
 15  1 27 23  4  0.0000000  0 16G08G14G31G21G24G12G25G29G02R20R22R11
                                R09R19R10R21
 128595163.129 7 100204001.46446                  24470845.440
  24470841.560          44.650          36.950
 119170211.290 7  92859904.55346                  22677330.440
  22677325.960          47.600          39.750
 113085253.514 8  88118381.286 7                  21519402.740    21519398.520
  21519397.680          49.800          47.300
 127347530.531 7  99231900.86445                  24233404.240
  24233399.360          44.200          35.250
 131161718.135 7 102204019.070 6  97945535.346 7  24959215.060    24959214.340
  24959213.580          43.200          41.100
 121686083.586 8  94820435.019 7                  23156026.520    23156021.540
  23156020.640          48.500          43.650
 109282134.659 8  85155018.981 8  81606922.121 8  20795654.140    20795652.660
  20795652.000          50.000          48.850
 105216674.898 8  81987177.374 8                  20021999.260    20021995.380
  20021994.740          50.650          50.100
 125521822.380 7  97809203.57546                  23885999.220
  23885992.160          46.250          40.600
 104494692.617 7  81273683.011 7                  19540983.220    19540987.040
  19540984.800          43.450          46.800
 127460632.009 7  99136115.539 6                  23877651.140    23877658.600
  23877657.940          44.800          40.050
 110401620.957 7  85867951.685 6                  20660151.200    20660154.840
  20660153.060          47.400          40.600
 120598740.704 7  93798964.524 5                  22584236.520    22584239.340
  22584237.020          45.700          31.650
 124063768.932 7  96494042.334 6                  23192358.600    23192359.840
  23192358.080          44.750          40.400
 103660156.525 8  80624613.001 7                  19446368.140    19446374.520
  19446373.360          49.100          42.300
 106657296.843 8  82955661.994 7                  19931413.220    19931415.160
  19931414.160          48.600          46.900
 15  1 27 23  4  5.0000000  0 16G08G14G31G21G24G12G25G29G02R20R22R11
                                R09R19R10R21
 128577396.556 7 100190157.37946                  24467464.540
  24467460.680          44.600          36.950
 119182259.160 7  92869292.50646                  22679623.060
  22679618.620          46.950          40.100
 113074768.433 8  88110211.085 7                  21517407.480    21517403.280
  21517402.440          49.850          47.350
 127331873.426 7  99219700.53545                  24230424.800
  24230419.900          43.800          34.650
 131179800.626 7 102218109.286 6  97959038.491 7  24962656.080    24962655.340
  24962654.700          43.000          40.500
 121698465.012 8  94830082.859 7                  23158382.600    23158377.680
  23158376.800          48.300          43.700
 109287063.254 8  85158859.445 8  81610602.582 8  20796592.000    20796590.560
  20796589.840          49.850          48.950
 105217388.674 8  81987733.558 8                  20022135.080    20022131.220
  20022130.580          50.700          50.150
 125530256.591 7  97815775.69046                  23887604.180
  23887597.140          46.550          39.900
 104502294.316 7  81279595.442 7                  19542404.760    19542408.620
  19542406.380          43.650          46.900
 127438925.183 7  99119232.530 6                  23873584.680    23873592.140
  23873591.320          45.000          39.950
 110387418.819 7  85856905.582 6                  20657493.460    20657497.080
  20657495.320          47.150          40.300
 120615304.340 7  93811847.335 5                  22587338.360    22587341.280
  22587338.860          44.850          31.850
 124084379.854 7  96510073.039 6                  23196211.620    23196212.820
  23196211.120          44.900          40.050
 103663125.355 8  80626922.085 7                  19446925.100    19446931.460
  19446930.300          49.200          42.250
 106645297.345 8  82946329.038 7                  19929170.820    19929172.760
  19929171.740          48.400          46.950
 15  1 27 23  4 10.0000000  0 16G08G14G31G21G24G12G25G29G02R20R22R11
                                R09R19R10R21
 128559631.746 7 100176314.68845                  24464083.980
  24464080.160          44.950          35.550
 119194317.443 7  92878688.56146                  22681917.640
  22681913.260          46.850          40.700
 113064294.228 8  88102049.371 7                  21515414.300    21515410.100
  21515409.280          49.650          47.050
 127316218.360 7  99207501.79845                  24227445.760
  24227440.820          43.750          33.250
 131197886.258 7 102232201.974 6  97972543.976 7  24966097.720    24966096.920
  24966096.260          43.400          40.200
 121710850.106 7  94839733.557 7                  23160739.320    23160734.460
  23160733.640          47.950          43.250
 109291999.506 8  85162705.865 8  81614288.732 8  20797531.340    20797529.900
  20797529.160          49.750          48.750
 105218117.032 8  81988301.117 8                  20022273.640    20022269.820
  20022269.200          50.600          50.050
 125538703.682 7  97822357.84546                  23889211.620
  23889204.620          46.350          39.200
 104509915.720 7  81285523.203 7                  19543830.060    19543833.860
  19543831.660          43.650          47.000
 127417223.063 7  99102353.197 6                  23869519.080    23869526.500
  23869525.680          45.000          40.700
 110373225.289 7  85845866.177 6                  20654837.360    20654840.980
  20654839.140          47.150          40.800
 120631877.359 7  93824737.461 5                  22590441.940    22590444.880
  22590442.440          45.700          32.300
 124104995.374 7  96526107.332 6                  23200065.480    23200066.680
  23200064.980          44.600          40.150
 103666111.166 8  80629244.382 7                  19447485.240    19447491.620
  19447490.440          49.200          42.300
 106633316.237 8  82937010.398 7                  19926931.880    19926933.800
  19926932.760          48.700          46.950
 15  1 27 23  4 15.0000000  0 16G08G14G31G21G24G12G25G29G02R20R22R11
                                R09R19R10R21
 128541866.066 7 100162471.30946                  24460703.260
  24460699.480          44.650          36.350
 119206383.417 7  92888090.62746                  22684213.680
  22684209.360          46.900          39.750
 113053828.239 8  88093894.065 7                  21513422.680    21513418.500
  21513417.680          49.700          46.900
 127300562.711 7  99195302.61045                  24224466.560
  24224461.720          44.050          35.650
 131215972.396 7 102246295.060 6  97986049.846 7  24969539.420    24969538.680
  24969537.900          43.500          39.350
 121723236.208 8  94849385.051 7                  23163096.260    23163091.460
  23163090.620          48.150          42.750
 109296940.761 8  85166556.197 8  81617978.624 8  20798471.620    20798470.160
  20798469.420          49.650          48.750
 105218857.291 8  81988877.941 8                  20022414.480    20022410.680
  20022410.080          50.600          50.050
 125547160.965 7  97828947.92646                  23890820.980
  23890814.040          46.350          40.000
 104517554.223 7  81291464.260 7                  19545258.460    19545262.300
  19545260.100          43.750          46.700
 127395523.067 7  99085475.509 6                  23865453.900    23865461.260
  23865460.420          44.300          40.350
 110359037.769 7  85834831.432 6                  20652182.340    20652185.940
  20652184.080          47.050          40.750
 120648456.962 7  93837632.706 5                  22593546.800    22593549.660
  22593547.280          45.800          31.650
 124125612.855 7  96542143.145 6                  23203919.700    23203920.960
  23203919.180          44.650          39.900
 103669111.199 8  80631577.741 7                  19448048.060    19448054.420
  19448053.240          49.100          42.050
 106621350.845 8  82927703.984 7                  19924695.880    19924697.760
  19924696.720          48.700          46.850
 15  1 27 23  4 20.0000000  0 16G08G14G31G21G24G12G25G29G02R20R22R11
                                R09R19R10R21
 128524100.717 7 100148628.18845                  24457322.620
  24457318.960          45.050          35.650
 119218458.314 7  92897499.63546                  22686511.420
  22686507.120          47.250          39.900
 113043371.688 8  88085746.105 7                  21511432.860    21511428.700
  21511427.860          49.800          46.950
 127284907.674 7  99183103.89245                  24221487.500
  24221482.720          44.400          35.250
 131234060.254 7 102260389.503 6  97999556.982 7  24972981.420    24972980.600
  24972979.840          42.850          38.850
 121735624.495 8  94859038.282 7                  23165453.620    23165448.920
  23165447.980          48.050          42.550
 109301888.206 8  85170411.345 8  81621673.141 8  20799413.080    20799411.640
  20799410.880          49.750          48.750
 105219610.626 8  81989464.956 8                  20022557.820    20022554.020
  20022553.420          50.700          50.000
 125555629.707 7  97835546.94546                  23892432.540
  23892425.560          46.900          39.500
 104525210.941 7  81297419.486 7                  19546690.280    19546694.140
  19546691.940          43.750          46.650
 127373826.399 7  99068600.429 6                  23861389.340    23861396.660
  23861395.820          45.100          40.850
 110344857.447 7  85823802.291 6                  20649528.680    20649532.260
  20649530.400          46.950          40.550
 120665044.391 7  93850534.037 5                  22596653.080    22596656.060
  22596653.560          45.800          31.950
 124146233.594 7  96558181.495 6                  23207774.540    23207775.740
  23207774.000          44.700          39.550
 103672126.680 8  80633923.113 6                  19448613.780    19448620.160
  19448618.900          48.900          41.800
 106609402.339 8  82918410.710 7                  19922463.020    19922464.900
  19922463.840          48.400          46.750
 15  1 27 23  4 25.0000000  0 16G08G14G31G21G24G12G25G29G02R20R22R11
                                R09R19R10R21
 128506336.532 7 100134785.96645                  24453942.220
  24453938.560          45.250          35.600
 119230542.941 7  92906916.21946                  22688811.040
  22688806.780          47.350          39.750
 113032925.418 8  88077606.157 7                  21509444.980    21509440.820
  21509439.960          49.850          46.950
 127269254.137 7  99170906.35145                  24218508.740
  24218503.960          45.000          33.000
 131252150.690 7 102274485.939 6  98013066.071 7  24976423.900    24976423.140
  24976422.300          43.150          39.250
 121748015.818 8  94868693.865 7                  23167811.560    23167806.940
  23167805.920          48.350          42.850
 109306842.648 8  85174271.949 8  81625372.896 8  20800355.860    20800354.420
  20800353.660          49.800          48.850
 105220377.872 8  81990062.810 8                  20022703.800    20022700.020
  20022699.420          50.650          50.050
 125564110.722 7  97842155.54146                  23894046.480
  23894039.400          46.700          40.000
 104532886.879 7  81303389.662 7                  19548125.740    19548129.580
  19548127.360          43.550          46.650
 127352134.055 7  99051728.677 6                  23857325.560    23857332.840
  23857332.000          45.000          41.050
 110330685.153 7  85812779.391 6                  20646876.500    20646880.200
  20646878.260          46.900          40.700
 120681640.499 7  93863442.132 5                  22599761.000    22599764.060
  22599761.480          45.000          31.600
 124166858.251 7  96574222.903 6                  23211630.080    23211631.340
  23211629.560          44.600          39.650
 103675158.496 8  80636281.183 6                  19449182.600    19449188.860
  19449187.620          48.950          41.750
 106597471.700 8  82909131.329 7                  19920233.500    19920235.400
  19920234.300          48.450          46.750
 15  1 27 23  4 30.0000000  0 16G08G14G31G21G24G12G25G29G02R20R22R11
                                R09R19R10R21
 128488574.407 7 100120945.34545                  24450562.160
  24450558.520          44.950          34.800
 119242638.133 7  92916341.03646                  22691112.660
  22691108.440          47.200          39.850
 113022490.337 8  88069474.924 7                  21507459.260    21507455.080
  21507454.220          49.950          47.100
 127253602.999 7  99158710.66545                  24215530.460
  24215525.640          44.850          34.700
 131270244.521 7 102288585.007 6  98026577.665 7  24979867.020    24979866.260
  24979865.420          43.200          39.900
 121760411.078 8  94878352.494 7                  23170170.280    23170165.660
  23170164.700          48.750          43.400
 109311805.007 8  85178138.722 8  81629078.546 8  20801300.160    20801298.720
  20801297.940          49.850          48.900
 105221159.913 8  81990672.199 8                  20022852.580    20022848.840
  20022848.240          50.700          50.150
 125572604.783 7  97848774.28346                  23895662.860
  23895655.740          46.600          40.950
 104540582.730 7  81309375.322 7                  19549564.880    19549568.680
  19549566.520          43.500          46.700
 127330446.774 7  99034860.877 6                  23853262.760    23853270.040
  23853269.160          45.200          40.400
 110316522.003 7  85801763.612 6                  20644226.040    20644229.760
  20644227.880          47.200          41.100
 120698246.145 7  93876357.618 5                  22602870.680    22602873.740
  22602871.240          45.650          31.550
 124187487.773 7  96590268.089 6                  23215486.580    23215487.780
  23215486.020          44.050          39.700
 103678207.591 8  80638652.704 6                  19449754.620    19449760.840
  19449759.580          48.900          41.700
 106585559.710 8  82899866.450 7                  19918007.460    19918009.360
  19918008.260          48.650          46.850
 15  1 27 23  4 35.0000000  0 16G08G14G31G21G24G12G25G29G02R20R22R11
                                R09R19R10R21
 128470811.825 7 100107104.38046                  24447182.100
  24447178.440          44.850          36.900
 119254741.523 7  92925772.24546                  22693415.860
  22693411.660          46.950          40.150
 113012063.889 8  88061350.416 7                  21505475.200    21505471.000
  21505470.120          49.900          47.200
 127237951.698 7  99146514.87745                  24212552.120
  24212547.260          44.900          33.750
 131288339.205 7 102302684.741 6  98040089.916 7  24983310.360    24983309.560
  24983308.800          44.100          40.750
 121772807.741 8  94888012.213 7                  23172529.280    23172524.660
  23172523.740          48.750          43.550
 109316772.771 8  85182009.711 8  81632788.236 8  20802245.500    20802244.060
  20802243.260          49.900          48.950
 105221954.238 8  81991291.157 8                  20023003.700    20023000.000
  20022999.400          50.650          50.200
 125581109.390 7  97855401.24846                  23897281.240
  23897274.100          46.750          40.200
 104548295.982 7  81315374.520 7                  19551007.320    19551011.100
  19551008.940          43.900          46.850
 127308762.093 7  99017995.086 6                  23849200.400    23849207.660
  23849206.780          44.800          40.600
 110302365.337 7  85790752.874 6                  20641576.800    20641580.520
  20641578.680          47.150          41.100
 120714858.746 7  93889278.515 5                  22605981.660    22605984.760
  22605982.320          46.000          31.900
 124208119.665 7  96606315.101 6                  23219343.500    23219344.620
  23219342.940          44.350          39.800
 103681271.382 8  80641035.653 6                  19450329.400    19450335.580
  19450334.300          49.000          41.900
 106573663.878 8  82890614.138 7                  19915784.500    19915786.340
  19915785.220          48.650          46.850
 15  1 27 23  4 40.0000000  0 16G08G14G31G21G24G12G25G29G02R20R22R11
                                R09R19R10R21
 128453050.659 7 100093264.49845                  24443802.280
  24443798.560          44.850          35.700
 119266854.821 7  92935211.15846                  22695720.940
  22695716.740          46.950          39.700
 113001647.983 8  88053234.130 7                  21503493.140    21503488.900
  21503488.040          49.900          47.150
 127222302.098 7  99134320.38945                  24209574.100
  24209569.280          44.250          34.050
 131306436.667 7 102316786.629 6  98053604.240 7  24986754.280    24986753.480
  24986752.700          44.050          40.700
 121785207.588 8  94897674.426 7                  23174888.900    23174884.260
  23174883.440          48.750          43.350
 109321747.757 8  85185886.318 8  81636503.331 8  20803192.200    20803190.760
  20803189.960          50.050          48.850
 105222762.710 8  81991921.131 8                  20023157.540    20023153.840
  20023153.240          50.650          50.150
 125589626.400 7  97862037.87546                  23898901.980
  23898894.820          46.750          40.050
 104556028.565 7  81321388.751 7                  19552453.360    19552457.160
  19552454.980          43.950          46.850
 127287081.850 7  99001132.773 6                  23845138.920    23845146.120
  23845145.240          44.650          40.500
 110288216.922 7  85779748.553 6                  20638929.160    20638932.840
  20638931.020          47.100          41.200
 120731480.223 7  93902206.347 5                  22609094.340    22609097.540
  22609095.020          45.600          32.300
 124228755.651 7  96622365.311 6                  23223201.160    23223202.260
  23223200.620          44.200          39.650
 103684351.747 8  80643431.490 7                  19450907.300    19450913.500
  19450912.160          49.050          42.300
 106561786.107 8  82881375.867 7                  19913564.880    19913566.680
  19913565.580          48.400          47.150
 15  1 27 23  4 45.0000000  0 16G08G14G31G21G24G12G25G29G02R20R22R11
                                R09R19R10R21
 128435289.608 7 100079424.73946                  24440422.440
  24440418.760          44.900          36.450
 119278976.572 7  92944656.69246                  22698027.620
  22698023.440          46.950          40.400
 112991241.318 8  88045125.052 7                  21501512.860    21501508.580
  21501507.720          50.000          47.050
 127206652.943 7  99122126.28845                  24206596.100
  24206591.160          44.600          35.250
 131324535.490 7 102330889.601 6  98067119.583 7  24990198.420    24990197.640
  24990196.880          43.700          40.150
 121797609.364 8  94907338.155 7                  23177248.920    23177244.240
  23177243.420          48.800          43.300
 109326728.693 8  85189767.569 8  81640222.857 8  20804140.040    20804138.600
  20804137.780          50.150          48.800
 105223584.009 8  81992561.108 8                  20023313.820    20023310.140
  20023309.540          50.650          50.150
 125598154.505 7  97868683.16246                  23900524.820
  23900517.640          46.650          39.650
 104563779.081 7  81327416.938 7                  19553902.720    19553906.560
  19553904.380          44.250          46.800
 127265404.768 7  98984272.903 6                  23841078.040    23841085.200
  23841084.260          45.600          40.350
 110274075.627 7  85768749.779 6                  20636282.860    20636286.520
  20636284.720          47.400          41.000
 120748109.255 7  93915140.034 5                  22612208.420    22612211.620
  22612209.160          46.100          32.000
 124249394.537 7  96638417.791 6                  23227059.380    23227060.420
  23227058.820          44.100          39.900
 103687447.396 8  80645839.226 7                  19451488.060    19451494.260
  19451492.920          49.150          42.600
 106549925.013 8  82872150.578 7                  19911348.380    19911350.200
  19911349.080          48.650          47.000
 15  1 27 23  4 50.0000000  0 16G08G14G31G21G24G12G25G29G02R20R22R11
                                R09R19R10R21
 128417530.565 7 100065586.50846                  24437043.000
  24437039.340          44.800          36.950
 119291108.709 7  92954110.30646                  22700336.260
  22700332.100          46.600          40.250
 112980845.791 8  88037024.638 7                  21499534.700    21499530.380
  21499529.520          50.050          47.100
 127191006.110 7  99109933.97745                  24203618.580
  24203613.700          44.450          33.800
 131342637.708 7 102344995.197 6  98080637.432 7  24993643.160    24993642.400
  24993641.720          43.150          40.200
 121810014.971 8  94917004.866 7                  23179609.660    23179604.960
  23179604.120          48.750          43.400
 109331717.458 8  85193654.916 8  81643948.234 8  20805089.380    20805087.920
  20805087.100          50.000          48.750
 105224419.985 8  81993212.516 8                  20023472.880    20023469.220
  20023468.620          50.600          50.200
 125606695.577 7  97875338.54546                  23902150.120
  23902142.920          46.200          39.700
 104571549.497 7  81333460.589 7                  19555355.800    19555359.680
  19555357.480          44.150          46.650
 127243732.703 7  98967416.932 6                  23837018.080    23837025.160
  23837024.220          45.100          40.000
 110259943.256 7  85757757.933 6                  20633638.180    20633641.780
  20633640.060          47.400          41.050
 120764747.723 7  93928081.061 5                  22615324.280    22615327.500
  22615325.020          46.200          32.400
 124270038.061 7  96654473.858 6                  23230918.460    23230919.440
  23230917.880          44.650          40.050
 103690560.251 8  80648260.336 7                  19452072.060    19452078.220
  19452076.940          49.250          42.700
 106538082.586 8  82862939.798 7                  19909135.380    19909137.140
  19909136.060          48.600          47.050
 15  1 27 23  4 55.0000000  0 16G08G14G31G21G24G12G25G29G02R20R22R11
                                R09R19R10R21
 128399772.221 7 100051748.84746                  24433663.760
  24433660.020          44.650          36.350
 119303249.920 7  92963570.98546                  22702646.660
  22702642.460          46.950          40.250
 112970460.068 8  88028931.860 7                  21497558.420    21497554.020
  21497553.180          50.050          47.100
 127175360.285 7  99097742.43745                  24200641.200
  24200636.340          44.150          34.550
 131360742.020 7 102359102.420 6  98094156.860 7  24997088.280    24997087.540
  24997086.980          42.950          40.350
 121822423.077 8  94926673.518 7                  23181970.880    23181966.140
  23181965.340          48.700          43.850
 109336712.708 8  85197547.321 8  81647678.449 8  20806039.940    20806038.480
  20806037.660          50.000          48.750
 105225269.309 8  81993874.329 8                  20023634.500    20023630.840
  20023630.240          50.700          50.150
 125615248.316 7  97882003.00446                  23903777.660
  23903770.380          46.150          40.350
 104579338.383 7  81339518.613 7                  19556812.380    19556816.240
  19556814.000          44.150          46.550
 127222064.394 7  98950563.885 6                  23832958.780    23832965.860
  23832964.900          44.700          40.700
 110245818.442 7  85746771.957 6                  20630994.960    20630998.500
  20630996.800          47.300          41.200
 120781394.280 7  93941028.377 5                  22618441.640    22618444.760
  22618442.440          46.250          33.300
 124290684.955 7  96670532.552 6                  23234778.200    23234779.200
  23234777.540          45.300          40.050
 103693689.043 8  80650693.838 7                  19452659.020    19452665.200
  19452663.940          49.300          42.750
 106526257.460 8  82853742.487 7                  19906925.600    19906927.380
  19906926.300          49.000          47.150
 15  1 27 23  5  0.0000000  0 16G08G14G31G21G24G12G25G29G02R20R22R11
                                R09R19R10R21
 128382014.545 7 100037911.69945                  24430284.640
  24430280.800          45.200          35.250
 119315400.171 7  92973038.71646                  22704958.780
  22704954.580          46.700          40.200
 112960084.113 8  88020846.709 7                  21495583.980    21495579.540
  21495578.700          50.150          47.150
 127159715.487 7  99085551.70245                  24197664.040
  24197659.160          44.350          33.550
 131378848.150 7 102373211.077 6  98107677.650 7  25000533.820    25000533.020
  25000532.380          43.100          40.150
 121834833.647 8  94936344.090 7                  23184332.580    23184327.820
  23184327.060          48.700          43.950
 109341714.425 8  85201444.764 8  81651413.499 8  20806991.760    20806990.260
  20806989.420          49.850          48.750
 105226131.941 8  81994546.523 8                  20023798.640    20023794.980
  20023794.380          50.750          50.200
 125623812.649 7  97888676.52546                  23905407.360
  23905400.120          46.450          40.300
 104587145.761 7  81345591.020 7                  19558272.360    19558276.280
  19558274.000          43.900          46.700
 127200399.870 7  98933713.805 6                  23828900.180    23828907.240
  23828906.320          45.150          40.200
 110231701.316 7  85735791.973 6                  20628353.160    20628356.680
  20628354.960          47.300          40.800
 120798048.869 7  93953981.944 5                  22621560.540    22621563.600
  22621561.340          46.100          32.400
 124311335.110 7  96686593.804 6                  23238638.560    23238639.420
  23238637.840          45.200          40.100
 103696833.593 8  80653139.602 7                  19453248.960    19453255.100
  19453253.880          49.250          42.700
 106514449.594 8  82844558.598 7                  19904719.040    19904720.820
  19904719.760          49.200          47.150
 15  1 27 23  5  5.0000000  0 16G08G14G31G21G24G12G25G29G02R20R22R11
                                R09R19R10R21
 128364257.375 7 100024074.92746                  24426905.600
  24426901.740          45.200          37.500
 119327559.301 7  92982513.35246                  22707272.560
  22707268.380          47.150          40.100
 112949717.767 8  88012769.034 7                  21493611.400    21493606.900
  21493606.040          50.300          47.250
 127144071.478 7  99073361.59645                  24194687.020
  24194682.260          44.200          34.150
 131396956.051 7 102387321.119 6  98121199.768 7  25003979.660    25003978.800
  25003978.200          42.900          39.950
 121847246.524 8  94946016.452 7                  23186694.680    23186689.920
  23186689.220          48.600          43.850
 109346722.416 8  85205347.089 8  81655153.231 8  20807944.740    20807943.260
  20807942.400          49.900          48.850
 105227007.704 8  81995228.935 8                  20023965.280    20023961.620
  20023961.040          50.650          50.250
 125632388.418 7  97895358.93446                  23907039.280
  23907032.020          46.600          40.300
 104594971.322 7  81351677.564 7                  19559735.820    19559739.680
  19559737.420          43.700          46.850
 127178738.844 7  98916866.412 6                  23824842.280    23824849.300
  23824848.360          44.500          39.700
 110217591.702 7  85724817.831 6                  20625712.700    20625716.260
  20625714.520          46.950          40.850
 120814711.314 7  93966941.621 5                  22624680.920    22624684.020
  22624681.680          46.150          32.300
 124331988.287 7  96702657.390 6                  23242499.480    23242500.420
  23242498.720          44.800          40.300
 103699993.726 8  80655597.482 7                  19453841.820    19453847.920
  19453846.740          49.150          42.550
 106502658.859 8  82835388.039 7                  19902515.660    19902517.480
  19902516.420          48.950          47.150
 15  1 27 23  5 10.0000000  0 16G08G14G31G21G24G12G25G29G02R20R22R11
                                R09R19R10R21
 128346501.091 7 100010238.86446                  24423526.740
  24423522.760          44.650          36.900
 119339727.688 7  92991995.20246                  22709588.140
  22709583.920          47.350          39.850
 112939361.451 8  88004699.171 7                  21491640.720    21491636.140
  21491635.280          50.450          47.150
 127128428.669 7  99061172.41745                  24191710.240
  24191705.440          43.800          35.650
 131415066.044 7 102401432.785 6  98134723.456 7  25007425.920    25007425.040
  25007424.380          42.400          39.550
 121859662.079 8  94955690.898 7                  23189057.280    23189052.500
  23189051.860          48.700          43.600
 109351737.102 8  85209254.636 8  81658897.970 8  20808899.020    20808897.500
  20808896.660          49.950          48.900
 105227896.995 8  81995921.881 8                  20024134.520    20024130.840
  20024130.260          50.650          50.300
 125640975.982 7  97902050.54046                  23908673.420
  23908666.180          46.750          40.350
 104602815.566 7  81357778.636 7                  19561202.720    19561206.600
  19561204.360          43.900          46.800
 127157081.811 7  98900022.123 6                  23820785.080    23820792.040
  23820791.120          45.200          39.550
 110203489.870 7  85713849.750 6                  20623073.720    20623077.360
  20623075.540          46.700          40.750
 120831381.995 7  93979907.683 5                  22627802.820    22627805.940
  22627803.580          45.850          32.250
 124352645.109 7  96718723.795 6                  23246361.080    23246361.980
  23246360.320          44.800          40.350
 103703169.870 8  80658067.812 7                  19454437.680    19454443.760
  19454442.580          49.250          42.400
 106490885.637 8  82826231.089 7                  19900315.560    19900317.380
  19900316.360          48.850          47.200
 15  1 27 23  5 15.0000000  0 16G08G14G31G21G24G12G25G29G02R20R22R11
                                R09R19R10R21
 128328745.254 7  99996403.15846                  24420147.920
  24420143.900          45.150          37.600
 119351904.719 7  93001483.80446                  22711905.360
  22711901.160          47.450          39.650
 112929014.636 8  87996636.720 7                  21489671.860    21489667.200
  21489666.340          50.500          47.300
 127112786.641 7  99048983.82545                  24188733.600
  24188728.760          43.850          35.750
 131433177.705 7 102415545.758 6  98148248.355 7  25010872.460    25010871.540
  25010870.960          42.000          40.100
 121872079.775 8  94965367.031 7                  23191420.280    23191415.540
  23191414.860          48.700          43.400
 109356757.952 8  85213166.993 8  81662647.302 8  20809854.460    20809852.940
  20809852.080          49.850          48.950
 105228799.287 8  81996624.968 8                  20024306.220    20024302.540
  20024301.960          50.650          50.350
 125649574.830 7  97908750.94946                  23910309.700
  23910302.480          46.650          41.050
 104610677.942 7  81363893.824 7                  19562673.000    19562676.900
  19562674.680          44.150          46.850
 127135428.241 7  98883180.530 6                  23816728.560    23816735.540
  23816734.560          45.300          39.850
 110189395.429 7  85702887.400 6                  20620436.180    20620439.780
  20620437.980          46.950          41.150
 120848060.432 7  93992879.808 5                  22630926.180    22630929.360
  22630926.920          45.800          32.200
 124373304.839 7  96734792.469 6                  23250223.240    23250224.040
  23250222.480          45.000          40.500
 103706361.582 8  80660550.259 7                  19455036.460    19455042.580
  19455041.340          49.200          42.400
 106479129.413 8  82817087.363 7                  19898118.640    19898120.480
  19898119.440          48.700          47.000
 15  1 27 23  5 20.0000000  0 16G08G14G31G21G24G12G25G29G02R20R22R11
                                R09R19R10R21
 128310991.613 7  99982569.14645                  24416769.540
  24416765.460          45.800          35.800
 119364092.245 7  93010980.56746                  22714224.600
  22714220.320          47.250          40.250
 112918679.121 8  87988583.068 7                  21487705.120    21487700.400
  21487699.540          50.450          47.400
 127097147.101 7  99036797.20446                  24185757.480
  24185752.580          43.700          36.850
 131451292.761 7 102429661.355 6  98161775.808 7  25014319.660    25014318.740
  25014318.200          42.550          40.150
 121884501.365 8  94975046.190 7                  23193784.040    23193779.280
  23193778.580          48.700          43.800
 109361786.740 8  85217085.515 8  81666402.558 8  20810811.400    20810809.880
  20810809.020          49.900          48.950
 105229716.299 8  81997339.518 8                  20024480.720    20024477.040
  20024476.460          50.650          50.350
 125658186.730 7  97915461.51246                  23911948.500
  23911941.240          46.900          39.800
 104618560.184 7  81370024.446 7                  19564147.040    19564150.900
  19564148.720          44.150          46.950
 127113780.040 7  98866343.125 6                  23812673.060    23812680.020
  23812679.060          45.500          40.350
 110175310.107 7  85691932.156 6                  20617800.300    20617803.900
  20617802.140          46.900          41.200
 120864748.422 7  94005859.358 5                  22634051.280    22634054.480
  22634052.020          45.550          32.550
 124393969.236 7  96750864.768 6                  23254086.260    23254087.060
  23254085.480          45.250          40.700
 103709570.682 8  80663046.215 7                  19455638.520    19455644.620
  19455643.360          48.950          42.350
 106467392.006 8  82807958.256 7                  19895925.260    19895927.080
  19895926.040          48.900          47.250
 15  1 27 23  5 25.0000000  0 16G08G14G31G21G24G12G25G29G02R20R22R11
                                R09R19R10R21
 128293238.853 7  99968735.81446                  24413391.340
  24413387.240          45.800          36.800
 119376288.980 7  93020484.51046                  22716545.580
  22716541.260          47.500          39.550
 112908353.602 8  87980537.207 7                  21485740.300    21485735.540
  21485734.660          50.200          47.500
 127081508.764 7  99024611.50946                  24182781.560
  24182776.720          43.350          36.250
 131469409.779 7 102443778.488 6  98175304.719 7  25017767.260    25017766.280
  25017765.800          43.350          40.200
 121896925.538 7  94984727.365 7                  23196148.220    23196143.540
  23196142.820          47.700          44.000
 109366822.133 8  85221009.196 8  81670162.744 8  20811769.600    20811768.080
  20811767.220          49.750          49.050
 105230646.732 8  81998064.535 8                  20024657.780    20024654.080
  20024653.500          50.700          50.400
 125666810.332 7  97922181.20346                  23913589.540
  23913582.220          46.900          39.600
 104626460.925 7  81376169.465 7                  19565624.520    19565628.360
  19565626.220          44.250          46.850
 127092135.610 7  98849508.654 6                  23808618.300    23808625.200
  23808624.260          44.900          39.700
 110161232.573 7  85680982.976 6                  20615165.840    20615169.440
  20615167.780          46.750          41.050
 120881444.495 7  94018845.175 5                  22637177.900    22637181.160
  22637178.680          45.250          32.300
 124414637.091 7  96766939.781 6                  23257949.920    23257950.620
  23257949.100          45.050          40.500
 103712795.720 8  80665554.574 7                  19456243.520    19456249.620
  19456248.360          49.000          42.350
 106455672.026 8  82798842.722 7                  19893735.120    19893736.940
  19893735.900          49.200          47.200
 15  1 27 23  5 30.0000000  0 16G08G14G31G21G24G12G25G29G02R20R22R11
                                R09R19R10R21
 128275487.046 7  99954903.23246                  24410013.340
  24410009.160          45.300          38.550
 119388494.911 7  93029995.62346                  22718868.340
  22718863.960          47.150          39.850
 112898038.172 8  87972499.214 7                  21483777.400    21483772.560
  21483771.680          50.250          47.500
 127065871.723 7  99012426.81645                  24179805.900
  24179801.040          43.250          34.600
 131487528.923 7 102457897.305 6  98188835.237 7  25021215.240    25021214.240
  25021213.840          43.350          40.500
 121909352.420 7  94994410.628 7                  23198512.920    23198508.340
  23198507.580          47.900          43.600
 109371864.206 8  85224938.077 8  81673927.936 8  20812729.080    20812727.560
  20812726.660          50.050          49.100
 105231590.691 8  81998800.090 8                  20024837.400    20024833.700
  20024833.120          50.650          50.400
 125675445.738 7  97928910.09246                  23915232.800
  23915225.440          46.600          40.700
 104634380.225 7  81382328.923 7                  19567105.480    19567109.320
  19567107.160          44.150          46.700
 127070495.297 7  98832677.366 6                  23804564.260    23804571.060
  23804570.220          44.550          39.800
 110147163.044 7  85670040.005 6                  20612532.880    20612536.480
  20612534.860          46.800          41.150
 120898148.820 7  94031837.422 5                  22640306.120    22640309.380
  22640306.900          45.700          32.350
 124435308.349 7  96783017.424 6                  23261814.160    23261814.960
  23261813.400          44.800          40.300
 103716036.835 8  80668075.435 7                  19456851.520    19456857.640
  19456856.360          48.900          42.250
 106443969.602 8  82789740.846 7                  19891548.260    19891550.080
  19891549.040          49.200          47.150
 15  1 27 23  5 35.0000000  0 16G08G14G31G21G24G12G25G29G02R20R22R11
                                R09R19R10R21
 128257735.000 7  99941070.48346                  24406635.300
  24406631.120          45.650          38.550
 119400708.954 7  93039513.06346                  22721192.620
  22721188.160          47.100          40.750
 112887731.634 8  87964468.149 7                  21481816.160    21481811.260
  21481810.420          50.200          47.400
 127050234.863 7  99000242.24646                  24176830.280
  24176825.360          42.700          38.300
 131505648.987 7 102472016.828 6  98202366.440 7  25024663.380    25024662.340
  25024662.000          43.050          40.800
 121921780.829 8  95004095.108 7                  23200877.920    23200873.400
  23200872.580          48.250          43.400
 109376911.791 8  85228871.271 8  81677697.221 8  20813689.600    20813688.060
  20813687.180          49.650          49.150
 105232546.960 8  81999545.241 8                  20025019.400    20025015.680
  20025015.080          50.550          50.350
 125684091.761 7  97935647.25346                  23916878.080
  23916870.740          46.600          40.800
 104642316.971 7  81388501.962 7                  19568589.720    19568593.560
  19568591.340          43.800          46.650
 127048857.876 7  98815848.350 6                  23800510.760    23800517.600
  23800516.740          44.300          39.700
 110133100.299 7  85659102.318 6                  20609901.260    20609904.860
  20609903.220          46.900          40.950
 120914860.186 7  94044835.162 5                  22643435.600    22643438.960
  22643436.420          45.450          32.550
 124455981.869 7  96799096.841 6                  23265678.820    23265679.660
  23265678.080          44.150          40.500
 103719292.844 8  80670607.899 7                  19457462.360    19457468.480
  19457467.180          48.950          42.250
 106432283.554 8  82780651.714 7                  19889364.460    19889366.260
  19889365.220          48.950          46.950
 15  1 27 23  5 40.0000000  0 16G08G14G31G21G24G12G25G29G02R20R22R11
                                R09R19R10R21
 128239985.416 7  99927239.63646                  24403257.740
  24403253.520          45.800          37.750
 119412933.687 7  93049038.82746                  22723518.940
  22723514.400          46.900          39.200
 112877436.662 8  87956446.091 7                  21479857.140    21479852.180
  21479851.320          50.150          47.250
 127034600.838 7  98988059.91046                  24173855.200
  24173850.300          43.050          37.050
 131523772.572 7 102486139.079 6  98215900.278 7  25028112.140    25028111.180
  25028110.860          43.250          41.150
 121934213.402 8  95013782.833 7                  23203243.740    23203239.240
  23203238.380          48.850          43.300
 109381967.518 8  85232810.787 8  81681472.618 8  20814651.680    20814650.120
  20814649.240          50.150          49.100
 105233518.188 8  82000302.036 8                  20025204.220    20025200.480
  20025199.900          50.600          50.300
 125692751.048 7  97942394.73346                  23918525.920
  23918518.540          46.750          40.450
 104650273.676 7  81394690.510 7                  19570077.680    19570081.520
  19570079.280          43.900          46.800
 127027225.943 7  98799023.567 6                  23796458.300    23796465.140
  23796464.300          44.950          39.600
 110119046.956 7  85648171.938 6                  20607271.360    20607275.020
  20607273.340          46.650          41.150
 120931581.282 7  94057840.460 5                  22646566.940    22646570.140
  22646567.700          45.350          31.600
 124476660.273 7  96815180.027 6                  23269544.420    23269545.260
  23269543.700          44.300          40.350
 103722566.484 8  80673154.059 7                  19458076.480    19458082.600
  19458081.300          49.050          42.100
 106420616.582 8  82771577.398 7                  19887184.240    19887186.020
  19887184.960          48.900          47.000
 15  1 27 23  5 45.0000000  0 16G08G14G31G21G24G12G25G29G02R20R22R11
                                R09R19R10R21
 128222235.389 7  99913408.44446                  24399880.100
  24399875.880          45.800          38.400
 119425166.172 7  93058570.64046                  22725846.740
  22725842.100          47.000          40.600
 112867150.369 8  87948430.802 7                  21477899.760    21477894.780
  21477893.900          50.300          47.400
 127018966.685 7  98975877.44846                  24170880.140
  24170875.280          42.850          37.400
 131541896.777 7 102500261.799 6  98229434.565 7  25031561.040    25031560.200
  25031559.820          43.350          41.650
 121946647.244 8  95023471.552 7                  23205609.840    23205605.320
  23205604.460          48.450          43.850
 109387028.533 8  85236754.442 8  81685251.939 8  20815614.760    20815613.220
  20815612.320          49.850          49.100
 105234501.526 8  82001068.273 8                  20025391.340    20025387.600
  20025387.000          50.650          50.350
 125701420.663 7  97949150.27746                  23920175.700
  23920168.280          46.900          40.400
 104658247.547 7  81400892.416 7                  19571568.800    19571572.660
  19571570.460          44.050          46.800
 127005596.714 7  98782200.898 6                  23792406.280    23792413.160
  23792412.320          44.200          39.550
 110105000.152 7  85637246.648 6                  20604642.700    20604646.360
  20604644.700          46.350          41.200
 120948309.127 7  94070850.994 5                  22649699.520    22649702.680
  22649700.320          45.100          32.050
 124497340.528 7  96831264.662 6                  23273410.320    23273411.260
  23273409.720          44.700          40.150
 103725854.634 8  80675711.509 7                  19458693.340    19458699.420
  19458698.140          48.950          42.250
 106408965.753 8  82762515.636 7                  19885007.020    19885008.780
  19885007.720          48.750          47.050
 15  1 27 23  5 50.0000000  0 16G08G14G31G21G24G12G25G29G02R20R22R11
                                R09R19R10R21
 128204486.309 7  99899577.99246                  24396502.580
  24396498.380          46.050          36.600
 119437407.809 7  93068109.57446                  22728176.240
  22728171.540          47.150          39.400
 112856874.145 8  87940423.352 7                  21475944.280    21475939.300
  21475938.400          50.350          47.350
 127003333.816 7  98963696.00445                  24167905.260
  24167900.440          42.800          35.600
 131560023.091 7 102514386.178 6  98242970.436 7  25035010.360    25035009.520
  25035009.140          43.600          41.350
 121959083.714 8  95033162.291 7                  23207976.400    23207971.920
  23207971.060          48.600          44.100
 109392096.200 8  85240703.266 8  81689036.239 8  20816579.120    20816577.560
  20816576.660          50.250          49.050
 105235498.359 8  82001845.030 8                  20025581.060    20025577.300
  20025576.680          50.750          50.300
 125710102.016 7  97955914.97446                  23921827.720
  23921820.260          46.950          40.200
 104666239.997 7  81407108.758 7                  19573063.480    19573067.320
  19573065.100          43.800          46.850
 126983971.451 7  98765381.356 6                  23788355.060    23788361.840
  23788361.080          44.600          38.950
 110090961.389 7  85626327.619 6                  20602015.520    20602019.220
  20602017.540          46.800          40.950
 120965045.196 7  94083867.924 5                  22652833.640    22652836.940
  22652834.500          44.850          31.600
 124518024.234 7  96847351.997 6                  23277276.920    23277277.900
  23277276.360          44.700          40.200
 103729158.884 8  80678281.480 7                  19459313.220    19459319.260
  19459318.020          48.950          42.000
 106397332.494 8  82753467.537 7                  19882833.120    19882834.820
  19882833.760          48.700          47.050
 15  1 27 23  5 55.0000000  0 16G08G14G31G21G24G12G25G29G02R20R22R11
                                R09R19R10R21
 128186739.122 7  99885749.02946                  24393125.380
  24393121.160          46.300          38.400
 119449659.393 7  93077656.25946                  22730507.620
  22730502.920          46.950          40.000
 112846608.953 8  87932424.502 7                  21473990.900    21473985.920
  21473984.980          50.350          47.400
 126987703.157 7  98951516.30746                  24164930.880
  24164926.080          43.300          36.300
 131578152.430 7 102528512.921 6  98256508.549 7  25038460.320    25038459.460
  25038459.020          43.450          40.950
 121971523.791 8  95042855.843 7                  23210343.660    23210339.140
  23210338.340          48.400          43.950
 109397171.440 8  85244658.006 8  81692826.195 8  20817544.920    20817543.340
  20817542.440          49.800          49.050
 105236509.583 8  82002632.999 8                  20025773.500    20025769.720
  20025769.100          50.700          50.250
 125718796.060 7  97962689.55146                  23923482.180
  23923474.640          47.100          40.250
 104674251.800 7  81413340.164 7                  19574561.760    19574565.580
  19574563.360          43.750          46.850
 126962351.248 7  98748565.720 6                  23784304.780    23784311.620
  23784310.760          45.250          38.900
 110076931.457 7  85615415.447 6                  20599390.000    20599393.680
  20599391.980          46.550          41.000
 120981790.396 7  94096891.966 5                  22655969.480    22655972.720
  22655970.300          45.250          32.350
 124538712.197 7  96863442.637 6                  23281144.300    23281145.300
  23281143.820          44.450          40.150
 103732480.196 8  80680864.715 7                  19459936.300    19459942.340
  19459941.100          49.050          42.100
 106385717.720 8  82744433.826 7                  19880662.680    19880664.320
  19880663.240          49.050          47.050
 15  1 27 23  6  0.0000000  0 16G08G14G31G21G24G12G25G29G02R20R22R11
                                R09R19R10R21
 128168992.194 7  99871920.24046                  24389748.240
  24389744.060          46.250          37.200
 119461919.218 7  93087209.37546                  22732840.560
  22732835.880          46.550          40.200
 112836353.094 8  87924432.928 7                  21472039.280    21472034.280
  21472033.360          50.250          47.250
 126972073.071 7  98939337.02545                  24161956.580
  24161951.780          43.550          35.900
 131596283.083 7 102542640.690 6  98270047.641 7  25041910.500    25041909.680
  25041909.140          43.150          41.350
 121983965.768 8  95052550.882 7                  23212711.300    23212706.780
  23212705.960          48.750          43.350
 109402252.612 8  85248617.355 8  81696620.575 8  20818511.820    20818510.240
  20818509.380          49.950          49.100
 105237533.542 8  82003430.887 8                  20025968.380    20025964.560
  20025963.940          50.550          50.250
 125727501.094 7  97969472.69146                  23925138.720
  23925131.100          47.050          40.250
 104682281.412 7  81419585.416 7                  19576063.340    19576067.160
  19576064.960          44.000          47.050
 126940734.326 7  98731752.621 6                  23780255.140    23780261.920
  23780261.040          44.850          39.000
 110062908.720 7  85604508.874 6                  20596765.840    20596769.480
  20596767.800          46.400          41.350
 120998542.951 7  94109921.709 5                  22659106.720    22659109.880
  22659107.500          45.050          31.600
 124559402.737 7  96879535.272 6                  23285012.140    23285013.200
  23285011.700          44.900          40.300
 103735816.853 8  80683459.889 7                  19460562.260    19460568.300
  19460567.040          49.150          42.300
 106374119.723 8  82735413.170 7                  19878495.360    19878496.960
  19878495.880          49.300          47.150
 15  1 27 23  6  5.0000000  0 16G08G14G31G21G24G12G25G29G02R20R22R11
                                R09R19R10R21
 128151247.093 7  99858092.89546                  24386371.460
  24386367.340          45.550          38.250
 119474188.903 7  93096770.15246                  22735175.440
  22735170.680          46.900          39.950
 112826108.211 8  87916449.904 7                  21470089.780    21470084.760
  21470083.820          50.150          47.350
 126956445.145 7  98927159.44545                  24158982.660
  24158977.920          44.200          33.350
 131614416.574 7 102556770.660 6  98283588.868 7  25045361.240    25045360.380
  25045359.780          43.050          40.750
 121996411.240 8  95062248.658 7                  23215079.620    23215075.080
  23215074.220          49.000          43.150
 109407341.294 8  85252582.568 8  81700420.559 8  20819480.140    20819478.580
  20819477.720          49.800          49.000
 105238571.822 8  82004239.930 8                  20026165.960    20026162.140
  20026161.500          50.650          50.200
 125736218.694 7  97976265.62846                  23926797.640
  23926789.920          47.150          40.200
 104690330.302 7  81425845.670 7                  19577568.500    19577572.340
  19577570.160          44.050          47.050
 126919122.413 7  98714943.426 6                  23776206.420    23776213.220
  23776212.260          43.550          39.350
 110048894.926 7  85593609.265 6                  20594143.340    20594147.060
  20594145.320          46.550          41.600
 121015304.649 7  94122958.591 5                  22662245.640    22662248.860
  22662246.400          44.400          31.500
 124580097.349 7  96895631.082 6                  23288880.780    23288881.900
  23288880.360          44.600          40.350
 103739170.446 8  80686068.242 7                  19461191.400    19461197.400
  19461196.120          49.000          42.000
 106362540.209 8  82726406.886 7                  19876331.500    19876333.020
  19876331.980          49.100          47.300
 15  1 27 23  6 10.0000000  0 16G08G14G31G21G24G12G25G29G02R20R22R11
                                R09R19R10R21
 128133502.538 7  99844265.98946                  24382994.760
  24382990.720          46.000          38.900
 119486467.154 7  93106337.63346                  22737511.880
  22737507.180          47.050          39.100
 112815873.002 8  87908474.422 7                  21468142.080    21468137.080
  21468136.140          50.200          47.300
 126940818.117 7  98914982.55446                  24156008.960
  24156004.180          43.950          38.050
 131632551.591 7 102570901.832 6  98297131.222 7  25048812.240    25048811.400
  25048810.740          42.550          41.100
 122008858.889 8  95071948.144 7                  23217448.380    23217443.800
  23217442.940          48.750          43.650
 109412436.151 8  85256552.580 8  81704225.156 8  20820449.660    20820448.100
  20820447.260          49.850          49.000
 105239623.057 8  82005059.081 8                  20026366.020    20026362.180
  20026361.540          50.700          50.100
 125744947.541 7  97983067.32146                  23928458.720
  23928450.940          47.400          39.600
 104698397.168 7  81432119.901 7                  19579077.080    19579080.880
  19579078.720          43.950          46.950
 126897514.221 7  98698137.156 6                  23772158.440    23772165.140
  23772164.240          43.850          39.950
 110034888.701 7  85582715.539 6                  20591522.260    20591525.980
  20591524.260          47.100          41.650
 121032073.956 7  94136001.400 5                  22665385.980    22665389.100
  22665386.720          44.550          32.250
 124600794.768 7  96911729.072 6                  23292749.880    23292751.020
  23292749.500          44.550          40.000
 103742539.703 8  80688688.777 7                  19461823.480    19461829.460
  19461828.180          48.950          42.050
 106350977.840 8  82717413.940 7                  19874170.820    19874172.320
  19874171.300          49.000          47.350
 15  1 27 23  6 15.0000000  0 16G08G14G31G21G24G12G25G29G02R20R22R11
                                R09R19R10R21
 128115759.373 7  99830440.12046                  24379618.340
  24379614.300          46.100          37.400
 119498754.822 7  93115912.42746                  22739850.140
  22739845.460          47.050          40.000
 112805648.311 8  87900507.122 7                  21466196.400    21466191.380
  21466190.460          50.350          47.250
 126925192.781 7  98902806.97845                  24153035.540
  24153030.780          44.650          34.850
 131650689.038 7 102585034.865 6  98310675.382 7  25052263.660    25052262.840
  25052262.200          42.950          40.750
 122021309.587 8  95081649.964 7                  23219817.640    23219813.100
  23219812.260          48.700          44.000
 109417538.063 8  85260528.082 8  81708035.017 8  20821420.520    20821418.960
  20821418.100          49.900          48.850
 105240688.179 8  82005889.040 8                  20026568.720    20026564.860
  20026564.200          50.850          50.100
 125753688.460 7  97989878.42946                  23930122.080
  23930114.200          47.400          39.350
 104706482.893 7  81438408.778 7                  19580589.160    19580592.940
  19580590.800          43.900          46.650
 126875910.468 7  98681334.316 6                  23768111.280    23768117.940
  23768117.080          44.650          39.000
 110020890.775 7  85571828.252 6                  20588902.700    20588906.460
  20588904.780          47.250          41.200
 121048851.786 7  94149050.811 5                  22668527.900    22668530.980
  22668528.680          44.400          31.550
 124621495.936 7  96927829.969 6                  23296619.740    23296620.860
  23296619.380          44.650          39.600
 103745925.341 8  80691322.032 7                  19462458.640    19462464.620
  19462463.280          48.950          42.200
 106339433.425 8  82708434.936 7                  19872013.480    19872014.980
  19872013.940          48.750          47.250
 15  1 27 23  6 20.0000000  0 16G08G14G31G21G24G12G25G29G02R20R22R11
                                R09R19R10R21
 128098016.768 7  99816614.71646                  24376242.020
  24376238.000          45.750          38.650
 119511051.022 7  93125493.86546                  22742190.040
  22742185.340          47.200          39.800
 112795433.308 8  87892547.378 7                  21464252.580    21464247.540
  21464246.620          50.550          47.350
 126909568.344 7  98890632.11745                  24150062.300
  24150057.480          44.850          35.700
 131668827.962 7 102599169.071 6  98324220.663 7  25055715.440    25055714.580
  25055713.880          43.650          41.000
 122033762.445 8  95091353.467 7                  23222187.300    23222182.820
  23222182.020          48.450          44.000
 109422646.162 8  85264508.423 8  81711849.519 8  20822392.560    20822391.000
  20822390.140          49.950          48.900
 105241766.297 8  82006729.132 8                  20026773.880    20026770.040
  20026769.360          50.900          50.150
 125762440.616 7  97996698.28146                  23931787.620
  23931779.640          47.700          38.950
 104714586.528 7  81444711.600 7                  19582104.600    19582108.340
  19582106.200          43.900          46.650
 126854310.422 7  98664534.336 6                  23764064.800    23764071.320
  23764070.580          44.000          38.500
 110006900.446 7  85560946.887 6                  20586284.640    20586288.400
  20586286.720          47.050          41.200
 121065637.303 7  94162106.202 5                  22671671.240    22671674.400
  22671671.980          44.850          31.050
 124642199.766 7  96943932.945 6                  23300490.080    23300491.200
  23300489.720          44.850          39.200
 103749326.618 8  80693967.466 7                  19463096.720    19463102.720
  19463101.340          48.950          42.100
 106327906.184 8  82699469.300 7                  19869859.380    19869860.820
  19869859.800          48.900          47.250
 15  1 27 23  6 25.0000000  0 16G08G14G31G21G24G12G25G29G02R20R22R11
                                R09R19R10R21
 128080276.131 7  99802790.86546                  24372866.060
  24372862.100          45.750          39.650
 119523357.233 7  93135083.12446                  22744531.860
  22744527.160          47.500          38.850
 112785229.400 8  87884596.281 7                  21462310.860    21462305.800
  21462304.900          50.550          47.350
 126893946.235 7  98878459.06845                  24147089.480
  24147084.640          44.900          35.900
 131686969.811 7 102613305.568 6  98337768.128 7  25059167.740    25059166.860
  25059166.160          43.900          41.050
 122046218.884 8  95101059.779 7                  23224557.660    23224553.200
  23224552.440          48.500          43.650
 109427761.873 8  85268494.685 8  81715669.679 8  20823366.040    20823364.500
  20823363.640          49.950          48.900
 105242858.725 8  82007580.380 8                  20026981.760    20026977.920
  20026977.240          50.850          50.150
 125771205.393 7  98003527.99146                  23933455.520
  23933447.520          47.950          38.950
 104722709.523 7  81451029.491 7                  19583623.680    19583627.360
  19583625.220          44.200          46.650
 126832715.393 7  98647738.277 6                  23760019.220    23760025.740
  23760025.040          43.400          38.950
 109992919.203 7  85550072.587 6                  20583668.220    20583672.020
  20583670.380          47.150          41.600
 121082431.966 7  94175168.725 5                  22674816.360    22674819.400
  22674817.000          45.300          31.250
 124662907.893 7  96960039.283 6                  23304361.180    23304362.420
  23304360.900          44.400          39.550
 103752744.937 8  80696626.160 7                  19463738.020    19463744.040
  19463742.600          48.800          42.200
 106316397.442 8  82690518.056 7                  19867708.700    19867710.160
  19867709.140          49.200          47.250
 15  1 27 23  6 30.0000000  0 16G08G14G31G21G24G12G25G29G02R20R22R11
                                R09R19R10R21
 128062535.843 7  99788967.27046                  24369490.160
  24369486.240          46.350          36.650
 119535671.807 7  93144678.90046                  22746875.280
  22746870.580          47.350          39.250
 112775034.960 8  87876652.557 7                  21460370.940    21460365.880
  21460364.980          50.600          47.200
 126878324.696 7  98866286.46246                  24144116.760
  24144111.980          44.900          36.050
 131705112.813 7 102627442.972 6  98351316.452 7  25062620.320    25062619.360
  25062618.560          44.050          40.700
 122058677.272 8  95110767.618 7                  23226928.400    23226923.980
  23226923.180          48.800          43.600
 109432883.489 8  85272485.557 8  81719494.260 8  20824340.640    20824339.120
  20824338.260          49.950          48.750
 105243963.872 8  82008441.535 8                  20027192.080    20027188.220
  20027187.520          50.800          50.150
 125779981.121 7  98010366.23346                  23935125.520
  23935117.460          47.800          39.000
 104730850.207 7  81457361.143 7                  19585146.040    19585149.720
  19585147.540          44.500          46.800
 126811123.856 7  98630944.941 6                  23755974.300    23755980.880
  23755980.180          44.350          39.600
 109978945.195 7  85539203.924 6                  20581053.180    20581057.000
  20581055.400          47.300          41.650
 121099233.965 7  94188236.946 5                  22677962.820    22677965.840
  22677963.400          45.300          31.050
 124683618.410 7  96976147.452 6                  23308232.740    23308234.040
  23308232.540          44.150          39.350
 103756178.609 8  80699296.792 7                  19464382.180    19464388.180
  19464386.740          48.350          42.100
 106304905.623 8  82681579.983 7                  19865561.220    19865562.620
  19865561.620          49.200          47.100
 15  1 27 23  6 35.0000000  0 16G08G14G31G21G24G12G25G29G02R20R22R11
                                R09R19R10R21
 128044795.763 7  99775143.81546                  24366114.340
  24366110.460          46.250          38.300
 119547994.481 7  93154280.96346                  22749220.240
  22749215.520          47.250          39.250
 112764849.871 8  87868716.118 7                  21458432.820    21458427.700
  21458426.840          50.350          47.350
 126862703.744 7  98854114.29545                  24141144.180
  24141139.380          44.950          35.050
 131723256.921 7 102641581.232 6  98364865.602 7  25066073.060    25066072.060
  25066071.260          43.400          40.700
 122071137.484 8  95120476.874 7                  23229299.500    23229295.100
  23229294.300          48.750          43.550
 109438010.940 8  85276480.967 8  81723323.201 8  20825316.360    20825314.840
  20825313.980          49.800          48.700
 105245081.602 8  82009312.488 8                  20027404.780    20027400.900
  20027400.220          50.700          50.100
 125788767.677 7  98017212.88946                  23936797.580
  23936789.480          47.550          38.950
 104739008.404 7  81463706.408 7                  19586671.680    19586675.340
  19586673.180          44.400          46.900
 126789535.685 7  98614154.192 6                  23751930.080    23751936.660
  23751935.980          43.450          39.750
 109964978.484 7  85528340.923 6                  20578439.560    20578443.400
  20578441.760          47.000          41.750
 121116043.204 7  94201310.778 5                  22681110.620    22681113.540
  22681111.140          45.050          30.900
 124704331.293 7  96992257.458 6                  23312104.740    23312106.040
  23312104.600          44.250          39.100
 103759627.560 8  80701979.303 7                  19465029.180    19465035.180
  19465033.760          48.600          42.050
 106293430.596 8  82672654.967 7                  19863416.840    19863418.220
  19863417.240          49.100          47.000
 15  1 27 23  6 40.0000000  0 16G08G14G31G21G24G12G25G29G02R20R22R11
                                R09R19R10R21
 128027057.675 7  99761321.93846                  24362738.880
  24362735.060          45.950          37.600
 119560327.009 7  93163890.72546                  22751567.060
  22751562.320          47.250          38.300
 112754675.883 8  87860788.339 7                  21456496.780    21456491.660
  21456490.820          50.400          47.300
 126847085.169 7  98841944.00645                  24138172.040
  24138167.200          44.850          34.150
 131741404.048 7 102655721.829 6  98378417.005 7  25069526.300    25069525.340
  25069524.540          42.400          40.200
 122083601.285 8  95130188.929 7                  23231671.280    23231666.880
  23231666.100          48.650          44.000
 109443145.961 8  85280482.288 8  81727157.800 8  20826293.540    20826291.980
  20826291.160          49.850          48.800
 105246213.623 8  82010194.583 8                  20027620.200    20027616.320
  20027615.620          50.750          50.050
 125797566.829 7  98024069.36346                  23938472.000
  23938463.880          47.350          39.400
 104747185.948 7  81470066.716 7                  19588200.880    19588204.560
  19588202.420          43.700          46.650
 126767952.672 7  98597367.471 6                  23747886.760    23747893.380
  23747892.700          42.300          39.200
 109951020.903 7  85517485.035 6                  20575827.620    20575831.440
  20575829.840          46.900          41.400
 121132861.574 7  94214391.735 5                  22684260.180    22684263.120
  22684260.620          44.750          30.750
 124725048.285 7  97008370.678 6                  23315977.560    23315978.860
  23315977.420          44.300          38.800
 103763093.511 8  80704675.045 6                  19465679.380    19465685.340
  19465683.960          48.800          41.900
 106281974.133 8  82663744.393 7                  19861275.900    19861277.320
  19861276.320          48.800          46.900
 15  1 27 23  6 45.0000000  0 16G08G14G31G21G24G12G25G29G02R20R22R11
                                R09R19R10R21
 128009320.750 7  99747500.97446                  24359363.640
  24359359.840          46.700          38.200
 119572668.578 7  93173507.53646                  22753915.600
  22753910.820          47.000          39.950
 112744512.174 8  87852868.576 7                  21454562.700    21454557.540
  21454556.740          50.350          47.500
 126831468.102 7  98829774.86945                  24135200.200
  24135195.440          43.900          35.000
 131759553.128 7 102669863.936 6  98391969.860 7  25072979.940    25072979.020
  25072978.240          43.200          40.400
 122096067.806 8  95139903.093 7                  23234043.560    23234039.220
  23234038.500          48.300          44.100
 109448287.706 8  85284488.842 8  81730997.403 8  20827272.020    20827270.440
  20827269.600          49.900          48.950
 105247359.119 8  82011087.180 8                  20027838.180    20027834.300
  20027833.600          50.750          50.150
 125806377.716 7  98030934.99846                  23940148.680
  23940140.540          47.350          39.600
 104755381.840 7  81476441.291 7                  19589733.600    19589737.200
  19589735.100          43.600          46.550
 126746373.826 7  98580584.004 6                  23743844.260    23743850.780
  23743850.160          42.450          38.850
 109937071.418 7  85506635.446 6                  20573217.180    20573220.920
  20573219.400          47.300          41.100
 121149688.150 7  94227479.067 5                  22687411.240    22687414.240
  22687411.640          45.250          30.950
 124745768.569 7  97024486.461 6                  23319850.980    23319852.300
  23319850.840          44.100          38.800
 103766575.575 8  80707383.330 7                  19466332.620    19466338.540
  19466337.220          48.800          42.050
 106270535.377 8  82654847.593 7                  19859138.240    19859139.680
  19859138.700          48.500          46.700
 15  1 27 23  6 50.0000000  0 16G08G14G31G21G24G12G25G29G02R20R22R11
                                R09R19R10R21
 127991584.512 7  99733680.51446                  24355988.560
  24355984.740          46.900          38.750
 119585018.671 7  93183130.98146                  22756265.740
  22756260.940          46.900          39.350
 112734358.245 8  87844956.424 7                  21452630.480    21452625.340
  21452624.500          50.350          47.450
 126815852.005 7  98817606.50646                  24132228.520
  24132223.840          43.250          36.300
 131777703.663 7 102684007.206 6  98405523.817 7  25076433.920    25076433.040
  25076432.120          44.000          41.000
 122108536.557 8  95149618.987 7                  23236416.260    23236411.940
  23236411.260          48.050          43.650
 109453435.691 8  85288500.261 8  81734841.684 8  20828251.660    20828250.060
  20828249.240          49.950          49.050
 105248517.604 8  82011989.892 8                  20028058.640    20028054.740
  20028054.040          50.650          50.200
 125815199.872 7  98037809.39946                  23941827.460
  23941819.360          47.250          40.050
 104763595.693 7  81482829.836 7                  19591269.600    19591273.240
  19591271.120          43.950          46.650
 126724798.794 7  98563803.485 6                  23739802.500    23739808.940
  23739808.380          43.900          40.150
 109923129.590 7  85495791.802 6                  20570608.180    20570611.960
  20570610.380          47.600          41.500
 121166522.343 7  94240572.345 5                  22690563.740    22690566.680
  22690564.160          45.400          31.800
 124766491.463 7  97040604.263 6                  23323724.940    23323726.320
  23323724.740          44.550          38.700
 103770073.475 8  80710103.914 7                  19466988.800    19466994.760
  19466993.440          48.750          42.200
 106259113.900 8  82645964.220 7                  19857003.820    19857005.320
  19857004.300          48.600          47.100
 15  1 27 23  6 55.0000000  0 16G08G14G31G21G24G12G25G29G02R20R22R11
                                R09R19R10R21
 127973850.593 7  99719861.88046                  24352613.920
  24352610.100          46.450          37.850
 119597379.011 7  93192762.41346                  22758617.840
  22758613.000          46.650          39.750
 112724215.808 8  87837053.226 7                  21450700.440    21450695.300
  21450694.460          50.450          47.300
 126800238.690 7  98805440.31245                  24129257.380
  24129252.860          43.400          35.700
 131795857.509 7 102698153.047 6  98419080.258 7  25079888.540    25079887.680
  25079886.760          43.900          41.000
 122121009.210 8  95159337.935 7                  23238789.680    23238785.440
  23238784.680          48.500          43.050
 109458591.616 8  85292517.868 8  81738691.894 8  20829232.820    20829231.220
  20829230.380          50.000          49.000
 105249690.754 8  82012904.033 8                  20028281.880    20028277.980
  20028277.280          50.650          50.150
 125824034.900 7  98044693.84146                  23943508.720
  23943500.620          47.450          39.900
 104771829.164 7  81489233.646 7                  19592809.300    19592812.960
  19592810.780          44.050          46.700
 126703229.370 7  98547027.343 6                  23735761.800    23735768.240
  23735767.620          44.000          39.850
 109909197.210 7  85484955.508 6                  20568000.960    20568004.780
  20568003.140          47.150          41.200
 121183365.931 7  94253672.901 5                  22693717.980    22693720.900
  22693718.400          45.700          31.300
 124787218.854 7  97056725.580 6                  23327599.780    23327601.060
  23327599.480          44.600          39.200
 103773588.720 8  80712837.989 7                  19467648.260    19467654.200
  19467652.880          48.800          42.250
 106247711.387 8  82637095.599 7                  19854872.940    19854874.500
  19854873.460          48.550          47.250
 15  1 27 23  7  0.0000000  0 16G08G14G31G21G24G12G25G29G02R20R22R11
                                R09R19R10R21
 127956116.942 7  99706043.47046                  24349239.340
  24349235.560          46.850          38.850
 119609747.404 7  93202400.12846                  22760971.500
  22760966.640          46.850          39.450
 112714082.726 8  87829157.318 7                  21448772.180    21448767.060
  21448766.180          50.250          47.300
 126784626.011 7  98793274.59446                  24126286.340
  24126281.880          43.500          36.350
 131814012.411 7 102712299.698 6  98432637.469 7  25083343.380    25083342.460
  25083341.560          43.750          40.850
 122133483.632 8  95169058.286 7                  23241163.500    23241159.240
  23241158.400          48.550          43.300
 109463753.349 8  85296539.995 8  81742546.422 8  20830215.100    20830213.460
  20830212.620          49.950          49.100
 105250876.445 8  82013827.956 8                  20028507.500    20028503.620
  20028502.900          50.450          50.200
 125832880.751 7  98051586.71246                  23945192.040
  23945183.980          47.050          40.600
 104780080.152 7  81495651.088 7                  19594352.300    19594355.920
  19594353.680          43.650          46.750
 126681663.232 7  98530253.769 6                  23731721.600    23731728.060
  23731727.440          43.700          39.350
 109895272.220 7  85474124.967 6                  20565395.120    20565398.900
  20565397.260          46.950          41.250
 121200216.675 7  94266779.037 5                  22696873.560    22696876.540
  22696874.020          45.350          31.550
 124807948.529 7  97072848.656 6                  23331475.020    23331476.260
  23331474.640          44.750          39.000
 103777119.199 8  80715583.918 7                  19468310.560    19468316.480
  19468315.180          48.850          42.150
 106236325.667 8  82628240.051 7                  19852745.180    19852746.800
  19852745.760          48.700          47.200
 15  1 27 23  7  5.0000000  0 16G08G14G31G21G24G12G25G29G02R20R22R11
                                R09R19R10R21
 127938384.966 7  99692226.34346                  24345865.100
  24345861.280          47.050          38.550
 119622125.214 7  93212045.16146                  22763326.900
  22763322.060          47.000          39.250
 112703960.408 8  87821269.794 7                  21446845.960    21446840.840
  21446839.980          50.200          47.400
 126769015.298 7  98781110.42046                  24123315.660
  24123311.220          42.800          37.350
 131832169.865 7 102726448.354 6  98446196.594 7  25086798.680    25086797.740
  25086796.940          42.800          40.750
 122145961.228 8  95178781.084 7                  23243537.960    23243533.680
  23243532.800          48.450          43.700
 109468922.249 8  85300567.705 8  81746406.323 8  20831198.720    20831197.060
  20831196.240          49.850          49.000
 105252076.091 8  82014762.743 8                  20028735.780    20028731.900
  20028731.180          50.600          50.150
 125841738.773 7  98058489.07546                  23946877.680
  23946869.660          46.800          40.300
 104788349.940 7  81502083.141 7                  19595898.780    19595902.400
  19595900.120          43.750          46.900
 126660101.921 7  98513483.919 6                  23727682.300    23727688.800
  23727688.100          44.150          38.700
 109881356.044 7  85463301.264 6                  20562790.940    20562794.680
  20562793.020          47.300          41.400
 121217076.158 7  94279891.956 5                  22700030.820    22700033.700
  22700031.360          45.150          31.850
 124828681.817 7  97088974.555 6                  23335350.920    23335352.040
  23335350.520          44.550          39.300
 103780666.388 8  80718342.834 7                  19468976.000    19468981.900
  19468980.620          48.800          42.150
 106224958.106 8  82619398.615 7                  19850620.840    19850622.500
  19850621.460          48.650          47.150
 15  1 27 23  7 10.0000000  0 16G08G14G31G21G24G12G25G29G02R20R22R11
                                R09R19R10R21
 127920653.270 7  99678409.42746                  24342490.920
  24342487.000          46.900          38.050
 119634511.097 7  93221696.50246                  22765683.900
  22765679.040          47.100          39.050
 112693847.584 8  87813389.671 7                  21444921.540    21444916.440
  21444915.580          50.200          47.600
 126753405.228 7  98768946.75246                  24120345.140
  24120340.740          43.100          36.050
 131850328.311 7 102740597.748 6  98459756.408 7  25090254.080    25090253.220
  25090252.480          42.650          40.700
 122158440.584 8  95188505.245 7                  23245912.700    23245908.420
  23245907.560          48.300          44.000
 109474096.966 8  85304599.950 8  81750270.554 8  20832183.460    20832181.780
  20832180.980          49.950          49.150
 105253288.265 8  82015707.290 8                  20028966.440    20028962.560
  20028961.840          50.600          50.150
 125850607.560 7  98065399.80746                  23948565.360
  23948557.380          46.900          39.950
 104796637.104 7  81508528.713 7                  19597448.500    19597452.160
  19597449.860          43.850          47.000
 126638544.083 7  98496716.747 6                  23723643.700    23723650.240
  23723649.540          44.250          40.100
 109867447.107 7  85452483.204 6                  20560188.080    20560191.740
  20560190.120          47.100          41.200
 121233942.791 7  94293010.431 5                  22703189.380    22703192.300
  22703189.920          45.600          31.800
 124849417.296 7  97105102.137 6                  23339227.240    23339228.240
  23339226.800          44.750          39.550
 103784228.859 8  80721113.636 7                  19469644.280    19469650.200
  19469648.920          48.700          42.350
 106213607.399 8  82610570.284 7                  19848499.660    19848501.340
  19848500.300          48.400          47.100
 15  1 27 23  7 15.0000000  0 16G08G14G31G21G24G12G25G29G02R20R22R11
                                R09R19R10R21
 127902923.237 7  99664593.82146                  24339117.020
  24339113.040          46.550          38.500
 119646906.380 7  93231355.16046                  22768042.680
  22768037.780          46.950          39.400
 112683745.535 8  87805517.950 7                  21442999.160    21442994.060
  21442993.240          50.100          47.450
 126737797.213 7  98756784.68146                  24117375.000
  24117370.620          43.050          36.850
 131868489.212 7 102754749.077 6  98473318.110 7  25093709.920    25093709.200
  25093708.460          42.350          40.700
 122170923.051 8  95198231.827 7                  23248288.000    23248283.720
  23248282.920          48.250          43.700
 109479278.896 8  85308637.818 8  81754140.177 8  20833169.540    20833167.880
  20833167.060          50.000          49.050
 105254514.328 8  82016662.664 8                  20029199.760    20029195.880
  20029195.160          50.550          50.150
 125859488.515 7  98072320.03846                  23950255.360
  23950247.380          46.900          40.200
 104804943.097 7  81514988.928 7                  19599001.760    19599005.440
  19599003.140          43.700          46.900
 126616990.951 7  98479953.277 6                  23719606.040    23719612.580
  23719611.880          44.100          40.650
 109853546.872 7  85441671.906 6                  20557586.880    20557590.560
  20557588.880          47.100          41.350
 121250817.962 7  94306135.581 5                  22706349.580    22706352.540
  22706350.060          44.900          31.450
 124870156.519 7  97121232.649 6                  23343104.240    23343105.280
  23343103.780          44.550          39.750
 103787808.014 8  80723897.430 7                  19470315.740    19470321.660
  19470320.380          48.250          42.350
 106202274.965 8  82601756.166 7                  19846381.920    19846383.540
  19846382.520          48.100          47.150
 15  1 27 23  7 20.0000000  0 16G08G14G31G21G24G12G25G29G02R20R22R11
                                R09R19R10R21
 127885195.254 7  99650779.81546                  24335743.500
  24335739.480          46.650          37.600
 119659311.406 7  93241021.41246                  22770403.300
  22770398.440          46.900          39.650
 112673654.600 8  87797654.889 7                  21441078.900    21441073.840
  21441073.000          50.000          47.350
 126722191.607 7  98744624.46946                  24114405.320
  24114400.940          43.100          36.450
 131886652.935 7 102768902.603 6  98486881.904 7  25097166.320    25097165.620
  25097164.940          42.300          40.100
 122183409.026 8  95207961.153 7                  23250663.980    23250659.740
  23250658.920          48.250          43.400
 109484468.352 8  85312681.545 8  81758015.428 8  20834157.100    20834155.380
  20834154.580          50.000          49.000
 105255754.660 8  82017629.153 8                  20029435.780    20029431.900
  20029431.180          50.550          50.100
 125868381.987 7  98079250.02246                  23951947.720
  23951939.800          46.950          39.050
 104813268.217 7  81521464.021 7                  19600558.600    19600562.260
  19600560.000          44.200          47.050
 126595443.178 7  98463193.954 6                  23715569.420    23715575.920
  23715575.200          44.950          41.200
 109839655.870 7  85430867.806 6                  20554987.400    20554990.980
  20554989.380          47.250          41.750
 121267702.182 7  94319267.749 5                  22709511.420    22709514.420
  22709512.020          44.850          32.150
 124890899.650 7  97137366.191 6                  23346981.960    23346982.980
  23346981.480          44.600          39.800
 103791404.217 8  80726694.481 7                  19470990.380    19470996.260
  19470995.040          48.650          42.550
 106190961.138 8  82592956.522 7                  19844267.640    19844269.280
  19844268.260          48.350          47.250
 15  1 27 23  7 25.0000000  0 16G08G14G31G21G24G12G25G29G02R20R22R11
                                R09R19R10R21
 127867467.450 7  99636965.94345                  24332370.040
  24332365.980          46.900          34.850
 119671724.412 7  93250693.87246                  22772765.420
  22772760.600          46.850          40.650
 112663572.933 8  87789799.042 7                  21439160.400    21439155.360
  21439154.500          50.050          47.200
 126706586.540 7  98732464.70345                  24111435.720
  24111431.420          42.600          35.900
 131904817.445 7 102783056.749 6  98500446.280 7  25100622.980    25100622.260
  25100621.700          42.300          39.900
 122195896.721 8  95217691.813 7                  23253040.320    23253036.020
  23253035.200          48.600          43.050
 109489663.472 8  85316729.693 8  81761894.899 8  20835145.700    20835143.980
  20835143.200          50.000          49.000
 105257007.295 8  82018605.232 8                  20029674.140    20029670.260
  20029669.560          50.550          50.050
 125877286.080 7  98086188.26246                  23953642.100
  23953634.220          47.000          39.600
 104821610.597 7  81527952.543 7                  19602118.680    19602122.340
  19602120.080          44.000          46.800
 126573898.642 7  98446437.130 6                  23711533.380    23711539.820
  23711539.200          44.850          41.500
 109825772.030 7  85420069.259 6                  20552389.220    20552392.800
  20552391.200          47.100          41.400
 121284593.473 7  94332405.419 5                  22712674.620    22712677.620
  22712675.200          45.050          32.250
 124911644.758 7  97153501.275 6                  23350860.040    23350861.120
  23350859.540          44.300          39.300
 103795015.615 8  80729503.342 7                  19471667.880    19471673.740
  19471672.540          48.650          42.600
 106179663.991 8  82584169.850 7                  19842156.500    19842158.100
  19842157.080          48.350          47.200
 15  1 27 23  7 30.0000000  0 16G08G14G31G21G24G12G25G29G02R20R22R11
                                R09R19R10R21
 127849740.334 7  99623152.60246                  24328996.720
  24328992.600          46.400          38.350
 119684145.766 7  93260372.85546                  22775129.140
  22775124.340          47.100          40.050
 112653501.077 8  87781950.844 7                  21437243.780    21437238.720
  21437237.880          50.050          47.200
 126690982.569 7  98720305.78746                  24108466.320
  24108462.140          42.900          38.050
 131922983.386 7 102797212.025 6  98514011.745 7  25104079.880    25104079.180
  25104078.560          42.600          39.850
 122208386.595 8  95227424.193 7                  23255417.100    23255412.800
  23255411.940          48.900          43.050
 109494864.806 8  85320782.683 8  81765779.014 8  20836135.500    20836133.740
  20836132.980          50.250          49.050
 105258272.805 8  82019591.356 8                  20029914.960    20029911.080
  20029910.380          50.750          50.150
 125886201.287 7  98093135.19546                  23955338.600
  23955330.780          47.350          38.600
 104829970.649 7  81534454.818 7                  19603682.000    19603685.700
  19603683.440          43.950          46.800
 126552357.939 7  98429683.321 6                  23707498.020    23707504.520
  23707503.920          45.150          41.500
 109811896.020 7  85409276.799 6                  20549792.540    20549796.080
  20549794.460          47.550          41.400
 121301492.300 7  94345548.964 5                  22715839.280    22715842.120
  22715839.840          45.350          31.850
 124932392.401 7  97169638.343 6                  23354738.600    23354739.600
  23354738.060          44.150          39.250
 103798642.556 8  80732324.311 7                  19472348.260    19472354.120
  19472352.940          48.750          42.600
 106168384.110 8  82575396.617 7                  19840048.580    19840050.160
  19840049.160          48.900          47.150
 15  1 27 23  7 35.0000000  0 16G08G14G31G21G24G12G25G29G02R20R22R11
                                R09R19R10R21
 127832014.293 7  99609340.11146                  24325623.560
  24325619.480          46.000          38.350
 119696575.830 7  93270058.60546                  22777494.500
  22777489.720          47.200          39.550
 112643439.408 8  87774110.578 7                  21435329.100    21435324.040
  21435323.200          50.050          47.300
 126675380.027 7  98708147.96445                  24105497.180
  24105493.040          42.450          35.900
 131941151.108 7 102811368.658 6  98527578.515 7  25107537.100    25107536.400
  25107535.800          42.450          39.600
 122220879.002 8  95237158.534 7                  23257794.360    23257790.020
  23257789.160          48.700          43.500
 109500072.699 8  85324840.771 8  81769668.013 8  20837126.540    20837124.760
  20837124.020          50.250          49.000
 105259551.605 8  82020587.823 8                  20030158.300    20030154.440
  20030153.740          50.700          50.150
 125895127.979 7  98100091.05146                  23957037.260
  23957029.480          47.150          39.550
 104838348.931 7  81540971.254 7                  19605248.760    19605252.480
  19605250.220          43.700          46.700
 126530821.451 7  98412932.791 6                  23703463.540    23703470.020
  23703469.440          46.200          41.350
 109798028.141 7  85398490.664 6                  20547197.340    20547200.840
  20547199.240          47.250          41.450
 121318399.084 7  94358698.666 5                  22719005.400    22719008.360
  22719005.940          45.650          31.900
 124953142.979 7  97185777.677 6                  23358617.700    23358618.780
  23358617.140          44.250          39.400
 103802285.612 8  80735157.786 7                  19473031.660    19473037.540
  19473036.360          48.800          42.350
 106157121.820 8  82566637.065 7                  19837943.960    19837945.540
  19837944.520          49.000          46.950
 15  1 27 23  7 40.0000000  0 16G08G14G31G21G24G12G25G29G02R20R22R11
                                R09R19R10R21
 127814290.243 7  99595529.17346                  24322250.760
  24322246.740          46.250          37.400
 119709015.442 7  93279751.80946                  22779861.680
  22779856.940          47.200          38.950
 112633388.834 8  87766278.967 7                  21433416.520    21433411.500
  21433410.640          49.950          47.350
 126659779.813 7  98695991.99246                  24102528.540
  24102524.400          42.900          37.850
 131959321.496 7 102825527.392 6  98541147.290 7  25110994.820    25110994.120
  25110993.560          42.450          39.950
 122233374.770 8  95246895.504 7                  23260172.200    23260167.940
  23260167.020          48.350          43.250
 109505288.006 8  85328904.653 8  81773562.563 8  20838119.000    20838117.220
  20838116.460          50.200          48.950
 105260844.530 8  82021595.297 8                  20030404.320    20030400.460
  20030399.780          50.600          50.200
 125904067.038 7  98107056.54646                  23958738.300
  23958730.540          47.100          38.200
 104846746.189 7  81547502.458 7                  19606819.080    19606822.820
  19606820.520          43.600          46.750
 126509290.234 7  98396186.329 6                  23699430.000    23699436.400
  23699435.880          45.800          40.750
 109784169.279 7  85387711.562 6                  20544603.820    20544607.420
  20544605.740          46.850          41.400
 121335314.706 7  94371855.269 5                  22722173.180    22722176.180
  22722173.660          45.450          32.250
 124973897.325 7  97201919.940 6                  23362497.540    23362498.620
  23362496.940          44.100          39.550
 103805945.646 8  80738004.471 7                  19473718.280    19473724.120
  19473722.940          48.850          42.050
 106145878.070 8  82557891.928 7                  19835842.820    19835844.380
  19835843.340          48.600          46.900
 15  1 27 23  7 45.0000000  0 16G08G14G31G21G24G12G25G29G02R20R22R11
                                R09R19R10R21
 127796568.217 7  99581719.80646                  24318878.360
  24318874.300          46.350          38.000
 119721464.642 7  93289452.48746                  22782230.660
  22782225.980          47.500          39.150
 112623349.365 8  87758456.006 7                  21431506.060    21431501.020
  21431500.200          49.850          47.350
 126644182.019 7  98683837.87946                  24099560.340
  24099556.220          42.900          36.400
 131977494.578 7 102839688.211 6  98554718.061 7  25114453.080    25114452.400
  25114451.760          43.150          39.950
 122245873.974 8  95256635.141 7                  23262550.660    23262546.480
  23262545.520          48.450          43.350
 109510510.807 8  85332974.366 8  81777462.702 8  20839112.880    20839111.080
  20839110.360          50.100          48.850
 105262151.628 8  82022613.813 8                  20030653.040    20030649.200
  20030648.520          50.600          50.200
 125913018.471 7  98114031.69446                  23960441.680
  23960434.000          47.100          39.250
 104855162.409 7  81554048.407 7                  19608392.960    19608396.700
  19608394.440          43.600          46.950
 126487764.254 7  98379443.947 6                  23695397.420    23695403.840
  23695403.300          45.550          40.950
 109770319.644 7  85376939.625 6                  20542012.020    20542015.600
  20542013.980          47.400          41.800
 121352239.189 7  94385018.741 5                  22725342.600    22725345.540
  22725343.120          45.650          32.150
 124994655.501 7  97218065.186 6                  23366378.060    23366379.160
  23366377.440          44.200          39.900
 103809622.687 8  80740864.393 7                  19474408.020    19474413.900
  19474412.720          48.850          42.100
 106134652.915 8  82549161.252 7                  19833745.100    19833746.660
  19833745.660          48.150          47.050
 15  1 27 23  7 50.0000000  0 16G08G14G31G21G24G12G25G29G02R20R22R11
                                R09R19R10R21
 127778846.277 7  99567910.50246                  24315505.960
  24315501.940          46.100          37.100
 119733921.506 7  93299159.12246                  22784601.120
  22784596.380          47.550          39.600
 112613319.137 8  87750640.246 7                  21429597.360    21429592.340
  21429591.500          49.850          47.400
 126628584.706 7  98671684.15146                  24096592.260
  24096588.140          43.000          36.550
 131995668.396 7 102853849.609 6  98568289.398 7  25117911.480    25117910.760
  25117910.200          43.300          40.250
 122258374.742 8  95266375.985 7                  23264929.480    23264925.280
  23264924.340          48.800          43.600
 109515739.152 8  85337048.393 8  81781366.980 8  20840107.820    20840106.020
  20840105.280          50.050          48.700
 105263470.997 8  82023641.895 8                  20030904.100    20030900.260
  20030899.600          50.500          50.100
 125921980.380 7  98121014.99846                  23962147.060
  23962139.440          47.050          39.250
 104863595.772 7  81560607.688 7                  19609970.000    19609973.820
  19609971.580          43.350          47.150
 126466241.364 7  98362703.976 6                  23691365.420    23691371.860
  23691371.320          45.700          41.550
 109756477.158 7  85366173.258 6                  20539421.580    20539425.180
  20539423.560          47.600          41.800
 121369170.526 7  94398187.553 5                  22728513.320    22728516.320
  22728513.820          45.400          32.300
 125015415.504 7  97234211.836 6                  23370258.960    23370260.020
  23370258.320          44.250          39.750
 103813314.781 8  80743736.014 7                  19475100.600    19475106.600
  19475105.340          48.550          42.250
 106123444.346 8  82540443.478 7                  19831650.480    19831652.060
  19831651.060          48.350          47.000
 15  1 27 23  7 55.0000000  0 16G08G14G31G21G24G12G25G29G02R20R22R11
                                R09R19R10R21
 127761125.638 7  99554102.20246                  24312133.780
  24312129.800          45.650          37.600
 119746387.262 7  93308872.69646                  22786973.300
  22786968.560          47.600          38.650
 112603299.326 8  87742832.595 7                  21427690.620    21427685.620
  21427684.780          49.850          47.250
 126612989.051 7  98659531.70946                  24093624.440
  24093620.480          42.900          37.100
 132013844.100 7 102868012.475 6  98581862.145 7  25121370.200    25121369.500
  25121368.860          42.750          40.250
 122270878.234 8  95276118.956 7                  23267308.840    23267304.600
  23267303.740          49.100          43.700
 109520974.247 8  85341127.686 8  81785276.301 8  20841104.020    20841102.240
  20841101.500          49.900          48.650
 105264803.805 8  82024680.447 8                  20031157.720    20031153.880
  20031153.240          50.350          50.000
 125930953.928 7  98128007.37146                  23963854.680
  23963847.100          46.800          39.100
 104872047.346 7  81567181.124 7                  19611550.520    19611554.300
  19611552.120          43.700          47.100
 126444723.054 7  98345967.577 6                  23687334.340    23687340.700
  23687340.220          45.450          41.050
 109742643.075 7  85355413.420 6                  20536832.700    20536836.300
  20536834.700          47.600          41.650
 121386110.068 7  94411362.754 5                  22731685.560    22731688.700
  22731686.080          44.850          31.750
 125036178.550 7  97250360.870 6                  23374140.420    23374141.480
  23374139.720          44.000          39.750
 103817023.061 8  80746620.222 7                  19475796.200    19475802.280
  19475801.000          48.600          42.450
 106112253.607 8  82531739.566 7                  19829559.220    19829560.780
  19829559.800          48.800          47.000
 15  1 27 23  8  0.0000000  0 16G08G14G31G21G24G12G25G29G02R20R22R11
                                R09R19R10R21
 127743405.913 7  99540294.63646                  24308761.740
  24308757.920          45.750          36.450
 119758861.476 7  93318592.86346                  22789347.080
  22789342.300          47.750          39.450
 112593289.561 8  87735032.780 7                  21425785.780    21425780.840
  21425780.000          49.850          47.300
 126597394.702 7  98647380.27646                  24090656.920
  24090652.960          43.000          36.800
 132032021.325 7 102882176.530 6  98595436.041 7  25124829.180    25124828.540
  25124828.080          42.750          40.300
 122283384.055 8  95285863.761 7                  23269688.620    23269684.380
  23269683.600          48.650          43.450
 109526215.678 8  85345211.923 8  81789190.361 8  20842101.440    20842099.660
  20842098.920          49.950          48.800
 105266149.617 8  82025729.136 8                  20031413.800    20031409.980
  20031409.340          50.450          50.100
 125939938.743 7  98135008.53646                  23965564.420
  23965556.880          46.700          39.850
 104880516.712 7  81573768.408 7                  19613134.340    19613138.120
  19613135.960          44.050          47.000
 126423208.807 7  98329234.334 6                  23683303.960    23683310.380
  23683309.800          45.800          41.150
 109728817.069 7  85344659.860 6                  20534245.400    20534248.920
  20534247.340          47.650          41.700
 121403057.246 7  94424543.895 5                  22734859.240    22734862.520
  22734859.800          45.150          31.700
 125056944.202 7  97266511.930 6                  23378022.340    23378023.420
  23378021.640          44.200          39.200
 103820747.163 8  80749516.743 7                  19476494.780    19476500.940
  19476499.640          48.650          42.100
 106101080.343 8  82523049.258 7                  19827471.220    19827472.780
  19827471.820          48.950          47.000
 15  1 27 23  8  5.0000000  0 16G08G14G31G21G24G12G25G29G02R20R22R11
                                R09R19R10R21
 127725687.978 7  99526488.46946                  24305390.080
  24305386.360          45.600          37.250
 119771344.963 7  93328320.26146                  22791722.600
  22791717.840          47.750          39.050
 112583290.739 8  87727241.494 7                  21423883.040    21423878.140
  21423877.300          49.850          47.500
 126581802.478 7  98635230.52045                  24087689.780
  24087685.900          43.950          35.650
 132050200.984 7 102896342.479 6  98609011.758 7  25128288.620    25128288.040
  25128287.580          42.400          40.600
 122295893.107 8  95295611.058 7                  23272069.000    23272064.780
  23272064.000          48.400          43.000
 109531464.349 8  85349301.791 8  81793109.818 8  20843100.220    20843098.460
  20843097.700          49.950          48.700
 105267509.295 8  82026788.626 8                  20031672.540    20031668.740
  20031668.080          50.400          50.200
 125948935.690 7  98142019.13846                  23967276.480
  23967268.940          46.700          38.950
 104889004.707 7  81580370.189 7                  19614721.640    19614725.460
  19614723.280          44.100          46.950
 126401699.559 7  98312504.985 6                  23679274.560    23679280.960
  23679280.360          45.750          41.150
 109714999.955 7  85333913.213 6                  20531659.720    20531663.240
  20531661.700          47.800          41.950
 121420012.963 7  94437731.672 5                  22738034.520    22738037.820
  22738035.060          45.100          32.350
 125077713.376 7  97282665.737 6                  23381904.940    23381906.000
  23381904.200          44.350          39.400
 103824488.091 8  80752426.358 7                  19477196.520    19477202.700
  19477201.420          48.250          42.200
 106089925.441 8  82514373.234 7                  19825386.620    19825388.220
  19825387.260          48.700          47.000
 15  1 27 23  8 10.0000000  0 16G08G14G31G21G24G12G25G29G02R20R22R11
                                R09R19R10R21
 127707971.848 7  99512683.69746                  24302018.800
  24302015.160          45.550          37.050
 119783837.790 7  93338054.92346                  22794099.920
  22794095.140          47.550          39.450
 112573302.864 8  87719458.734 7                  21421982.360    21421977.520
  21421976.660          49.700          47.700
 126566212.483 7  98623082.47846                  24084723.100
  24084719.180          43.950          36.650
 132068382.986 6 102910510.243 6  98622589.192 7  25131748.500    25131748.020
  25131747.580          41.500          41.050
 122308405.260 8  95305360.780 7                  23274449.960    23274445.760
  23274444.880          48.600          42.900
 109536720.223 8  85353397.283 8  81797034.663 8  20844100.380    20844098.640
  20844097.860          49.950          48.950
 105268882.848 8  82027858.926 8                  20031933.920    20031930.120
  20031929.460          50.300          50.300
 125957944.739 7  98149039.15946                  23968990.840
  23968983.300          46.750          39.600
 104897511.422 7  81586986.518 7                  19616312.400    19616316.280
  19616314.080          44.150          46.800
 126380195.342 7  98295779.537 6                  23675246.080    23675252.440
  23675251.820          45.150          41.050
 109701191.869 7  85323173.589 6                  20529075.740    20529079.280
  20529077.740          47.750          41.900
 121436977.314 7  94450926.161 5                  22741211.420    22741214.620
  22741212.000          44.650          32.100
 125098486.017 7  97298822.237 6                  23385788.180    23385789.200
  23385787.400          44.350          39.600
 103828245.735 8  80755348.964 7                  19477901.400    19477907.620
  19477906.380          48.050          42.300
 106078788.878 8  82505711.467 7                  19823305.460    19823307.100
  19823306.120          48.300          47.050
 15  1 27 23  8 15.0000000  0 16G08G14G31G21G24G12G25G29G02R20R22R11
                                R09R19R10R21
 127690257.231 7  99498880.10346                  24298647.780
  24298644.220          45.700          38.350
 119796339.570 7  93347796.57046                  22796478.940
  22796474.140          47.700          39.050
 112563325.598 8  87711684.246 7                  21420083.700    21420078.920
  21420078.060          49.650          47.600
 126550624.350 7  98610935.90145                  24081756.740
  24081752.840          44.100          35.850
 132086567.025 6 102924679.593 6  98636168.152 7  25135208.780    25135208.380
  25135207.840          41.700          41.050
 122320920.313 8  95315112.776 7                  23276831.520    23276827.280
  23276826.380          49.000          42.800
 109541982.991 8  85357498.143 8  81800964.646 8  20845101.860    20845100.100
  20845099.340          50.050          49.000
 105270269.959 8  82028939.794 8                  20032197.880    20032194.080
  20032193.420          50.450          50.200
 125966965.554 7  98156068.37646                  23970707.440
  23970699.880          47.100          39.300
 104906036.534 7  81593617.167 7                  19617906.640    19617910.540
  19617908.320          44.100          46.900
 126358695.860 7  98279057.773 6                  23671218.480    23671224.860
  23671224.160          43.650          40.950
 109687392.312 7  85312440.604 6                  20526493.380    20526496.880
  20526495.360          47.300          41.700
 121453949.875 7  94464127.038 5                  22744389.840    22744392.980
  22744390.400          44.550          32.100
 125119261.784 7  97314981.163 6                  23389672.040    23389672.980
  23389671.180          44.250          39.450
 103832019.909 7  80758284.426 7                  19478609.360    19478615.600
  19478614.400          47.950          42.700
 106067670.349 8  82497063.721 7                  19821227.660    19821229.340
  19821228.340          48.400          47.000
 15  1 27 23  8 20.0000000  0 16G08G14G31G21G24G12G25G29G02R20R22R11
                                R09R19R10R21
 127672542.577 7  99485076.48946                  24295276.780
  24295273.240          45.700          37.700
 119808848.753 7  93357543.98646                  22798859.360
  22798854.580          47.650          39.050
 112553357.403 8  87703916.829 7                  21418186.780    21418182.020
  21418181.200          49.900          47.600
 126535036.528 7  98598789.57745                  24078790.480
  24078786.580          44.600          34.800
 132104751.628 6 102938849.401 6  98649747.550 7  25138669.160    25138668.860
  25138668.380          41.600          40.950
 122333436.723 8  95324865.836 7                  23279213.380    23279209.040
  23279208.180          48.450          43.050
 109547251.125 8  85361603.187 8  81804898.652 8  20846104.360    20846102.620
  20846101.840          50.150          49.050
 105271669.091 8  82030030.033 8                  20032464.100    20032460.340
  20032459.680          50.600          50.150
 125975996.579 7  98163105.53746                  23972425.980
  23972418.440          47.000          40.000
 104914578.384 7  81600260.839 7                  19619503.940    19619507.920
  19619505.700          44.350          47.200
 126337199.447 7  98262338.424 6                  23667191.420    23667197.860
  23667197.120          43.400          40.800
 109673599.797 7  85301713.107 6                  20523912.240    20523915.900
  20523914.320          46.800          41.750
 121470929.064 7  94477333.061 5                  22747569.480    22747572.580
  22747570.060          44.850          31.150
 125140039.079 7  97331141.287 6                  23393556.160    23393557.100
  23393555.260          44.300          39.900
 103835808.940 8  80761231.454 7                  19479320.100    19479326.500
  19479325.240          48.150          42.550
 106056568.320 8  82488428.814 7                  19819152.960    19819154.640
  19819153.660          48.550          46.900
 15  1 27 23  8 25.0000000  0 16G08G14G31G21G24G12G25G29G02R20R22R11
                                R09R19R10R21
 127654830.385 7  99471274.78146                  24291906.240
  24291902.720          45.800          37.550
 119821367.801 7  93367299.08546                  22801241.660
  22801236.900          47.600          39.300
 112543400.787 8  87696158.419 7                  21416292.080    21416287.360
  21416286.520          49.850          47.650
 126519451.606 7  98586645.47646                  24075824.740
  24075820.760          45.000          36.850
 132122939.269 6 102953021.561 6  98663329.193 7  25142130.140    25142129.940
  25142129.420          41.600          40.150
 122345956.968 8  95334621.857 7                  23281595.940    23281591.580
  23281590.680          48.050          43.250
 109552527.086 8  85365714.321 8  81808838.485 8  20847108.340    20847106.620
  20847105.840          50.150          49.050
 105273082.714 8  82031131.555 8                  20032733.100    20032729.340
  20032728.680          50.650          50.150
 125985040.319 7  98170152.61346                  23974146.940
  23974139.400          47.200          38.950
 104923139.520 7  81606919.497 7                  19621104.920    19621108.900
  19621106.720          44.050          47.200
 126315708.674 7  98245623.437 6                  23663165.460    23663171.900
  23663171.100          43.250          40.800
 109659817.105 7  85290993.235 6                  20521332.960    20521336.720
  20521335.060          47.100          41.650
 121487917.474 7  94490546.261 5                  22750750.860    22750753.920
  22750751.420          44.750          31.300
 125160820.433 7  97347304.544 6                  23397441.020    23397441.940
  23397440.080          44.450          39.450
 103839615.346 7  80764191.992 7                  19480034.140    19480040.580
  19480039.300          47.850          42.400
 106045485.258 8  82479808.657 7                  19817081.840    19817083.480
  19817082.500          48.400          46.900
 15  1 27 23  8 30.0000000  0 16G08G14G31G21G24G12G25G29G02R20R22R11
                                R09R19R10R21
 127637118.604 7  99457473.38945                  24288535.820
  24288532.240          45.850          35.950
 119833894.623 7  93377060.23146                  22803625.400
  22803620.660          47.300          39.200
 112533453.696 8  87688407.443 7                  21414399.180    21414394.520
  21414393.680          49.950          47.600
 126503867.446 7  98574501.98145                  24072859.200
  24072855.160          45.350          33.300
 132141127.678 6 102967194.338 6  98676911.428 7  25145591.320    25145591.020
  25145590.600          40.600          40.100
 122358478.995 8  95344379.264 7                  23283978.780    23283974.440
  23283973.560          48.250          43.050
 109557808.843 8  85369829.976 8  81812782.658 8  20848113.420    20848111.720
  20848110.940          50.150          49.100
 105274508.760 8  82032242.757 8                  20033004.460    20033000.700
  20033000.040          50.600          50.200
 125994094.688 7  98177207.95946                  23975869.940
  23975862.420          46.950          39.750
 104931717.858 7  81613591.534 7                  19622709.080    19622713.120
  19622710.920          43.550          47.250
 126294221.645 7  98228911.372 6                  23659140.160    23659146.560
  23659145.800          44.000          40.600
 109646041.797 7  85280279.109 6                  20518755.100    20518758.840
  20518757.200          47.200          41.750
 121504912.960 7  94503764.970 5                  22753933.560    22753936.500
  22753934.040          44.700          31.650
 125181603.738 7  97363469.328 6                  23401326.320    23401327.100
  23401325.320          44.500          39.300
 103843437.026 7  80767164.406 7                  19480751.060    19480757.500
  19480756.240          47.800          42.400
 106034419.109 8  82471201.658 7                  19815013.840    19815015.520
  19815014.500          48.150          46.850
 15  1 27 23  8 35.0000000  0 16G08G14G31G21G24G12G25G29G02R20R22R11
                                R09R19R10R21
 127619406.317 7  99443671.61446                  24285165.240
  24285161.760          45.600          38.300
 119846428.269 7  93386826.71546                  22806010.460
  22806005.740          47.300          39.900
 112523515.202 8  87680663.172 7                  21412507.920    21412503.280
  21412502.460          50.050          47.700
 126488283.150 7  98562358.38845                  24069893.580
  24069889.400          44.750          33.300
 132159316.046 6 102981367.072 6  98690493.622 7  25149052.360    25149052.080
  25149051.720          39.850          39.650
 122371001.826 8  95354137.319 7                  23286361.760    23286357.440
  23286356.520          48.350          42.850
 109563095.419 8  85373949.390 8  81816730.428 8  20849119.400    20849117.720
  20849116.980          50.250          49.150
 105275946.301 8  82033362.930 8                  20033278.020    20033274.260
  20033273.600          50.550          50.200
 126003158.717 7  98184270.85146                  23977594.800
  23977587.300          46.950          39.800
 104940312.337 7  81620276.131 7                  19624316.260    19624320.340
  19624318.160          42.700          47.100
 126272737.142 7  98212201.261 6                  23655115.380    23655121.700
  23655120.980          44.100          40.750
 109632273.057 7  85269570.087 6                  20516178.460    20516182.160
  20516180.520          46.750          41.700
 121521914.523 7  94516988.414 5                  22757117.420    22757120.460
  22757117.920          44.250          31.750
 125202387.987 7  97379634.859 6                  23405211.780    23405212.480
  23405210.680          44.250          39.000
 103847273.008 7  80770147.946 7                  19481470.660    19481477.120
  19481475.880          47.950          42.350
 106023368.922 7  82462607.085 7                  19812948.800    19812950.500
  19812949.480          47.750          46.900
 15  1 27 23  8 40.0000000  0 16G08G14G31G21G24G12G25G29G02R20R22R11
                                R09R19R10R21
 127601698.064 7  99429872.97146                  24281795.400
  24281792.040          44.800          37.100
 119858973.310 7  93396602.06146                  22808397.660
  22808393.000          47.200          39.450
 112513589.891 8  87672929.159 7                  21410619.180    21410614.560
  21410613.760          49.850          47.550
 126472703.283 7  98550218.25345                  24066928.800
  24066924.600          44.250          33.100
 132177508.906 6 102995543.283 6  98704079.152 7  25152514.280    25152514.120
  25152513.720          40.550          39.950
 122383530.030 8  95363899.554 7                  23288745.820    23288741.500
  23288740.460          48.350          42.350
 109568391.392 8  85378076.118 8  81820685.209 8  20850127.200    20850125.500
  20850124.780          50.150          49.050
 105277399.870 8  82034495.581 8                  20033554.620    20033550.880
  20033550.220          50.500          50.200
 126012236.996 7  98191344.84346                  23979322.320
  23979314.900          46.850          39.300
 104948927.634 7  81626976.910 7                  19625927.340    19625931.420
  19625929.240          42.750          46.800
 126251259.962 7  98195496.846 6                  23651091.920    23651098.240
  23651097.560          42.850          40.850
 109618515.512 7  85258869.768 6                  20513603.880    20513607.620
  20513605.920          46.800          41.300
 121538926.843 7  94530220.191 5                  22760303.200    22760306.200
  22760303.800          44.550          31.750
 125223177.804 7  97395804.707 6                  23409098.260    23409098.960
  23409097.080          45.000          38.900
 103851128.050 7  80773146.303 7                  19482193.820    19482200.340
  19482199.080          47.900          42.350
 106012339.380 7  82454028.538 7                  19810887.600    19810889.360
  19810888.300          47.700          46.750
 15  1 27 23  8 45.0000000  0 16G08G14G31G21G24G12G25G29G02R20R22R11
                                R09R19R10R21
 127583990.807 7  99416075.12346                  24278425.740
  24278422.540          45.050          37.300
 119871526.717 7  93406383.93746                  22810786.460
  22810781.840          46.850          39.650
 112503674.692 8  87665203.035 7                  21408732.360    21408727.760
  21408726.980          49.800          47.650
 126457124.809 7  98538079.19645                  24063964.300
  24063960.080          44.100          33.700
 132195703.265 6 103009720.694 6  98717665.824 7  25155976.540    25155976.340
  25155976.000          40.900          40.550
 122396060.568 8  95373663.615 7                  23291130.320    23291125.960
  23291124.860          48.450          42.900
 109573693.720 8  85382207.802 8  81824644.742 8  20851136.180    20851134.500
  20851133.780          49.950          49.050
 105278866.385 8  82035638.318 8                  20033833.680    20033829.940
  20033829.300          50.350          50.200
 126021326.468 7  98198427.55246                  23981051.980
  23981044.580          46.750          39.100
 104957560.658 7  81633691.494 7                  19627541.740    19627545.840
  19627543.640          43.600          46.750
 126229787.020 7  98178795.742 6                  23647069.240    23647075.500
  23647074.920          44.150          40.200
 109604766.209 7  85248175.866 6                  20511030.860    20511034.600
  20511032.860          47.200          41.150
 121555946.839 7  94543457.956 5                  22763490.500    22763493.580
  22763491.100          44.900          31.400
 125243970.173 7  97411976.560 6                  23412985.240    23412985.860
  23412983.960          45.850          38.400
 103854998.979 8  80776157.024 7                  19482919.960    19482926.520
  19482925.280          48.700          42.450
 106001327.345 8  82445463.616 7                  19808829.740    19808831.500
  19808830.380          48.750          46.600
 15  1 27 23  8 50.0000000  0 16G08G14G31G21G24G12G25G29G02R20R22R11
                                R09R19R10R21
 127566285.287 7  99402278.60945                  24275056.440
  24275053.280          45.950          35.100
 119884089.129 7  93416172.82146                  22813177.000
  22813172.380          47.300          39.850
 112493770.325 8  87657485.346 7                  21406847.600    21406843.040
  21406842.240          50.000          47.600
 126441548.464 7  98525941.78845                  24061000.220
  24060995.980          44.400          35.650
 132213899.803 6 103023899.788 6  98731254.122 7  25159439.240    25159439.040
  25159438.700          41.750          40.550
 122408594.109 8  95383430.010 7                  23293515.400    23293511.000
  23293509.900          48.850          43.150
 109579003.084 8  85386344.969 8  81828609.521 8  20852146.520    20852144.840
  20852144.120          50.000          49.150
 105280346.547 8  82036791.687 8                  20034115.340    20034111.620
  20034110.960          50.600          50.200
 126030427.937 7  98205519.60246                  23982783.900
  23982776.540          47.100          39.700
 104966212.043 7  81640420.351 7                  19629159.540    19629163.700
  19629161.500          44.250          46.900
 126208319.044 7  98162098.478 6                  23643047.560    23643053.760
  23643053.160          45.400          39.700
 109591025.866 7  85237488.928 6                  20508459.560    20508463.220
  20508461.500          47.400          41.200
 121572975.128 7  94556702.178 5                  22766679.280    22766682.280
  22766679.940          45.400          31.700
 125264765.652 7  97428150.824 6                  23416872.800    23416873.280
  23416871.380          46.100          38.200
 103858886.548 8  80779180.686 7                  19483649.240    19483655.780
  19483654.600          48.750          42.400
 105990333.517 8  82436912.867 7                  19806775.260    19806777.020
  19806775.880          49.150          46.550
 15  1 27 23  8 55.0000000  0 16G08G14G31G21G24G12G25G29G02R20R22R11
                                R09R19R10R21
 127548579.181 7  99388481.64346                  24271687.040
  24271683.960          45.350          37.150
 119896658.220 7  93425966.91046                  22815568.780
  22815564.220          47.250          39.100
 112483874.488 8  87649774.304 7                  21404964.480    21404959.920
  21404959.140          49.800          47.400
 126425971.863 7  98513804.20246                  24058036.060
  24058031.760          44.000          36.050
 132232096.146 6 103038078.738 6  98744842.290 7  25162901.900    25162901.680
  25162901.440          41.250          40.000
 122421128.364 8  95393196.971 7                  23295900.620    23295896.200
  23295895.140          48.800          43.400
 109584317.173 8  85390485.816 8  81832577.844 8  20853157.740    20853156.080
  20853155.360          49.800          48.900
 105281838.047 8  82037953.892 8                  20034399.180    20034395.440
  20034394.780          50.550          50.050
 126039538.923 7  98212619.06646                  23984517.620
  23984510.340          47.100          38.500
 104974879.467 7  81647161.670 7                  19630780.380    19630784.580
  19630782.360          44.550          47.050
 126186853.576 7  98145403.164 6                  23639026.280    23639032.500
  23639031.800          43.750          40.050
 109577291.948 7  85226806.992 6                  20505889.420    20505893.080
  20505891.340          47.600          41.200
 121590009.438 7  94569951.099 5                  22769869.300    22769872.300
  22769869.960          46.100          32.350
 125285561.916 7  97444325.701 6                  23420760.540    23420760.920
  23420759.000          46.250          38.550
 103862788.352 8  80782215.423 7                  19484381.200    19484387.820
  19484386.580          49.000          42.300
 105979355.542 8  82428374.461 7                  19804723.780    19804725.520
  19804724.360          49.000          46.450
 15  1 27 23  9  0.0000000  0 16G08G14G31G21G24G12G25G29G02R20R22R11
                                R09R19R10R21
 127530876.206 7  99374687.12846                  24268318.260
  24268315.160          45.250          36.700
 119909237.703 7  93435769.10746                  22817962.540
  22817958.060          47.100          39.700
 112473990.947 8  87642072.847 7                  21403083.700    21403079.160
  21403078.360          49.750          47.700
 126410398.836 7  98501669.40145                  24055072.600
  24055068.200          43.750          35.700
 132250295.940 6 103052260.369 6  98758433.006 7  25166365.200    25166365.020
  25166364.700          41.300          39.450
 122433667.055 8  95402967.377 7                  23298286.640    23298282.220
  23298281.240          48.100          43.700
 109589639.752 8  85394633.275 8  81836552.485 8  20854170.580    20854168.940
  20854168.180          49.850          48.900
 105283344.621 8  82039127.850 8                  20034685.880    20034682.120
  20034681.480          50.500          50.050
 126048663.155 7  98219728.86746                  23986253.860
  23986246.580          47.050          38.600
 104983566.650 7  81653918.372 7                  19632404.920    19632409.120
  19632406.960          44.200          47.100
 126165394.649 7  98128712.967 6                  23635006.320    23635012.480
  23635011.680          44.650          40.150
 109563568.370 7  85216133.102 6                  20503321.200    20503324.920
  20503323.160          47.250          41.400
 121607053.512 7  94583207.588 5                  22773061.120    22773064.000
  22773061.820          45.800          31.600
 125306362.758 7  97460504.147 6                  23424649.120    23424649.340
  23424647.480          45.900          38.550
 103866708.168 8  80785264.168 7                  19485116.500    19485123.200
  19485121.940          48.900          42.350
 105968397.300 8  82419851.398 7                  19802675.940    19802677.700
  19802676.540          48.650          46.550
 15  1 27 23  9  5.0000000  0 16G08G14G31G21G24G12G25G29G02R20R22R11
                                R09R19R10R21
 127513174.333 7  99360893.46046                  24264949.680
  24264946.600          45.600          36.900
 119921825.471 7  93445577.75246                  22820357.900
  22820353.420          47.100          39.850
 112464117.605 8  87634379.328 7                  21401204.840    21401200.340
  21401199.520          49.700          47.650
 126394827.270 7  98489535.73145                  24052109.400
  24052105.000          44.150          35.050
 132268497.181 6 103066443.137 6  98772024.836 7  25169828.740    25169828.580
  25169828.360          41.100          39.850
 122446208.044 7  95412739.550 7                  23300673.060    23300668.700
  23300667.740          47.950          43.300
 109594968.691 8  85398785.692 8  81840531.878 8  20855184.640    20855183.000
  20855182.240          49.800          48.950
 105284864.115 8  82040311.871 8                  20034975.020    20034971.260
  20034970.620          50.550          50.100
 126057798.574 7  98226847.36146                  23987992.240
  23987984.980          47.100          39.050
 104992271.501 7  81660688.816 7                  19634032.760    19634036.960
  19634034.820          44.000          47.000
 126143939.927 7  98112025.983 6                  23630987.160    23630993.200
  23630992.360          44.500          40.100
 109549853.096 7  85205465.667 6                  20500754.540    20500758.260
  20500756.520          47.100          41.350
 121624105.219 7  94596470.029 5                  22776254.340    22776257.220
  22776255.020          45.550          30.950
 125327166.048 7  97476684.481 6                  23428538.080    23428538.240
  23428536.440          45.950          38.750
 103870643.928 8  80788325.311 7                  19485854.860    19485861.520
  19485860.300          48.850          42.250
 105957456.618 8  82411341.974 7                  19800631.420    19800633.180
  19800632.020          48.850          46.850
 15  1 27 23  9 10.0000000  0 16G08G14G31G21G24G12G25G29G02R20R22R11
                                R09R19R10R21
 127495473.248 7  99347100.39746                  24261581.260
  24261578.160          44.750          36.950
 119934421.302 7  93455392.68446                  22822754.800
  22822750.360          46.950          40.150
 112454254.166 8  87626693.533 7                  21399327.860    21399323.380
  21399322.580          49.600          47.700
 126379256.918 7  98477402.97546                  24049146.500
  24049142.000          44.250          36.600
 132286699.680 6 103080626.858 6  98785617.576 7  25173292.620    25173292.400
  25173292.180          41.300          40.200
 122458751.099 8  95422513.345 7                  23303059.920    23303055.620
  23303054.580          48.700          43.000
 109600303.698 8  85402942.836 8  81844515.821 8  20856199.840    20856198.220
  20856197.480          50.000          49.000
 105286396.305 8  82041505.787 8                  20035266.580    20035262.840
  20035262.180          50.650          50.100
 126066944.850 7  98233974.32946                  23989732.700
  23989725.440          47.200          39.150
 105000993.715 7  81667472.760 7                  19635663.880    19635668.060
  19635665.940          43.800          46.900
 126122489.232 7  98095342.155 6                  23626968.680    23626974.680
  23626973.780          44.000          40.100
 109536145.846 7  85194804.464 6                  20498189.420    20498193.140
  20498191.400          47.200          41.200
 121641164.175 7  94609738.102 5                  22779448.920    22779451.620
  22779449.580          45.800          30.400
 125347971.464 7  97492866.475 6                  23432427.480    23432427.640
  23432425.800          45.850          39.050
 103874595.394 8  80791398.663 7                  19486596.120    19486602.820
  19486601.560          48.850          42.250
 105946533.265 8  82402846.023 7                  19798590.160    19798591.900
  19798590.740          48.900          46.750
 15  1 27 23  9 15.0000000  0 17G08G14G31G21G24G12G25G29G02R02R20R22
                                R11R09R19R10R21
 127477774.034 7  99333308.80546                  24258213.180
  24258210.120          43.950          36.600
 119947026.238 7  93465214.70846                  22825153.420
  22825149.000          47.100          39.550
 112444401.726 8  87619016.312 7                  21397452.980    21397448.540
  21397447.740          49.600          47.750
 126363688.823 7  98465272.00646                  24046184.000
  24046179.500          44.100          36.950
 132304904.261 6 103094812.215 6  98799211.878 7  25176756.880    25176756.660
  25176756.440          41.850          39.900
 122471297.271 8  95432289.597 7                  23305447.380    23305443.100
  23305442.020          48.750          43.650
 109605645.896 8  85407105.585 8  81848505.111 8  20857216.400    20857214.820
  20857214.060          50.000          49.000
 105287942.244 8  82042710.416 8                  20035560.760    20035557.000
  20035556.360          50.650          50.200
 126076103.076 7  98241110.60746                  23991475.440
  23991468.200          47.050          39.000
 130722604.153 5 101673140.32814                  24497359.620
  24497360.420          34.500          27.650
 105009734.364 7  81674271.043 7                  19637298.400    19637302.560
  19637300.460          44.000          46.750
 126101043.605 7  98078662.281 6                  23622951.180    23622957.100
  23622956.160          45.050          39.800
 109522447.690 7  85184150.341 6                  20495626.040    20495629.720
  20495627.980          46.950          41.650
 121658231.684 7  94623012.825 5                  22782645.140    22782647.780
  22782645.800          45.700          31.650
 125368780.017 7  97509050.893 6                  23436317.400    23436317.540
  23436315.740          45.900          38.900
 103878563.632 8  80794485.069 7                  19487340.560    19487347.200
  19487346.020          48.700          42.400
 105935628.292 8  82394364.377 7                  19796552.320    19796554.000
  19796552.880          48.950          46.950
 15  1 27 23  9 20.0000000  0 17G08G14G31G21G24G12G25G29G02R02R20R22
                                R11R09R19R10R21
 127460076.509 7  99319518.54545                  24254845.440
  24254842.300          45.200          35.750
 119959639.983 7  93475043.59246                  22827553.780
  22827549.320          47.300          39.300
 112434560.037 8  87611347.466 7                  21395580.140    21395575.720
  21395574.920          49.550          47.600
 126348122.801 7  98453142.67546                  24043221.920
  24043217.480          44.550          37.650
 132323110.830 7 103108999.163 6  98812807.691 7  25180221.560    25180221.260
  25180221.020          42.050          39.800
 122483846.316 8  95442068.082 7                  23307835.380    23307831.080
  23307830.080          48.300          43.700
 109610994.997 8  85411273.720 8  81852499.583 8  20858234.260    20858232.740
  20858231.960          50.150          48.900
 105289501.702 8  82043925.574 8                  20035857.520    20035853.760
  20035853.100          50.700          50.150
 126085273.000 7  98248256.01546                  23993220.400
  23993213.120          47.200          39.650
 130729537.521 5 101678529.174 4                  24498659.180    24498658.980
  24498659.160          33.100          28.600
 105018493.251 7  81681083.515 7                  19638936.300    19638940.520
  19638938.380          44.600          46.750
 126079602.935 7  98061986.236 6                  23618934.580    23618940.440
  23618939.520          45.100          39.950
 109508758.339 7  85173503.080 6                  20493064.260    20493067.980
  20493066.220          46.900          41.750
 121675307.269 7  94636293.844 5                  22785842.880    22785845.460
  22785843.520          46.050          32.350
 125389591.609 7  97525237.706 6                  23440207.880    23440208.040
  23440206.260          45.550          38.950
 103882548.273 8  80797584.236 7                  19488088.080    19488094.680
  19488093.520          48.800          42.500
 105924741.440 8  82385896.834 7                  19794517.900    19794519.520
  19794518.440          49.250          47.050
 15  1 27 23  9 25.0000000  0 17G08G14G31G21G24G12G25G29G02R02R20R22
                                R11R09R19R10R21
 127442379.102 7  99305728.34946                  24251477.720
  24251474.520          45.350          36.700
 119972260.931 7  93484878.09946                  22829955.460
  22829950.980          47.150          39.050
 112424727.543 8  87603685.780 7                  21393709.040    21393704.640
  21393703.860          49.450          47.450
 126332557.247 7  98441013.67846                  24040259.920
  24040255.500          44.850          37.400
 132341317.715 6 103123186.342 6  98826403.710 7  25183686.260    25183685.980
  25183685.740          41.550          40.600
 122496396.684 7  95451847.571 7                  23310223.600    23310219.380
  23310218.400          47.850          43.350
 109616349.439 8  85415446.013 8  81856498.027 8  20859253.160    20859251.640
  20859250.880          50.050          48.900
 105291073.081 8  82045150.023 8                  20036156.540    20036152.760
  20036152.100          50.600          50.000
 126094453.069 7  98255409.31546                  23994967.320
  23994960.060          46.850          39.000
 130736486.010 5 101683933.537 5                  24499961.200    24499960.600
  24499962.880          33.550          31.400
 105027268.653 7  81687908.832 7                  19640577.380    19640581.600
  19640579.420          44.150          46.900
 126058165.540 7  98045312.779 6                  23614918.540    23614924.440
  23614923.460          45.350          38.850
 109495076.225 7  85162861.444 6                  20490503.820    20490507.560
  20490505.820          46.800          41.400
 121692389.449 7  94649579.971 5                  22789041.880    22789044.480
  22789042.520          45.600          31.650
 125410404.527 7  97541425.537 6                  23444098.640    23444098.840
  23444097.000          45.450          39.000
 103886547.835 8  80800695.004 7                  19488838.380    19488845.000
  19488843.820          48.900          42.250
 105913871.126 8  82377442.155 7                  19792486.540    19792488.160
  19792487.080          49.250          47.050
 15  1 27 23  9 30.0000000  0 17G08G14G31G21G24G12G25G29G02R02R20R22
                                R11R09R19R10R21
 127424685.082 7  99291940.78545                  24248110.660
  24248107.360          44.950          35.700
 119984892.392 7  93494720.78146                  22832359.140
  22832354.680          47.350          38.300
 112414907.571 8  87596033.853 7                  21391840.360    21391835.960
  21391835.160          49.400          47.600
 126316995.487 7  98428887.64146                  24037298.640
  24037294.200          44.950          37.350
 132359528.289 6 103137376.358 6  98840002.492 7  25187151.660    25187151.360
  25187151.180          41.050          40.900
 122508951.720 8  95461630.687 7                  23312612.720    23312608.500
  23312607.580          48.250          42.900
 109621712.542 8  85419625.050 8  81860502.937 8  20860273.720    20860272.200
  20860271.420          50.050          48.850
 105292659.708 8  82046386.353 8                  20036458.460    20036454.700
  20036454.040          50.550          50.050
 126103646.533 7  98262573.05146                  23996716.780
  23996709.480          46.600          38.650
 130743452.878 5 101689352.174 5                  24501266.480    24501269.420
  24501269.980          33.850          30.100
 105036063.961 7  81694749.621 7                  19642222.120    19642226.340
  19642224.180          43.950          47.100
 126036734.804 7  98028644.466 6                  23610903.820    23610909.640
  23610908.640          46.300          38.550
 109481404.764 7  85152228.080 6                  20487945.360    20487949.160
  20487947.400          46.950          41.250
 121709481.539 7  94662873.817 5                  22792242.680    22792245.320
  22792243.300          45.550          32.050
 125431222.107 7  97557616.991 6                  23447990.200    23447990.420
  23447988.620          44.900          39.100
 103890565.698 8  80803820.001 7                  19489592.140    19489598.720
  19489597.540          48.850          42.600
 105903020.774 8  82369003.002 7                  19790458.900    19790460.500
  19790459.460          49.250          46.950
 15  1 27 23  9 35.0000000  0 17G08G14G31G21G24G12G25G29G02R02R20R22
                                R11R09R19R10R21
 127406990.929 7  99278153.14346                  24244743.560
  24244740.120          44.800          36.050
 119997530.760 7  93504568.86446                  22834764.180
  22834759.680          47.300          39.100
 112405096.601 8  87588388.948 7                  21389973.360    21389969.000
  21389968.180          49.400          47.450
 126301434.005 7  98416761.83045                  24034337.400
  24034332.960          44.850          35.300
 132377739.008 6 103151566.461 6  98853601.348 7  25190617.040    25190616.760
  25190616.680          40.900          40.300
 122521507.789 8  95471414.635 7                  23315002.060    23314997.820
  23314996.880          48.550          42.550
 109627080.755 8  85423808.079 8  81864511.670 8  20861295.240    20861293.740
  20861292.940          49.950          48.900
 105294257.945 8  82047631.737 8                  20036762.600    20036758.840
  20036758.140          50.450          50.050
 126112849.860 7  98269744.47146                  23998468.100
  23998460.800          46.550          38.600
 130750434.573 4 101694782.348 4                  24502574.600    24502577.760
  24502578.580          28.350          27.600
 105044875.553 7  81701603.087 7                  19643869.980    19643874.180
  19643872.000          43.800          47.100
 126015307.092 7  98011978.503 6                  23606889.640    23606895.360
  23606894.380          45.900          38.400
 109467740.277 7  85141600.156 6                  20485388.220    20485392.060
  20485390.280          46.800          41.650
 121726579.913 7  94676172.562 5                  22795444.700    22795447.500
  22795445.260          45.400          30.350
 125452040.752 7  97573809.264 6                  23451882.000    23451882.300
  23451880.480          44.300          39.450
 103894598.293 8  80806956.469 7                  19490348.640    19490355.240
  19490354.020          48.550          42.450
 105892186.763 8  82360576.548 7                  19788434.340    19788435.960
  19788434.900          48.750          47.100
 15  1 27 23  9 40.0000000  0 16G08G14G31G21G24G12G25G29G02R20R22R11
                                R09R19R10R21
 127389297.416 7  99264365.98645                  24241376.560
  24241373.120          44.950          35.900
 120010176.771 7  93514422.90746                  22837170.620
  22837166.160          46.700          40.350
 112395295.356 8  87580751.616 7                  21388108.220    21388103.920
  21388103.080          49.550          47.450
 126285873.566 7  98404636.82345                  24031376.360
  24031371.880          44.750          35.050
 132395950.577 7 103165757.272 6  98867200.862 7  25194082.620    25194082.340
  25194082.080          42.300          39.700
 122534065.674 8  95481200.002 7                  23317391.780    23317387.500
  23317386.500          48.600          42.250
 109632454.801 8  85427995.643 8  81868524.750 8  20862317.860    20862316.380
  20862315.580          49.900          48.750
 105295868.582 8  82048886.779 8                  20037069.100    20037065.320
  20037064.640          50.450          50.000
 126122063.790 7  98276924.16546                  24000221.440
  24000214.140          46.450          38.800
 105053704.283 7  81708469.877 7                  19645520.920    19645525.180
  19645523.020          43.900          47.150
 125993883.307 7  97995315.600 6                  23602876.160    23602881.820
  23602880.880          46.100          38.600
 109454083.573 7  85130978.279 6                  20482832.520    20482836.380
  20482834.600          47.000          41.600
 121743685.361 7  94689476.804 5                  22798648.060    22798650.680
  22798648.540          45.650          31.500
 125472861.162 7  97590002.908 6                  23455774.200    23455774.560
  23455772.640          44.500          39.800
 103898646.277 8  80810104.899 7                  19491108.040    19491114.660
  19491113.400          48.750          42.450
 105881369.825 8  82352163.376 7                  19786412.960    19786414.540
  19786413.540          48.650          47.200
 15  1 27 23  9 45.0000000  0 16G08G14G31G21G24G12G25G29G02R20R22R11
                                R09R19R10R21
 127371607.514 7  99250581.63946                  24238010.300
  24238006.800          45.250          37.300
 120022833.435 7  93524285.23546                  22839579.080
  22839574.640          46.800          39.100
 112385506.846 8  87573124.206 7                  21386245.520    21386241.220
  21386240.360          49.600          47.550
 126270317.148 7  98392514.93445                  24028416.080
  24028411.600          44.600          35.600
 132414165.949 7 103179951.048 6  98880803.232 7  25197548.940    25197548.600
  25197548.300          42.850          39.750
 122546628.356 8  95490989.109 7                  23319782.400    23319778.080
  23319777.060          48.750          42.400
 109637837.684 8  85432190.103 8  81872544.439 8  20863342.160    20863340.700
  20863339.900          49.850          48.800
 105297494.624 8  82050153.820 8                  20037378.520    20037374.720
  20037374.040          50.450          50.100
 126131291.304 7  98284114.43546                  24001977.360
  24001970.020          46.350          38.350
 105062552.956 7  81715352.174 7                  19647175.700    19647179.920
  19647177.760          43.800          46.950
 125972466.439 7  97978658.076 6                  23598864.020    23598869.600
  23598868.680          46.150          38.650
 109440437.813 7  85120364.918 6                  20480278.900    20480282.760
  20480280.980          47.050          41.250
 121760800.934 7  94702788.900 5                  22801853.280    22801855.900
  22801853.740          45.300          31.000
 125493686.411 7  97606200.317 6                  23459667.240    23459667.580
  23459665.720          44.300          39.800
 103902712.713 8  80813267.691 7                  19491870.920    19491877.560
  19491876.260          48.700          42.450
 105870573.007 8  82343765.847 7                  19784395.340    19784396.900
  19784395.900          48.800          47.100
 15  1 27 23  9 50.0000000  0 16G08G14G31G21G24G12G25G29G02R20R22R11
                                R09R19R10R21
 127353918.103 7  99236797.69245                  24234644.140
  24234640.580          46.150          35.700
 120035497.553 7  93534153.36846                  22841989.000
  22841984.540          47.300          38.900
 112375727.955 8  87565504.295 7                  21384384.620    21384380.320
  21384379.500          49.950          47.400
 126254761.615 7  98380393.76945                  24025456.000
  24025451.460          44.900          34.650
 132432382.075 7 103194145.421 6  98894406.164 7  25201015.420    25201015.020
  25201014.680          43.250          38.850
 122559192.692 8  95500779.507 7                  23322173.360    23322168.980
  23322167.900          49.200          42.550
 109643226.252 8  85436388.984 8  81876568.370 8  20864367.560    20864366.120
  20864365.300          50.150          48.800
 105299132.921 8  82051430.411 8                  20037690.280    20037686.460
  20037685.780          50.750          50.050
 126140529.249 7  98291312.83246                  24003735.260
  24003727.920          46.650          38.850
 105071418.487 7  81722247.585 7                  19648833.660    19648837.820
  19648835.660          42.900          46.750
 125951053.300 7  97962003.454 6                  23594852.600    23594858.120
  23594857.160          45.700          39.000
 109426799.760 7  85109757.531 6                  20477726.720    20477730.640
  20477728.780          46.300          41.300
 121777923.329 7  94716106.319 5                  22805059.760    22805062.320
  22805060.200          44.750          31.600
 125514513.272 7  97622398.973 6                  23463560.600    23463560.980
  23463559.120          43.750          39.550
 103906794.429 8  80816442.357 7                  19492636.640    19492643.280
  19492641.980          48.000          42.300
 105859793.104 8  82335381.476 7                  19782380.900    19782382.440
  19782381.420          48.200          47.250
 15  1 27 23  9 55.0000000  0 16G08G14G31G21G24G12G25G29G02R20R22R11
                                R09R19R10R21
 127336230.016 7  99223014.77245                  24231278.200
  24231274.680          46.350          35.550
 120048169.942 7  93544027.96146                  22844400.460
  22844396.040          47.050          39.100
 112365959.491 8  87557892.500 7                  21382525.720    21382521.440
  21382520.600          49.900          47.550
 126239207.785 7  98368273.92546                  24022496.200
  24022491.680          44.200          36.650
 132450599.688 7 103208340.954 6  98908010.186 7  25204482.180    25204481.660
  25204481.380          43.150          38.100
 122571759.523 8  95510571.845 7                  23324564.780    23324560.360
  23324559.280          48.950          42.900
 109648621.345 8  85440592.950 8  81880597.175 8  20865394.200    20865392.760
  20865391.960          50.000          48.850
 105300784.292 8  82052717.194 8                  20038004.520    20038000.700
  20038000.020          50.600          50.050
 126149778.453 7  98298520.00846                  24005495.260
  24005487.920          45.900          39.900
 105080301.667 7  81729156.723 7                  19650494.900    19650499.020
  19650496.860          43.050          46.800
 125929644.752 7  97945352.419 6                  23590842.040    23590847.500
  23590846.560          45.900          38.700
 109413170.143 7  85099156.716 6                  20475176.100    20475180.000
  20475178.140          46.100          41.200
 121795053.416 7  94729429.709 5                  22808267.720    22808270.300
  22808268.180          45.200          31.500
 125535342.549 7  97638599.525 6                  23467454.420    23467454.900
  23467452.960          43.150          39.000
 103910892.315 8  80819629.599 7                  19493405.400    19493412.060
  19493410.720          48.250          42.200
 105849030.991 8  82327010.948 7                  19780369.760    19780371.300
  19780370.300          48.250          47.300
 15  1 27 23 10  0.0000000  0 16G08G14G31G21G24G12G25G29G02R20R22R11
                                R09R19R10R21
 127318543.766 7  99209233.26045                  24227912.640
  24227909.040          46.750          35.200
 120060851.165 7  93553909.43046                  22846813.600
  22846809.220          46.950          39.200
 112356201.970 8  87550289.241 7                  21380668.920    21380664.620
  21380663.800          49.800          47.300
 126223656.196 7  98356155.80446                  24019536.780
  24019532.300          43.800          36.450
 132468819.259 7 103222538.026 6  98921615.706 7  25207949.300    25207948.760
  25207948.420          43.200          38.350
 122584329.318 8  95520366.478 7                  23326956.760    23326952.280
  23326951.220          48.850          42.600
 109654023.448 8  85444802.383 8  81884631.211 8  20866422.160    20866420.740
  20866419.940          49.900          48.900
 105302449.245 8  82054014.562 8                  20038321.320    20038317.520
  20038316.860          50.500          49.950
 126159039.399 7  98305736.32246                  24007257.520
  24007250.220          45.950          38.550
 105089203.066 7  81736080.034 7                  19652159.580    19652163.660
  19652161.460          43.500          46.950
 125908241.267 7  97928705.299 6                  23586832.380    23586837.840
  23586836.860          45.800          38.400
 109399549.645 7  85088562.995 6                  20472627.200    20472631.040
  20472629.200          46.000          40.900
 121812191.775 7  94742759.546 5                  22811477.180    22811479.800
  22811477.640          45.100          31.250
 125556174.693 7  97654802.293 6                  23471348.740    23471349.220
  23471347.320          42.850          39.000
 103915006.800 8  80822829.753 7                  19494177.240    19494183.900
  19494182.580          48.400          42.050
 105838287.268 8  82318654.723 7                  19778362.060    19778363.600
  19778362.600          48.100          47.100
 15  1 27 23 10  5.0000000  0 16G08G14G31G21G24G12G25G29G02R20R22R11
                                R09R19R10R21
 127300858.808 7  99195452.78345                  24224547.340
  24224543.680          46.750          35.800
 120073540.610 7  93563797.30046                  22849228.300
  22849223.960          47.000          38.600
 112346454.909 8  87542694.125 7                  21378814.080    21378809.820
  21378808.960          49.750          47.300
 126208106.364 7  98344039.06745                  24016577.720
  24016573.220          42.900          35.100
 132487040.298 7 103236736.214 6  98935222.257 7  25211416.680    25211416.080
  25211415.800          43.250          38.300
 122596901.562 8  95530163.022 7                  23329349.220    23329344.680
  23329343.660          48.750          42.800
 109659432.049 8  85449016.867 8  81888670.099 8  20867451.380    20867449.940
  20867449.120          50.050          48.650
 105304127.244 8  82055322.091 8                  20038640.640    20038636.840
  20038636.160          50.600          49.850
 126168311.544 7  98312961.37246                  24009021.880
  24009014.600          46.000          38.850
 105098122.037 7  81743017.013 7                  19653827.500    19653831.540
  19653829.360          43.700          46.900
 125886842.458 7  97912061.815 6                  23582823.620    23582829.000
  23582828.000          45.450          38.600
 109385937.740 7  85077975.968 6                  20470079.920    20470083.720
  20470081.880          45.950          40.900
 121829337.775 7  94756095.343 5                  22814688.120    22814690.760
  22814688.560          44.850          31.300
 125577009.268 7  97671006.959 6                  23475243.640    23475243.900
  23475242.140          43.150          38.500
 103919137.427 8  80826042.466 7                  19494952.160    19494958.800
  19494957.460          48.350          42.050
 105827561.254 8  82310312.272 7                  19776357.640    19776359.200
  19776358.220          48.000          47.050
 15  1 27 23 10 10.0000000  0 16G08G14G31G21G24G12G25G29G02R20R22R11
                                R09R19R10R21
 127283176.155 7  99181674.08545                  24221182.520
  24221178.700          47.450          34.350
 120086239.348 7  93573692.42946                  22851644.780
  22851640.500          46.550          40.650
 112336719.252 8  87535107.911 7                  21376961.440    21376957.160
  21376956.320          49.700          47.200
 126192559.216 7  98331924.42446                  24013619.160
  24013614.660          42.700          37.550
 132505263.757 7 103250936.300 6  98948830.681 7  25214884.520    25214883.960
  25214883.640          44.100          38.650
 122609477.214 8  95539962.231 7                  23331742.340    23331737.740
  23331736.760          48.850          42.900
 109664848.114 8  85453237.182 8  81892714.560 8  20868482.000    20868480.600
  20868479.760          49.850          48.700
 105305819.220 8  82056640.517 8                  20038962.600    20038958.780
  20038958.120          50.650          49.900
 126177595.833 7  98320195.88746                  24010788.580
  24010781.360          46.050          39.200
 105107059.523 7  81749968.402 7                  19655498.900    19655502.880
  19655500.720          43.750          46.900
 125865449.177 7  97895422.637 6                  23578815.880    23578821.200
  23578820.260          45.500          39.200
 109372335.352 7  85067396.354 6                  20467534.380    20467538.200
  20467536.380          46.050          41.050
 121846492.439 7  94769437.851 5                  22817900.640    22817903.320
  22817901.120          45.350          31.550
 125597847.165 7  97687214.220 6                  23479139.120    23479139.240
  23479137.580          43.250          38.350
 103923285.065 8  80829268.403 7                  19495730.260    19495736.860
  19495735.540          48.350          42.200
 105816854.005 8  82301984.424 7                  19774356.740    19774358.320
  19774357.340          48.250          47.150
 15  1 27 23 10 15.0000000  0 16G08G14G31G21G24G12G25G29G02R20R22R11
                                R09R19R10R21
 127265494.230 7  99167895.95545                  24217817.820
  24217813.960          47.200          35.150
 120098945.750 7  93583593.52246                  22854062.700
  22854058.480          46.450          39.850
 112326993.474 8  87527529.382 7                  21375110.680    21375106.380
  21375105.560          49.800          47.150
 126177013.202 7  98319810.66146                  24010660.780
  24010656.340          42.900          36.800
 132523487.929 7 103265136.936 6  98962439.630 7  25218352.500    25218351.880
  25218351.540          44.000          39.000
 122622054.671 8  95549762.849 7                  23334135.780    23334131.200
  23334130.220          48.850          42.900
 109670270.042 8  85457462.060 8  81896763.400 8  20869513.760    20869512.340
  20869511.520          49.850          48.750
 105307523.607 8  82057968.608 8                  20039286.920    20039283.120
  20039282.460          50.700          49.900
 126186890.746 7  98327438.66146                  24012557.320
  24012550.140          46.100          38.600
 105116014.020 7  81756933.010 7                  19657173.460    19657177.400
  19657175.280          43.550          47.050
 125844059.843 7  97878786.541 6                  23574808.920    23574814.280
  23574813.240          45.000          39.350
 109358740.824 7  85056822.824 6                  20464990.300    20464994.140
  20464992.300          46.000          41.250
 121863654.144 7  94782785.841 5                  22821114.500    22821117.500
  22821114.980          44.800          31.850
 125618686.878 7  97703422.878 6                  23483034.920    23483035.120
  23483033.380          43.900          38.400
 103927448.310 8  80832506.474 7                  19496511.320    19496517.900
  19496516.540          48.250          42.150
 105806163.946 8  82293669.930 7                  19772359.080    19772360.620
  19772359.660          48.350          47.050
 15  1 27 23 10 20.0000000  0 16G08G14G31G21G24G12G25G29G02R20R22R11
                                R09R19R10R21
 127247814.354 7  99154119.42046                  24214453.480
  24214449.580          46.800          36.650
 120111661.015 7  93593501.51946                  22856482.300
  22856478.140          46.650          39.050
 112317278.857 8  87519959.552 7                  21373262.040    21373257.760
  21373256.920          49.950          47.300
 126161469.643 7  98307698.82445                  24007702.940
  24007698.400          43.250          35.400
 132541714.278 7 103279339.254 6  98976050.190 7  25221820.900    25221820.280
  25221820.000          44.350          39.250
 122634635.339 8  95559565.957 7                  23336529.840    23336525.240
  23336524.300          48.550          42.900
 109675699.197 8  85461692.563 8  81900817.636 8  20870546.880    20870545.460
  20870544.640          50.000          48.750
 105309241.683 8  82059307.365 8                  20039613.820    20039610.060
  20039609.380          50.650          49.950
 126196197.545 7  98334690.70746                  24014328.340
  24014321.160          46.200          38.850
 105124986.735 7  81763911.791 7                  19658851.440    19658855.360
  19658853.220          43.400          47.150
 125822675.834 7  97862154.563 6                  23570802.940    23570808.300
  23570807.180          44.000          39.650
 109345155.595 7  85046256.526 6                  20462447.980    20462451.820
  20462449.980          46.400          41.350
 121880824.156 7  94796140.282 5                  22824329.860    22824332.980
  22824330.400          45.000          32.300
 125639529.536 7  97719633.838 6                  23486931.300    23486931.420
  23486929.720          43.650          38.800
 103931628.420 8  80835757.669 7                  19497295.520    19497302.080
  19497300.720          48.650          42.400
 105795492.424 8  82285369.857 7                  19770364.860    19770366.400
  19770365.440          48.450          47.350
 15  1 27 23 10 25.0000000  0 16G08G14G31G21G24G12G25G29G02R20R22R11
                                R09R19R10R21
 127230133.877 7  99140342.43146                  24211089.060
  24211085.020          46.900          37.100
 120124382.489 7  93603414.34546                  22858903.100
  22858898.960          46.800          38.750
 112307572.746 8  87512396.344 7                  21371415.040    21371410.720
  21371409.900          49.950          47.350
 126145925.900 7  98295586.83245                  24004745.060
  24004740.400          43.700          34.600
 132559940.160 7 103293541.215 6  98989660.427 7  25225289.180    25225288.560
  25225288.320          44.450          38.850
 122647216.496 8  95569369.445 7                  23338923.940    23338919.360
  23338918.440          48.100          42.700
 109681132.886 8  85465926.604 8  81904875.264 8  20871580.880    20871579.460
  20871578.640          49.900          48.650
 105310970.818 8  82060654.747 8                  20039942.860    20039939.100
  20039938.420          50.600          49.950
 126205513.556 7  98341949.93646                  24016101.080
  24016093.960          46.150          38.600
 105133975.140 7  81770902.764 7                  19660532.360    19660536.280
  19660534.100          43.500          47.050
 125801294.568 7  97845524.733 6                  23566797.440    23566802.940
  23566801.720          43.450          40.600
 109331577.050 7  85035695.448 6                  20459906.920    20459910.760
  20459908.920          46.650          41.400
 121897999.987 7  94809499.258 5                  22827546.380    22827549.560
  22827546.920          45.550          31.600
 125660372.528 7  97735845.050 6                  23490827.680    23490827.820
  23490826.100          44.100          38.700
 103935822.605 8  80839019.813 7                  19498082.360    19498088.920
  19498087.560          48.600          42.300
 105784836.722 8  82277082.091 7                  19768373.600    19768375.120
  19768374.180          48.450          47.350
 15  1 27 23 10 30.0000000  0 16G08G14G31G21G24G12G25G29G02R20R22R11
                                R09R19R10R21
 127212457.330 7  99126568.50445                  24207725.340
  24207721.220          46.900          35.550
 120137114.723 7  93613335.57046                  22861325.960
  22861321.860          46.950          39.100
 112297879.652 8  87504843.288 7                  21369570.520    21369566.200
  21369565.340          50.000          47.250
 126130386.513 7  98283478.21746                  24001788.060
  24001783.280          44.350          36.600
 132578169.970 7 103307746.266 6  99003273.583 7  25228758.240    25228757.600
  25228757.320          43.650          38.850
 122659802.650 8  95579176.836 7                  23341319.020    23341314.420
  23341313.520          48.450          42.700
 109686575.620 8  85470167.700 8  81908939.644 8  20872616.580    20872615.160
  20872614.360          49.950          48.650
 105312715.548 8  82062014.285 8                  20040274.860    20040271.100
  20040270.420          50.450          49.950
 126214843.330 7  98349219.90246                  24017876.480
  24017869.380          46.000          38.950
 105142983.595 7  81777909.340 7                  19662217.000    19662220.900
  19662218.720          43.950          47.050
 125779920.467 7  97828900.502 6                  23562793.340    23562798.860
  23562797.620          42.900          40.700
 109318009.754 7  85025143.107 6                  20457367.960    20457371.840
  20457369.960          46.550          41.400
 121915185.938 7  94822866.117 5                  22830764.740    22830767.940
  22830765.300          45.600          31.550
 125681220.570 7  97752060.209 6                  23494725.020    23494725.180
  23494723.460          43.750          39.350
 103940035.445 8  80842296.464 7                  19498872.720    19498879.260
  19498877.880          48.750          42.550
 105774201.412 8  82268810.189 7                  19766386.140    19766387.660
  19766386.720          48.650          47.250
 15  1 27 23 10 35.0000000  0 16G08G14G31G21G24G12G25G29G02R20R22R11
                                R09R19R10R21
 127194780.917 7  99112794.66446                  24204361.660
  24204357.460          46.850          36.050
 120149853.896 7  93623262.18446                  22863750.140
  22863746.080          46.900          40.000
 112288195.810 8  87497297.434 7                  21367727.780    21367723.400
  21367722.560          50.100          47.350
 126114847.646 7  98271370.02645                  23998831.120
  23998826.280          44.700          35.500
 132596400.022 7 103321951.478 6  99016886.888 7  25232227.340    25232226.660
  25232226.480          43.700          39.550
 122672390.034 8  95588985.191 7                  23343714.360    23343709.740
  23343708.800          48.750          42.850
 109692023.605 8  85474412.883 8  81913007.938 8  20873653.300    20873651.880
  20873651.080          49.950          48.700
 105314472.036 8  82063382.974 8                  20040609.080    20040605.340
  20040604.680          50.400          50.050
 126224183.021 7  98356497.58546                  24019653.780
  24019646.640          46.300          39.000
 105152008.410 7  81784928.647 7                  19663904.680    19663908.580
  19663906.400          43.850          46.950
 125758549.714 7  97812278.842 6                  23558789.760    23558795.380
  23558794.140          42.350          41.250
 109304449.883 7  85014596.555 6                  20454830.400    20454834.380
  20454832.420          46.350          41.400
 121932378.343 7  94836237.989 5                  22833984.300    22833987.600
  22833984.980          45.100          32.250
 125702069.535 7  97768276.056 6                  23498622.600    23498622.700
  23498621.000          44.000          38.650
 103944263.239 8  80845584.740 7                  19499665.880    19499672.400
  19499671.020          48.650          42.550
 105763582.674 8  82260551.175 7                  19764401.780    19764403.280
  19764402.340          48.650          46.950
 15  1 27 23 10 40.0000000  0 16G08G14G31G21G24G12G25G29G02R20R22R11
                                R09R19R10R21
 127177107.121 7  99099022.87146                  24200998.440
  24200994.220          46.900          36.100
 120162602.404 7  93633196.07046                  22866176.080
  22866172.040          46.650          39.950
 112278523.686 8  87489760.712 7                  21365887.260    21365882.860
  21365882.020          50.100          47.400
 126099311.822 7  98259264.18546                  23995874.800
  23995869.920          44.700          36.050
 132614632.546 7 103336158.599 6  99030502.043 7  25235696.920    25235696.220
  25235696.060          43.750          39.750
 122684981.080 8  95598796.402 7                  23346110.380    23346105.760
  23346104.860          48.000          43.550
 109697479.299 8  85478664.063 8  81917081.993 8  20874691.480    20874690.060
  20874689.260          49.850          48.750
 105316242.659 8  82064762.677 8                  20040946.000    20040942.280
  20040941.600          50.250          50.100
 126233535.105 7  98363784.93446                  24021433.440
  24021426.260          46.450          38.800
 105161051.875 7  81791962.461 7                  19665595.880    19665599.760
  19665597.580          43.650          46.900
 125737184.922 7  97795661.831 6                  23554787.360    23554793.080
  23554791.820          42.900          41.750
 109290899.833 7  85004057.628 6                  20452294.680    20452298.680
  20452296.700          46.750          40.950
 121949579.568 7  94849616.702 5                  22837205.540    22837208.880
  22837206.220          44.900          31.800
 125722921.948 7  97784494.609 6                  23502520.760    23502520.820
  23502519.160          44.300          39.050
 103948508.395 8  80848886.530 7                  19500462.260    19500468.780
  19500467.400          48.700          42.350
 105752983.042 8  82252307.011 7                  19762421.020    19762422.480
  19762421.520          49.100          46.950
 15  1 27 23 10 45.0000000  0 16G08G14G31G21G24G12G25G29G02R20R22R11
                                R09R19R10R21
 127159436.140 7  99085253.27546                  24197635.780
  24197631.520          46.950          37.100
 120175360.443 7  93643137.38546                  22868603.840
  22868599.860          46.500          40.300
 112268863.451 8  87482233.255 7                  21364049.000    21364044.560
  21364043.740          50.100          47.450
 126083779.178 7  98247160.83846                  23992919.100
  23992914.100          44.800          36.650
 132632867.924 7 103350367.958 6  99044119.341 7  25239167.020    25239166.380
  25239166.120          43.750          38.850
 122697575.968 7  95608610.578 7                  23348507.060    23348502.500
  23348501.660          47.450          43.550
 109702942.894 8  85482921.407 8  81921161.945 8  20875731.180    20875729.740
  20875728.920          49.850          48.700
 105318027.656 8  82066153.577 8                  20041285.660    20041281.940
  20041281.280          50.200          50.150
 126242899.718 7  98371082.02246                  24023215.480
  24023208.300          46.550          38.950
 105170114.275 7  81799010.986 7                  19667290.640    19667294.480
  19667292.280          43.800          46.800
 125715826.269 7  97779049.580 6                  23550786.180    23550791.880
  23550790.620          42.900          41.550
 109277359.833 7  84993526.508 6                  20449760.880    20449764.820
  20449762.860          47.000          41.050
 121966789.760 7  94863002.392 5                  22840428.420    22840431.920
  22840429.080          44.350          32.150
 125743778.030 7  97800716.004 6                  23506419.600    23506419.620
  23506418.020          44.050          39.050
 103952771.190 8  80852202.033 7                  19501261.960    19501268.500
  19501267.120          48.700          42.050
 105742402.574 8  82244077.768 7                  19760443.820    19760445.240
  19760444.280          49.200          46.650
 15  1 27 23 10 50.0000000  0 16G08G14G31G21G24G12G25G29G02R20R22R11
                                R09R19R10R21
 127141763.385 7  99071482.29946                  24194272.780
  24194268.540          46.950          36.450
 120188123.437 7  93653082.57146                  22871032.580
  22871028.600          46.200          40.600
 112259210.571 8  87474711.532 7                  21362212.140    21362207.660
  21362206.840          50.250          47.400
 126068245.211 7  98235056.45846                  23989963.120
  23989958.060          45.150          36.100
 132651101.565 7 103364575.982 6  99057735.331 7  25242636.880    25242636.100
  25242635.880          43.750          39.950
 122710170.097 8  95618424.154 7                  23350903.580    23350899.060
  23350898.280          48.150          43.300
 109708409.783 8  85487181.327 8  81925244.360 8  20876771.480    20876770.060
  20876769.240          49.850          48.900
 105319822.442 8  82067552.110 8                  20041627.160    20041623.480
  20041622.800          50.200          50.150
 126252272.271 7  98378385.31446                  24024999.020
  24024991.860          46.900          39.250
 105179190.921 7  81806070.595 7                  19668988.040    19668991.860
  19668989.660          44.150          46.750
 125694469.041 7  97762438.447 6                  23546785.180    23546790.940
  23546789.680          43.450          41.550
 109263825.283 7  84982999.629 6                  20447228.100    20447231.960
  20447230.040          46.950          41.050
 121984004.341 7  94876391.504 5                  22843652.180    22843655.660
  22843652.820          44.900          31.900
 125764633.173 7  97816936.665 6                  23510318.260    23510318.380
  23510316.680          44.150          38.900
 103957046.869 8  80855527.562 7                  19502064.100    19502070.580
  19502069.240          48.600          42.350
 105731836.748 8  82235859.914 7                  19758469.340    19758470.760
  19758469.780          49.050          46.700
 15  1 27 23 10 55.0000000  0 16G08G14G31G21G24G12G25G29G02R20R22R11
                                R09R19R10R21
 127124094.628 7  99057714.43746                  24190910.560
  24190906.340          46.800          37.750
 120200897.077 7  93663036.05746                  22873463.340
  22873459.380          45.900          41.150
 112249570.800 8  87467200.022 7                  21360377.800    21360373.280
  21360372.460          50.250          47.500
 126052715.646 7  98222955.50946                  23987007.960
  23987002.820          45.350          37.350
 132669339.000 7 103378786.947 6  99071354.187 7  25246107.420    25246106.660
  25246106.480          43.100          40.050
 122722769.234 8  95628241.663 7                  23353301.100    23353296.580
  23353295.840          48.750          43.050
 109713885.735 8  85491448.301 8  81929333.551 8  20877813.540    20877812.100
  20877811.260          49.950          48.950
 105321632.707 8  82068962.710 8                  20041971.640    20041967.960
  20041967.280          50.200          50.200
 126261658.552 7  98385699.29846                  24026785.160
  24026778.040          46.750          38.850
 105188287.625 7  81813145.810 7                  19670689.160    19670692.980
  19670690.780          44.300          46.800
 125673119.123 7  97745833.013 7                  23542785.620    23542791.400
  23542790.160          44.600          42.250
 109250302.072 7  84972481.576 6                  20444697.400    20444701.260
  20444699.340          46.950          41.050
 122001229.138 7  94889788.583 5                  22846877.860    22846881.280
  22846878.480          45.000          32.050
 125785493.128 7  97833161.074 6                  23514217.880    23514217.920
  23514216.300          44.450          38.750
 103961341.301 8  80858867.671 7                  19502869.720    19502876.180
  19502874.880          48.700          42.550
 105721291.431 8  82227658.005 7                  19756498.700    19756500.140
  19756499.120          49.200          47.000
 15  1 27 23 11  0.0000000  0 16G08G14G31G21G24G12G25G29G02R20R22R11
                                R09R19R10R21
 127106426.865 7  99043947.36146                  24187548.560
  24187544.320          47.150          36.850
 120213678.390 7  93672995.52846                  22875895.580
  22875891.580          46.250          40.850
 112239941.160 8  87459696.409 7                  21358545.380    21358540.800
  21358540.000          50.350          47.500
 126037187.592 7  98210855.73646                  23984053.120
  23984047.860          45.600          37.550
 132687577.454 7 103392998.702 6  99084973.783 7  25249578.100    25249577.400
  25249577.260          43.150          40.100
 122735370.389 8  95638060.757 7                  23355699.060    23355694.500
  23355693.740          49.000          42.550
 109719367.788 8  85495720.030 8  81933427.286 8  20878856.760    20878855.280
  20878854.460          50.050          48.850
 105323455.535 8  82070383.095 8                  20042318.500    20042314.820
  20042314.160          50.300          50.050
 126271055.533 7  98393021.61346                  24028573.320
  24028566.220          47.100          38.350
 105197401.368 7  81820234.281 7                  19672393.500    19672397.300
  19672395.080          44.000          46.800
 125651773.575 7  97729230.972 6                  23538786.820    23538792.660
  23538791.440          44.600          41.900
 109236787.168 7  84961969.993 6                  20442168.260    20442172.100
  20442170.160          47.350          40.700
 122018461.156 7  94903191.260 5                  22850104.860    22850108.460
  22850105.480          44.800          32.300
 125806354.880 7  97849386.886 6                  23518117.760    23518117.860
  23518116.220          44.400          38.750
 103965651.376 8  80862219.951 7                  19503678.260    19503684.780
  19503683.480          48.600          42.450
 105710763.528 8  82219469.637 7                  19754531.320    19754532.720
  19754531.720          48.950          47.000
 15  1 27 23 11  5.0000000  0 16G08G14G31G21G24G12G25G29G02R20R22R11
                                R09R19R10R21
 127088759.696 7  99030180.72846                  24184186.680
  24184182.400          47.400          37.750
 120226466.903 7  93682960.60146                  22878329.180
  22878325.200          46.150          41.250
 112230321.205 8  87452200.336 7                  21356714.780    21356710.180
  21356709.380          50.300          47.400
 126021660.494 7  98198756.71546                  23981098.460
  23981093.200          45.550          36.400
 132705816.290 7 103407210.761 6  99098593.673 7  25253048.880    25253048.200
  25253048.060          42.700          39.950
 122747973.135 8  95647881.088 7                  23358097.300    23358092.760
  23358091.940          48.600          42.600
 109724855.432 8  85499996.119 8  81937525.204 8  20879901.020    20879899.540
  20879898.720          50.150          48.900
 105325290.420 8  82071812.880 8                  20042667.660    20042664.000
  20042663.340          50.250          50.000
 126280462.772 7  98400351.93046                  24030363.460
  24030356.340          47.200          38.500
 105206531.635 7  81827335.600 7                  19674100.920    19674104.700
  19674102.480          44.300          47.050
 125630431.809 7  97712631.870 6                  23534788.760    23534794.620
  23534793.400          45.300          41.850
 109223280.058 7  84951464.461 6                  20439640.620    20439644.340
  20439642.420          47.350          40.700
 122035699.804 7  94916599.091 5                  22853333.120    22853336.780
  22853333.780          45.450          32.350
 125827217.909 7  97865613.692 6                  23522017.880    23522018.000
  23522016.420          44.150          39.300
 103969976.728 8  80865584.112 7                  19504489.680    19504496.220
  19504494.940          48.400          42.550
 105700252.595 8  82211294.463 7                  19752567.120    19752568.540
  19752567.500          48.800          47.000
 15  1 27 23 11 10.0000000  0 16G08G14G31G21G24G12G25G29G02R20R22R11
                                R09R19R10R21
 127071095.509 7  99016416.42646                  24180825.340
  24180821.080          46.950          38.500
 120239264.993 7  93692933.13246                  22880764.600
  22880760.620          46.550          39.800
 112220713.308 8  87444713.665 7                  21354886.500    21354881.860
  21354881.060          50.000          47.350
 126006136.801 7  98186660.35646                  23978144.400
  23978139.180          44.900          36.300
 132724058.089 7 103421425.127 6  99112215.768 7  25256520.220    25256519.540
  25256519.460          42.650          40.250
 122760579.860 7  95657704.512 7                  23360496.240    23360491.760
  23360490.920          47.800          42.850
 109730351.093 8  85504278.448 8  81941629.115 8  20880946.820    20880945.340
  20880944.500          49.950          48.900
 105327139.730 8  82073253.901 8                  20043019.580    20043015.900
  20043015.240          50.100          50.050
 126289882.678 7  98407692.11146                  24032155.980
  24032148.900          46.750          38.500
 105215680.891 7  81834451.694 7                  19675811.880    19675815.640
  19675813.460          44.650          46.950
 125609096.344 7  97696037.649 6                  23530791.900    23530797.720
  23530796.560          45.700          41.600
 109209783.266 7  84940966.944 6                  20437114.860    20437118.520
  20437116.640          47.350          41.200
 122052947.648 7  94930014.072 5                  22856563.080    22856566.480
  22856563.740          45.400          32.000
 125848084.716 7  97881843.414 6                  23525918.720    23525918.900
  23525917.340          44.350          39.200
 103974319.710 8  80868961.989 7                  19505304.380    19505310.940
  19505309.680          48.500          42.600
 105689761.042 8  82203134.368 7                  19750606.540    19750607.940
  19750606.900          49.100          47.250
 15  1 27 23 11 15.0000000  0 16G08G14G31G21G24G12G25G29G02R20R22R11
                                R09R19R10R21
 127053431.877 7  99002652.57346                  24177464.080
  24177459.880          47.000          37.550
 120252070.269 7  93702911.26546                  22883201.400
  22883197.420          46.650          39.700
 112211115.149 8  87437234.590 7                  21353060.060    21353055.400
  21353054.580          50.050          47.550
 125990614.125 7  98174564.77546                  23975190.520
  23975185.300          44.500          36.600
 132742300.435 7 103435639.928 6  99125838.272 7  25259991.620    25259990.940
  25259990.960          42.850          40.100
 122773188.167 7  95667529.142 7                  23362895.480    23362891.020
  23362890.220          47.950          42.900
 109735852.388 8  85508565.173 8  81945737.222 8  20881993.700    20881992.200
  20881991.340          49.950          48.800
 105329001.150 8  82074704.364 8                  20043373.780    20043370.120
  20043369.480          50.200          50.200
 126299312.818 7  98415040.27846                  24033950.440
  24033943.400          46.550          39.650
 105224846.778 7  81841580.715 7                  19677525.940    19677529.680
  19677527.560          44.600          47.050
 125587764.771 7  97679446.467 6                  23526795.740    23526801.580
  23526800.420          45.650          41.150
 109196294.346 7  84930475.576 6                  20434590.600    20434594.220
  20434592.380          47.250          41.350
 122070202.188 7  94943434.270 5                  22859794.260    22859797.680
  22859794.920          45.300          31.350
 125868952.674 7  97898074.046 6                  23529819.760    23529820.020
  23529818.460          44.550          39.050
 103978678.026 8  80872351.795 7                  19506121.960    19506128.500
  19506127.340          48.550          42.750
 105679286.511 8  82194987.513 7                  19748649.160    19748650.540
  19748649.480          49.050          47.350
 15  1 27 23 11 20.0000000  0 16G08G14G31G21G24G12G25G29G02R20R22R11
                                R09R19R10R21
 127035771.024 7  98988890.86846                  24174103.320
  24174099.180          47.100          38.300
 120264884.898 7  93712896.69346                  22885639.960
  22885635.980          46.400          40.650
 112201528.895 8  87429764.782 7                  21351235.880    21351231.220
  21351230.380          50.150          47.550
 125975094.623 7  98162471.68746                  23972237.220
  23972231.960          44.550          36.400
 132760545.317 7 103449856.704 6  99139462.678 7  25263463.520    25263462.840
  25263462.840          43.050          40.500
 122785800.208 8  95677356.702 7                  23365295.480    23365291.020
  23365290.220          48.500          43.200
 109741361.480 8  85512857.981 8  81949851.165 8  20883042.060    20883040.540
  20883039.680          50.000          48.750
 105330876.869 8  82076165.968 8                  20043730.700    20043727.060
  20043726.420          50.250          50.200
 126308755.355 7  98422398.09746                  24035747.280
  24035740.280          46.500          39.300
 105234031.244 7  81848724.182 7                  19679243.520    19679247.200
  19679245.120          44.650          46.900
 125566439.283 7  97662860.016 6                  23522800.740    23522806.560
  23522805.380          46.450          40.750
 109182815.507 7  84919992.049 6                  20432068.240    20432071.840
  20432070.040          46.900          41.000
 122087465.613 7  94956861.372 5                  22863027.120    22863030.720
  22863027.780          45.750          31.300
 125889824.149 7  97914307.409 6                  23533721.460    23533721.720
  23533720.240          44.750          38.600
 103983053.797 8  80875755.172 7                  19506942.840    19506949.380
  19506948.260          48.450          42.550
 105668831.177 8  82186855.591 7                  19746695.340    19746696.700
  19746695.640          49.200          47.100
 15  1 27 23 11 25.0000000  0 16G08G14G31G21G24G12G25G29G02R20R22R11
                                R09R19R10R21
 127018110.774 7  98975129.63146                  24170742.680
  24170738.580          47.100          38.650
 120277706.686 7  93722887.68846                  22888079.900
  22888075.920          46.600          40.050
 112191952.370 8  87422302.555 7                  21349413.560    21349408.860
  21349408.020          50.250          47.700
 125959576.159 7  98150379.39246                  23969284.140
  23969278.940          44.200          36.500
 132778790.745 7 103464073.894 6  99153087.472 7  25266935.520    25266934.860
  25266934.840          43.400          40.600
 122798413.790 8  95687185.469 7                  23367695.820    23367691.340
  23367690.480          48.800          42.950
 109746876.180 8  85517155.149 8  81953969.277 8  20884091.500    20884089.940
  20884089.100          50.100          48.900
 105332764.680 8  82077636.987 8                  20044089.940    20044086.280
  20044085.660          50.350          50.250
 126318208.152 7  98429763.92146                  24037546.080
  24037539.100          46.650          39.650
 105243232.250 7  81855880.510 7                  19680964.140    19680967.840
  19680965.760          44.400          46.800
 125545117.726 7  97646276.612 6                  23518806.480    23518812.300
  23518811.100          46.250          41.000
 109169344.590 7  84909514.662 6                  20429547.400    20429550.920
  20429549.180          46.850          41.200
 122104735.671 7  94970293.623 5                  22866261.240    22866264.820
  22866261.900          44.950          31.250
 125910696.875 7  97930541.760 6                  23537623.400    23537623.640
  23537622.200          44.400          38.850
 103987444.832 8  80879170.415 7                  19507766.580    19507773.120
  19507772.040          48.450          42.550
 105658392.839 8  82178736.879 7                  19744744.720    19744746.060
  19744744.980          49.200          47.150
 15  1 27 23 11 30.0000000  0 16G08G14G31G21G24G12G25G29G02R20R22R11
                                R09R19R10R21
 127000452.428 7  98961369.87546                  24167382.460
  24167378.320          46.950          38.600
 120290536.944 7  93732885.28646                  22890521.420
  22890517.480          46.650          40.050
 112182386.884 8  87414848.935 7                  21347593.340    21347588.620
  21347587.760          50.300          47.550
 125944060.097 7  98138288.96846                  23966331.460
  23966326.300          43.900          36.850
 132797037.851 7 103478292.409 6  99166713.542 7  25270407.840    25270407.220
  25270407.200          43.300          40.550
 122811030.269 8  95697016.502 7                  23370096.700    23370092.160
  23370091.300          48.400          42.400
 109752397.801 8  85521457.705 8  81958092.565 8  20885142.240    20885140.680
  20885139.820          50.000          48.900
 105334665.892 8  82079118.448 8                  20044451.740    20044448.080
  20044447.460          50.400          50.150
 126327672.460 7  98437138.70346                  24039347.100
  24039340.140          46.400          39.750
 105252450.903 7  81863050.573 7                  19682688.080    19682691.760
  19682689.680          44.350          46.900
 125523801.415 7  97629697.314 6                  23514813.220    23514819.080
  23514817.820          46.550          40.950
 109155882.898 7  84899044.464 6                  20427028.220    20427031.740
  20427030.020          46.650          41.200
 122122013.709 7  94983732.085 5                  22869496.880    22869500.440
  22869497.500          44.700          30.850
 125931572.132 7  97946778.065 6                  23541525.800    23541526.080
  23541524.660          44.150          39.000
 103991852.555 8  80882598.644 7                  19508593.460    19508600.000
  19508598.920          48.600          42.350
 105647972.810 8  82170632.412 7                  19742797.520    19742798.820
  19742797.760          49.200          47.400
 15  1 27 23 11 35.0000000  0 16G08G14G31G21G24G12G25G29G02R20R22R11
                                R09R19R10R21
 126982795.908 7  98947611.56446                  24164022.580
  24164018.460          47.150          38.350
 120303375.532 7  93742889.37446                  22892964.540
  22892960.580          46.650          39.850
 112172832.318 8  87407403.815 7                  21345775.180    21345770.420
  21345769.600          50.200          47.600
 125928546.236 7  98126200.27645                  23963379.200
  23963374.140          44.250          35.600
 132815286.540 7 103492512.154 6  99180340.800 7  25273880.460    25273879.880
  25273879.760          43.200          41.250
 122823649.490 8  95706849.661 7                  23372498.040    23372493.500
  23372492.640          48.000          43.000
 109757926.227 8  85525765.565 8  81962220.931 8  20886194.280    20886192.680
  20886191.860          50.000          48.900
 105336580.369 8  82080610.249 8                  20044816.060    20044812.420
  20044811.780          50.300          50.150
 126337148.151 7  98444522.36046                  24041150.260
  24041143.340          46.800          39.450
 105261687.407 7  81870234.530 7                  19684415.360    19684419.020
  19684416.920          44.250          46.750
 125502490.225 7  97613121.978 6                  23510820.900    23510826.660
  23510825.460          46.350          40.600
 109142430.291 7  84888581.334 6                  20424510.740    20424514.260
  20424512.540          46.850          41.150
 122139299.629 7  94997176.697 5                  22872733.980    22872737.460
  22872734.540          44.850          30.900
 125952449.852 7  97963016.294 6                  23545428.600    23545428.960
  23545427.600          44.050          39.400
 103996276.703 8  80886039.644 7                  19509423.440    19509429.920
  19509428.880          48.700          42.350
 105637571.063 8  82162542.171 7                  19740853.720    19740855.000
  19740853.960          49.300          47.450
 15  1 27 23 11 40.0000000  0 16G08G14G31G21G24G12G25G29G02R20R22R11
                                R09R19R10R21
 126965140.321 7  98933853.96446                  24160662.880
  24160658.760          47.200          38.400
 120316221.498 7  93752899.20946                  22895409.060
  22895405.140          46.850          39.550
 112163287.786 8  87399966.517 7                  21343958.960    21343954.160
  21343953.320          50.050          47.600
 125913033.813 7  98114112.67445                  23960427.280
  23960422.120          44.400          35.050
 132833536.020 7 103506732.507 6  99193968.627 7  25277353.280    25277352.680
  25277352.520          42.400          41.350
 122836270.590 8  95716684.268 7                  23374899.700    23374895.180
  23374894.340          48.050          42.800
 109763460.570 8  85530078.051 8  81966353.726 8  20887247.440    20887245.840
  20887245.000          49.850          48.850
 105338507.160 8  82082111.650 8                  20045182.720    20045179.060
  20045178.440          50.200          50.000
 126346634.328 7  98451914.19046                  24042955.440
  24042948.540          46.850          38.600
 105270940.532 7  81877431.402 7                  19686145.760    19686149.420
  19686147.280          44.450          46.850
 125481183.327 7  97596549.996 6                  23506829.360    23506835.120
  23506833.960          46.450          40.450
 109128986.031 7  84878124.683 6                  20421994.860    20421998.400
  20421996.640          47.000          41.350
 122156592.505 7  95010626.718 5                  22875972.400    22875975.820
  22875972.920          45.000          30.850
 125973329.072 7  97979255.677 6                  23549331.720    23549332.180
  23549330.780          44.350          39.800
 104000716.476 8  80889492.798 7                  19510256.320    19510262.860
  19510261.760          48.850          42.150
 105627186.574 8  82154465.348 7                  19738913.160    19738914.420
  19738913.380          49.200          47.550
