     2.11           OBSERVATION DATA    M (MIXED)           RINEX VERSION / TYPE
teqc  2011Oct11     IGN-E (SPG)         20150127 22:00:53UTCPGM / RUN BY / DATE
Linux 2.4.21-27.ELsmp|Opteron|gcc -static|Linux x86_64|=+   COMMENT
BIT 2 OF LLI FLAGS DATA COLLECTED UNDER A/S CONDITION       COMMENT
VALE                                                        MARKER NAME
13439M001                                                   MARKER NUMBER
Programas GeodesicosInstituto Geografico Nacional           OBSERVER / AGENCY
1700071             LEICA GR10          3.03/6.214          REC # / TYPE / VERS
10190012            LEIAR25.R3      LEIT                    ANT # / TYPE
  4929534.0457   -29050.6755  4033709.9250                  APPROX POSITION XYZ
        3.0390        0.0000        0.0000                  ANTENNA: DELTA H/E/N
     1     1                                                WAVELENGTH FACT L1/2
     8    L1    L2    L5    C1    C2    P2    S1    S2      # / TYPES OF OBSERV
     5.0000                                                 INTERVAL
Forced Modulo Decimation to 5 seconds                       COMMENT
DefaultJobName                                              COMMENT
DefaultUserDiscription                                      COMMENT
Project creator:                                            COMMENT
 SNR is mapped to RINEX snr flag value [0-9]                COMMENT
  L1 & L2: min(max(int(snr_dBHz/6), 0), 9)                  COMMENT
  2015     1    27    21     0    0.0000000     GPS         TIME OF FIRST OBS
    15                                                      LEAP SECONDS
                                                            END OF HEADER
 15  1 27 21  0  0.0000000  0 21G22G14G31G15G06G24G12G25G29G02R18R20
                                R16R01R08R09R07R19R10E19E20
 132283468.900 7 103078032.79845                  25172705.840
  25172702.240          43.200          33.000
 116544076.489 8  90813567.92046                  22177591.400
  22177587.060          48.350          41.850
 134404902.330 7 104731086.615 6                  25576403.220    25576401.120
  25576399.960          42.550          39.600
 129423132.271 7 100849217.539 6                  24628389.480    24628387.200
  24628386.680          45.650          39.750
 128658754.944 7 100253580.551 7  96076344.604 8  24482944.360    24482944.940
  24482944.120          44.700          42.600
 110578984.890 8  86165530.112 8  82575317.328 8  21042447.660    21042446.180
  21042445.600          50.400          49.850
 107364559.765 8  83660807.914 8                  20430728.840    20430724.380
  20430723.640          49.850          48.450
 109834965.415 8  85585795.477 8  82019749.277 8  20900855.140    20900853.500
  20900852.700          49.900          48.750
 119129141.233 8  92828056.031 7                  22669456.940    22669453.820
  22669452.920          49.400          44.000
 127083636.927 7  99026199.91146                  24183204.120
  24183196.980          46.550          38.900
 121429137.779 7  94444962.690 6                  22747749.200    22747752.720
  22747751.940          45.800          41.650
 115947833.227 7  90181677.763 7                  21682780.920    21682785.280
  21682783.040          44.150          43.700
 121017199.800 7  94124499.403 6                  22654673.680    22654676.640
  22654676.080          44.150          41.800
 126328350.413 7  98255407.243 6                  23632332.780    23632336.900
  23632336.740          43.800          36.400
 118948398.413 7  92515429.599 7                  22212772.900    22212774.400
  22212773.080          46.100          43.600
 106698675.543 7  82987805.535 6                  19981198.500    19981201.020
  19981198.700          47.300          37.400
 124824181.184 7  97085481.609 6                  23318209.500    23318213.100
  23318212.280          44.950          40.250
 107048556.471 8  83259988.606 7                  20011543.920    20011544.940
  20011543.200          48.800          46.550
 112321961.130 8  87361571.473 6                  21071301.100    21071307.500
  21071306.380          48.400          40.750
 139317673.710 7                 104035959.543 7  26511261.080
                        47.950
 137989054.365 6                                  26258456.400
                        40.900
 15  1 27 21  0  5.0000000  0 21G22G14G31G15G06G24G12G25G29G02R18R20
                                R16R01R08R09R07R19R10E19E20
 132293290.383 6 103085685.86345                  25174574.780
  25174571.280          40.600          33.900
 116534559.856 8  90806152.36447                  22175780.440
  22175776.100          48.150          42.650
 134389651.014 6 104719202.512 6                  25573501.100    25573498.820
  25573497.620          40.250          37.600
 129441319.363 7 100863389.281 6                  24631850.360    24631848.120
  24631847.620          45.800          39.900
 128656589.562 7 100251893.243 6  96074727.602 8  24482532.360    24482532.880
  24482532.020          43.950          41.850
 110586705.005 8  86171545.788 8  82581082.355 8  21043916.800    21043915.260
  21043914.700          50.250          49.900
 107370111.599 8  83665134.017 8                  20431785.320    20431780.880
  20431780.120          49.700          48.600
 109828760.958 8  85580960.835 8  82015116.080 8  20899674.460    20899672.820
  20899672.000          49.900          48.850
 119111630.385 8  92814411.229 7                  22666124.720    22666121.640
  22666120.720          49.250          44.250
 127074413.694 7  99019012.97846                  24181448.980
  24181441.820          46.650          38.900
 121446290.499 7  94458303.699 6                  22750962.500    22750965.980
  22750965.180          45.500          41.300
 115927440.389 7  90165816.686 7                  21678967.340    21678971.780
  21678969.520          44.600          43.650
 121030118.176 7  94134547.016 6                  22657092.060    22657095.040
  22657094.500          44.100          41.200
 126320164.534 7  98249040.438 5                  23630801.420    23630805.660
  23630805.420          43.150          35.900
 118956146.065 7  92521455.536 7                  22214219.720    22214221.200
  22214219.960          45.750          43.650
 106700968.982 7  82989589.317 6                  19981627.960    19981630.540
  19981628.160          47.450          37.200
 124843138.554 7  97100226.224 6                  23321750.880    23321754.460
  23321753.620          44.550          40.000
 107045447.738 8  83257570.706 7                  20010962.720    20010963.800
  20010962.040          48.750          46.650
 112310783.260 7  87352877.576 6                  21069204.120    21069210.540
  21069209.440          47.850          40.650
 139328835.573 7                 104044294.709 7  26513385.060
                        47.750
 138003056.018 6                                  26261120.880
                        40.400
 15  1 27 21  0 10.0000000  0 21G22G14G31G15G06G24G12G25G29G02R18R20
                                R16R01R08R09R07R19R10E19E20
 132303119.138 6 103093344.64946                  25176445.100
  25176441.660          39.900          37.150
 116525059.588 8  90798749.55747                  22173972.600
  22173968.260          48.050          42.800
 134374401.258 6 104707319.606 6                  25570599.340    25570596.860
  25570595.700          41.200          36.000
 129459509.640 7 100877563.485 6                  24635311.860    24635309.680
  24635309.140          45.900          39.200
 128654441.209 7 100250219.211 6  96073123.305 8  24482123.600    24482124.020
  24482123.180          43.900          41.400
 110594437.934 8  86177571.441 8  82586856.937 8  21045388.380    21045386.780
  21045386.260          50.300          49.950
 107375674.559 8  83669468.785 8                  20432843.920    20432839.460
  20432838.720          49.750          48.650
 109822568.216 8  85576135.316 8  82010491.624 8  20898496.020    20898494.380
  20898493.560          50.050          48.900
 119094129.012 8  92800773.801 7                  22662794.280    22662791.200
  22662790.340          49.050          44.550
 127065200.482 7  99011833.83946                  24179695.760
  24179688.600          46.450          38.700
 121463459.263 7  94471657.180 6                  22754178.780    22754182.320
  22754181.420          45.350          40.900
 115907060.013 7  90149965.283 7                  21675156.120    21675160.600
  21675158.300          44.550          43.600
 121043044.735 7  94144601.007 6                  22659511.900    22659514.900
  22659514.400          44.150          41.250
 126312000.569 7  98242690.668 5                  23629274.160    23629278.400
  23629278.200          42.200          35.550
 118963915.189 7  92527498.188 7                  22215670.500    22215672.060
  22215670.820          45.250          43.650
 106703273.707 7  82991381.885 6                  19982059.560    19982062.140
  19982059.800          47.050          37.300
 124862102.519 7  97114975.943 6                  23325293.520    23325297.100
  23325296.220          44.950          40.150
 107042365.373 8  83255173.320 7                  20010386.440    20010387.580
  20010385.800          48.850          46.600
 112299611.832 7  87344188.687 6                  21067108.320    21067114.800
  21067113.700          47.800          40.650
 139340006.108 7                 104052636.328 7  26515510.720
                        47.750
 138017058.026 6                                  26263785.400
                        40.100
 15  1 27 21  0 15.0000000  0 21G22G14G31G15G06G24G12G25G29G02R18R20
                                R16R01R08R09R07R19R10E19E20
 132312949.883 6 103101004.96845                  25178315.680
  25178312.340          41.750          33.700
 116515570.460 8  90791355.42947                  22172166.900
  22172162.520          48.050          42.400
 134359147.837 6 104695433.852 6                  25567696.780    25567694.020
  25567693.000          37.900          36.900
 129477697.838 7 100891736.103 6                  24638772.960    24638770.900
  24638770.260          45.650          39.250
 128652304.633 7 100248554.330 6  96071527.790 8  24481717.060    24481717.420
  24481716.520          43.850          40.800
 110602178.194 8  86183602.810 8  82592636.995 8  21046861.380    21046859.700
  21046859.200          50.250          49.850
 107381243.357 8  83673808.108 8                  20433903.640    20433899.180
  20433898.420          49.700          48.500
 109816381.944 8  85571314.848 8  82005872.003 8  20897318.820    20897317.160
  20897316.340          50.150          48.800
 119076631.888 8  92787139.691 7                  22659464.640    22659461.600
  22659460.780          49.100          44.400
 127055992.062 7  99004658.44846                  24177943.460
  24177936.300          46.450          38.200
 121480638.796 7  94485019.041 6                  22757397.060    22757400.640
  22757399.660          45.550          41.150
 115886686.878 7  90134119.528 7                  21671346.300    21671350.740
  21671348.460          44.600          43.850
 121055974.171 7  94154657.234 6                  22661932.320    22661935.300
  22661934.840          44.150          41.150
 126303853.095 7  98236353.769 5                  23627750.000    23627754.220
  23627754.020          42.950          35.750
 118971700.361 7  92533553.313 7                  22217124.280    22217125.880
  22217124.680          45.550          43.850
 106705584.368 7  82993179.058 6                  19982492.280    19982494.820
  19982492.520          47.500          37.450
 124881067.656 7  97129726.570 6                  23328836.380    23328839.960
  23328839.040          45.100          40.800
 107039303.959 8  83252792.222 7                  20009814.120    20009815.280
  20009813.480          48.900          46.750
 112288441.384 7  87335500.568 6                  21065012.720    21065019.260
  21065018.140          47.350          40.700
 139351180.045 7                 104060980.500 7  26517637.060
                        47.750
 138031055.146 6                                  26266449.040
                        40.150
 15  1 27 21  0 20.0000000  0 21G22G14G31G15G06G24G12G25G29G02R18R20
                                R16R01R08R09R07R19R10E19E20
 132322785.651 7 103108669.17845                  25180187.360
  25180184.040          42.950          32.250
 116506095.408 8  90783972.27847                  22170363.840
  22170359.480          48.150          42.000
 134343893.610 6 104683547.451 6                  25564794.100    25564791.240
  25564790.760          39.900          36.300
 129495886.929 7 100905909.394 6                  24642234.180    24642232.140
  24642231.560          45.000          39.450
 128650182.741 7 100246900.915 6  96069943.294 8  24481313.240    24481313.620
  24481312.700          43.250          41.200
 110609928.751 8  86189642.206 8  82598424.755 8  21048336.320    21048334.580
  21048334.100          50.300          49.800
 107386820.978 8  83678154.304 8                  20434965.040    20434960.600
  20434959.820          49.750          48.400
 109810205.115 8  85566501.732 8  82001259.436 8  20896143.420    20896141.740
  20896140.920          50.050          48.800
 119059141.979 8  92773511.205 7                  22656136.420    22656133.380
  22656132.560          49.150          44.250
 127046791.372 7  98997489.08946                  24176192.640
  24176185.500          46.450          37.300
 121497831.998 7  94498391.533 6                  22760617.980    22760621.420
  22760620.460          45.800          41.000
 115866324.098 7  90118281.808 7                  21667538.420    21667542.840
  21667540.540          44.350          43.850
 121068909.600 7  94164718.122 6                  22664353.880    22664356.840
  22664356.380          43.800          41.300
 126295725.292 7  98230032.151 5                  23626229.560    23626233.820
  23626233.560          42.750          35.500
 118979504.597 7  92539623.264 7                  22218581.620    22218583.300
  22218582.120          45.600          43.850
 106707903.927 7  82994983.151 6                  19982926.660    19982929.300
  19982926.920          47.250          37.700
 124900036.883 7  97144480.374 6                  23332380.000    23332383.520
  23332382.640          44.700          40.750
 107036266.420 8  83250429.693 7                  20009246.220    20009247.460
  20009245.640          48.700          46.950
 112277275.076 7  87326815.669 6                  21062917.900    21062924.400
  21062923.340          47.200          40.800
 139362360.303 7                 104069329.394 7  26519764.540
                        47.450
 138045050.291 6                                  26269112.320
                        40.300
 15  1 27 21  0 25.0000000  0 21G22G14G31G15G06G24G12G25G29G02R18R20
                                R16R01R08R09R07R19R10E19E20
 132332625.445 7 103116336.50745                  25182059.900
  25182056.460          43.450          31.350
 116496633.498 7  90776599.35547                  22168563.320
  22168558.960          47.950          42.250
 134328637.643 6 104671659.721 6                  25561891.040    25561888.080
  25561887.100          39.650          36.400
 129514075.899 7 100920082.571 6                  24645695.440    24645693.420
  24645692.840          45.900          39.700
 128648074.671 7 100245258.287 6  96068369.077 8  24480912.080    24480912.540
  24480911.560          43.600          41.250
 110617688.691 8  86195688.912 8  82604219.500 8  21049813.040    21049811.260
  21049810.780          50.350          49.750
 107392406.416 8  83682506.599 8                  20436027.920    20436023.500
  20436022.700          49.750          48.450
 109804036.757 8  85561695.221 8  81996653.201 8  20894969.620    20894967.920
  20894967.100          50.000          48.900
 119041658.316 8  92759887.573 7                  22652809.360    22652806.360
  22652805.520          49.300          44.200
 127037597.496 7  98990325.02246                  24174443.140
  24174435.940          46.450          38.100
 121515037.906 7  94511773.903 6                  22763841.260    22763844.660
  22763843.660          45.700          41.000
 115845970.484 7  90102451.225 7                  21663732.180    21663736.640
  21663734.360          44.200          43.950
 121081849.910 7  94174782.780 6                  22666776.340    22666779.320
  22666778.800          44.800          41.400
 126287616.034 7  98223724.969 5                  23624712.620    23624716.780
  23624716.520          43.950          34.900
 118987326.954 7  92545707.309 7                  22220042.380    22220044.060
  22220042.980          45.850          44.050
 106710231.433 7  82996793.439 6                  19983362.520    19983365.180
  19983362.800          47.400          37.800
 124919009.282 7  97159236.651 6                  23335924.260    23335927.720
  23335926.800          44.800          39.750
 107033251.895 8  83248085.070 7                  20008682.700    20008683.940
  20008682.120          48.700          46.850
 112266111.857 7  87318133.172 6                  21060823.680    21060830.200
  21060829.160          47.050          40.800
 139373545.959 7                 104077682.291 7  26521893.080
                        47.300
 138059042.506 6                                  26271775.060
                        40.150
 15  1 27 21  0 30.0000000  0 21G22G14G31G15G06G24G12G25G29G02R18R20
                                R16R01R08R09R07R19R10E19E20
 132342468.179 7 103124006.15445                  25183932.980
  25183929.360          42.200          33.400
 116487183.691 7  90769235.87747                  22166765.100
  22166760.720          47.850          42.450
 134313378.935 6 104659769.827 6                  25558987.440    25558984.380
  25558983.360          41.050          37.300
 129532263.730 7 100934254.878 6                  24649156.480    24649154.460
  24649153.900          45.100          39.750
 128645979.325 7 100243625.536 6  96066804.377 8  24480513.340    24480513.780
  24480512.800          43.000          41.200
 110625456.945 8  86201742.097 8  82610020.476 8  21051291.360    21051289.500
  21051289.020          50.200          49.700
 107397998.643 8  83686864.179 8                  20437092.100    20437087.660
  20437086.840          49.750          48.450
 109797875.829 8  85556894.505 8  81992052.510 8  20893797.240    20893795.520
  20893794.700          49.900          48.800
 119024179.905 8  92746268.043 7                  22649483.300    22649480.320
  22649479.480          49.300          44.200
 127028409.361 7  98983165.44246                  24172694.720
  24172687.480          46.350          38.550
 121532255.441 7  94525165.333 6                  22767066.700    22767070.100
  22767069.040          45.750          41.150
 115825625.169 7  90086627.108 7                  21659927.460    21659931.960
  21659929.740          43.600          43.850
 121094794.046 7  94184850.460 6                  22669199.540    22669202.500
  22669201.940          45.100          41.300
 126279524.378 7  98217431.438 5                  23623198.920    23623202.980
  23623202.800          43.350          35.650
 118995166.275 7  92551804.551 7                  22221506.340    22221508.000
  22221507.000          45.700          43.950
 106712565.832 7  82998609.092 6                  19983799.700    19983802.400
  19983800.020          47.300          37.650
 124937983.734 7  97173994.562 6                  23339468.880    23339472.300
  23339471.300          44.250          40.000
 107030259.368 8  83245757.552 7                  20008123.220    20008124.560
  20008122.720          48.650          46.900
 112254950.725 7  87309452.300 6                  21058729.820    21058736.500
  21058735.360          47.050          40.800
 139384735.911 7                 104086038.432 7  26524022.420
                        47.400
 138073030.754 6                                  26274437.000
                        40.350
 15  1 27 21  0 35.0000000  0 21G22G14G31G15G06G24G12G25G29G02R18R20
                                R16R01R08R09R07R19R10E19E20
 132352317.119 7 103131680.64445                  25185807.260
  25185803.600          43.100          33.300
 116477749.265 7  90761884.37747                  22164969.780
  22164965.420          47.650          42.550
 134298120.732 7 104647880.316 6                  25556083.840    25556080.860
  25556080.040          42.100          38.200
 129550453.620 7 100948428.771 6                  24652617.920    24652615.820
  24652615.360          45.900          39.550
 128643899.992 7 100242005.259 6  96065251.630 8  24480117.620    24480118.060
  24480117.080          43.550          41.100
 110633236.749 8  86207804.271 8  82615830.066 8  21052771.860    21052769.960
  21052769.460          50.250          49.650
 107403600.921 8  83691229.590 8                  20438158.180    20438153.720
  20438152.920          49.750          48.450
 109791725.572 8  85552102.101 8  81987459.799 8  20892626.900    20892625.160
  20892624.360          50.000          48.750
 119006709.981 8  92732655.117 7                  22646158.860    22646155.860
  22646155.020          49.550          43.950
 127019230.280 7  98976012.90946                  24170948.000
  24170940.760          46.250          38.600
 121549487.861 7  94538568.331 6                  22770294.960    22770298.240
  22770297.200          45.450          41.300
 115805291.444 7  90070812.007 7                  21656124.860    21656129.420
  21656127.260          43.850          44.100
 121107745.346 7  94194923.712 6                  22671624.140    22671626.980
  22671626.420          44.850          41.350
 126271453.507 7  98211154.127 5                  23621689.120    23621693.020
  23621692.980          44.350          35.750
 119003025.906 7  92557917.586 7                  22222974.080    22222975.760
  22222974.820          45.550          44.100
 106714910.431 7  83000432.664 6                  19984238.760    19984241.460
  19984239.120          47.250          37.400
 124956963.592 7  97188756.661 6                  23343014.500    23343017.940
  23343016.860          44.050          40.350
 107027292.059 8  83243449.631 7                  20007568.500    20007569.860
  20007568.040          48.650          46.700
 112243794.870 7  87300775.523 6                  21056636.960    21056643.720
  21056642.540          47.400          41.000
 139395933.435 7                 104094400.223 7  26526153.220
                        47.500
 138087018.286 6                                  26277098.760
                        40.800
 15  1 27 21  0 40.0000000  0 21G22G14G31G15G06G24G12G25G29G02R18R20
                                R16R01R08R09R07R19R10E19E20
 132362169.483 7 103139357.79945                  25187682.180
  25187678.480          44.400          32.250
 116468327.460 7  90754542.71247                  22163176.840
  22163172.480          47.800          42.650
 134282860.246 6 104635989.080 6                  25553179.840    25553177.000
  25553176.220          40.300          37.850
 129568642.824 7 100962602.158 6                  24656079.240    24656077.180
  24656076.680          45.950          39.700
 128641833.885 7 100240395.316 6  96063708.768 8  24479724.460    24479724.860
  24479723.900          43.650          41.700
 110641025.505 8  86213873.430 8  82621646.339 8  21054254.080    21054252.100
  21054251.600          50.250          49.650
 107409210.443 8  83695600.646 8                  20439225.640    20439221.160
  20439220.400          49.650          48.400
 109785583.237 8  85547315.872 8  81982872.995 8  20891458.080    20891456.300
  20891455.500          50.050          48.750
 118989245.817 8  92719046.679 7                  22642835.540    22642832.480
  22642831.680          49.600          44.100
 127010057.458 7  98968865.26446                  24169202.480
  24169195.180          46.600          38.000
 121566732.396 7  94551980.749 6                  22773525.440    22773528.700
  22773527.620          45.300          41.000
 115784966.554 7  90055003.766 7                  21652323.980    21652328.540
  21652326.420          43.700          43.950
 121120701.013 7  94205000.342 6                  22674049.540    22674052.300
  22674051.740          44.650          40.950
 126263400.925 7  98204890.989 5                  23620182.780    23620186.540
  23620186.540          43.450          35.700
 119010903.073 7  92564044.264 7                  22224445.080    22224446.780
  22224445.900          45.900          43.650
 106717262.380 7  83002261.960 6                  19984679.200    19984681.960
  19984679.640          47.450          37.250
 124975946.073 7  97203520.774 6                  23346560.600    23346564.040
  23346562.960          43.950          40.350
 107024347.247 8  83241159.226 7                  20007018.000    20007019.360
  20007017.540          48.900          46.450
 112232641.576 7  87292100.735 6                  21054544.600    21054551.400
  21054550.260          47.650          40.750
 139407135.762 7                 104102765.586 7  26528284.940
                        47.050
 138101002.285 6                                  26279759.900
                        41.100
 15  1 27 21  0 45.0000000  0 21G22G14G31G15G06G24G12G25G29G02R18R20
                                R16R01R08R09R07R19R10E19E20
 132372025.736 7 103147037.96145                  25189557.860
  25189554.080          43.850          32.000
 116458918.765 7  90747211.26247                  22161386.400
  22161382.080          47.600          43.100
 134267597.994 6 104624096.465 6                  25550275.460    25550272.640
  25550272.300          41.000          36.650
 129586831.789 7 100976775.341 6                  24659540.500    24659538.460
  24659537.980          46.800          39.250
 128639781.518 7 100238796.071 6  96062176.152 8  24479333.940    24479334.340
  24479333.360          43.350          41.900
 110648823.573 8  86219949.849 8  82627469.572 8  21055738.040    21055736.020
  21055735.500          50.100          49.650
 107414827.692 8  83699977.724 8                  20440294.540    20440290.100
  20440289.320          49.450          48.450
 109779449.268 8  85542536.160 8  81978292.435 8  20890290.820    20890289.040
  20890288.220          50.000          48.700
 118971787.872 8  92705443.096 7                  22639513.380    22639510.300
  22639509.500          49.600          44.050
 127000891.436 7  98961722.90346                  24167458.220
  24167450.880          46.300          37.100
 121583989.436 7  94565402.891 6                  22776758.240    22776761.540
  22776760.420          45.150          40.750
 115764650.917 7  90039202.723 7                  21648524.780    21648529.440
  21648527.300          43.700          43.700
 121133661.517 7  94215080.738 6                  22676475.820    22676478.560
  22676477.980          44.250          40.950
 126255366.884 7  98198642.295 5                  23618679.920    23618683.600
  23618683.560          44.100          35.050
 119018798.153 7  92570184.878 7                  22225919.440    22225921.160
  22225920.280          46.050          43.200
 106719622.264 7  83004097.415 6                  19985121.140    19985123.880
  19985121.580          47.500          37.000
 124994931.384 7  97218287.095 6                  23350107.240    23350110.600
  23350109.600          44.300          40.150
 107021425.341 8  83238886.630 7                  20006471.820    20006473.120
  20006471.340          48.950          46.450
 112221491.332 7  87283428.319 6                  21052452.820    21052459.660
  21052458.540          47.750          40.800
 139418343.339 7                 104111134.867 7  26530417.640
                        47.100
 138114983.262 6                                  26282420.500
                        40.850
 15  1 27 21  0 50.0000000  0 21G22G14G31G15G06G24G12G25G29G02R18R20
                                R16R01R08R09R07R19R10E19E20
 132381885.869 7 103154721.14945                  25191434.280
  25191430.420          43.750          33.550
 116449523.230 8  90739890.06547                  22159598.480
  22159594.160          48.000          42.800
 134252333.942 6 104612202.394 6                  25547370.800    25547367.900
  25547367.420          38.750          36.400
 129605020.518 7 100990948.375 6                  24663001.720    24662999.620
  24662999.160          46.950          38.750
 128637742.871 7 100237207.534 6  96060653.804 8  24478946.060    24478946.360
  24478945.400          44.050          41.950
 110656630.963 8  86226033.530 8  82633299.766 8  21057223.780    21057221.720
  21057221.180          50.200          49.750
 107420452.682 8  83704360.829 8                  20441364.940    20441360.500
  20441359.720          49.600          48.500
 109773323.686 8  85537762.983 8  81973718.147 8  20889125.180    20889123.380
  20889122.560          49.950          48.850
 118954336.198 8  92691844.391 7                  22636192.420    22636189.340
  22636188.500          49.700          44.200
 126991732.201 7  98954585.84546                  24165715.260
  24165707.880          46.350          38.050
 121601259.044 7  94578834.804 6                  22779993.400    22779996.640
  22779995.580          45.000          40.950
 115744344.638 7  90023408.949 7                  21644727.320    21644732.100
  21644729.940          43.400          44.050
 121146626.884 7  94225164.921 6                  22678902.960    22678905.740
  22678905.140          44.200          41.300
 126247351.411 7  98192408.034 5                  23617180.480    23617184.180
  23617184.100          44.950          35.000
 119026711.279 7  92576339.533 7                  22227397.180    22227398.860
  22227398.040          46.550          43.400
 106721990.073 7  83005939.038 6                  19985564.580    19985567.320
  19985565.020          47.450          36.850
 125013919.697 7  97233055.759 6                  23353654.380    23353657.820
  23353656.820          44.800          40.600
 107018526.347 8  83236631.857 7                  20005929.900    20005931.180
  20005929.400          49.250          46.650
 112210344.147 8  87274758.292 6                  21050361.620    21050368.500
  21050367.380          48.050          40.750
 139429556.164 7                 104119508.093 7  26532551.360
                        47.600
 138128961.186 6                                  26285080.440
                        40.700
 15  1 27 21  0 55.0000000  0 21G22G14G31G15G06G24G12G25G29G02R18R20
                                R16R01R08R09R07R19R10E19E20
 132391749.778 7 103162407.32045                  25193311.360
  25193307.460          43.400          33.050
 116440140.705 7  90732579.01047                  22157813.060
  22157808.700          47.950          42.400
 134237068.074 7 104600306.964 6                  25544465.820    25544463.020
  25544462.540          42.250          36.600
 129623208.963 7 101005121.183 6                  24666462.900    24666460.820
  24666460.280          46.950          39.650
 128635717.875 7 100235629.633 6  96059141.630 7  24478560.760    24478560.960
  24478560.000          43.950          41.900
 110664447.532 8  86232124.366 8  82639136.808 8  21058711.280    21058709.180
  21058708.600          50.100          49.800
 107426085.326 8  83708749.902 8                  20442436.780    20442432.340
  20442431.560          49.700          48.650
 109767206.433 8  85532996.299 8  81969150.067 8  20887961.120    20887959.280
  20887958.460          49.850          48.950
 118936890.700 8  92678250.506 7                  22632872.640    22632869.540
  22632868.720          49.550          44.400
 126982579.684 7  98947454.02046                  24163973.540
  24163966.220          46.100          37.050
 121618541.076 7  94592276.381 6                  22783230.860    22783234.160
  22783233.040          45.350          40.700
 115724047.678 7  90007622.442 7                  21640931.600    21640936.440
  21640934.340          43.250          44.150
 121159597.097 7  94235252.839 6                  22681330.980    22681333.860
  22681333.240          44.150          41.000
 126239354.559 7  98186188.264 5                  23615684.560    23615688.120
  23615688.140          44.600          35.150
 119034642.192 7  92582508.025 7                  22228878.240    22228879.900
  22228879.140          46.550          43.450
 106724365.707 7  83007786.749 6                  19986009.480    19986012.260
  19986009.900          47.600          37.000
 125032910.824 7  97247826.622 6                  23357202.080    23357205.520
  23357204.520          44.750          40.250
 107015650.153 8  83234394.828 7                  20005392.260    20005393.480
  20005391.740          49.200          46.700
 112199199.881 8  87266090.540 6                  21048271.000    21048277.800
  21048276.780          48.050          40.700
 139440774.193 7                 104127885.166 7  26534686.100
                        47.350
 138142936.010 6                                  26287739.840
                        41.000
 15  1 27 21  1  0.0000000  0 21G22G14G31G15G06G24G12G25G29G02R18R20
                                R16R01R08R09R07R19R10E19E20
 132401620.025 7 103170098.41345                  25195189.660
  25195185.720          44.150          34.000
 116430773.770 7  90725280.09747                  22156030.600
  22156026.220          47.800          43.200
 134221802.934 7 104588412.032 6                  25541560.960    25541558.060
  25541557.580          44.100          38.050
 129641399.615 7 101019295.692 6                  24669924.460    24669922.420
  24669921.880          46.350          38.950
 128633709.154 7 100234064.373 6  96057641.591 8  24478178.580    24478178.680
  24478177.800          43.900          41.800
 110672275.929 8  86238224.412 8  82644982.697 8  21060200.960    21060198.860
  21060198.260          49.850          49.750
 107431728.149 8  83713146.902 8                  20443510.560    20443506.120
  20443505.360          49.650          48.600
 109761100.008 8  85528238.048 8  81964590.088 8  20886799.120    20886797.260
  20886796.440          49.900          48.900
 118919453.956 8  92664663.440 7                  22629554.500    22629551.440
  22629550.600          49.550          44.350
 126973436.469 7  98940329.44946                  24162233.600
  24162226.240          45.950          39.050
 121635838.105 7  94605729.624 6                  22786471.160    22786474.420
  22786473.300          45.800          40.500
 115703762.495 7  89991845.092 7                  21637138.120    21637143.020
  21637140.940          43.250          44.100
 121172574.623 7  94245346.443 6                  22683760.420    22683763.340
  22683762.680          44.600          41.050
 126231378.790 7  98179984.882 5                  23614192.560    23614195.980
  23614196.060          44.700          34.600
 119042593.448 7  92588692.331 7                  22230363.140    22230364.780
  22230364.040          46.050          43.650
 106726751.720 7  83009642.531 6                  19986456.320    19986459.080
  19986456.720          47.750          36.900
 125051907.486 7  97262601.779 6                  23360750.780    23360754.200
  23360753.260          44.450          40.700
 107012799.484 8  83232177.641 7                  20004859.380    20004860.580
  20004858.880          49.200          46.750
 112188061.206 8  87257427.127 6                  21046181.400    21046188.280
  21046187.200          48.150          40.400
 139451999.889 7                 104136268.007 7  26536822.280
                        47.300
 138156910.198 6                                  26290399.060
                        40.750
 15  1 27 21  1  5.0000000  0 21G22G14G31G15G06G24G12G25G29G02R18R20
                                R16R01R08R09R07R19R10E19E20
 132411492.340 7 103177791.07945                  25197068.340
  25197064.400          44.500          32.350
 116421418.204 7  90717990.05247                  22154250.300
  22154245.940          47.950          42.400
 134206534.161 6 104576514.259 6                  25538655.420    25538652.460
  25538651.760          41.500          37.700
 129659588.242 7 101033468.627 6                  24673385.680    24673383.640
  24673383.040          46.100          38.850
 128631712.374 7 100232508.425 6  96056150.493 8  24477798.620    24477798.640
  24477797.840          43.150          41.600
 110680111.844 8  86244330.320 8  82650834.194 8  21061692.100    21061689.980
  21061689.380          49.900          49.650
 107437376.902 8  83717548.526 8                  20444585.460    20444581.040
  20444580.280          49.750          48.350
 109755000.210 8  85523484.958 8  81960035.038 8  20885638.380    20885636.500
  20885635.680          50.000          48.700
 118902021.748 8  92651079.909 7                  22626237.240    22626234.200
  22626233.380          49.450          44.250
 126964298.278 7  98933208.77646                  24160494.640
  24160487.280          46.050          38.900
 121653145.816 7  94619191.172 6                  22789713.460    22789716.680
  22789715.580          45.650          40.750
 115683484.929 7  89976073.671 7                  21633346.100    21633351.040
  21633348.920          43.550          43.700
 121185555.185 7  94255442.420 6                  22686190.420    22686193.420
  22686192.660          44.050          40.600
 126223419.876 7  98173794.601 5                  23612703.700    23612707.040
  23612707.080          43.450          34.300
 119050560.906 7  92594889.234 7                  22231851.000    22231852.660
  22231851.980          46.100          43.400
 106729143.831 7  83011503.072 6                  19986904.300    19986907.080
  19986904.640          47.750          36.850
 125070905.336 7  97277377.834 6                  23364299.720    23364303.160
  23364302.260          44.000          40.650
 107009969.958 8  83229976.901 7                  20004330.420    20004331.640
  20004329.940          49.150          46.750
 112176923.728 7  87248764.638 6                  21044092.080    21044098.860
  21044097.800          47.700          40.400
 139463229.046 7                 104144653.392 7  26538959.140
                        47.350
 138170879.595 6                                  26293057.380
                        41.100
 15  1 27 21  1 10.0000000  0 21G22G14G31G15G06G24G12G25G29G02R18R20
                                R16R01R08R09R07R19R10E19E20
 132421369.321 7 103185487.43245                  25198947.940
  25198943.880          43.900          33.600
 116412076.709 8  90710710.96447                  22152472.660
  22152468.300          48.050          42.800
 134191264.473 6 104564615.848 6                  25535749.700    25535746.780
  25535745.880          41.900          37.250
 129677777.456 7 101047642.017 6                  24676847.040    24676844.960
  24676844.400          45.900          39.400
 128629730.225 7 100230963.907 6  96054670.324 8  24477421.400    24477421.460
  24477420.580          43.150          41.700
 110687957.959 8  86250444.183 8  82656693.309 8  21063185.140    21063183.080
  21063182.420          49.700          49.600
 107443034.245 8  83721956.853 8                  20445662.000    20445657.580
  20445656.840          49.650          48.450
 109748909.669 8  85518739.086 8  81955486.910 8  20884479.380    20884477.500
  20884476.680          49.950          48.700
 118884596.707 8  92637501.971 7                  22622921.340    22622918.320
  22622917.520          49.450          44.400
 126955167.816 7  98926094.14746                  24158757.140
  24158749.820          46.700          38.050
 121670466.899 7  94632663.130 6                  22792958.300    22792961.520
  22792960.360          45.400          40.650
 115663217.708 7  89960310.279 7                  21629555.980    21629560.980
  21629558.860          43.800          43.900
 121198541.506 7  94265542.896 6                  22688621.500    22688624.380
  22688623.620          44.550          40.650
 126215480.379 7  98167619.450 5                  23611218.480    23611221.800
  23611221.780          43.100          34.150
 119058547.063 7  92601100.692 7                  22233342.400    22233343.980
  22233343.360          45.800          43.350
 106731544.731 7  83013370.439 6                  19987353.940    19987356.620
  19987354.240          47.700          36.900
 125089906.751 7  97292156.688 6                  23367849.320    23367852.760
  23367851.940          44.250          41.500
 107007164.218 8  83227794.667 7                  20003805.920    20003807.140
  20003805.480          48.850          46.700
 112165790.224 7  87240105.258 6                  21042003.460    21042010.280
  21042009.140          47.350          40.700
 139474464.307 7                 104153043.374 7  26541097.160
                        47.300
 138184846.752 6                                  26295715.300
                        41.600
 15  1 27 21  1 15.0000000  0 21G22G14G31G15G06G24G12G25G29G02R18R20
                                R16R01R08R09R07R19R10E19E20
 132431250.616 7 103193187.12045                  25200828.360
  25200824.200          42.700          34.050
 116402748.837 7  90703442.48747                  22150697.620
  22150693.240          47.800          42.650
 134175993.547 6 104552716.440 6                  25532843.780    25532840.880
  25532840.060          39.050          37.000
 129695966.923 7 101061815.583 6                  24680308.420    24680306.280
  24680305.800          45.050          39.100
 128627762.301 7 100229430.472 6  96053200.798 8  24477046.880    24477047.000
  24477046.140          43.100          41.750
 110695813.908 8  86256565.701 8  82662559.767 8  21064680.060    21064678.020
  21064677.360          49.350          49.450
 107448699.761 8  83726371.538 8                  20446740.100    20446735.700
  20446734.960          49.650          48.450
 109742828.014 8  85514000.128 8  81950945.412 8  20883322.060    20883320.200
  20883319.340          49.850          48.650
 118867178.456 8  92623929.310 7                  22619606.740    22619603.740
  22619602.940          49.250          44.350
 126946044.691 7  98918985.21946                  24157021.080
  24157013.760          46.700          38.400
 121687800.876 7  94646145.110 6                  22796205.580    22796208.740
  22796207.580          45.800          40.650
 115642960.377 7  89944554.582 7                  21625767.800    21625772.720
  21625770.620          43.800          43.600
 121211533.201 7  94275647.549 6                  22691053.580    22691056.460
  22691055.620          44.250          40.700
 126207560.090 7  98161459.199 5                  23609736.800    23609740.020
  23609740.000          42.800          34.650
 119066551.603 7  92607326.431 7                  22234837.220    22234838.760
  22234838.180          45.750          43.300
 106733954.106 7  83015244.388 6                  19987805.160    19987807.860
  19987805.400          47.650          36.900
 125108911.704 7  97306938.289 6                  23371399.580    23371403.100
  23371402.300          44.050          41.700
 107004381.975 8  83225630.698 7                  20003285.820    20003287.020
  20003285.400          48.800          46.750
 112154660.380 7  87231448.700 6                  21039915.540    21039922.360
  21039921.200          47.550          40.550
 139485705.258 7                 104161437.585 7  26543236.240
                        47.050
 138198811.344 6                                  26298372.760
                        41.750
 15  1 27 21  1 20.0000000  0 21G22G14G31G15G06G24G12G25G29G02R18R20
                                R16R01R08R09R07R19R10E19E20
 132441135.905 7 103200889.95145                  25202709.520
  25202705.300          43.300          32.000
 116393434.342 8  90696184.44047                  22148925.140
  22148920.760          48.050          42.000
 134160720.977 6 104540815.769 6                  25529937.460    25529934.660
  25529933.880          40.050          37.100
 129714156.270 7 101075989.062 6                  24683769.740    24683767.600
  24683767.100          45.350          39.250
 128625808.384 7 100227907.939 6  96051741.681 8  24476675.040    24476675.200
  24476674.280          43.450          41.550
 110703679.327 8  86262694.594 8  82668433.290 8  21066176.760    21066174.740
  21066174.100          49.350          49.550
 107454373.124 8  83730792.346 8                  20447819.680    20447815.300
  20447814.580          49.700          48.450
 109736754.922 8  85509267.852 8  81946410.319 8  20882166.380    20882164.520
  20882163.660          49.950          48.750
 118849766.708 8  92610361.720 7                  22616293.380    22616290.400
  22616289.620          49.500          44.600
 126936928.616 7  98911881.78746                  24155286.360
  24155279.100          46.750          38.400
 121705147.510 7  94659636.940 6                  22799455.260    22799458.440
  22799457.220          45.850          40.600
 115622712.696 7  89928806.398 7                  21621981.380    21621986.240
  21621984.160          44.550          43.400
 121224529.861 7  94285756.073 6                  22693486.600    22693489.440
  22693488.520          44.200          40.700
 126199658.670 7  98155313.669 5                  23608258.700    23608261.860
  23608261.780          43.050          34.500
 119074574.161 7  92613566.198 7                  22236335.420    22236336.860
  22236336.340          45.950          43.150
 106736371.600 7  83017124.662 6                  19988257.960    19988260.600
  19988258.120          47.550          37.400
 125127919.610 7  97321722.166 6                  23374950.400    23374953.960
  23374953.200          44.100          41.250
 107001622.841 8  83223484.700 7                  20002770.060    20002771.220
  20002769.620          48.950          46.650
 112143533.843 7  87222794.731 6                  21037828.220    21037835.060
  21037833.860          47.350          40.400
 139496951.615 7                 104169835.815 7  26545376.360
                        47.300
 138212773.056 6                                  26301029.680
                        41.650
 15  1 27 21  1 25.0000000  0 21G22G14G31G15G06G24G12G25G29G02R18R20
                                R16R01R08R09R07R19R10E19E20
 132451023.967 7 103208594.92145                  25204591.180
  25204586.920          42.850          32.950
 116384131.996 8  90688935.86647                  22147154.960
  22147150.580          48.400          42.250
 134145445.632 6 104528912.948 6                  25527030.640    25527027.980
  25527027.080          41.300          37.850
 129732344.231 7 101090161.473 6                  24687230.820    24687228.720
  24687228.200          46.400          39.300
 128623867.176 7 100226395.306 6  96050292.094 8  24476305.640    24476305.800
  24476304.920          43.200          41.600
 110711553.000 8  86268829.923 8  82674312.981 8  21067675.020    21067673.060
  21067672.400          49.250          49.650
 107460053.181 8  83735218.363 8                  20448900.560    20448896.180
  20448895.460          49.650          48.450
 109730689.173 8  85504541.301 8  81941880.702 8  20881012.100    20881010.240
  20881009.380          49.950          48.750
 118832360.238 8  92596798.244 7                  22612981.040    22612978.060
  22612977.300          49.600          44.500
 126927818.386 7  98904782.91346                  24153552.740
  24153545.560          46.850          38.100
 121722505.484 7  94673137.593 6                  22802707.040    22802710.140
  22802708.960          45.900          40.250
 115602473.439 7  89913064.747 7                  21618196.600    21618201.340
  21618199.280          44.100          43.650
 121237530.380 7  94295867.586 6                  22695920.320    22695923.120
  22695922.200          44.650          40.950
 126191774.890 7  98149181.818 5                  23606783.920    23606787.020
  23606786.940          42.450          34.850
 119082613.538 7  92619819.051 7                  22237836.740    22237838.160
  22237837.620          46.350          42.950
 106738795.953 7  83019010.272 6                  19988711.960    19988714.600
  19988712.120          47.350          37.100
 125146929.288 7  97336507.440 6                  23378501.580    23378505.220
  23378504.400          44.550          40.400
 106998885.768 8  83221355.874 7                  20002258.440    20002259.580
  20002257.960          49.050          46.600
 112132409.254 7  87214142.273 6                  21035741.260    21035748.140
  21035746.900          47.700          40.500
 139508202.128 7                 104178237.164 7  26547517.240
                        47.250
 138226730.588 6                                  26303685.820
                        41.900
 15  1 27 21  1 30.0000000  0 21G22G14G31G15G06G24G12G25G29G02R18R20
                                R16R01R08R09R07R19R10E19E20
 132460917.264 6 103216303.93645                  25206473.840
  25206469.620          41.950          35.700
 116374844.281 8  90681698.68747                  22145387.560
  22145383.160          48.600          42.600
 134130169.932 6 104517009.838 6                  25524123.760    25524121.180
  25524120.260          41.700          38.050
 129750533.302 7 101104334.777 6                  24690692.140    24690690.040
  24690689.460          45.400          39.350
 128621941.216 7 100224894.560 7  96048853.863 8  24475939.180    24475939.320
  24475938.460          43.350          42.100
 110719437.455 8  86274973.649 8  82680200.714 8  21069175.320    21069173.420
  21069172.760          49.400          49.650
 107465742.372 8  83739651.506 8                  20449983.160    20449978.780
  20449978.080          49.450          48.650
 109724633.231 8  85499822.389 8  81937358.417 8  20879859.680    20879857.820
  20879856.960          49.850          48.750
 118814961.551 8  92583240.834 7                  22609670.200    22609667.200
  22609666.440          49.850          44.750
 126918716.494 7  98897690.52846                  24151820.700
  24151813.580          46.700          38.400
 121739877.265 7  94686648.980 6                  22805961.380    22805964.460
  22805963.300          46.250          40.300
 115582245.127 7  89897331.623 7                  21614413.840    21614418.520
  21614416.440          44.000          43.800
 121250537.187 7  94305983.999 6                  22698355.240    22698358.020
  22698357.080          44.950          41.300
 126183911.181 7  98143065.589 5                  23605312.860    23605315.920
  23605315.860          43.200          34.150
 119090672.223 7  92626086.904 7                  22239341.660    22239343.080
  22239342.520          46.450          43.000
 106741229.724 7  83020903.200 6                  19989167.740    19989170.340
  19989167.920          47.350          37.050
 125165943.326 7  97351296.117 6                  23382053.560    23382057.320
  23382056.440          44.550          39.750
 106996172.945 8  83219245.903 7                  20001751.340    20001752.440
  20001750.840          49.250          46.550
 112121289.269 7  87205493.408 6                  21033655.160    21033662.060
  21033660.800          47.650          40.150
 139519459.237 7                 104186643.444 7  26549659.360
                        47.600
 138240686.472 6                                  26306341.620
                        41.850
 15  1 27 21  1 35.0000000  0 21G22G14G31G15G06G24G12G25G29G02R18R20
                                R16R01R08R09R07R19R10E19E20
 132470813.939 6 103224015.62446                  25208357.100
  25208352.880          41.750          36.950
 116365569.351 8  90674471.46246                  22143622.620
  22143618.220          48.650          41.800
 134114891.965 6 104505104.975 6                  25521216.440    25521213.880
  25521213.120          41.250          36.900
 129768721.639 7 101118507.458 6                  24694153.260    24694151.180
  24694150.640          45.450          38.950
 128620028.596 7 100223404.203 7  96047425.619 8  24475575.240    24475575.400
  24475574.520          43.650          42.050
 110727330.839 8  86281124.331 8  82686095.124 8  21070677.320    21070675.500
  21070674.800          49.550          49.700
 107471438.802 8  83744090.277 8                  20451067.140    20451062.760
  20451062.060          49.550          48.450
 109718585.308 8  85495109.718 8  81932842.093 8  20878708.780    20878706.920
  20878706.040          49.800          48.700
 118797568.826 8  92569688.065 7                  22606360.460    22606357.440
  22606356.700          49.900          44.500
 126909621.129 7  98890603.23446                  24150089.880
  24150082.800          46.800          37.950
 121757261.012 7  94700169.666 6                  22809217.980    22809221.020
  22809219.940          46.350          40.600
 115562025.950 7  89881605.603 7                  21610632.760    21610637.480
  21610635.340          44.050          44.000
 121263548.478 7  94316103.874 6                  22700790.980    22700793.740
  22700792.880          45.250          41.300
 126176065.748 7  98136963.623 5                  23603845.160    23603848.420
  23603848.180          43.050          34.050
 119098748.372 7  92632368.352 7                  22240849.800    22240851.260
  22240850.680          46.200          43.400
 106743671.021 7  83022801.972 6                  19989624.900    19989627.540
  19989625.100          47.400          36.900
 125184959.590 7  97366086.512 6                  23385605.960    23385609.740
  23385608.860          43.800          39.400
 106993482.764 8  83217153.542 7                  20001248.480    20001249.520
  20001247.940          49.000          46.450
 112110172.076 7  87196846.699 6                  21031569.620    21031576.460
  21031575.240          47.850          40.200
 139530721.122 7                 104195053.288 7  26551802.460
                        47.500
 138254638.881 6                                  26308996.760
                        41.800
 15  1 27 21  1 40.0000000  0 21G22G14G31G15G06G24G12G25G29G02R18R20
                                R16R01R08R09R07R19R10E19E20
 132480714.541 6 103231730.36245                  25210241.140
  25210237.020          41.550          35.150
 116356307.834 8  90667254.69647                  22141860.260
  22141855.780          48.850          42.000
 134099612.463 6 104493198.897 5                  25518308.780    25518306.320
  25518305.440          41.850          35.900
 129786909.839 7 101132680.070 6                  24697614.340    24697612.320
  24697611.800          44.500          39.200
 128618129.962 7 100221924.777 6  96046007.832 8  24475213.960    24475214.120
  24475213.300          43.700          41.900
 110735233.761 8  86287282.452 8  82691996.664 8  21072181.140    21072179.360
  21072178.700          49.650          49.700
 107477143.137 8  83748535.218 8                  20452152.620    20452148.260
  20452147.540          49.550          48.500
 109712545.924 8  85490403.701 8  81928332.176 8  20877559.500    20877557.640
  20877556.780          49.850          48.750
 118780182.704 8  92556140.446 7                  22603052.000    22603048.940
  22603048.240          49.800          44.650
 126900532.886 7  98883521.48746                  24148360.440
  24148353.360          46.650          39.300
 121774657.311 7  94713700.123 6                  22812476.900    22812479.940
  22812478.900          46.150          40.500
 115541816.455 7  89865887.113 7                  21606853.500    21606858.220
  21606856.060          43.750          43.700
 121276564.804 7  94326227.691 6                  22703227.660    22703230.440
  22703229.600          44.550          41.400
 126168239.144 7  98130876.261 5                  23602381.000    23602384.320
  23602384.040          42.750          34.000
 119106842.509 7  92638663.786 7                  22242361.340    22242362.780
  22242362.240          46.800          43.500
 106746120.434 7  83024707.078 6                  19990083.600    19990086.260
  19990083.820          47.450          36.900
 125203978.997 7  97380879.332 6                  23389158.940    23389162.760
  23389161.900          44.150          39.950
 106990815.796 8  83215079.234 7                  20000749.940    20000750.960
  20000749.380          48.900          46.600
 112099058.120 8  87188202.520 6                  21029484.700    21029491.460
  21029490.280          48.150          40.150
 139541988.367 7                 104203467.146 7  26553946.540
                        47.550
 138268588.338 7                                  26311651.320
                        42.300
 15  1 27 21  1 45.0000000  0 21G22G14G31G15G06G24G12G25G29G02R18R20
                                R16R01R08R09R07R19R10E19E20
 132490620.577 7 103239449.31944                  25212126.160
  25212122.160          42.400          29.800
 116347061.202 8  90660049.53347                  22140100.720
  22140096.220          48.750          42.050
 134084332.956 7 104481292.779 6                  25515401.140    25515398.680
  25515397.760          42.400          36.200
 129805099.372 7 101146853.691 6                  24701075.700    24701073.780
  24701073.120          44.050          39.000
 128616246.810 7 100220457.403 6  96044601.578 7  24474855.620    24474855.740
  24474854.960          43.750          41.350
 110743147.584 8  86293449.066 8  82697906.333 8  21073687.000    21073685.320
  21073684.640          49.700          49.600
 107482856.714 8  83752987.347 8                  20453239.880    20453235.500
  20453234.780          49.700          48.400
 109706516.591 8  85485705.517 8  81923829.749 8  20876412.140    20876410.300
  20876409.420          49.850          48.700
 118762804.657 8  92542599.122 7                  22599745.080    22599742.040
  22599741.280          49.700          44.550
 126891453.173 7  98876446.39846                  24146632.640
  24146625.520          46.650          37.750
 121792067.651 7  94727241.505 6                  22815738.500    22815741.480
  22815740.480          46.050          40.550
 115521618.194 7  89850177.355 7                  21603076.380    21603081.040
  21603078.860          44.150          43.700
 121289587.631 7  94336356.534 6                  22705665.480    22705668.420
  22705667.560          44.800          41.250
 126160432.999 7  98124804.831 5                  23600920.700    23600924.000
  23600923.700          43.000          34.000
 119114956.047 7  92644974.311 7                  22243876.520    22243877.880
  22243877.420          47.000          43.450
 106748579.481 7  83026619.666 6                  19990544.100    19990546.780
  19990544.340          47.750          36.650
 125223002.786 7  97395675.572 6                  23392712.820    23392716.620
  23392715.760          44.850          39.600
 106988173.476 8  83213024.093 7                  20000256.020    20000257.000
  20000255.440          49.050          46.600
 112087948.974 8  87179562.086 6                  21027400.700    21027407.400
  21027406.240          48.200          40.250
 139553262.442 7                 104211886.084 7  26556091.920
                        47.550
 138282536.269 6                                  26314305.600
                        41.800
 15  1 27 21  1 50.0000000  0 21G22G14G31G15G06G24G12G25G29G02R18R20
                                R16R01R08R09R07R19R10E19E20
 132500529.365 6 103247170.44146                  25214011.660
  25214007.780          41.350          36.400
 116337826.783 8  90652853.88246                  22138343.520
  22138338.960          48.750          41.850
 134069050.719 7 104469384.571 5                  25512493.020    25512490.520
  25512489.700          44.200          34.650
 129823287.505 7 101161026.228 6                  24704536.820    24704534.840
  24704534.180          43.800          39.350
 128614376.459 7 100218999.954 6  96043204.881 8  24474499.720    24474499.800
  24474499.040          44.250          41.400
 110751069.757 8  86299622.190 8  82703822.238 8  21075194.500    21075192.840
  21075192.180          49.450          49.700
 107488576.960 8  83757444.677 8                  20454328.400    20454324.020
  20454323.280          49.800          48.350
 109700494.630 8  85481013.084 8  81919332.835 8  20875266.180    20875264.340
  20875263.460          49.850          48.750
 118745432.017 8  92529062.008 7                  22596439.180    22596436.120
  22596435.340          49.650          44.500
 126882379.395 7  98869375.90946                  24144905.940
  24144898.800          46.650          37.900
 121809489.343 7  94740791.710 6                  22819002.200    22819005.120
  22819004.180          46.100          40.450
 115501428.509 7  89834474.260 7                  21599300.820    21599305.460
  21599303.280          44.250          43.650
 121302614.349 7  94346488.420 6                  22708104.080    22708107.100
  22708106.220          44.600          41.250
 126152644.563 7  98118747.156 5                  23599463.760    23599466.900
  23599466.700          43.200          34.250
 119123086.443 7  92651297.950 7                  22245394.880    22245396.200
  22245395.760          46.800          42.950
 106751045.401 7  83028537.608 6                  19991005.920    19991008.560
  19991006.120          47.450          36.850
 125242028.207 7  97410473.101 6                  23396267.000    23396270.780
  23396269.920          45.100          39.700
 106985553.100 8  83210986.026 7                  19999766.200    19999767.160
  19999765.620          49.000          46.600
 112076841.875 8  87170923.223 6                  21025317.120    21025323.820
  21025322.560          48.600          40.400
 139564540.665 7                 104220308.127 7  26558238.120
                        47.250
 138296480.148 6                                  26316959.120
                        41.600
 15  1 27 21  1 55.0000000  0 21G22G14G31G15G06G24G12G25G29G02R18R20
                                R16R01R08R09R07R19R10E19E20
 132510441.985 6 103254894.55745                  25215897.960
  25215894.020          40.700          32.900
 116328605.802 8  90645668.70747                  22136588.860
  22136584.280          48.850          42.650
 134053766.890 7 104457475.061 5                  25509584.620    25509582.040
  25509581.200          44.450          35.050
 129841475.458 7 101175198.623 6                  24707997.920    24707995.960
  24707995.300          43.650          39.050
 128612520.091 7 100217553.434 6  96041818.629 8  24474146.500    24474146.540
  24474145.720          44.250          41.550
 110759001.466 8  86305802.749 8  82709745.264 8  21076703.780    21076702.180
  21076701.520          49.250          49.700
 107494305.048 8  83761908.129 8                  20455418.400    20455414.060
  20455413.300          49.950          48.350
 109694481.228 8  85476327.322 8  81914842.305 8  20874121.860    20874120.040
  20874119.140          49.950          48.750
 118728065.961 8  92515530.019 7                  22593134.520    22593131.480
  22593130.680          49.400          44.550
 126873312.759 7  98862311.00646                  24143180.600
  24143173.420          46.700          37.750
 121826923.455 7  94754351.583 6                  22822268.220    22822271.120
  22822270.200          45.900          40.650
 115481248.614 7  89818778.787 7                  21595527.120    21595531.680
  21595529.520          44.150          43.700
 121315646.116 7  94356624.228 6                  22710543.600    22710546.680
  22710545.800          43.850          41.500
 126144874.890 7  98112704.077 5                  23598010.340    23598013.500
  23598013.260          43.100          34.200
 119131234.823 7  92657635.594 7                  22246916.580    22246917.840
  22246917.380          46.900          42.800
 106753519.490 7  83030461.897 6                  19991469.260    19991471.860
  19991469.440          47.800          36.950
 125261056.518 7  97425272.897 6                  23399821.680    23399825.440
  23399824.620          45.050          40.600
 106982955.941 8  83208966.013 7                  19999280.700    19999281.680
  19999280.120          49.250          46.650
 112065738.046 8  87162286.926 6                  21023234.120    21023240.740
  21023239.500          48.300          40.100
 139575824.206 7                 104228734.137 7  26560385.300
                        47.350
 138310421.053 6                                  26319612.020
                        41.200
 15  1 27 21  2  0.0000000  0 21G22G14G31G15G06G24G12G25G29G02R18R20
                                R16R01R08R09R07R19R10E19E20
 132520359.567 6 103262622.58245                  25217785.180
  25217781.360          40.850          32.150
 116319399.316 8  90638494.81847                  22134836.980
  22134832.320          48.900          42.550
 134038482.478 7 104445565.111 5                  25506676.140    25506673.440
  25506672.560          42.350          34.600
 129859664.310 7 101189371.716 6                  24711459.160    24711457.160
  24711456.540          44.750          39.800
 128610678.777 7 100216118.646 7  96040443.645 8  24473796.160    24473796.200
  24473795.280          44.050          42.000
 110766943.706 8  86311991.505 8  82715676.163 8  21078215.080    21078213.540
  21078212.880          49.250          49.750
 107500042.044 8  83766378.517 8                  20456510.120    20456505.760
  20456504.980          49.900          48.300
 109688477.468 8  85471649.065 8  81910358.983 8  20872979.380    20872977.560
  20872976.680          50.050          48.900
 118710707.586 8  92502004.022 7                  22589831.320    22589828.280
  22589827.460          49.400          44.750
 126864254.347 7  98855252.51046                  24141456.860
  24141449.660          46.700          37.900
 121844371.167 7  94767922.026 6                  22825536.780    22825539.660
  22825538.760          46.200          40.700
 115461079.645 7  89803091.811 7                  21591755.380    21591760.000
  21591757.820          44.100          44.150
 121328683.996 7  94366764.801 6                  22712984.320    22712987.440
  22712986.540          43.650          40.950
 126137125.362 7  98106676.658 5                  23596560.640    23596563.920
  23596563.640          43.400          35.100
 119139402.162 7  92663987.960 7                  22248441.780    22248443.040
  22248442.540          46.800          42.800
 106756002.815 7  83032393.387 6                  19991934.320    19991937.020
  19991934.500          47.550          36.700
 125280088.840 7  97440075.786 6                  23403377.120    23403380.900
  23403380.060          45.100          40.350
 106980382.961 8  83206964.810 7                  19998799.720    19998800.680
  19998799.140          49.250          46.550
 112054638.637 8  87153654.040 6                  21021151.960    21021158.480
  21021157.260          48.450          40.100
 139587114.135 7                 104237164.926 7  26562533.720
                        47.550
 138324360.100 6                                  26322264.580
                        41.600
 15  1 27 21  2  5.0000000  0 21G22G14G31G15G06G24G12G25G29G02R18R20
                                R16R01R08R09R07R19R10E19E20
 132530278.806 7 103270351.78445                  25219672.760
  25219668.880          43.150          31.650
 116310204.031 8  90631329.66746                  22133087.240
  22133082.500          49.200          41.950
 134023194.331 6 104433652.286 5                  25503766.900    25503764.120
  25503763.320          41.700          33.200
 129877850.667 7 101203542.880 6                  24714919.940    24714917.960
  24714917.320          45.300          39.550
 128608849.262 7 100214693.060 7  96039077.425 7  24473448.060    24473448.100
  24473447.160          44.700          42.200
 110774893.117 8  86318185.851 8  82721612.417 8  21079727.740    21079726.260
  21079725.600          49.450          49.700
 107505784.605 8  83770853.238 8                  20457602.920    20457598.540
  20457597.760          49.950          48.250
 109682480.019 8  85466975.729 8  81905880.367 8  20871838.100    20871836.300
  20871835.420          50.200          48.850
 118693353.567 8  92488481.422 7                  22586528.960    22586525.880
  22586525.080          49.550          44.650
 126855200.791 7  98848197.79446                  24139734.060
  24139726.820          46.800          38.200
 121861828.982 7  94781500.324 6                  22828807.240    22828810.140
  22828809.220          46.050          40.450
 115440918.183 7  89787410.690 7                  21587985.060    21587989.720
  21587987.580          44.300          44.150
 121341724.640 7  94376907.518 6                  22715425.560    22715428.620
  22715427.760          44.300          41.000
 126129392.413 7  98100662.159 5                  23595114.020    23595117.240
  23595117.140          43.200          35.150
 119147585.125 7  92670352.478 7                  22249969.880    22249971.100
  22249970.580          46.800          42.350
 106758491.966 7  83034329.387 6                  19992400.480    19992403.220
  19992400.620          47.950          36.900
 125299121.766 7  97454879.144 6                  23406932.600    23406936.460
  23406935.600          45.600          40.000
 106977830.875 8  83204979.867 7                  19998322.620    19998323.580
  19998322.060          49.100          46.400
 112043540.266 8  87145021.959 6                  21019070.000    21019076.480
  21019075.200          48.200          40.300
 139598407.109 7                 104245597.981 7  26564682.700
                        47.800
 138338293.887 6                                  26324916.120
                        41.900
 15  1 27 21  2 10.0000000  0 21G22G14G31G15G06G24G12G25G29G02R18R20
                                R16R01R08R09R07R19R10E19E20
 132540203.897 7 103278085.60245                  25221561.500
  25221557.640          42.300          32.650
 116301024.196 8  90624176.54147                  22131340.420
  22131335.640          49.100          42.550
 134007906.613 6 104421739.785 5                  25500857.680    25500854.860
  25500854.040          41.550          33.800
 129896038.752 7 101217715.401 6                  24718381.120    24718379.060
  24718378.400          45.150          39.850
 128607035.692 7 100213279.874 6  96037723.138 7  24473103.000    24473102.960
  24473102.140          44.100          41.500
 110782854.046 8  86324389.172 8  82727557.257 8  21081242.580    21081241.160
  21081240.500          49.400          49.600
 107511536.953 8  83775335.587 8                  20458697.560    20458693.160
  20458692.380          49.900          48.100
 109676493.112 8  85462310.607 8  81901409.627 8  20870698.840    20870697.020
  20870696.140          50.150          48.850
 118676008.140 8  92474965.503 7                  22583228.240    22583225.140
  22583224.360          49.450          44.600
 126846156.396 7  98841150.20846                  24138012.960
  24138005.780          46.350          37.800
 121879301.263 7  94795089.882 6                  22832080.420    22832083.360
  22832082.360          45.850          40.750
 115420768.547 7  89771738.755 7                  21584216.940    21584221.700
  21584219.540          44.100          44.300
 121354772.352 7  94387055.734 6                  22717868.120    22717871.160
  22717870.300          44.450          40.350
 126121680.368 7  98094663.894 5                  23593671.340    23593674.700
  23593674.500          43.850          34.850
 119155787.943 7  92676732.444 7                  22251501.700    22251502.860
  22251502.340          47.200          42.850
 106760991.295 7  83036273.305 6                  19992868.580    19992871.220
  19992868.680          47.550          37.100
 125318159.469 7  97469686.218 6                  23410489.020    23410492.900
  23410492.020          44.950          39.550
 106975304.097 8  83203014.593 7                  19997850.260    19997851.220
  19997849.680          49.100          46.400
 112032447.227 8  87136394.036 6                  21016989.000    21016995.480
  21016994.200          48.450          40.700
 139609707.345 7                 104254036.459 7  26566833.100
                        47.600
 138352226.644 6                                  26327567.500
                        41.600
 15  1 27 21  2 15.0000000  0 21G22G14G31G15G06G24G12G25G29G02R18R20
                                R16R01R08R09R07R19R10E19E20
 132550132.480 6 103285822.11944                  25223450.900
  25223446.960          40.450          27.850
 116291857.381 8  90617033.57047                  22129596.080
  22129591.220          49.250          42.450
 133992616.964 7 104409825.824 5                  25497948.040    25497945.320
  25497944.280          42.600          34.850
 129914226.274 7 101231887.446 6                  24721842.100    24721840.080
  24721839.380          45.300          39.600
 128605235.729 7 100211877.295 6  96036379.006 7  24472760.500    24472760.400
  24472759.660          44.450          41.200
 110790824.101 8  86330599.596 8  82733508.917 8  21082759.160    21082757.800
  21082757.160          49.250          49.450
 107517296.698 8  83779823.700 8                  20459793.640    20459789.200
  20459788.400          49.900          48.050
 109670514.353 8  85457651.838 8  81896944.977 8  20869561.140    20869559.280
  20869558.440          50.100          48.900
 118658668.935 8  92461454.443 7                  22579928.720    22579925.580
  22579924.820          49.450          44.650
 126837118.765 7  98834107.90946                  24136293.080
  24136286.040          46.150          38.050
 121896785.501 7  94808688.724 6                  22835355.880    22835358.780
  22835357.760          45.800          40.700
 115400628.403 7  89756074.207 7                  21580450.580    21580455.380
  21580453.260          44.100          44.650
 121367824.634 7  94397207.517 6                  22720311.520    22720314.560
  22720313.680          44.500          40.550
 126113986.891 7  98088680.051 5                  23592232.120    23592235.420
  23592235.280          43.950          35.600
 119164008.339 7  92683126.079 7                  22253036.780    22253037.940
  22253037.400          47.250          42.950
 106763498.356 7  83038223.235 6                  19993338.120    19993340.720
  19993338.180          47.750          37.150
 125337199.721 7  97484495.269 6                  23414045.920    23414049.860
  23414048.900          44.900          40.050
 106972799.917 8  83201066.896 7                  19997382.120    19997383.100
  19997381.520          49.400          46.650
 112021357.223 8  87127768.477 6                  21014908.540    21014914.980
  21014913.780          48.150          41.100
 139621012.463 7                 104262478.601 7  26568984.440
                        47.550
 138366156.057 6                                  26330218.220
                        41.400
 15  1 27 21  2 20.0000000  0 21G22G14G31G15G06G24G12G25G29G02R18R20
                                R16R01R08R09R07R19R10E19E20
 132560065.903 6 103293562.56345                  25225341.240
  25225337.220          40.250          33.200
 116282705.122 8  90609901.93747                  22127854.500
  22127849.600          49.250          42.100
 133977326.908 7 104397911.492 5                  25495038.400    25495035.580
  25495034.560          43.850          34.300
 129932414.619 7 101246060.156 6                  24725303.280    24725301.280
  24725300.560          46.050          39.850
 128603450.848 7 100210486.479 6  96035046.140 8  24472420.880    24472420.720
  24472420.000          44.100          41.350
 110798804.637 8  86336818.192 8  82739468.408 8  21084277.740    21084276.440
  21084275.800          49.300          49.550
 107523065.324 8  83784318.735 7                  20460891.380    20460886.920
  20460886.120          49.950          47.900
 109664545.216 8  85453000.572 8  81892487.511 8  20868425.240    20868423.400
  20868422.580          50.150          48.850
 118641337.452 8  92447949.399 7                  22576630.680    22576627.520
  22576626.780          49.450          44.650
 126828089.369 7  98827072.03446                  24134574.820
  24134567.880          46.350          36.850
 121914283.205 7  94822298.065 6                  22838633.820    22838636.720
  22838635.680          45.800          41.150
 115380499.186 7  89740418.171 7                  21576686.320    21576691.160
  21576689.040          44.400          44.750
 121380883.139 7  94407364.126 6                  22722756.140    22722759.040
  22722758.300          44.850          40.850
 126106313.409 7  98082711.810 5                  23590796.680    23590800.040
  23590799.780          44.700          34.950
 119172247.678 7  92689534.446 7                  22254575.460    22254576.600
  22254576.020          47.600          42.850
 106766014.698 7  83040180.394 6                  19993809.400    19993811.920
  19993809.420          47.600          37.050
 125356243.626 7  97499307.187 6                  23417603.540    23417607.360
  23417606.500          45.700          40.250
 106970320.152 8  83199138.202 7                  19996918.560    19996919.520
  19996917.920          49.350          46.600
 112010271.561 8  87119146.306 6                  21012828.920    21012835.340
  21012834.220          48.350          41.150
 139632323.946 7                 104270925.469 7  26571136.980
                        47.850
 138380083.464 6                                  26332868.580
                        41.400
 15  1 27 21  2 25.0000000  0 21G22G14G31G15G06G24G12G25G29G02R18R20
                                R16R01R08R09R07R19R10E19E20
 132570002.150 6 103301305.04545                  25227232.020
  25227228.100          41.400          33.700
 116273565.293 8  90602780.00147                  22126115.300
  22126110.340          49.250          42.350
 133962034.242 7 104385995.129 5                  25492128.280    25492125.380
  25492124.480          43.450          34.300
 129950601.653 7 101260231.852 6                  24728764.220    24728762.300
  24728761.440          46.100          39.000
 128601678.927 7 100209105.788 6  96033722.970 8  24472083.680    24472083.480
  24472082.840          43.700          41.400
 110806793.541 8  86343043.312 8  82745434.145 8  21085797.920    21085796.680
  21085796.060          49.450          49.650
 107528840.734 8  83788819.057 8                  20461990.420    20461985.960
  20461985.140          50.050          48.000
 109658583.597 8  85448355.162 8  81888035.662 8  20867290.800    20867288.940
  20867288.140          50.250          48.800
 118624011.590 8  92434448.736 7                  22573333.700    22573330.540
  22573329.800          49.400          44.750
 126819066.129 7  98820040.93446                  24132857.660
  24132850.800          46.250          37.400
 121931792.273 7  94835916.221 6                  22841913.880    22841916.720
  22841915.720          45.700          41.150
 115360378.740 7  89724768.938 7                  21572923.660    21572928.540
  21572926.440          44.600          44.650
 121393945.602 7  94417523.826 6                  22725201.420    22725204.300
  22725203.600          44.050          41.000
 126098657.867 7  98076757.487 5                  23589364.620    23589367.880
  23589367.580          44.200          34.750
 119180503.840 7  92695955.909 7                  22256117.260    22256118.400
  22256117.820          47.450          43.200
 106768538.067 7  83042143.013 6                  19994282.000    19994284.400
  19994281.960          47.700          37.600
 125375289.290 7  97514120.471 6                  23421161.520    23421165.320
  23421164.420          45.800          39.600
 106967862.431 8  83197226.645 7                  19996459.120    19996460.100
  19996458.420          49.550          46.550
 111999188.127 8  87110525.863 6                  21010749.680    21010756.120
  21010755.060          48.450          41.050
 139643639.619 7                 104279375.483 7  26573290.320
                        47.550
 138394006.854 6                                  26335518.140
                        41.700
 15  1 27 21  2 30.0000000  0 21G22G14G31G15G06G24G12G25G29G02R18R20
                                R16R01R08R09R07R19R10E19E20
 132579942.604 6 103309050.79844                  25229123.620
  25229119.700          41.850          27.600
 116264439.291 8  90595668.82746                  22124378.720
  22124373.740          49.250          41.900
 133946740.347 7 104374077.814 5                  25489217.960    25489215.100
  25489214.140          42.750          33.650
 129968788.795 7 101274403.628 6                  24732225.200    24732223.180
  24732222.380          45.950          40.050
 128599921.377 7 100207736.295 6  96032410.522 8  24471749.200    24471749.020
  24471748.440          44.100          41.500
 110814792.412 8  86349276.190 8  82751407.322 8  21087320.000    21087318.820
  21087318.200          49.400          49.650
 107534624.274 8  83793325.705 8                  20463091.020    20463086.520
  20463085.680          50.000          48.000
 109652630.866 8  85443716.673 8  81883590.447 8  20866158.040    20866156.200
  20866155.380          50.250          48.750
 118606692.751 8  92420953.538 7                  22570038.040    22570034.900
  22570034.160          49.200          44.650
 126810050.445 7  98813015.73846                  24131142.000
  24131135.220          46.750          37.850
 121949314.006 7  94849544.221 6                  22845196.300    22845199.120
  22845198.120          45.450          40.800
 115340268.699 7  89709127.794 7                  21569162.960    21569167.860
  21569165.780          44.550          44.650
 121407013.506 7  94427687.724 6                  22727647.760    22727650.620
  22727650.000          44.300          41.250
 126091021.574 7  98070818.131 5                  23587936.120    23587939.280
  23587939.000          44.350          35.150
 119188778.188 7  92702391.502 7                  22257662.480    22257663.540
  22257663.000          47.550          42.900
 106771069.967 7  83044112.260 6                  19994756.180    19994758.520
  19994756.100          47.900          37.050
 125394338.225 7  97528936.288 6                  23424720.080    23424723.800
  23424722.960          45.050          39.100
 106965428.295 8  83195333.433 7                  19996004.100    19996005.060
  19996003.360          49.450          46.400
 111988108.374 8  87101908.282 6                  21008671.160    21008677.620
  21008676.560          48.300          40.750
 139654960.904 7                 104287829.674 7  26575444.720
                        47.650
 138407927.569 6                                  26338167.200
                        41.950
 15  1 27 21  2 35.0000000  0 21G22G14G31G15G06G24G12G25G29G02R18R20
                                R16R01R08R09R07R19R10E19E20
 132589886.621 6 103316799.32545                  25231015.920
  25231011.940          41.650          33.200
 116255326.544 8  90588567.98146                  22122644.680
  22122639.620          49.300          41.900
 133931444.731 7 104362159.179 5                  25486307.320    25486304.380
  25486303.500          43.600          34.100
 129986975.414 7 101288574.966 6                  24735686.080    24735684.000
  24735683.240          46.200          39.050
 128598177.620 7 100206377.517 6  96031108.377 7  24471417.360    24471417.180
  24471416.640          43.800          41.950
 110822800.524 8  86355516.269 8  82757387.405 8  21088843.820    21088842.700
  21088842.120          49.400          49.750
 107540415.354 8  83797838.231 8                  20464193.060    20464188.540
  20464187.700          50.250          48.100
 109646686.428 8  85439084.643 8  81879151.414 8  20865026.840    20865025.000
  20865024.220          50.300          48.850
 118589380.333 8  92407463.351 7                  22566743.600    22566740.420
  22566739.740          49.350          44.650
 126801041.722 7  98805995.95446                  24129427.700
  24129420.900          47.400          37.300
 121966847.787 7  94863181.602 6                  22848480.980    22848483.780
  22848482.760          45.700          40.450
 115320168.284 7  89693494.139 7                  21565404.080    21565409.020
  21565406.880          44.300          44.650
 121420086.118 7  94437855.335 6                  22730094.960    22730097.900
  22730097.260          44.050          41.750
 126083404.036 7  98064893.374 5                  23586511.140    23586514.400
  23586513.980          44.250          34.650
 119197070.072 7  92708840.750 7                  22259210.960    22259211.960
  22259211.400          47.000          43.150
 106773609.880 7  83046087.741 6                  19995231.820    19995234.100
  19995231.740          47.950          37.050
 125413389.464 7  97543753.883 6                  23428279.080    23428282.840
  23428281.940          44.950          39.650
 106963017.089 8  83193458.048 7                  19995553.400    19995554.300
  19995552.600          49.300          46.850
 111977031.797 8  87093293.163 6                  21006593.220    21006599.680
  21006598.620          48.250          40.750
 139666287.156 7                 104296287.591 7  26577600.040
                        47.850
 138421845.060 7                                  26340815.680
                        42.050
 15  1 27 21  2 40.0000000  0 21G22G14G31G15G06G24G12G25G29G02R18R20
                                R16R01R08R09R07R19R10E19E20
 132599834.957 6 103324551.26145                  25232909.060
  25232905.020          38.000          35.850
 116246227.784 8  90581478.04247                  22120913.300
  22120908.180          49.300          42.750
 133916148.042 7 104350239.667 5                  25483396.480    25483393.480
  25483392.880          43.900          35.200
 130005162.241 7 101302746.507 6                  24739146.920    24739144.900
  24739144.100          46.300          40.300
 128596448.385 7 100205030.057 6  96029817.054 8  24471088.260    24471088.120
  24471087.560          43.900          41.650
 110830818.639 8  86361764.149 8  82763374.953 8  21090369.580    21090368.520
  21090367.940          49.300          49.900
 107546214.680 8  83802357.189 8                  20465296.660    20465292.100
  20465291.280          50.350          48.400
 109640751.025 8  85434459.654 8  81874719.131 8  20863897.380    20863895.540
  20863894.760          50.200          48.950
 118572075.113 8  92393978.762 7                  22563450.520    22563447.360
  22563446.660          49.150          44.850
 126792040.732 7  98798982.19546                  24127714.880
  24127708.020          47.300          37.100
 121984394.408 7  94876828.978 6                  22851768.060    22851770.820
  22851769.800          46.100          40.100
 115300078.366 7  89677868.662 7                  21561647.120    21561652.080
  21561650.000          44.450          44.500
 121433164.230 7  94448027.189 6                  22732543.180    22732546.180
  22732545.640          44.500          41.900
 126075806.028 7  98058983.808 5                  23585089.800    23585092.940
  23585092.620          43.850          34.900
 119205380.234 7  92715304.201 7                  22260762.820    22260763.860
  22260763.200          47.150          42.650
 106776158.341 8  83048069.891 6                  19995709.100    19995711.400
  19995709.000          48.150          37.400
 125432443.912 7  97558573.976 6                  23431838.660    23431842.400
  23431841.480          44.600          39.900
 106960629.530 8  83191601.062 7                  19995107.100    19995107.960
  19995106.300          49.300          46.800
 111965959.113 8  87084681.079 6                  21004516.040    21004522.460
  21004521.400          48.100          40.550
 139677619.167 7                 104304749.782 7  26579756.480
                        47.650
 138435759.903 6                                  26343463.640
                        41.750
 15  1 27 21  2 45.0000000  0 21G22G14G31G15G06G24G12G25G29G02R18R20
                                R16R01R08R09R07R19R10E19E20
 132609786.521 6 103332305.73845                  25234802.860
  25234798.660          39.250          34.050
 116237142.169 8  90574398.34647                  22119184.400
  22119179.260          49.300          42.700
 133900849.452 7 104338318.714 5                  25480485.200    25480482.300
  25480481.560          43.600          34.950
 130023348.352 7 101316917.460 6                  24742607.660    24742605.660
  24742604.840          46.850          39.700
 128594732.802 7 100203693.242 6  96028535.958 8  24470761.800    24470761.620
  24470761.100          43.700          41.750
 110838845.905 8  86368019.164 8  82769369.346 8  21091897.060    21091896.060
  21091895.480          49.250          49.900
 107552021.405 8  83806881.919 8                  20466401.660    20466397.100
  20466396.260          50.350          48.500
 109634823.810 8  85429841.053 8  81870292.982 8  20862769.480    20862767.640
  20862766.860          50.250          48.950
 118554776.206 8  92380499.110 7                  22560158.600    22560155.460
  22560154.760          48.950          44.900
 126783046.623 7  98791973.79946                  24126003.360
  24125996.480          47.350          37.800
 122001952.928 7  94890485.605 6                  22855057.400    22855060.160
  22855059.060          46.300          40.600
 115279998.017 7  89662250.617 7                  21557891.940    21557896.980
  21557894.900          44.450          44.600
 121446247.089 7  94458202.743 6                  22734992.320    22734995.400
  22734994.880          44.550          41.700
 126068226.516 7  98053088.634 5                  23583671.860    23583674.920
  23583674.700          44.000          34.250
 119213707.874 7  92721781.250 7                  22262317.960    22262318.980
  22262318.260          47.400          43.000
 106778714.655 7  83050058.129 6                  19996187.840    19996190.120
  19996187.720          47.850          37.050
 125451500.753 7  97573395.913 6                  23435398.680    23435402.400
  23435401.480          44.050          40.300
 106958264.922 8  83189761.926 7                  19994665.100    19994665.900
  19994664.280          49.050          46.650
 111954889.376 8  87076071.281 6                  21002439.400    21002445.840
  21002444.760          48.050          40.850
 139688956.005 7                 104313215.624 7  26581913.840
                        47.850
 138449671.395 6                                  26346110.960
                        41.250
 15  1 27 21  2 50.0000000  0 21G22G14G31G15G06G24G12G25G29G02R18R20
                                R16R01R08R09R07R19R10E19E20
 132619742.235 6 103340063.43244                  25236697.300
  25236693.160          40.900          26.650
 116228070.375 8  90567329.41647                  22117458.140
  22117452.960          49.400          42.750
 133885549.681 7 104326396.825 5                  25477573.640    25477570.780
  25477570.020          43.850          34.100
 130041534.427 7 101331088.409 6                  24746068.380    24746066.440
  24746065.540          46.850          39.350
 128593031.608 7 100202367.638 6  96027265.574 8  24470438.100    24470437.920
  24470437.360          44.200          41.650
 110846882.985 8  86374281.821 8  82775371.055 8  21093426.440    21093425.460
  21093424.900          49.200          49.850
 107557836.270 8  83811412.985 8                  20467508.240    20467503.620
  20467502.800          50.350          48.450
 109628905.442 8  85425229.338 8  81865873.413 8  20861643.260    20861641.400
  20861640.660          50.200          48.950
 118537484.346 8  92367024.936 7                  22556868.020    22556864.900
  22556864.200          49.050          44.950
 126774060.058 7  98784971.27846                  24124293.320
  24124286.400          46.950          38.350
 122019524.030 7  94904152.018 6                  22858349.080    22858351.820
  22858350.680          46.400          40.650
 115259927.999 7  89646640.607 7                  21554138.720    21554143.840
  21554141.720          44.400          44.850
 121459335.307 7  94468382.469 6                  22737442.480    22737445.560
  22737445.080          44.100          41.350
 126060666.317 7  98047208.454 5                  23582257.580    23582260.620
  23582260.360          43.250          34.350
 119222053.680 7  92728272.424 7                  22263876.540    22263877.500
  22263876.720          47.850          43.200
 106781279.540 7  83052053.031 6                  19996668.160    19996670.480
  19996668.040          47.850          37.400
 125470560.621 7  97588220.205 6                  23438959.200    23438962.980
  23438962.040          44.400          40.200
 106955923.747 8  83187941.012 7                  19994227.460    19994228.240
  19994226.620          49.250          46.700
 111943823.314 7  87067464.342 6                  21000363.440    21000369.940
  21000368.760          47.850          40.800
 139700298.394 7                 104321685.569 7  26584072.260
                        47.650
 138463580.187 6                                  26348757.760
                        41.200
 15  1 27 21  2 55.0000000  0 21G22G14G31G15G06G24G12G25G29G02R18R20
                                R16R01R08R09R07R19R10E19E20
 132629700.890 6 103347823.34745                  25238592.320
  25238588.240          40.550          31.600
 116219011.241 8  90560270.34647                  22115734.280
  22115729.080          49.400          42.800
 133870247.454 7 104314473.014 5                  25474661.660    25474658.740
  25474658.000          43.350          33.850
 130059719.236 7 101345258.374 6                  24749528.900    24749526.880
  24749526.020          46.700          39.550
 128591343.549 7 100201052.269 6  96026005.016 7  24470116.920    24470116.620
  24470116.100          44.700          41.000
 110854928.586 8  86380551.119 8  82781379.136 8  21094957.460    21094956.500
  21094955.940          49.400          49.750
 107563657.935 8  83815949.353 8                  20468616.080    20468611.460
  20468610.620          50.100          48.500
 109622994.728 8  85420623.591 8  81861459.580 8  20860518.480    20860516.640
  20860515.880          50.300          48.800
 118520198.338 8  92353555.317 7                  22553578.580    22553575.480
  22553574.760          48.900          44.650
 126765079.854 7  98777973.72346                  24122584.500
  24122577.500          47.250          38.100
 122037106.462 7  94917827.253 6                  22861642.900    22861645.660
  22861644.440          46.600          40.900
 115239867.141 7  89631037.735 7                  21550387.260    21550392.360
  21550390.260          44.700          44.700
 121472427.709 7  94478565.446 6                  22739893.380    22739896.500
  22739896.000          44.650          41.650
 126053124.302 7  98041342.459 5                  23580846.640    23580849.660
  23580849.440          44.200          34.100
 119230416.331 7  92734776.714 7                  22265438.260    22265439.200
  22265438.400          47.800          43.450
 106783851.586 7  83054053.519 6                  19997149.840    19997152.180
  19997149.700          47.650          37.400
 125489622.148 7  97603045.792 6                  23442520.100    23442523.860
  23442522.920          44.650          40.250
 106953604.927 8  83186137.492 7                  19993794.020    19993794.760
  19993793.140          49.350          46.850
 111932759.648 7  87058859.277 6                  20998287.920    20998294.460
  20998293.220          47.700          40.100
 139711645.080 7                 104330158.739 7  26586231.500
                        47.800
 138477484.976 6                                  26351403.760
                        40.700
 15  1 27 21  3  0.0000000  0 21G22G14G31G15G06G24G12G25G29G02R18R20
                                R16R01R08R09R07R19R10E19E20
 132639664.613 6 103355587.28344                  25240488.380
  25240484.060          40.100          29.100
 116209967.054 8  90553222.92647                  22114013.280
  22114008.020          49.250          42.350
 133854945.077 7 104302549.113 5                  25471749.680    25471746.740
  25471745.980          43.250          33.250
 130077905.153 7 101359429.190 6                  24752989.600    24752987.480
  24752986.660          46.150          39.450
 128589670.974 7 100199748.972 6  96024756.013 7  24469798.680    24469798.320
  24469797.720          44.550          40.650
 110862985.113 8  86386828.930 8  82787395.362 8  21096490.580    21096489.600
  21096489.060          49.700          49.650
 107569488.788 8  83820492.876 8                  20469725.680    20469721.020
  20469720.200          50.100          48.350
 109617093.983 8  85416025.614 8  81857053.176 8  20859395.580    20859393.760
  20859393.020          50.200          48.850
 118502920.485 8  92340092.055 7                  22550290.680    22550287.600
  22550286.840          48.850          44.700
 126756108.326 7  98770982.91446                  24120877.320
  24120870.260          47.300          37.700
 122054702.584 7  94931513.125 6                  22864939.280    22864942.040
  22864940.780          46.650          41.250
 115219817.717 7  89615443.742 7                  21546637.940    21546643.000
  21546640.920          44.250          44.400
 121485526.491 7  94488753.381 6                  22742345.420    22742348.600
  22742348.100          44.150          41.100
 126045602.605 7  98035492.229 5                  23579439.560    23579442.520
  23579442.300          43.750          34.500
 119238798.181 7  92741295.923 7                  22267003.540    22267004.460
  22267003.680          47.500          43.300
 106786433.321 7  83056061.529 6                  19997633.340    19997635.700
  19997633.180          47.700          37.050
 125508687.763 7  97617874.578 6                  23446081.780    23446085.560
  23446084.580          44.650          41.200
 106951310.636 8  83184353.041 7                  19993365.140    19993365.880
  19993364.240          49.350          46.800
 111921700.844 7  87050257.991 6                  20996213.340    20996219.840
  20996218.560          47.950          40.200
 139722998.382 7                 104338636.838 7  26588391.980
                        47.700
 138491388.113 6                                  26354049.480
                        41.300
 15  1 27 21  3  5.0000000  0 21G22G14G31G15G06G24G12G25G29G02R18R20
                                R16R01R08R09R07R19R10E19E20
 132649632.097 6 103363354.17445                  25242385.180
  25242380.840          37.050          31.300
 116200936.454 8  90546186.09347                  22112294.860
  22112289.580          49.200          42.600
 133839641.295 7 104290624.083 5                  25468837.400    25468834.520
  25468833.700          43.300          33.600
 130096090.842 7 101373599.828 6                  24756450.240    24756448.100
  24756447.300          45.700          39.400
 128588012.477 7 100198456.632 6  96023517.529 8  24469483.100    24469482.720
  24469482.040          44.750          40.950
 110871051.172 8  86393114.175 8  82793418.725 8  21098025.540    21098024.540
  21098023.980          49.850          49.700
 107575327.437 8  83825042.468 8                  20470836.760    20470832.080
  20470831.280          50.000          48.350
 109611201.811 8  85411434.311 8  81852653.185 8  20858274.320    20858272.520
  20858271.780          50.100          48.750
 118485649.441 8  92326634.101 7                  22547004.100    22547001.040
  22547000.220          49.100          44.700
 126747144.124 7  98763997.82746                  24119171.540
  24119164.420          47.200          36.950
 122072310.991 7  94945208.553 6                  22868237.940    22868240.720
  22868239.400          46.750          40.950
 115199778.420 7  89599857.625 7                  21542890.460    21542895.520
  21542893.460          44.650          44.350
 121498630.452 7  94498945.347 6                  22744798.440    22744801.680
  22744801.120          44.050          40.900
 126038099.916 7  98029656.826 5                  23578035.980    23578039.000
  23578038.780          44.300          34.600
 119247197.824 7  92747828.978 7                  22268572.140    22268573.080
  22268572.300          47.500          43.050
 106789023.225 7  83058075.903 6                  19998118.380    19998120.720
  19998118.220          47.700          37.050
 125527755.974 7  97632705.376 6                  23449643.940    23449647.640
  23449646.700          45.000          41.550
 106949039.649 8  83182586.726 7                  19992940.620    19992941.340
  19992939.700          49.450          46.750
 111910645.534 8  87041659.430 6                  20994139.360    20994145.900
  20994144.560          48.050          40.050
 139734356.918 7                 104347118.866 7  26590553.480
                        47.900
 138505288.226 6                                  26356694.660
                        41.050
 15  1 27 21  3 10.0000000  0 21G22G14G31G15G06G24G12G25G29G02R18R20
                                R16R01R08R09R07R19R10E19E20
 132659602.328 6 103371123.19845                  25244282.420
  25244277.940          38.600          32.500
 116191918.490 8  90539159.11447                  22110578.840
  22110573.520          49.150          42.450
 133824335.042 7 104278697.141 5                  25465924.740    25465921.760
  25465920.900          43.900          34.350
 130114275.261 7 101387769.460 6                  24759910.680    24759908.500
  24759907.760          45.100          38.700
 128586367.138 7 100197174.555 6  96022288.867 8  24469170.020    24469169.580
  24469168.920          44.050          40.950
 110879125.773 8  86399406.072 8  82799448.454 8  21099562.120    21099561.080
  21099560.520          49.900          49.750
 107581172.863 8  83829597.347 8                  20471949.120    20471944.440
  20471943.620          49.900          48.400
 109605317.257 8  85406848.952 8  81848258.875 8  20857154.480    20857152.720
  20857151.980          49.900          48.850
 118468384.256 8  92313180.718 7                  22543718.620    22543715.600
  22543714.760          49.000          45.000
 126738186.288 7  98757017.68746                  24117466.960
  24117459.800          47.150          37.500
 122089930.650 7  94958912.737 6                  22871538.680    22871541.500
  22871540.140          46.200          41.050
 115179748.204 7  89584278.573 7                  21539144.760    21539149.760
  21539147.660          43.750          44.300
 121511738.521 7  94509140.516 6                  22747252.360    22747255.480
  22747254.860          43.950          40.650
 126030615.371 7  98023835.515 5                  23576635.820    23576638.900
  23576638.740          43.450          34.950
 119255614.265 7  92754375.099 7                  22270143.840    22270144.780
  22270144.040          47.100          42.800
 106791620.419 7  83060095.935 6                  19998604.760    19998607.100
  19998604.600          47.800          37.200
 125546825.895 7  97647537.514 6                  23453206.460    23453210.100
  23453209.180          44.850          41.500
 106946790.939 8  83180837.739 7                  19992520.280    19992521.000
  19992519.340          49.300          46.750
 111899592.637 8  87033062.725 6                  20992065.880    20992072.400
  20992071.020          48.050          40.300
 139745719.702 7                 104355604.058 7  26592715.800
                        47.900
 138519184.361 6                                  26359339.120
                        41.000
 15  1 27 21  3 15.0000000  0 21G22G14G31G15G06G24G12G25G29G02R18R20
                                R16R01R08R09R07R19R10E19E20
 132669576.622 6 103378895.26844                  25246180.400
  25246176.360          40.900          28.600
 116182914.397 8  90532142.92947                  22108865.420
  22108860.120          49.200          42.850
 133809027.576 7 104266769.245 5                  25463011.800    25463008.880
  25463007.960          43.200          34.700
 130132459.623 7 101401939.066 6                  24763371.040    24763368.900
  24763368.060          44.600          38.300
 128584736.162 7 100195903.670 6  96021070.934 7  24468859.660    24468859.180
  24468858.400          44.400          41.050
 110887210.164 8  86405705.587 8  82805485.499 8  21101100.580    21101099.480
  21101098.940          49.800          49.750
 107587026.347 8  83834158.494 8                  20473063.020    20473058.280
  20473057.500          50.000          48.250
 109599441.541 8  85402270.470 8  81843871.177 8  20856036.320    20856034.620
  20856033.840          49.800          48.850
 118451126.128 8  92299732.818 7                  22540434.520    22540431.440
  22540430.660          49.100          44.950
 126729236.077 7  98750043.49746                  24115763.800
  24115756.640          47.300          37.150
 122107562.772 7  94972626.607 6                  22874841.760    22874844.600
  22874843.220          46.100          40.550
 115159728.489 7  89568707.683 7                  21535400.940    21535405.900
  21535403.840          44.400          44.450
 121524851.865 7  94519339.779 6                  22749707.200    22749710.260
  22749709.680          43.950          40.800
 126023150.179 7  98018029.269 5                  23575239.260    23575242.380
  23575242.320          44.550          34.950
 119264048.771 7  92760935.258 7                  22271718.900    22271719.840
  22271719.080          47.150          42.550
 106794226.075 7  83062122.543 6                  19999092.680    19999095.060
  19999092.580          47.450          37.050
 125565898.624 7  97662371.823 6                  23456769.480    23456773.040
  23456772.180          44.600          41.650
 106944565.831 8  83179107.093 7                  19992104.340    19992105.040
  19992103.360          49.250          46.700
 111888543.337 7  87024468.821 6                  20989993.080    20989999.620
  20989998.200          47.900          40.500
 139757087.963 7                 104364093.322 7  26594879.140
                        47.750
 138533077.657 6                                  26361982.960
                        40.900
 15  1 27 21  3 20.0000000  0 21G22G14G31G15G06G24G12G25G29G02R18R20
                                R16R01R08R09R07R19R10E19E20
 132679555.083 6 103386670.68044                  25248079.220
  25248075.140          40.800          25.900
 116173924.376 8  90525137.71847                  22107154.700
  22107149.360          49.150          42.700
 133793719.069 7 104254840.567 6                  25460098.680    25460095.820
  25460094.860          43.050          36.000
 130150644.116 7 101416108.772 6                  24766831.460    24766829.360
  24766828.560          44.200          37.850
 128583119.723 7 100194644.120 6  96019863.879 8  24468552.020    24468551.520
  24468550.740          44.000          40.600
 110895304.532 8  86412012.887 8  82811529.987 8  21102640.940    21102639.800
  21102639.260          49.850          49.700
 107592888.026 8  83838726.038 8                  20474178.480    20474173.720
  20474172.940          50.050          48.250
 109593574.864 8  85397699.034 8  81839490.211 8  20854919.880    20854918.240
  20854917.460          49.750          48.850
 118433875.300 8  92286290.622 7                  22537151.800    22537148.720
  22537147.940          49.050          45.150
 126720293.685 7  98743075.41845                  24114062.140
  24114054.960          47.100          35.400
 122125207.552 7  94986350.329 6                  22878147.200    22878150.060
  22878148.660          46.050          40.850
 115139719.352 7  89553145.029 7                  21531659.120    21531664.060
  21531662.000          44.000          44.500
 121537970.778 7  94529543.372 6                  22752163.120    22752166.100
  22752165.560          43.850          40.650
 126015704.534 7  98012238.211 5                  23573846.360    23573849.680
  23573849.480          44.100          34.300
 119272501.465 7  92767509.584 7                  22273297.400    22273298.340
  22273297.500          47.700          42.700
 106796840.434 8  83064155.931 6                  19999582.280    19999584.700
  19999582.200          48.100          37.350
 125584974.399 7  97677208.506 6                  23460333.040    23460336.560
  23460335.760          44.400          41.900
 106942364.413 8  83177394.878 7                  19991692.840    19991693.480
  19991691.820          49.400          46.650
 111877497.998 7  87015878.004 6                  20987920.980    20987927.520
  20987926.140          47.800          40.850
 139768461.869 7                 104372586.837 7  26597043.560
                        47.950
 138546968.377 6                                  26364626.360
                        40.600
 15  1 27 21  3 25.0000000  0 21G22G14G31G15G06G24G12G25G29G02R18R20
                                R16R01R08R09R07R19R10E19E20
 132689538.187 6 103394449.74045                  25249978.800
  25249974.760          39.250          31.600
 116164948.907 8  90518143.85447                  22105446.740
  22105441.400          49.250          42.850
 133778410.024 7 104242911.464 6                  25457185.460    25457182.580
  25457181.640          42.800          36.250
 130168829.204 7 101430278.950 6                  24770291.980    24770289.860
  24770289.060          44.650          38.350
 128581518.401 7 100193396.322 6  96018668.071 7  24468247.260    24468246.760
  24468245.880          44.000          39.800
 110903409.363 8  86418328.337 8  82817582.290 8  21104183.280    21104182.120
  21104181.560          49.750          49.700
 107598758.408 8  83843300.361 8                  20475295.580    20475290.840
  20475290.040          50.050          48.000
 109587717.694 8  85393135.005 8  81835116.348 8  20853805.240    20853803.660
  20853802.860          49.600          48.750
 118416632.259 8  92272854.493 7                  22533870.580    22533867.480
  22533866.720          49.000          45.150
 126711359.597 7  98736113.79146                  24112362.040
  24112354.860          46.850          36.950
 122142865.457 7  95000084.253 6                  22881455.100    22881457.960
  22881456.580          46.000          40.900
 115119721.434 7  89537591.111 7                  21527919.440    21527924.320
  21527922.260          44.900          44.250
 121551095.679 7  94539751.639 6                  22754620.120    22754623.100
  22754622.480          43.850          40.400
 126008278.915 7  98006462.724 5                  23572457.200    23572460.680
  23572460.400          44.400          35.050
 119280972.837 7  92774098.418 7                  22274879.420    22274880.300
  22274879.420          47.600          42.500
 106799464.002 8  83066196.490 6                  20000073.580    20000076.020
  20000073.520          48.050          37.400
 125604053.632 7  97692047.851 6                  23463897.280    23463900.760
  23463899.980          45.050          41.950
 106940187.135 8  83175701.438 7                  19991285.860    19991286.460
  19991284.820          49.650          46.750
 111866457.059 8  87007290.613 6                  20985849.700    20985856.300
  20985854.900          48.100          40.900
 139779841.906 7                 104381084.891 7  26599209.140
                        47.950
 138560856.944 6                                  26367269.300
                        40.200
 15  1 27 21  3 30.0000000  0 21G22G14G31G15G06G24G12G25G29G02R18R20
                                R16R01R08R09R07R19R10E19E20
 132699524.599 6 103402231.38544                  25251879.100
  25251875.100          40.200          29.950
 116155986.715 8  90511160.32647                  22103741.300
  22103735.980          49.100          42.900
 133763099.176 7 104230980.961 6                  25454271.900    25454269.020
  25454268.200          42.400          36.550
 130187013.526 7 101444448.523 6                  24773752.380    24773750.180
  24773749.540          44.800          38.250
 128579930.768 7 100192159.222 6  96017482.517 8  24467945.100    24467944.580
  24467943.640          43.750          40.750
 110911523.303 8  86424650.894 8  82823641.405 8  21105727.380    21105726.160
  21105725.620          49.700          49.750
 107604636.189 8  83847880.455 8                  20476414.080    20476409.340
  20476408.540          49.950          48.100
 109581868.708 8  85388577.358 8  81830748.601 8  20852692.180    20852690.640
  20852689.820          49.400          48.700
 118399395.682 8  92259423.404 7                  22530590.560    22530587.460
  22530586.700          48.800          44.950
 126702432.519 7  98729157.63846                  24110663.260
  24110656.000          46.700          37.600
 122160535.137 7  95013827.335 6                  22884765.200    22884768.140
  22884766.700          45.900          40.850
 115099733.158 7  89522044.668 7                  21524181.560    21524186.420
  21524184.300          44.500          44.200
 121564225.364 7  94549963.616 6                  22757078.020    22757080.980
  22757080.320          44.000          40.350
 126000872.004 7  98000701.809 5                  23571071.620    23571075.280
  23571074.860          44.750          35.550
 119289461.535 7  92780700.752 7                  22276464.660    22276465.500
  22276464.580          47.650          42.850
 106802095.449 7  83068243.178 6                  20000566.360    20000568.720
  20000566.280          47.600          37.450
 125623135.145 7  97706888.988 7                  23467461.940    23467465.380
  23467464.660          45.350          42.000
 106938032.823 8  83174025.860 7                  19990883.180    19990883.700
  19990882.100          49.600          47.000
 111855419.194 7  86998705.613 6                  20983779.020    20983785.520
  20983784.220          47.800          40.650
 139791226.746 7                 104389586.546 7  26601375.640
                        47.800
 138574742.056 6                                  26369911.600
                        40.800
 15  1 27 21  3 35.0000000  0 21G22G14G31G15G06G24G12G25G29G02R18R20
                                R16R01R08R09R07R19R10E19E20
 132709513.893 6 103410015.25845                  25253780.020
  25253776.260          40.900          31.200
 116147037.324 8  90504186.78147                  22102038.300
  22102032.980          49.100          43.400
 133747786.042 7 104219048.688 6                  25451357.900    25451355.060
  25451354.360          42.950          37.000
 130205196.648 7 101458617.175 6                  24777212.540    24777210.340
  24777209.680          44.750          38.700
 128578356.451 7 100190932.496 6  96016306.892 8  24467645.540    24467645.020
  24467643.980          43.500          41.000
 110919645.956 8  86430980.234 8  82829707.029 8  21107273.140    21107271.860
  21107271.320          49.750          49.850
 107610520.880 8  83852465.934 8                  20477533.920    20477529.160
  20477528.360          49.900          48.100
 109576027.481 8  85384025.754 8  81826386.651 8  20851580.600    20851579.100
  20851578.260          49.600          48.750
 118382165.149 8  92245997.029 7                  22527311.680    22527308.580
  22527307.840          48.800          44.850
 126693512.015 7  98722206.59046                  24108965.740
  24108958.460          46.350          36.900
 122178216.120 7  95027579.226 6                  22888077.420    22888080.400
  22888078.960          45.950          40.900
 115079754.400 7  89506505.644 7                  21520445.460    21520450.280
  21520448.140          44.700          44.250
 121577359.271 7  94560178.867 6                  22759536.680    22759539.700
  22759539.000          43.800          40.800
 125993483.497 7  97994955.187 5                  23569689.480    23569693.240
  23569692.820          44.600          35.700
 119297967.080 7  92787316.180 7                  22278053.020    22278053.880
  22278052.920          47.300          43.050
 106804734.345 7  83070295.648 6                  20001060.520    20001062.940
  20001060.440          47.850          37.250
 125642218.291 7  97721731.408 6                  23471026.840    23471030.320
  23471029.600          44.900          41.350
 106935900.873 8  83172367.681 7                  19990484.680    19990485.120
  19990483.580          49.200          47.000
 111844383.953 8  86990122.644 6                  20981708.820    20981715.300
  20981714.020          48.000          40.300
 139802615.908 7                 104398091.451 7  26603542.960
                        47.650
 138588623.219 6                                  26372553.200
                        40.250
 15  1 27 21  3 40.0000000  0 21G22G14G31G15G06G24G12G25G29G02R18R20
                                R16R01R08R09R07R19R10E19E20
 132719508.350 6 103417803.08844                  25255681.940
  25255678.200          41.350          26.250
 116138103.096 8  90497225.04347                  22100338.180
  22100332.880          49.150          42.750
 133732472.929 7 104207116.407 6                  25448443.900    25448441.020
  25448440.440          43.400          36.350
 130223380.907 7 101472786.689 6                  24780672.860    24780670.700
  24780670.020          44.500          39.800
 128576797.737 7 100189717.901 6  96015142.915 8  24467348.900    24467348.380
  24467347.300          43.850          40.900
 110927779.653 8  86437318.174 8  82835780.889 8  21108821.000    21108819.660
  21108819.120          49.800          49.750
 107616414.804 8  83857058.594 8                  20478655.540    20478650.740
  20478649.960          49.850          48.100
 109570196.302 8  85379481.974 8  81822032.192 8  20850470.920    20850469.460
  20850468.620          49.700          48.800
 118364943.021 8  92232577.187 7                  22524034.400    22524031.320
  22524030.580          48.750          44.750
 126684600.384 7  98715262.45546                  24107269.900
  24107262.540          46.550          36.400
 122195910.742 7  95041341.699 6                  22891392.200    22891395.240
  22891393.760          45.850          41.050
 115059787.254 7  89490975.646 7                  21516711.560    21516716.320
  21516714.160          44.250          43.950
 121590499.797 7  94570399.243 6                  22761996.540    22761999.740
  22761998.980          44.250          41.300
 125986115.466 7  97989224.484 5                  23568311.280    23568314.880
  23568314.560          45.000          35.850
 119306491.879 7  92793946.574 7                  22279644.920    22279645.840
  22279644.840          46.650          42.550
 106807382.934 7  83072355.660 6                  20001556.520    20001558.940
  20001556.420          47.550          37.400
 125661305.463 7  97736576.940 6                  23474592.560    23474595.960
  23474595.280          44.800          40.800
 106933793.726 8  83170728.784 7                  19990090.800    19990091.200
  19990089.700          49.150          46.800
 111833353.630 8  86981543.502 6                  20979639.580    20979645.980
  20979644.680          48.000          40.000
 139814011.723 7                 104406601.301 7  26605711.520
                        47.650
 138602502.819 6                                  26375194.520
                        40.550
 15  1 27 21  3 45.0000000  0 21G22G14G31G15G06G24G12G25G29G02R18R20
                                R16R01R08R09R07R19R10E19E20
 132729504.382 6 103425592.16845                  25257584.120
  25257580.520          40.400          30.700
 116129180.353 8  90490272.25447                  22098640.240
  22098634.940          49.150          42.750
 133717156.224 7 104195181.300 6                  25445529.220    25445526.320
  25445525.640          43.450          36.250
 130241562.612 7 101486954.196 6                  24784132.740    24784130.560
  24784129.940          44.600          39.700
 128575251.025 7 100188512.679 6  96013987.917 7  24467054.560    24467054.020
  24467052.900          43.950          40.900
 110935920.706 8  86443661.850 8  82841860.245 8  21110370.260    21110368.880
  21110368.340          49.900          49.800
 107622314.309 8  83861655.609 8                  20479778.180    20479773.400
  20479772.600          49.650          48.250
 109564371.544 8  85374943.202 8  81817682.541 8  20849362.480    20849361.060
  20849360.200          49.900          48.800
 118347725.620 8  92219161.034 7                  22520758.000    22520755.000
  22520754.220          48.700          44.800
 126675694.084 7  98708322.47546                  24105575.060
  24105567.680          46.000          37.950
 122213615.296 7  95055111.918 6                  22894708.880    22894711.900
  22894710.480          46.350          41.150
 115039828.300 7  89475452.015 7                  21512979.120    21512983.900
  21512981.720          44.250          44.350
 121603643.170 7  94580621.858 6                  22764457.040    22764460.300
  22764459.520          44.750          41.700
 125978764.392 7  97983506.961 5                  23566936.160    23566939.720
  23566939.440          44.700          35.250
 119315032.115 7  92800588.983 7                  22281239.700    22281240.700
  22281239.600          46.900          42.400
 106810037.647 7  83074420.422 6                  20002053.640    20002056.080
  20002053.540          47.750          37.200
 125680392.937 7  97751422.726 6                  23478158.340    23478161.740
  23478160.980          45.200          40.750
 106931707.662 8  83169106.284 7                  19989700.820    19989701.240
  19989699.720          49.250          46.900
 111822324.621 8  86972965.386 6                  20977570.580    20977576.940
  20977575.640          48.100          40.600
 139825410.549 7                 104415113.402 7  26607880.680
                        47.800
 138616377.151 6                                  26377834.780
                        40.900
 15  1 27 21  3 50.0000000  0 21G22G14G31G15G06G24G12G25G29G02R18R20
                                R16R01R08R09R07R19R10E19E20
 132739505.983 6 103433385.60045                  25259487.400
  25259483.680          39.050          32.500
 116120273.202 8  90483331.61347                  22096945.280
  22096939.960          49.100          43.000
 133701840.018 7 104183246.596 6                  25442614.600    25442611.840
  25442610.940          42.550          36.350
 130259745.871 7 101501122.940 6                  24787592.900    24787590.760
  24787590.100          44.300          38.950
 128573720.406 7 100187319.971 6  96012844.911 8  24466763.340    24466762.760
  24466761.560          44.200          41.000
 110944073.334 8  86450014.551 8  82847948.247 8  21111921.720    21111920.300
  21111919.740          49.900          49.800
 107628223.481 8  83866260.157 8                  20480902.660    20480897.880
  20480897.060          49.450          48.100
 109558557.305 8  85370412.636 8  81813340.750 8  20848256.040    20848254.640
  20848253.780          49.750          48.750
 118330517.076 8  92205751.788 7                  22517483.320    22517480.320
  22517479.520          48.300          44.550
 126666797.096 7  98701389.77646                  24103881.940
  24103874.660          45.850          37.000
 122231333.921 7  95068893.069 6                  22898028.180    22898031.200
  22898029.820          46.450          41.050
 115019881.570 7  89459937.896 7                  21509248.980    21509253.720
  21509251.600          44.150          44.650
 121616793.669 7  94590850.007 6                  22766918.940    22766922.180
  22766921.360          44.300          41.050
 125971434.427 7  97977805.887 5                  23565565.020    23565568.540
  23565568.220          45.200          35.100
 119323592.043 7  92807246.694 7                  22282838.160    22282839.240
  22282838.040          46.750          42.300
 106812702.629 7  83076493.190 6                  20002552.700    20002555.160
  20002552.620          47.500          37.500
 125699484.722 7  97766271.864 6                  23481724.880    23481728.240
  23481727.520          44.750          40.300
 106929646.816 8  83167503.406 7                  19989315.580    19989315.980
  19989314.460          49.000          46.800
 111811301.020 8  86964391.474 6                  20975502.600    20975508.840
  20975507.620          48.300          40.550
 139836816.454 7                 104423630.802 7  26610051.200
                        47.850
 138630250.344 6                                  26380474.900
                        40.400
 15  1 27 21  3 55.0000000  0 21G22G14G31G15G06G24G12G25G29G02R18R20
                                R16R01R08R09R07R19R10E19E20
 132749511.342 6 103441181.99345                  25261391.420
  25261387.540          39.750          34.250
 116111379.869 8  90476401.75147                  22095252.940
  22095247.620          49.150          42.900
 133686522.454 7 104171310.863 5                  25439699.740    25439696.980
  25439696.040          42.450          35.400
 130277928.829 7 101515291.446 6                  24791053.000    24791050.880
  24791050.220          44.200          39.600
 128572204.034 7 100186138.370 6  96011712.563 7  24466474.820    24466474.220
  24466473.020          44.450          41.100
 110952235.537 8  86456374.711 8  82854043.404 8  21113475.000    21113473.520
  21113472.960          49.850          49.800
 107634140.449 8  83870870.781 8                  20482028.660    20482023.840
  20482023.040          49.550          48.300
 109552751.765 8  85365888.847 8  81809005.456 8  20847151.260    20847149.860
  20847149.020          49.550          48.850
 118313315.561 8  92192348.016 7                  22514209.980    22514206.980
  22514206.160          48.350          44.700
 126657907.670 7  98694462.94746                  24102190.280
  24102183.100          45.750          37.950
 122249064.711 7  95082683.690 6                  22901349.760    22901352.820
  22901351.460          46.200          40.950
 114999945.231 7  89444431.863 7                  21505520.820    21505525.560
  21505523.400          44.050          44.500
 121629949.302 7  94601082.166 6                  22769381.720    22769384.980
  22769384.080          44.250          41.000
 125964123.741 7  97972119.784 5                  23564197.520    23564201.040
  23564200.640          45.400          35.050
 119332169.628 7  92813918.142 7                  22284440.020    22284441.080
  22284439.780          46.700          42.050
 106815375.997 7  83078572.472 6                  20003053.300    20003055.780
  20003053.260          47.850          37.650
 125718579.078 7  97781122.983 6                  23485291.940    23485295.260
  23485294.480          44.550          39.850
 106927609.384 8  83165918.736 7                  19988934.700    19988935.100
  19988933.560          49.250          46.450
 111800281.039 8  86955820.388 6                  20973435.300    20973441.460
  20973440.280          48.350          40.200
 139848227.598 7                 104432152.101 7  26612222.680
                        47.550
 138644120.501 6                                  26383114.380
                        41.050
 15  1 27 21  4  0.0000000  0 21G22G14G31G15G06G24G12G25G29G02R18R20
                                R16R01R08R09R07R19R10E19E20
 132759517.605 6 103448979.05145                  25263295.620
  25263291.620          40.000          31.950
 116102497.511 8  90469480.43147                  22093562.720
  22093557.340          49.250          43.100
 133671200.778 6 104159371.907 5                  25436784.100    25436781.280
  25436780.380          41.950          35.100
 130296108.611 7 101529457.478 6                  24794512.520    24794510.340
  24794509.740          44.650          39.550
 128570699.108 7 100184965.704 6  96010588.744 8  24466188.480    24466187.760
  24466186.700          43.700          40.950
 110960404.508 8  86462740.139 8  82860143.600 8  21115029.560    21115028.040
  21115027.480          49.950          49.800
 107640062.438 8  83875485.314 8                  20483155.600    20483150.740
  20483149.960          49.800          48.300
 109546952.071 8  85361369.607 8  81804674.514 8  20846047.580    20846046.220
  20846045.380          49.650          48.950
 118296118.242 8  92178947.513 7                  22510937.440    22510934.460
  22510933.580          48.400          44.750
 126649023.005 7  98687539.84346                  24100499.540
  24100492.440          46.400          38.550
 122266804.803 7  95096481.530 6                  22904673.100    22904676.160
  22904674.820          46.150          41.150
 114980016.501 7  89428931.754 7                  21501794.040    21501798.840
  21501796.640          44.150          44.200
 121643107.279 7  94611316.140 6                  22771844.880    22771848.180
  22771847.320          43.800          41.550
 125956829.383 7  97966446.394 5                  23562833.060    23562836.540
  23562836.120          45.550          35.350
 119340762.145 7  92820601.211 7                  22286044.600    22286045.700
  22286044.320          46.550          42.350
 106818054.844 7  83080656.016 6                  20003554.960    20003557.440
  20003554.920          47.650          37.350
 125737673.069 7  97795973.828 6                  23488858.920    23488862.120
  23488861.400          45.250          40.150
 106925592.474 8  83164350.037 7                  19988557.660    19988558.040
  19988556.500          49.250          46.550
 111789261.796 8  86947249.861 6                  20971368.140    20971374.320
  20971373.060          48.050          39.950
 139859641.165 7                 104440675.221 7  26614394.640
                        47.650
 138657984.853 6                                  26385752.760
                        40.550
 15  1 27 21  4  5.0000000  0 21G22G14G31G15G06G24G12G25G29G02R18R20
                                R16R01R08R09R07R19R10E19E20
 132769529.034 6 103456780.09045                  25265200.800
  25265196.860          40.000          30.900
 116093630.425 8  90462571.01547                  22091875.400
  22091869.960          49.200          42.900
 133655879.242 7 104147433.051 5                  25433868.500    25433865.720
  25433864.760          42.150          34.800
 130314289.600 7 101543624.455 6                  24797972.220    24797970.120
  24797969.500          44.550          40.050
 128569209.915 7 100183805.298 6  96009476.700 8  24465905.140    24465904.400
  24465903.300          44.050          41.300
 110968584.583 8  86469114.219 8  82866252.099 8  21116586.220    21116584.680
  21116584.100          50.050          49.750
 107645993.704 8  83880107.084 8                  20484284.300    20484279.420
  20484278.640          50.100          48.300
 109541162.520 8  85356858.268 8  81800351.154 8  20844945.860    20844944.520
  20844943.660          49.650          48.950
 118278929.425 8  92165553.645 7                  22507666.520    22507663.520
  22507662.640          48.450          44.950
 126640147.371 7  98680623.77146                  24098810.540
  24098803.560          46.050          38.050
 122284558.539 7  95110290.000 6                  22907998.980    22908002.020
  22908000.740          45.900          41.400
 114960099.703 7  89413440.911 7                  21498069.500    21498074.260
  21498072.080          44.050          44.100
 121656272.012 7  94621555.360 6                  22774309.300    22774312.640
  22774311.740          43.750          41.150
 125949555.860 7  97960789.220 5                  23561472.520    23561475.660
  23561475.440          45.850          34.350
 119349373.932 7  92827299.266 7                  22287652.760    22287653.880
  22287652.480          46.100          42.750
 106820743.549 7  83082747.235 6                  20004058.460    20004060.940
  20004058.460          47.600          37.650
 125756771.107 7  97810827.837 6                  23492426.640    23492429.760
  23492429.100          45.500          40.400
 106923600.446 8  83162800.695 7                  19988185.240    19988185.660
  19988184.080          49.150          46.550
 111778247.608 8  86938683.267 6                  20969301.920    20969308.060
  20969306.740          48.350          40.050
 139871061.434 7                 104449203.331 7  26616567.840
                        47.600
 138671847.634 6                                  26388390.880
                        40.200
 15  1 27 21  4 10.0000000  0 21G22G14G31G15G06G24G12G25G29G02R18R20
                                R16R01R08R09R07R19R10E19E20
 132779544.482 6 103464584.35845                  25267106.640
  25267102.780          38.950          31.800
 116084777.445 8  90455672.59147                  22090190.760
  22090185.280          49.250          42.950
 133640556.659 7 104135493.409 5                  25430952.700    25430949.860
  25430949.040          42.250          34.900
 130332470.548 7 101557791.389 6                  24801431.980    24801429.900
  24801429.280          44.750          39.950
 128567735.268 7 100182656.231 6  96008375.505 7  24465624.480    24465623.840
  24465622.760          43.750          41.600
 110976774.566 8  86475496.024 8  82872367.994 8  21118144.780    21118143.180
  21118142.620          50.000          49.850
 107651933.058 8  83884735.158 8                  20485414.520    20485409.640
  20485408.880          50.200          48.400
 109535381.947 8  85352353.926 8  81796034.486 8  20843845.840    20843844.520
  20843843.640          49.700          49.050
 118261747.950 8  92152165.499 7                  22504396.960    22504393.960
  22504393.100          48.550          45.000
 126631279.562 7  98673713.79846                  24097123.060
  24097116.180          46.250          39.400
 122302324.718 7  95124108.135 6                  22911327.180    22911330.260
  22911328.980          45.700          41.200
 114940193.716 7  89397958.481 7                  21494346.980    21494351.700
  21494349.560          43.900          43.900
 121669442.179 7  94631798.846 6                  22776774.780    22776778.140
  22776777.140          44.200          40.700
 125942301.917 7  97955147.250 5                  23560115.580    23560118.560
  23560118.380          45.250          34.550
 119358003.696 7  92834011.311 7                  22289264.280    22289265.360
  22289264.020          46.150          42.800
 106823440.920 7  83084845.190 6                  20004563.580    20004566.100
  20004563.600          47.350          37.750
 125775871.924 7  97825684.011 6                  23495994.900    23495998.000
  23495997.340          44.950          40.800
 106921632.157 8  83161269.807 7                  19987817.280    19987817.700
  19987816.100          49.000          46.650
 111767237.424 8  86930119.786 6                  20967236.420    20967242.520
  20967241.200          48.250          40.000
 139882487.203 7                 104457735.559 7  26618742.100
                        47.800
 138685707.690 6                                  26391028.360
                        41.000
 15  1 27 21  4 15.0000000  0 21G22G14G31G15G06G24G12G25G29G02R18R20
                                R16R01R08R09R07R19R10E19E20
 132789563.530 6 103472391.40945                  25269013.220
  25269009.260          40.650          34.350
 116075938.165 8  90448784.83947                  22088508.720
  22088503.200          49.150          42.850
 133625232.660 7 104123552.619 5                  25428036.580    25428033.760
  25428032.740          42.450          35.300
 130350651.013 7 101571957.946 6                  24804891.620    24804889.540
  24804888.960          45.050          40.150
 128566274.804 7 100181518.201 6  96007284.885 7  24465346.540    24465345.900
  24465344.980          43.050          41.700
 110984974.077 8  86481885.249 8  82878491.001 8  21119705.160    21119703.500
  21119702.940          50.000          49.700
 107657880.116 8  83889369.231 8                  20486546.240    20486541.340
  20486540.560          50.300          48.300
 109529609.910 8  85347856.233 8  81791724.201 8  20842747.440    20842746.140
  20842745.280          49.700          48.950
 118244573.422 8  92138782.758 7                  22501128.740    22501125.760
  22501124.880          48.550          44.800
 126622419.238 7  98666809.64646                  24095437.020
  24095430.120          46.400          37.350
 122320102.841 7  95137935.562 6                  22914657.600    22914660.720
  22914659.440          45.850          41.100
 114920298.087 7  89382484.107 7                  21490626.400    21490631.100
  21490628.960          43.400          44.150
 121682617.454 7  94642046.288 6                  22779241.260    22779244.500
  22779243.500          44.000          40.650
 125935067.026 7  97949520.137 5                  23558762.180    23558765.180
  23558764.820          45.350          33.800
 119366651.072 7  92840737.039 7                  22290879.100    22290880.200
  22290878.900          46.400          43.150
 106826146.643 7  83086949.637 6                  20005070.260    20005072.860
  20005070.300          47.500          37.550
 125794975.098 7  97840541.992 6                  23499563.580    23499566.640
  23499566.040          44.750          41.250
 106919687.136 8  83159757.011 7                  19987453.660    19987454.080
  19987452.480          49.050          46.650
 111756230.662 8  86921558.969 6                  20965171.540    20965177.680
  20965176.340          48.000          40.200
 139893918.058 7                 104466271.566 7  26620917.300
                        47.600
 138699564.583 6                                  26393665.320
                        40.450
 15  1 27 21  4 20.0000000  0 21G22G14G31G15G06G24G12G25G29G02R18R20
                                R16R01R08R09R07R19R10E19E20
 132799586.247 6 103480201.28145                  25270920.500
  25270916.580          40.300          32.850
 116067112.693 8  90441907.85047                  22086829.320
  22086823.740          49.150          42.250
 133609907.288 7 104111610.796 6                  25425120.220    25425117.440
  25425116.420          42.550          36.300
 130368831.108 7 101586124.231 6                  24808351.180    24808349.080
  24808348.560          45.300          40.550
 128564828.534 7 100180391.245 6  96006204.908 8  24465071.280    24465070.720
  24465069.800          42.950          41.800
 110993183.183 8  86488281.957 8  82884621.180 8  21121267.380    21121265.640
  21121265.100          49.950          49.750
 107663834.912 8  83894009.334 8                  20487679.420    20487674.500
  20487673.720          50.200          48.150
 109523846.516 8  85343365.276 8  81787420.370 8  20841650.700    20841649.400
  20841648.560          49.650          48.950
 118227405.952 8  92125405.519 7                  22497861.860    22497858.860
  22497858.000          48.350          44.900
 126613566.472 7  98659911.39646                  24093752.420
  24093745.540          45.900          38.850
 122337893.006 7  95151772.355 6                  22917990.340    22917993.460
  22917992.120          45.850          40.700
 114900413.008 7  89367017.957 7                  21486907.740    21486912.500
  21486910.380          43.900          43.950
 121695797.819 7  94652297.667 6                  22781708.660    22781711.860
  22781710.860          43.700          40.950
 125927851.494 7  97943908.061 5                  23557412.340    23557415.200
  23557414.880          44.400          33.300
 119375316.074 7  92847476.471 7                  22292497.220    22292498.380
  22292497.080          46.450          43.200
 106828860.627 7  83089060.516 6                  20005578.480    20005580.980
  20005578.560          47.550          37.250
 125814080.735 7  97855401.890 6                  23503132.760    23503135.860
  23503135.200          44.850          40.700
 106917765.493 8  83158262.393 7                  19987094.440    19987094.860
  19987093.220          49.050          46.550
 111745227.448 7  86913000.914 6                  20963107.340    20963113.440
  20963112.140          47.850          40.250
 139905354.067 7                 104474811.442 7  26623093.500
                        47.400
 138713418.399 6                                  26396301.620
                        41.000
 15  1 27 21  4 25.0000000  0 21G22G14G31G15G06G24G12G25G29G02R18R20
                                R16R01R08R09R07R19R10E19E20
 132809614.118 6 103488015.19445                  25272828.780
  25272825.120          40.100          35.700
 116058302.660 8  90435042.88947                  22085152.860
  22085147.200          49.150          42.800
 133594582.170 7 104099669.168 5                  25422203.900    25422201.140
  25422200.220          43.000          35.700
 130387012.412 7 101600291.432 6                  24811810.920    24811808.880
  24811808.440          45.300          40.350
 128563398.143 7 100179276.687 6  96005136.770 8  24464799.060    24464798.540
  24464797.740          42.550          41.750
 111001403.551 8  86494687.441 8  82890759.764 8  21122831.740    21122829.940
  21122829.380          49.950          49.850
 107669799.099 8  83898656.756 8                  20488814.380    20488809.460
  20488808.680          50.150          48.150
 109518093.353 8  85338882.302 8  81783124.181 8  20840555.920    20840554.620
  20840553.760          49.700          49.000
 118210247.152 8  92112035.042 7                  22494596.640    22494593.660
  22494592.760          48.350          45.000
 126604722.920 7  98653020.31546                  24092069.560
  24092062.700          46.050          39.250
 122355696.805 7  95165619.763 6                  22921325.560    22921328.780
  22921327.340          45.600          40.350
 114880540.017 7  89351561.187 7                  21483191.380    21483196.200
  21483194.020          43.000          44.050
 121708985.046 7  94662554.392 6                  22784177.320    22784180.520
  22784179.580          43.600          40.950
 125920656.876 7  97938312.237 5                  23556066.380    23556069.360
  23556068.820          43.550          33.350
 119384000.372 7  92854230.925 7                  22294119.000    22294120.120
  22294118.820          46.100          42.700
 106831584.661 7  83091179.215 6                  20006088.600    20006091.020
  20006088.720          47.350          37.250
 125833190.486 7  97870265.004 6                  23506702.720    23506705.740
  23506705.100          43.700          40.300
 106915868.742 8  83156787.147 7                  19986739.900    19986740.260
  19986738.620          49.000          46.350
 111734229.511 7  86904446.979 6                  20961044.120    20961050.220
  20961048.940          47.800          40.450
 139916796.830 7                 104483356.353 7  26625271.000
                        47.650
 138727270.719 6                                  26398937.720
                        41.050
 15  1 27 21  4 30.0000000  0 21G22G14G31G15G06G24G12G25G29G02R18R20
                                R16R01R08R09R07R19R10E19E20
 132819642.733 6 103495829.69645                  25274737.180
  25274733.460          39.900          30.700
 116049503.548 8  90428186.43547                  22083478.460
  22083472.760          49.000          42.950
 133579252.782 7 104087724.230 5                  25419286.780    25419283.980
  25419283.020          43.250          35.400
 130405190.354 7 101614456.038 6                  24815270.080    24815268.100
  24815267.620          45.400          40.250
 128561979.070 7 100178170.904 6  96004077.083 7  24464529.000    24464528.480
  24464527.680          43.850          41.400
 111009630.490 8  86501098.041 8  82896903.262 8  21124397.340    21124395.500
  21124394.920          49.800          49.700
 107675768.107 8  83903307.936 8                  20489950.280    20489945.340
  20489944.540          49.850          48.050
 109512345.905 8  85334403.769 8  81778832.253 8  20839462.220    20839460.920
  20839460.080          49.700          48.900
 118193092.483 8  92098667.779 7                  22491332.200    22491329.240
  22491328.340          48.400          44.850
 126595884.042 7  98646132.87546                  24090387.560
  24090380.660          46.100          38.550
 122373509.647 7  95179474.202 6                  22924662.520    22924665.680
  22924664.240          45.500          40.050
 114860674.502 7  89336110.247 7                  21479476.380    21479481.280
  21479479.080          43.800          44.200
 121722174.476 7  94672812.838 6                  22786646.400    22786649.660
  22786648.680          44.050          41.150
 125913478.480 7  97932729.056 5                  23554723.480    23554726.260
  23554725.740          43.750          32.350
 119392699.258 7  92860996.723 7                  22295743.460    22295744.580
  22295743.300          45.900          42.550
 106834314.066 7  83093302.090 6                  20006599.720    20006602.140
  20006599.860          47.650          36.950
 125852299.447 7  97885127.490 6                  23510272.460    23510275.540
  23510274.860          43.100          40.250
 106913992.514 8  83155327.869 7                  19986389.200    19986389.540
  19986387.820          49.550          46.250
 111723232.230 8  86895893.540 6                  20958981.040    20958987.140
  20958985.880          48.150          40.150
 139928241.811 7                 104491902.934 7  26627448.900
                        47.400
 138741117.028 6                                  26401572.700
                        40.950
 15  1 27 21  4 35.0000000  0 21G22G14G31G15G06G24G12G25G29G02R18R20
                                R16R01R08R09R07R19R10E19E20
 132829676.204 6 103503647.97444                  25276646.600
  25276642.700          40.500          28.550
 116040719.459 8  90421341.68947                  22081806.940
  22081801.180          48.850          43.000
 133563923.257 7 104075779.125 5                  25416369.620    25416366.680
  25416365.840          42.800          35.500
 130423369.122 7 101628621.283 6                  24818729.420    24818727.480
  24818726.920          45.150          39.900
 128560575.498 7 100177077.223 6  96003028.947 7  24464261.900    24464261.420
  24464260.660          43.800          41.700
 111017868.326 8  86507517.133 8  82903054.894 8  21125965.000    21125963.100
  21125962.540          49.850          49.700
 107681746.075 8  83907966.089 8                  20491087.860    20491082.920
  20491082.120          49.750          48.150
 109506608.294 8  85329932.904 8  81774547.682 8  20838370.400    20838369.080
  20838368.240          49.600          48.850
 118175946.119 8  92085306.983 7                  22488069.340    22488066.380
  22488065.500          48.250          45.050
 126587053.987 7  98639252.31346                  24088707.240
  24088700.380          46.000          38.400
 122391335.722 7  95193338.922 6                  22928001.940    22928005.080
  22928003.620          45.350          40.250
 114840820.807 7  89320668.480 7                  21475763.560    21475768.560
  21475766.340          43.150          44.050
 121735370.250 7  94683076.220 6                  22789116.760    22789119.980
  22789119.060          43.900          41.650
 125906320.528 7  97927161.737 5                  23553384.280    23553387.120
  23553386.540          43.500          33.300
 119401417.006 7  92867777.189 7                  22297371.420    22297372.580
  22297371.240          45.300          42.650
 106837053.097 7  83095432.441 6                  20007112.680    20007115.100
  20007112.800          47.600          37.650
 125871412.078 7  97899992.840 6                  23513842.940    23513846.020
  23513845.300          43.100          40.350
 106912140.835 8  83153887.680 7                  19986043.060    19986043.340
  19986041.620          49.650          46.300
 111712239.770 8  86887343.849 6                  20956918.880    20956925.020
  20956923.720          48.100          40.700
 139939693.146 7                 104500454.243 7  26629628.000
                        47.150
 138754961.427 6                                  26404207.300
                        40.900
 15  1 27 21  4 40.0000000  0 21G22G14G31G15G06G24G12G25G29G02R18R20
                                R16R01R08R09R07R19R10E19E20
 132839713.611 6 103511469.29744                  25278556.720
  25278552.960          41.300          29.450
 116031949.506 8  90414507.95847                  22080138.060
  22080132.260          48.950          43.250
 133548592.692 7 104063833.235 5                  25413452.220    25413449.380
  25413448.440          42.400          35.900
 130441547.780 7 101642786.448 6                  24822188.740    24822186.820
  24822186.260          44.700          40.500
 128559186.487 7 100175994.865 6  96001991.696 7  24463997.560    24463997.120
  24463996.420          43.400          41.900
 111026116.075 8  86513943.951 8  82909213.924 8  21127534.540    21127532.580
  21127532.040          49.900          49.650
 107687732.084 8  83912630.511 8                  20492226.980    20492222.020
  20492221.220          49.850          48.350
 109500879.609 8  85325468.996 8  81770269.776 8  20837280.260    20837278.960
  20837278.120          49.750          48.850
 118158807.139 8  92071951.947 7                  22484807.880    22484804.920
  22484804.060          48.350          45.050
 126578231.847 7  98632377.90846                  24087028.420
  24087021.560          45.800          39.650
 122409174.098 7  95207213.221 6                  22931343.680    22931346.780
  22931345.320          45.650          40.500
 114820978.005 7  89305235.192 7                  21472052.800    21472057.820
  21472055.600          43.350          44.150
 121748571.525 7  94693343.868 6                  22791588.140    22791591.300
  22791590.460          44.100          41.500
 125899182.196 7  97921609.700 5                  23552048.820    23552051.640
  23552051.100          43.750          34.300
 119410152.610 7  92874571.561 7                  22299002.680    22299003.860
  22299002.500          46.000          42.950
 106839800.776 7  83097569.523 6                  20007627.260    20007629.700
  20007627.340          47.650          37.250
 125890527.340 7  97914860.245 6                  23517413.840    23517416.940
  23517416.240          43.800          40.750
 106910312.812 8  83152465.885 7                  19985701.340    19985701.580
  19985699.860          49.250          46.450
 111701251.265 8  86878797.231 6                  20954857.440    20954863.620
  20954862.300          48.450          40.300
 139951149.901 7                 104509009.604 7  26631808.160
                        47.350
 138768802.988 6                                  26406841.360
                        40.900
 15  1 27 21  4 45.0000000  0 21G22G14G31G15G06G24G12G25G29G02R18R20
                                R16R01R08R09R07R19R10E19E20
 132849754.031 6 103519293.01244                  25280467.380
  25280463.940          40.400          27.950
 116023192.886 8  90407684.62147                  22078471.720
  22078465.880          48.900          42.400
 133533260.309 7 104051885.946 6                  25410534.540    25410531.660
  25410530.780          43.550          37.300
 130459725.457 7 101656950.817 6                  24825647.840    24825646.060
  24825645.520          44.950          40.250
 128557811.204 7 100174923.227 6  96000964.708 7  24463735.820    24463735.420
  24463734.780          43.550          41.900
 111034372.832 8  86520377.789 8  82915379.685 8  21129105.780    21129103.820
  21129103.240          49.800          49.600
 107693725.302 8  83917300.557 8                  20493367.460    20493362.480
  20493361.700          50.000          48.100
 109495159.067 8  85321011.436 8  81765997.934 8  20836191.680    20836190.380
  20836189.540          49.800          48.800
 118141674.738 8  92058602.035 7                  22481547.680    22481544.720
  22481543.880          48.300          45.100
 126569416.785 7  98625509.04546                  24085350.920
  24085344.040          45.850          37.950
 122427023.850 7  95221096.363 6                  22934687.560    22934690.660
  22934689.160          46.050          40.750
 114801145.171 7  89289809.671 7                  21468343.960    21468348.960
  21468346.740          43.350          44.450
 121761777.448 7  94703615.133 6                  22794060.300    22794063.540
  22794062.700          43.850          41.600
 125892062.545 7  97916072.187 5                  23550716.740    23550719.780
  23550719.220          42.700          34.700
 119418905.286 7  92881379.210 7                  22300637.100    22300638.380
  22300637.020          46.750          43.000
 106842556.382 8  83099712.774 6                  20008143.300    20008145.780
  20008143.380          48.000          37.450
 125909644.438 7  97929729.072 6                  23520985.080    23520988.180
  23520987.500          43.450          40.700
 106908507.685 8  83151061.905 7                  19985363.900    19985364.140
  19985362.380          49.050          46.600
 111690265.834 8  86870253.023 6                  20952796.600    20952802.780
  20952801.460          48.300          40.950
 139962611.230 7                 104517568.385 7  26633989.160
                        47.350
 138782640.942 6                                  26409474.700
                        41.400
 15  1 27 21  4 50.0000000  0 21G22G14G31G15G06G24G12G25G29G02R18R20
                                R16R01R08R09R07R19R10E19E20
 132859798.837 6 103527120.09045                  25282378.880
  25282375.380          39.200          32.150
 116014450.937 8  90400872.71547                  22076808.180
  22076802.340          49.000          42.300
 133517927.403 7 104039938.251 6                  25407616.780    25407613.880
  25407613.040          43.500          37.450
 130477903.521 7 101671115.511 6                  24829107.040    24829105.260
  24829104.760          45.550          40.500
 128556450.978 7 100173863.347 6  95999948.980 8  24463476.940    24463476.580
  24463475.960          42.900          41.850
 111042640.082 8  86526819.803 8  82921553.282 8  21130678.980    21130677.020
  21130676.460          49.850          49.650
 107699727.057 8  83921977.251 8                  20494509.560    20494504.580
  20494503.800          50.200          48.300
 109489447.971 8  85316561.232 8  81761733.164 8  20835104.900    20835103.580
  20835102.760          49.800          48.850
 118124550.286 8  92045258.312 7                  22478288.980    22478286.040
  22478285.200          48.400          45.250
 126560610.226 7  98618646.78546                  24083675.020
  24083668.160          45.800          38.650
 122444886.389 7  95234989.458 6                  22938033.860    22938036.920
  22938035.420          46.100          40.700
 114781323.927 7  89274393.150 7                  21464637.280    21464642.260
  21464640.040          43.550          44.100
 121774989.376 7  94713891.081 6                  22796533.620    22796536.880
  22796536.040          43.850          41.200
 125884963.124 7  97910550.442 5                  23549388.520    23549391.680
  23549391.160          42.850          34.500
 119427676.365 7  92888201.131 7                  22302275.000    22302276.260
  22302274.980          46.700          43.200
 106845321.157 7  83101863.150 6                  20008661.080    20008663.520
  20008661.120          47.600          37.600
 125928764.590 7  97944600.241 6                  23524556.840    23524560.020
  23524559.320          43.700          40.750
 106906726.755 8  83149676.738 7                  19985030.980    19985031.220
  19985029.420          49.050          46.550
 111679284.680 8  86861712.113 6                  20950736.540    20950742.740
  20950741.400          48.350          40.400
 139974078.509 7                 104526131.597 7  26636171.320
                        47.250
 138796476.565 6                                  26412107.600
                        40.900
 15  1 27 21  4 55.0000000  0 21G22G14G31G15G06G24G12G25G29G02R18R20
                                R16R01R08R09R07R19R10E19E20
 132869845.761 6 103534948.89344                  25284290.800
  25284287.260          40.550          28.150
 116005721.453 8  90394070.51647                  22075147.000
  22075141.200          48.900          42.750
 133502591.733 7 104027988.391 6                  25404698.520    25404695.640
  25404694.820          44.000          37.750
 130496079.672 7 101685278.706 6                  24832565.880    24832564.080
  24832563.620          45.450          40.550
 128555103.642 7 100172813.479 6  95998942.860 8  24463220.480    24463220.240
  24463219.600          43.700          41.650
 111050915.505 8  86533268.180 8  82927732.974 8  21132253.740    21132251.800
  21132251.240          49.700          49.650
 107705735.120 8  83926658.863 8                  20495652.880    20495647.860
  20495647.120          50.200          48.300
 109483744.061 8  85312116.636 8  81757473.757 8  20834019.480    20834018.160
  20834017.360          49.650          48.900
 118107431.634 8  92031919.113 7                  22475031.420    22475028.420
  22475027.660          48.250          45.250
 126551809.862 7  98611789.37546                  24082000.320
  24081993.520          45.750          39.050
 122462759.391 7  95248890.685 6                  22941382.080    22941385.140
  22941383.660          45.950          40.650
 114761511.726 7  89258983.662 7                  21460932.280    21460937.220
  21460935.020          43.400          44.150
 121788205.056 7  94724169.952 6                  22799007.600    22799010.860
  22799010.020          43.400          41.050
 125877881.533 7  97905042.528 5                  23548063.680    23548066.840
  23548066.520          42.850          35.600
 119436463.551 7  92895035.603 7                  22303916.020    22303917.260
  22303915.960          46.200          43.200
 106848092.935 7  83104018.978 6                  20009180.140    20009182.480
  20009180.160          47.700          37.700
 125947885.531 7  97959472.026 6                  23528128.840    23528132.120
  23528131.280          43.800          40.500
 106904967.758 8  83148308.627 7                  19984702.140    19984702.380
  19984700.580          49.200          46.650
 111668305.760 8  86853172.967 6                  20948676.920    20948683.140
  20948681.760          48.150          40.450
 139985549.439 7                 104534697.559 7  26638354.140
                        47.200
 138810307.621 6                                  26414739.680
                        41.750
 15  1 27 21  5  0.0000000  0 21G22G14G31G15G06G24G12G25G29G02R18R20
                                R16R01R08R09R07R19R10E19E20
 132879895.819 7 103542780.06444                  25286203.240
  25286199.760          42.600          28.600
 115997005.349 8  90387278.74647                  22073488.360
  22073482.540          48.900          42.750
 133487254.258 7 104016037.115 6                  25401779.920    25401777.120
  25401776.300          43.250          38.500
 130514254.903 7 101699441.185 6                  24836024.500    24836022.720
  24836022.280          45.300          39.050
 128553770.100 7 100171774.356 6  95997947.043 7  24462966.660    24462966.500
  24462965.760          43.850          41.300
 111059200.034 8  86539723.657 8  82933919.468 8  21133830.220    21133828.300
  21133827.740          49.650          49.600
 107711750.402 8  83931346.096 8                  20496797.560    20496792.520
  20496791.800          50.250          48.300
 109478048.319 8  85307678.409 8  81753220.447 8  20832935.640    20832934.280
  20832933.500          49.750          48.750
 118090319.647 8  92018585.109 7                  22471775.120    22471772.120
  22471771.360          48.400          45.150
 126543016.706 7  98604937.57546                  24080326.940
  24080320.240          45.750          39.000
 122480643.856 7  95262800.823 6                  22944732.460    22944735.520
  22944734.060          45.650          40.650
 114741709.774 7  89243582.154 7                  21457229.220    21457234.100
  21457231.900          43.550          43.950
 121801425.356 7  94734452.399 6                  22801482.380    22801485.720
  22801484.860          43.050          40.550
 125870818.692 7  97899549.232 5                  23546742.360    23546745.680
  23546745.340          43.350          35.100
 119445267.712 7  92901883.283 7                  22305560.160    22305561.460
  22305560.140          45.700          42.950
 106850872.577 7  83106180.925 6                  20009700.700    20009703.000
  20009700.700          47.300          37.250
 125967008.341 7  97974345.266 6                  23531701.180    23531704.460
  23531703.560          44.050          39.850
 106903231.661 8  83146958.329 7                  19984377.580    19984377.840
  19984376.040          49.000          46.350
 111657330.112 7  86844636.350 6                  20946617.940    20946624.120
  20946622.780          47.950          40.400
 139997025.000 7                 104543266.967 7  26640537.820
                        46.700
 138824135.065 6                                  26417371.040
                        41.150
 15  1 27 21  5  5.0000000  0 21G22G14G31G15G06G24G12G25G29G02R18R20
                                R16R01R08R09R07R19R10E19E20
 132889950.428 6 103550614.80045                  25288116.600
  25288113.100          40.900          33.250
 115988304.140 8  90380498.58147                  22071832.540
  22071826.740          48.700          42.350
 133471916.431 7 104004085.588 6                  25398861.240    25398858.520
  25398857.600          43.350          38.350
 130532430.649 7 101713604.084 6                  24839483.260    24839481.540
  24839480.980          45.300          38.800
 128552451.885 7 100170747.181 6  95996962.668 7  24462715.760    24462715.700
  24462714.860          43.850          41.050
 111067495.042 8  86546187.293 8  82940113.792 8  21135408.640    21135406.800
  21135406.240          49.650          49.650
 107717774.383 8  83936040.105 8                  20497943.900    20497938.840
  20497938.120          50.300          48.300
 109472362.227 8  85303247.689 8  81748974.353 8  20831853.600    20831852.240
  20831851.480          49.750          48.850
 118073215.815 8  92005257.454 7                  22468520.400    22468517.400
  22468516.640          48.550          45.300
 126534232.260 7  98598092.54246                  24078655.280
  24078648.620          45.850          38.900
 122498541.210 7  95276720.983 6                  22948085.240    22948088.280
  22948086.860          45.800          40.700
 114721919.486 7  89228189.713 7                  21453528.360    21453533.180
  21453530.960          43.700          43.400
 121814651.787 7  94744739.604 6                  22803958.420    22803961.660
  22803960.880          43.850          40.600
 125863776.287 7  97894071.799 5                  23545424.960    23545428.140
  23545427.920          43.200          35.050
 119454090.439 7  92908745.400 7                  22307207.720    22307209.100
  22307207.760          45.700          42.900
 106853661.662 7  83108350.209 6                  20010223.000    20010225.220
  20010223.000          47.550          37.050
 125986134.386 7  97989221.030 6                  23535274.060    23535277.460
  23535276.480          44.000          39.950
 106901519.938 8  83145626.997 7                  19984057.580    19984057.840
  19984056.060          49.000          46.450
 111646359.044 8  86836103.295 6                  20944559.780    20944565.980
  20944564.640          48.150          40.450
 140008506.661 7                 104551840.910 7  26642722.660
                        46.700
 138837960.388 6                                  26420002.020
                        41.200
 15  1 27 21  5 10.0000000  0 21G22G14G31G15G06G24G12G25G29G02R18R20
                                R16R01R08R09R07R19R10E19E20
 132900007.783 6 103558451.63245                  25290030.500
  25290026.820          39.600          34.700
 115979616.069 8  90373728.66247                  22070179.220
  22070173.460          48.650          42.600
 133456576.517 6 103992132.405 6                  25395942.160    25395939.460
  25395938.540          41.950          38.900
 130550605.131 7 101727766.004 6                  24842941.760    24842940.000
  24842939.540          44.950          38.900
 128551147.215 7 100169730.545 6  95995988.393 7  24462467.500    24462467.480
  24462466.600          44.350          41.500
 111075798.917 8  86552657.844 8  82946314.740 8  21136988.760    21136986.980
  21136986.440          49.350          49.700
 107723805.345 8  83940739.554 8                  20499091.560    20499086.500
  20499085.780          50.050          48.450
 109466683.985 8  85298823.091 8  81744734.121 8  20830773.060    20830771.700
  20830770.940          49.650          48.850
 118056118.444 8  91991934.837 7                  22465266.860    22465263.880
  22465263.120          48.450          45.250
 126525454.759 7  98591252.93946                  24076984.960
  24076978.300          45.850          38.650
 122516449.672 7  95290649.793 6                  22951440.100    22951443.200
  22951441.760          45.900          40.850
 114702139.084 7  89212804.957 7                  21449829.360    21449834.060
  21449831.900          43.650          43.450
 121827882.662 7  94755030.289 6                  22806435.220    22806438.480
  22806437.720          44.000          40.600
 125856752.311 7  97888608.686 5                  23544111.000    23544114.180
  23544114.020          43.650          35.850
 119462929.929 7  92915620.543 7                  22308858.400    22308859.780
  22308858.500          45.700          42.900
 106856458.329 7  83110525.393 6                  20010746.740    20010748.860
  20010746.720          47.500          37.150
 126005261.810 7  98004097.875 6                  23538847.260    23538850.620
  23538849.640          44.700          40.100
 106899830.905 8  83144313.313 7                  19983741.800    19983742.100
  19983740.340          48.900          46.600
 111635390.820 8  86827572.462 6                  20942502.160    20942508.400
  20942507.020          48.300          40.600
 140019992.613 7                 104560418.088 7  26644908.300
                        46.600
 138851781.806 6                                  26422632.240
                        40.750
 15  1 27 21  5 15.0000000  0 21G22G14G31G15G06G24G12G25G29G02R18R20
                                R16R01R08R09R07R19R10E19E20
 132910069.455 6 103566291.95345                  25291945.120
  25291941.780          39.000          32.100
 115970942.814 8  90366970.28247                  22068528.720
  22068523.000          48.800          42.200
 133441236.207 7 103980178.936 6                  25393022.960    25393020.340
  25393019.400          42.350          39.850
 130568780.039 7 101741928.223 6                  24846400.300    24846398.620
  24846398.180          45.000          38.400
 128549857.727 7 100168725.753 6  95995025.464 7  24462222.120    24462222.080
  24462221.300          43.450          41.250
 111084113.206 8  86559136.506 8  82952523.456 8  21138570.840    21138569.120
  21138568.580          49.250          49.800
 107729844.903 8  83945445.698 8                  20500240.860    20500235.800
  20500235.080          49.850          48.450
 109461015.281 8  85294405.924 8  81740500.996 8  20829694.320    20829693.000
  20829692.220          49.600          48.950
 118039029.158 8  91978618.517 7                  22462014.880    22462011.880
  22462011.140          48.500          45.550
 126516685.833 7  98584420.02946                  24075316.320
  24075309.640          46.450          38.250
 122534370.912 7  95304588.516 6                  22954797.340    22954800.540
  22954799.060          45.650          41.050
 114682370.366 7  89197429.292 7                  21446132.560    21446137.100
  21446134.960          44.050          43.100
 121841119.629 7  94765325.708 6                  22808913.220    22808916.440
  22808915.680          43.750          40.900
 125849748.795 7  97883161.536 5                  23542800.920    23542804.060
  23542803.920          43.900          35.500
 119471787.800 7  92922509.990 7                  22310512.600    22310513.920
  22310512.660          46.200          43.200
 106859264.366 7  83112707.866 6                  20011272.240    20011274.340
  20011272.200          47.550          36.850
 126024392.459 7  98018977.205 6                  23542421.060    23542424.440
  23542423.400          44.950          40.000
 106898166.184 8  83143018.534 7                  19983430.560    19983430.900
  19983429.160          48.900          46.650
 111624427.243 8  86819045.238 6                  20940445.400    20940451.700
  20940450.260          48.300          40.500
 140031484.545 7                 104568999.713 7  26647095.100
                        46.700
 138865600.899 6                                  26425262.040
                        40.650
 15  1 27 21  5 20.0000000  0 21G22G14G31G15G06G24G12G25G29G02R18R20
                                R16R01R08R09R07R19R10E19E20
 132920134.624 6 103574134.93645                  25293860.420
  25293857.120          39.000          35.200
 115962283.393 8  90360222.68147                  22066880.840
  22066875.180          48.650          42.650
 133425894.514 6 103968224.391 6                  25390103.500    25390100.880
  25390099.980          40.850          39.900
 130586954.351 7 101756090.020 6                  24849858.760    24849857.100
  24849856.660          44.950          39.450
 128548582.479 7 100167732.074 6  95994073.176 7  24461979.480    24461979.440
  24461978.600          44.200          41.000
 111092437.101 8  86565622.660 8  82958739.351 8  21140154.740    21140153.100
  21140152.560          49.150          49.850
 107735892.082 8  83950157.786 8                  20501391.600    20501386.520
  20501385.800          49.750          48.450
 109455355.153 8  85289995.443 8  81736274.275 8  20828617.220    20828615.900
  20828615.100          49.700          48.950
 118021946.992 8  91965307.757 7                  22458764.220    22458761.260
  22458760.540          48.800          45.500
 126507924.578 7  98577593.06446                  24073649.120
  24073642.480          46.650          38.950
 122552303.918 7  95318536.404 6                  22958156.780    22958160.060
  22958158.560          45.650          41.000
 114662612.241 7  89182061.855 7                  21442437.720    21442442.160
  21442440.000          43.350          43.000
 121854361.721 7  94775625.109 6                  22811392.200    22811395.320
  22811394.640          44.250          41.150
 125842764.459 7  97877729.258 5                  23541494.420    23541497.520
  23541497.340          43.600          35.550
 119480663.089 7  92929412.988 7                  22312170.000    22312171.280
  22312170.060          46.000          42.900
 106862078.733 7  83114896.812 6                  20011799.280    20011801.340
  20011799.220          47.350          37.300
 126043525.218 7  98033858.208 6                  23545995.240    23545998.640
  23545997.560          44.400          40.300
 106896524.776 8  83141741.877 7                  19983123.680    19983124.040
  19983122.360          48.650          46.650
 111613467.305 8  86810520.836 6                  20938389.340    20938395.580
  20938394.180          48.050          40.200
 140042981.454 7                 104577585.056 7  26649282.840
                        46.850
 138879416.800 6                                  26427891.220
                        40.600
 15  1 27 21  5 25.0000000  0 21G22G14G31G15G06G24G12G25G29G02R18R20
                                R16R01R08R09R07R19R10E19E20
 132930202.082 6 103581979.68244                  25295776.160
  25295772.660          40.750          29.500
 115953636.663 8  90353484.96547                  22065235.360
  22065229.780          48.600          42.600
 133410550.307 6 103956267.912 6                  25387183.520    25387180.980
  25387180.180          41.850          39.600
 130605126.921 7 101770250.421 6                  24853316.860    24853315.260
  24853314.760          44.350          39.150
 128547320.309 7 100166748.563 6  95993130.649 7  24461739.340    24461739.240
  24461738.360          44.400          41.550
 111100769.480 8  86572115.425 8  82964961.582 8  21141740.240    21141738.700
  21141738.160          49.100          49.850
 107741945.715 8  83954874.899 8                  20502543.580    20502538.500
  20502537.740          49.650          48.350
 109449702.390 8  85285590.694 8  81732053.068 8  20827541.520    20827540.220
  20827539.420          49.700          49.050
 118004870.784 8  91952001.626 7                  22455514.700    22455511.760
  22455511.040          48.700          45.550
 126499169.815 7  98570771.17346                  24071983.200
  24071976.540          46.550          39.550
 122570247.473 7  95332492.509 6                  22961518.180    22961521.520
  22961520.020          45.650          40.750
 114642863.602 7  89166701.815 7                  21438744.660    21438749.040
  21438746.840          43.300          43.000
 121867607.724 7  94785927.560 6                  22813871.880    22813875.020
  22813874.340          44.000          41.100
 125835798.343 7  97872311.162 6                  23540191.300    23540194.440
  23540194.260          43.950          36.600
 119489554.592 7  92936328.601 7                  22313830.440    22313831.640
  22313830.460          45.750          42.950
 106864900.271 7  83117091.341 6                  20012327.680    20012329.700
  20012327.600          47.150          36.850
 126062658.672 7  98048739.758 6                  23549569.580    23549573.020
  23549571.860          44.300          40.000
 106894905.495 8  83140482.442 7                  19982820.960    19982821.340
  19982819.700          48.700          46.750
 111602509.720 8  86801998.289 6                  20936333.720    20936340.060
  20936338.580          48.000          40.650
 140054482.175 7                 104586173.255 7  26651471.320
                        46.850
 138893228.274 6                                  26430519.500
                        40.150
 15  1 27 21  5 30.0000000  0 21G22G14G31G15G06G24G12G25G29G02R18R20
                                R16R01R08R09R07R19R10E19E20
 132940271.952 6 103589826.25445                  25297692.360
  25297688.760          38.150          35.050
 115945002.882 8  90346757.34547                  22063592.300
  22063586.860          48.550          43.150
 133395203.775 6 103944309.573 6                  25384263.140    25384260.620
  25384259.860          41.800          39.450
 130623297.885 7 101784409.570 6                  24856774.680    24856773.140
  24856772.640          44.350          39.250
 128546071.389 7 100165775.362 6  95992198.022 7  24461501.740    24461501.500
  24461500.720          44.400          41.500
 111109110.277 8  86578614.750 8  82971190.108 8  21143327.380    21143325.900
  21143325.360          49.150          49.850
 107748005.969 8  83959597.176 8                  20503696.800    20503691.740
  20503690.940          49.850          48.250
 109444057.195 8  85281191.843 8  81727837.510 8  20826467.260    20826465.980
  20826465.160          49.800          48.950
 117987800.736 8  91938700.305 7                  22452266.380    22452263.440
  22452262.740          48.800          45.750
 126490421.715 7  98563954.47646                  24070318.520
  24070311.860          46.400          39.250
 122588201.721 7  95346456.930 6                  22964881.640    22964884.920
  22964883.460          45.600          40.650
 114623124.680 7  89151349.330 7                  21435053.340    21435057.740
  21435055.500          43.700          43.400
 121880857.827 7  94796233.195 6                  22816352.440    22816355.480
  22816354.800          44.200          40.850
 125828850.371 7  97866907.206 5                  23538891.560    23538894.760
  23538894.560          44.150          35.800
 119498462.449 7  92943256.931 7                  22315493.920    22315495.160
  22315493.940          45.800          42.950
 106867729.149 7  83119291.590 6                  20012857.460    20012859.460
  20012857.320          47.400          36.850
 126081793.424 7  98063622.312 6                  23553144.120    23553147.620
  23553146.420          44.800          40.400
 106893308.531 8  83139240.366 7                  19982522.400    19982522.840
  19982521.180          48.850          46.700
 111591554.724 8  86793477.731 6                  20934278.600    20934284.940
  20934283.460          48.000          40.600
 140065986.859 7                 104594764.422 7  26653660.580
                        46.950
 138907035.469 6                                  26433146.960
                        40.950
 15  1 27 21  5 35.0000000  0 21G22G14G31G15G06G24G12G25G29G02R18R20
                                R16R01R08R09R07R19R10E19E20
 132950347.930 5 103597677.63945                  25299609.760
  25299606.120          35.300          32.900
 115936385.648 8  90340042.62447                  22061952.440
  22061947.100          48.350          42.950
 133379858.517 6 103932352.253 6                  25381343.060    25381340.560
  25381339.800          41.850          39.750
 130641470.938 7 101798570.346 6                  24860232.880    24860231.400
  24860230.860          45.050          38.750
 128544839.412 7 100164815.380 6  95991278.031 7  24461267.360    24461267.040
  24461266.260          44.050          41.200
 111117463.316 8  86585123.609 8  82977427.751 8  21144916.820    21144915.420
  21144914.900          48.950          49.800
 107754076.520 8  83964327.482 8                  20504852.000    20504846.920
  20504846.100          49.800          48.150
 109438423.242 8  85276801.752 8  81723630.330 8  20825395.140    20825393.880
  20825393.060          49.600          49.000
 117970740.513 8  91925406.639 7                  22449019.920    22449016.980
  22449016.280          48.750          45.600
 126481684.013 7  98557145.88346                  24068655.820
  24068649.160          46.250          40.450
 122606170.418 7  95360432.587 6                  22968247.820    22968251.020
  22968249.600          45.550          40.600
 114603399.145 7  89136007.260 7                  21431364.600    21431368.940
  21431366.700          43.750          43.550
 121894115.734 7  94806544.900 6                  22818834.380    22818837.440
  22818836.760          44.400          41.200
 125821924.566 7  97861520.469 5                  23537595.960    23537599.300
  23537598.980          44.300          35.300
 119507390.422 7  92950200.916 7                  22317161.140    22317162.460
  22317161.220          45.900          42.750
 106870569.145 7  83121500.480 6                  20013389.300    20013391.320
  20013389.160          47.550          36.800
 126100932.780 7  98078508.434 6                  23556719.540    23556723.120
  23556721.860          45.000          40.700
 106891737.693 8  83138018.595 7                  19982228.740    19982229.200
  19982227.540          48.500          46.600
 111580606.142 8  86784962.162 6                  20932224.660    20932231.020
  20932229.540          48.300          40.600
 140077499.202 7                 104603361.274 7  26655851.340
                        46.950
 138920842.106 6                                  26435774.380
                        40.500
 15  1 27 21  5 40.0000000  0 21G22G14G31G15G06G24G12G25G29G02R18R20
                                R16R01R08R09R07R19R10E19E20
 132960426.537 6 103605531.09445                  25301527.560
  25301524.100          38.800          31.650
 115927781.673 8  90333338.22647                  22060315.100
  22060309.820          49.050          42.000
 133364511.320 7 103920393.409 6                  25378422.600    25378420.060
  25378419.160          42.750          39.950
 130659642.732 7 101812730.167 6                  24863690.880    24863689.440
  24863688.880          45.400          38.800
 128543621.066 7 100163866.040 7  95990368.231 7  24461035.540    24461035.200
  24461034.440          44.950          42.000
 111125825.265 8  86591639.405 8  82983672.056 8  21146507.960    21146506.620
  21146506.100          49.650          49.800
 107760154.050 8  83969063.220 8                  20506008.520    20506003.440
  20506002.600          50.600          48.150
 109432797.254 8  85272417.867 8  81719429.104 8  20824324.540    20824323.280
  20824322.460          50.100          49.100
 117953686.851 8  91912118.080 7                  22445774.740    22445771.760
  22445771.060          49.400          45.650
 126472953.373 7  98550342.78946                  24066994.460
  24066987.820          47.300          38.900
 122624150.138 7  95374416.827 6                  22971616.100    22971619.280
  22971617.820          46.050          40.400
 114583683.764 7  89120673.077 7                  21427677.720    21427682.080
  21427679.800          44.650          43.700
 121907378.253 7  94816860.187 6                  22821317.200    22821320.220
  22821319.560          45.450          41.250
 125815017.364 7  97856148.192 5                  23536303.800    23536307.100
  23536306.880          44.600          35.700
 119516335.046 7  92957157.833 7                  22318831.460    22318832.780
  22318831.620          46.800          42.900
 106873416.884 8  83123715.386 6                  20013922.560    20013924.560
  20013922.400          48.100          37.150
 126120073.598 7  98093395.689 6                  23560295.240    23560298.860
  23560297.580          45.850          40.300
 106890189.574 8  83136814.502 7                  19981939.340    19981939.780
  19981938.140          49.350          46.550
 111569660.599 8  86776448.962 6                  20930171.300    20930177.600
  20930176.180          48.600          40.500
 140089015.877 7                 104611961.389 7  26658042.920
                        47.850
 138934644.871 6                                  26438401.000
                        41.700
 15  1 27 21  5 45.0000000  0 21G22G14G31G15G06G24G12G25G29G02R18R20
                                R16R01R08R09R07R19R10E19E20
 132970508.391 6 103613387.14644                  25303446.100
  25303442.560          40.600          26.200
 115919191.312 8  90326644.44447                  22058680.340
  22058675.120          48.900          42.850
 133349162.499 7 103908433.307 6                  25375501.840    25375499.300
  25375498.440          42.300          40.000
 130677813.649 7 101826889.297 6                  24867148.680    24867147.240
  24867146.740          45.100          38.200
 128542416.704 7 100162927.586 6  95989468.887 7  24460806.400    24460805.980
  24460805.240          44.850          41.550
 111134196.455 8  86598162.409 8  82989923.271 8  21148100.880    21148099.600
  21148099.080          49.750          49.700
 107766238.903 8  83973804.670 8                  20507166.420    20507161.360
  20507160.500          50.500          48.150
 109427179.539 8  85268040.433 8  81715234.066 8  20823255.520    20823254.280
  20823253.420          50.000          49.000
 117936640.057 8  91898834.870 7                  22442530.860    22442527.840
  22442527.180          49.200          45.650
 126464230.148 7  98543545.48146                  24065334.480
  24065327.940          47.150          38.750
 122642141.317 7  95388409.972 6                  22974986.480    22974989.580
  22974988.160          45.950          40.250
 114563978.828 7  89105347.034 7                  21423992.800    21423997.180
  21423994.880          44.250          43.550
 121920645.442 7  94827179.103 6                  22823800.860    22823803.940
  22823803.240          45.250          40.700
 125808129.179 7  97850790.700 6                  23535015.120    23535018.620
  23535018.360          43.600          36.100
 119525296.831 7  92964128.087 7                  22320505.020    22320506.380
  22320505.200          46.850          42.750
 106876272.675 8  83125936.562 6                  20014457.360    20014459.420
  20014457.160          48.300          36.600
 126139216.195 7  98108284.348 6                  23563871.300    23563874.820
  23563873.660          46.150          39.700
 106888664.482 8  83135628.323 7                  19981654.220    19981654.700
  19981653.040          49.650          46.350
 111558718.319 8  86767938.293 6                  20928118.540    20928124.880
  20928123.460          48.600          40.300
 140100537.225 7                 104620564.985 7  26660235.360
                        47.850
 138948444.095 6                                  26441026.920
                        40.850
 15  1 27 21  5 50.0000000  0 21G22G14G31G15G06G24G12G25G29G02R18R20
                                R16R01R08R09R07R19R10E19E20
 132980593.308 6 103621245.44745                  25305365.180
  25305361.520          40.750          31.650
 115910614.558 8  90319961.26147                  22057048.200
  22057043.040          48.700          42.750
 133333812.065 7 103896471.952 6                  25372580.740    25372578.220
  25372577.260          42.300          39.950
 130695983.625 7 101841047.687 6                  24870606.340    24870604.840
  24870604.360          45.250          38.250
 128541226.336 7 100162000.037 6  95988579.976 7  24460579.900    24460579.440
  24460578.720          44.600          41.300
 111142576.900 8  86604692.631 8  82996181.403 8  21149695.560    21149694.360
  21149693.820          49.800          49.700
 107772331.073 8  83978551.818 8                  20508325.720    20508320.660
  20508319.780          50.350          48.000
 109421570.062 8  85263669.412 8  81711045.180 8  20822188.080    20822186.820
  20822185.980          50.000          48.850
 117919600.171 8  91885557.041 7                  22439288.260    22439285.240
  22439284.600          48.950          45.550
 126455514.328 7  98536753.93446                  24063675.940
  24063669.440          46.700          39.350
 122660143.815 7  95402411.910 6                  22978358.960    22978362.000
  22978360.640          45.600          40.400
 114544284.450 7  89090029.178 7                  21420309.740    21420314.200
  21420311.920          44.350          43.950
 121933917.542 7  94837501.825 6                  22826285.420    22826288.520
  22826287.760          45.550          40.150
 125801260.085 7  97845448.076 5                  23533730.120    23533733.600
  23533733.540          43.350          35.800
 119534275.582 7  92971111.548 7                  22322181.760    22322183.120
  22322181.920          46.900          42.450
 106879136.546 8  83128164.000 6                  20014993.660    20014995.740
  20014993.400          48.150          36.850
 126158360.449 7  98123174.303 6                  23567447.640    23567451.200
  23567450.040          46.150          39.750
 106887162.383 8  83134460.018 7                  19981373.420    19981373.860
  19981372.220          49.550          46.150
 111547779.301 8  86759430.172 6                  20926066.400    20926072.800
  20926071.340          48.600          40.400
 140112063.196 7                 104629172.046 7  26662428.720
                        47.700
 138962239.693 6                                  26443652.260
                        41.050
 15  1 27 21  5 55.0000000  0 21G22G14G31G15G06G24G12G25G29G02R18R20
                                R16R01R08R09R07R19R10E19E20
 132990681.126 6 103629106.06245                  25307284.840
  25307280.960          40.850          31.850
 115902051.293 8  90313288.59447                  22055418.580
  22055413.540          48.700          42.750
 133318459.828 7 103884509.191 6                  25369659.300    25369656.780
  25369655.880          42.400          39.450
 130714152.532 7 101855205.279 6                  24874063.760    24874062.200
  24874061.820          44.700          38.850
 128540049.826 7 100161083.286 6  95987701.407 7  24460356.020    24460355.600
  24460354.700          44.450          41.400
 111150966.393 8  86611229.907 8  83002446.282 8  21151291.960    21151290.840
  21151290.280          49.650          49.700
 107778430.409 8  83983304.553 8                  20509486.400    20509481.340
  20509480.440          50.300          48.100
 109415968.765 8  85259304.769 8  81706862.389 8  20821122.180    20821120.900
  20821120.060          49.900          48.900
 117902567.075 8  91872284.508 7                  22436046.960    22436043.920
  22436043.320          49.000          45.650
 126446805.838 7  98529968.10646                  24062018.780
  24062012.320          46.950          39.200
 122678157.552 7  95416422.582 6                  22981733.480    22981736.520
  22981735.220          44.800          40.350
 114524600.459 7  89074719.427 7                  21416628.720    21416633.240
  21416630.960          43.650          43.950
 121947194.250 7  94847828.155 6                  22828770.880    22828773.920
  22828773.140          44.900          40.000
 125794409.789 6  97840120.050 6                  23532448.540    23532452.120
  23532452.180          41.150          36.200
 119543271.194 7  92978108.147 7                  22323861.600    22323862.980
  22323861.800          46.700          42.700
 106882008.323 7  83130397.606 6                  20015531.440    20015533.560
  20015531.140          47.900          36.550
 126177506.263 7  98138065.461 6                  23571024.240    23571027.780
  23571026.680          45.350          40.000
 106885683.238 8  83133309.572 7                  19981096.900    19981097.340
  19981095.700          49.100          46.100
 111536843.560 8  86750924.602 6                  20924014.840    20924021.260
  20924019.840          48.350          40.300
 140123593.693 7                 104637782.473 7  26664622.900
                        47.550
 138976031.618 6                                  26446276.820
                        41.250
 15  1 27 21  6  0.0000000  0 21G22G14G31G15G06G24G12G25G29G02R18R20
                                R16R01R08R09R07R19R10E19E20
 133000771.759 6 103636968.91345                  25309204.980
  25309201.000          40.100          31.250
 115893501.461 8  90306626.38447                  22053791.560
  22053786.600          48.650          42.950
 133303105.742 7 103872544.984 6                  25366737.500    25366734.940
  25366734.040          42.850          38.650
 130732320.235 7 101869361.896 6                  24877520.960    24877519.440
  24877519.040          44.000          39.400
 128538887.078 7 100160177.230 6  95986833.124 7  24460134.720    24460134.360
  24460133.440          44.750          40.850
 111159364.954 8  86617774.238 8  83008717.937 8  21152890.120    21152889.020
  21152888.460          49.650          49.750
 107784536.831 8  83988062.806 8                  20510648.400    20510643.360
  20510642.440          50.150          48.150
 109410375.499 8  85254946.382 8  81702685.596 8  20820057.800    20820056.540
  20820055.680          49.900          48.850
 117885540.705 8  91859017.211 7                  22432806.940    22432803.900
  22432803.300          48.850          45.600
 126438104.584 7  98523187.91946                  24060362.980
  24060356.580          47.100          38.550
 122696182.315 7  95430441.857 6                  22985110.120    22985113.180
  22985111.900          44.600          40.800
 114504926.752 7  89059417.669 7                  21412949.620    21412954.200
  21412951.900          43.900          43.850
                                                  22831257.180    22831260.220
  22831259.380          44.900          40.250
 125787578.198 6  97834806.637 5                  23531170.280    23531174.160
  23531174.240          40.400          35.550
 119552283.649 7  92985117.831 7                  22325544.580    22325545.940
  22325544.780          46.450          42.350
 106884887.957 7  83132637.328 6                  20016070.700    20016072.780
  20016070.380          47.400          36.700
 126196653.448 7  98152957.674 6                  23574601.140    23574604.700
  23574603.600          44.750          40.150
 106884226.895 8  83132176.878 7                  19980824.660    19980825.080
  19980823.440          49.100          46.600
 111525910.995 8  86742421.498 6                  20921963.900    20921970.340
  20921968.920          48.100          40.600
 140135128.606 7                 104646396.209 7  26666817.900
                        47.650
 138989819.783 6                                  26448900.720
                        41.200
 15  1 27 21  6  5.0000000  0 21G22G14G31G15G06G24G12G25G29G02R18R20
                                R16R01R08R09R07R19R10E19E20
 133010866.960 6 103644835.31445                  25311126.000
  25311122.120          39.850          32.700
 115884966.839 8  90299976.03447                  22052167.420
  22052162.540          48.400          43.250
 133287751.584 7 103860580.738 6                  25363815.640    25363813.180
  25363812.220          42.850          38.500
 130750488.580 7 101883519.002 6                  24880978.280    24880976.780
  24880976.340          43.200          39.800
 128537739.899 7 100159283.322 6  95985976.460 8  24459916.400    24459916.040
  24459915.100          43.850          40.500
 111167774.359 8  86624327.013 8  83014997.683 8  21154490.380    21154489.280
  21154488.740          49.600          49.800
 107790652.066 8  83992827.918 8                  20511812.080    20511807.060
  20511806.140          50.050          48.350
 109404792.058 8  85250595.641 8  81698516.140 8  20818995.320    20818994.040
  20818993.160          49.700          48.900
 117868522.829 8  91845756.537 7                  22429568.540    22429565.500
  22429564.920          48.750          45.700
 126429412.354 7  98516414.76146                  24058708.920
  24058702.520          47.000          38.550
 122714220.036 7  95444471.198 6                  22988489.120    22988492.260
  22988491.000          44.550          40.950
 114485265.175 7  89044125.331 7                  21409272.820    21409277.420
  21409275.120          43.600          44.200
 121973765.317 7  94868495.972 6                  22833744.680    22833747.680
  22833746.800          45.250          40.100
 125780767.435 6  97829509.384 5                  23529895.880    23529900.020
  23529900.160          39.850          34.800
 119561314.603 7  92992141.904 7                  22327231.000    22327232.400
  22327231.260          46.350          42.650
 106887777.380 7  83134884.654 6                  20016611.780    20016613.900
  20016611.420          47.400          36.700
 126215804.011 7  98167852.504 6                  23578178.640    23578182.220
  23578181.160          43.900          40.100
 106882795.231 8  83131063.357 7                  19980557.000    19980557.440
  19980555.800          49.050          46.450
 111514983.245 8  86733922.139 6                  20919913.860    20919920.340
  20919918.920          48.300          40.650
 140146669.686 7                 104655014.533 7  26669014.060
                        47.300
 139003605.887 6                                  26451524.220
                        41.250
 15  1 27 21  6 10.0000000  0 21G22G14G31G15G06G24G12G25G29G02R18R20
                                R16R01R08R09R07R19R10E19E20
 133020967.257 6 103652705.66345                  25313048.100
  25313044.360          39.950          33.650
 115876447.857 8  90293337.86447                  22050546.260
  22050541.480          48.300          43.150
 133272397.839 7 103848616.777 6                  25360893.900    25360891.480
  25360890.480          43.000          38.000
 130768657.944 7 101897676.897 6                  24884435.740    24884434.380
  24884433.960          43.950          39.900
 128536608.689 7 100158401.860 6  95985131.743 7  24459701.100    24459700.840
  24459699.680          44.050          40.700
 111176195.006 8  86630888.550 8  83021285.827 8  21156092.760    21156091.660
  21156091.120          49.750          49.750
 107796776.553 8  83997600.241 8                  20512977.520    20512972.500
  20512971.580          50.100          48.300
 109399218.883 8  85246252.905 8  81694354.357 8  20817934.760    20817933.480
  20817932.600          49.600          48.900
 117851513.909 8  91832502.836 7                  22426331.840    22426328.840
  22426328.220          48.800          45.650
 126420729.582 7  98509648.95846                  24057056.640
  24057050.300          46.650          38.150
 122732271.073 7  95458510.893 6                  22991870.660    22991873.780
  22991872.580          44.450          40.900
 114465616.196 7  89028842.807 7                  21405598.380    21405603.000
  21405600.700          43.900          44.050
 121987059.901 7  94878836.208 6                  22836233.520    22836236.440
  22836235.500          44.450          40.200
 125773977.606 6  97824228.389 5                  23528625.420    23528629.760
  23528629.920          41.350          34.900
 119570364.672 7  92999180.838 7                  22328921.000    22328922.420
  22328921.340          46.400          42.950
 106890676.817 7  83137139.770 6                  20017154.780    20017156.840
  20017154.360          47.150          36.750
 126234958.056 7  98182750.055 6                  23581756.860    23581760.400
  23581759.400          44.200          40.200
 106881388.548 8  83129969.272 7                  19980294.040    19980294.460
  19980292.860          49.000          46.400
 111504060.874 7  86725426.972 6                  20917864.840    20917871.360
  20917869.920          47.850          40.700
 140158217.372 7                 104663637.798 7  26671211.500
                        47.100
 139017390.363 6                                  26454147.400
                        40.750
 15  1 27 21  6 15.0000000  0 21G22G14G31G15G06G24G12G25G29G02R18R20
                                R16R01R08R09R07R19R10E19E20
 133031069.316 6 103660577.34244                  25314970.500
  25314966.680          38.900          29.950
 115867941.255 8  90286709.33547                  22048927.480
  22048922.760          48.350          43.350
 133257041.231 7 103836650.597 6                  25357971.660    25357969.060
  25357968.160          43.250          37.650
 130786825.032 7 101911833.027 6                  24887892.820    24887891.560
  24887891.080          44.600          39.750
 128535490.215 7 100157530.328 6  95984296.517 7  24459488.280    24459487.920
  24459486.740          43.650          40.750
 111184623.534 8  86637456.230 8  83027579.852 8  21157696.660    21157695.560
  21157695.020          49.850          49.700
 107802907.072 8  84002377.263 8                  20514144.120    20514139.080
  20514138.180          50.150          48.400
 109393652.699 8  85241915.615 8  81690197.789 8  20816875.540    20816874.260
  20816873.360          49.600          48.800
 117834510.708 8  91819253.597 7                  22423096.240    22423093.240
  22423092.620          48.950          45.600
 126412053.056 7  98502888.03946                  24055405.540
  24055399.240          46.350          39.650
 122750332.103 7  95472558.346 6                  22995254.000    22995257.120
  22995256.040          44.650          40.700
 114445976.560 7  89013567.530 7                  21401925.720    21401930.300
  21401928.000          44.150          43.800
 122000357.984 7  94889179.176 6                  22838722.960    22838725.820
  22838724.900          44.350          40.600
 125767205.636 6  97818961.303 5                  23527358.460    23527362.880
  23527362.980          41.100          34.500
 119579430.372 7  93006231.917 7                  22330613.920    22330615.420
  22330614.360          46.600          42.700
 106893583.202 7  83139400.292 6                  20017699.020    20017701.080
  20017698.600          47.050          36.550
 126254112.489 7  98197647.916 6                  23585335.100    23585338.680
  23585337.680          44.050          40.350
 106880003.707 8  83128892.180 7                  19980035.180    19980035.580
  19980034.000          49.250          46.250
 111493140.662 8  86716933.465 6                  20915816.220    20915822.780
  20915821.300          48.000          40.600
 140169768.397 7                 104672263.546 7  26673409.540
                        47.150
 139031169.936 6                                  26456769.640
                        40.700
 15  1 27 21  6 20.0000000  0 21G22G14G31G15G06G24G12G25G29G02R18R20
                                R16R01R08R09R07R19R10E19E20
 133041173.297 6 103668450.57845                  25316893.200
  25316889.440          36.350          33.450
 115859447.289 8  90280090.66447                  22047311.100
  22047306.440          48.250          43.100
 133241681.944 7 103824682.326 6                  25355048.920    25355046.260
  25355045.420          43.450          37.750
 130804990.100 7 101925987.609 6                  24891349.540    24891348.240
  24891347.860          44.450          39.900
 128534384.692 7 100156668.869 6  95983470.972 7  24459277.940    24459277.500
  24459276.440          44.550          41.100
 111193060.265 8  86644030.308 8  83033880.006 8  21159302.140    21159301.000
  21159300.460          49.950          49.650
 107809043.807 8  84007159.139 8                  20515311.880    20515306.880
  20515305.980          50.000          48.150
 109388093.723 8  85237583.945 8  81686046.600 8  20815817.700    20815816.400
  20815815.520          49.650          48.750
 117817513.459 8  91806008.998 7                  22419861.740    22419858.760
  22419858.140          49.000          45.400
 126403382.954 7  98496132.12246                  24053755.640
  24053749.320          46.350          38.350
 122768403.278 7  95486613.700 6                  22998639.300    22998642.440
  22998641.400          44.700          41.100
 114426346.418 7  88998299.653 7                  21398254.780    21398259.420
  21398257.080          44.000          43.950
 122013659.892 7  94899525.094 6                  22841213.120    22841215.900
  22841215.100          44.600          40.700
 125760451.651 7  97813708.227 5                  23526094.940    23526099.320
  23526099.420          42.550          33.550
 119588511.837 7  93013295.264 7                  22332309.840    22332311.340
  22332310.320          46.300          42.600
 106896496.558 7  83141666.233 6                  20018244.560    20018246.700
  20018244.200          46.950          36.700
 126273267.387 7  98212546.114 6                  23588913.420    23588917.000
  23588916.040          43.850          40.400
 106878640.864 8  83127832.193 7                  19979780.420    19979780.840
  19979779.220          49.250          46.350
 111482222.700 7  86708441.723 6                  20913768.020    20913774.600
  20913773.140          47.750          40.400
 140181322.951 7                 104680891.953 7  26675608.240
                        47.350
 139044944.887 6                                  26459390.980
                        40.900
 15  1 27 21  6 25.0000000  0 21G22G14G31G15G06G24G12G25G29G02R18R20
                                R16R01R08R09R07R19R10E19E20
 133051279.952 6 103676325.87744                  25318816.380
  25318812.720          38.200          28.700
 115850966.631 8  90273482.35947                  22045697.240
  22045692.640          48.500          43.150
 133226320.661 7 103812712.486 6                  25352125.760    25352123.080
  25352122.220          42.050          37.600
 130823153.802 7 101940141.094 6                  24894805.940    24894804.800
  24894804.360          44.150          39.750
 128533292.827 7 100155818.084 6  95982655.630 7  24459070.200    24459069.680
  24459068.660          44.800          41.550
 111201505.903 8  86650611.319 8  83040186.818 8  21160909.300    21160908.160
  21160907.600          50.100          49.700
 107815187.438 8  84011946.381 8                  20516480.960    20516475.960
  20516475.060          50.150          48.300
 109382542.637 8  85233258.420 8  81681901.316 8  20814761.340    20814760.060
  20814759.180          49.650          48.950
 117800522.836 8  91792769.562 7                  22416628.520    22416625.540
  22416624.940          49.150          45.150
 126394719.986 7  98489381.75346                  24052107.120
  24052100.740          46.550          38.000
 122786485.313 7  95500677.503 6                  23002026.620    23002029.880
  23002028.780          44.950          41.150
 114406726.573 7  88983039.785 7                  21394585.720    21394590.420
  21394588.040          44.250          43.700
 122026966.171 7  94909874.427 6                  22843704.100    22843706.880
  22843706.080          44.250          40.400
 125753716.414 7  97808469.690 5                  23524835.000    23524839.300
  23524839.380          43.400          34.350
 119597609.889 7  93020371.508 7                  22334008.860    22334010.360
  22334009.340          46.450          42.050
 106899417.612 7  83143938.156 6                  20018791.560    20018793.720
  20018791.240          47.350          36.900
 126292423.450 7  98227445.210 6                  23592491.980    23592495.500
  23592494.600          44.600          40.100
 106877300.741 8  83126789.877 7                  19979529.900    19979530.320
  19979528.700          49.400          46.300
 111471307.722 7  86699952.290 6                  20911720.400    20911726.960
  20911725.540          47.900          40.600
 140192881.724 7                 104689523.510 7  26677807.740
                        47.050
 139058715.825 6                                  26462011.660
                        40.700
 15  1 27 21  6 30.0000000  0 21G22G14G31G15G06G24G12G25G29G02R18R20
                                R16R01R08R09R07R19R10E19E20
 133061391.462 6 103684204.90945                  25320740.560
  25320737.040          38.950          34.000
 115842501.660 8  90266886.27547                  22044086.380
  22044081.820          48.350          43.600
 133210959.717 7 103800742.936 6                  25349202.680    25349200.000
  25349199.140          43.000          38.150
 130841318.407 7 101954295.289 6                  24898262.560    24898261.460
  24898261.000          44.850          40.100
 128532216.940 7 100154979.737 6  95981852.200 8  24458865.520    24458865.020
  24458864.000          44.450          41.650
 111209962.711 8  86657201.039 8  83046501.960 8  21162518.600    21162517.440
  21162516.860          50.250          49.800
 107821340.265 8  84016740.802 8                  20517651.800    20517646.800
  20517645.900          49.950          48.350
 109377001.767 8  85228940.856 8  81677763.646 8  20813706.920    20813705.640
  20813704.780          49.600          49.050
 117783541.176 8  91779537.111 7                  22413397.000    22413394.000
  22413393.400          49.150          45.350
 126386066.519 7  98482638.79646                  24050460.400
  24050454.020          46.850          37.900
 122804580.530 7  95514751.557 6                  23005416.480    23005419.760
  23005418.660          45.450          41.400
 114387119.302 7  88967789.690 7                  21390919.120    21390923.760
  21390921.340          43.900          44.050
 122040279.233 7  94920229.026 6                  22846196.380    22846199.160
  22846198.300          44.150          40.350
 125747002.195 7  97803247.536 5                  23523579.040    23523583.140
  23523583.300          43.750          33.800
 119606726.857 7  93027462.493 7                  22335711.420    22335712.920
  22335711.880          45.950          42.250
 106902348.755 7  83146217.938 6                  20019340.440    20019342.580
  20019340.160          47.550          37.250
 126311583.126 7  98242347.157 6                  23596071.200    23596074.720
  23596073.820          44.500          39.350
 106875985.676 8  83125767.051 7                  19979284.080    19979284.460
  19979282.840          49.150          46.300
 111460398.187 7  86691467.098 6                  20909673.780    20909680.340
  20909678.960          47.600          40.800
 140204447.030 7                 104698159.922 7  26680008.520
                        47.050
 139072485.056 6                                  26464631.940
                        40.550
 15  1 27 21  6 35.0000000  0 21G22G14G31G15G06G24G12G25G29G02R18R20
                                R16R01R08R09R07R19R10E19E20
 133071506.954 6 103692087.16544                  25322665.580
  25322662.120          39.050          29.000
 115834051.379 8  90260301.65147                  22042478.300
  22042473.800          48.350          42.850
 133195598.173 7 103788772.914 6                  25346279.500    25346276.760
  25346275.920          42.450          38.050
 130859483.013 7 101968449.488 6                  24901719.200    24901718.100
  24901717.700          45.400          40.050
 128531156.072 7 100154153.086 6  95981060.001 8  24458663.680    24458663.100
  24458662.140          44.950          40.950
 111218429.795 8  86663798.767 8  83052824.781 8  21164129.880    21164128.660
  21164128.080          50.200          49.600
 107827501.350 8  84021541.639 8                  20518824.180    20518819.200
  20518818.320          50.000          48.100
 109371470.159 8  85224630.508 8  81673632.894 8  20812654.260    20812653.000
  20812652.140          49.450          48.950
 117766567.561 8  91766310.935 7                  22410167.020    22410164.020
  22410163.380          49.050          44.900
 126377421.581 7  98475902.49146                  24048815.320
  24048808.900          46.900          38.350
 122822687.988 7  95528835.131 6                  23008808.620    23008811.860
  23008810.800          45.850          41.050
 114367523.785 7  88952548.747 7                  21387254.680    21387259.280
  21387256.900          44.200          44.050
 122053598.157 7  94930588.179 6                  22848689.680    22848692.460
  22848691.620          44.150          39.800
 125740308.219 7  97798041.118 5                  23522326.880    23522330.840
  23522330.980          44.850          34.250
 119615861.783 7  93034567.432 7                  22337417.320    22337418.800
  22337417.760          46.200          42.050
 106905289.110 7  83148504.877 6                  20019891.040    20019893.240
  20019890.800          47.300          37.100
 126330745.265 7  98257251.001 6                  23599650.860    23599654.380
  23599653.460          44.700          39.650
 106874694.624 8  83124762.908 7                  19979042.720    19979043.140
  19979041.480          49.100          46.300
 111449493.039 7  86682985.318 6                  20907627.980    20907634.620
  20907633.180          47.900          40.600
 140216017.901 7                 104706800.506 7  26682210.340
                        46.950
 139086345.690 6                                  26467251.680
                        40.200
 15  1 27 21  6 40.0000000  0 21G22G14G31G15G06G24G12G25G29G02R18R20
                                R16R01R08R09R07R19R10E19E20
 133081624.634 6 103699971.06145                  25324590.960
  25324587.460          38.950          30.750
 115825614.004 8  90253727.06947                  22040872.680
  22040868.220          48.250          42.850
 133180234.265 7 103776801.046 6                  25343355.860    25343353.060
  25343352.180          42.150          38.100
 130877645.829 7 101982602.305 6                  24905175.460    24905174.420
  24905173.980          45.000          39.750
 128530108.420 7 100153336.755 6  95980277.687 8  24458464.420    24458463.720
  24458462.820          44.250          40.950
 111226905.258 8  86670403.020 8  83059153.861 8  21165742.740    21165741.480
  21165740.900          50.100          49.600
 107833668.870 8  84026347.501 8                  20519997.820    20519992.840
  20519991.960          49.700          48.250
 109365945.993 8  85220325.955 8  81669507.696 8  20811603.020    20811601.780
  20811600.920          49.300          49.000
 117749600.197 8  91753089.620 7                  22406938.220    22406935.180
  22406934.560          48.850          44.850
 126368783.370 7  98469171.41546                  24047171.540
  24047165.020          47.100          38.750
 122840805.780 7  95542926.745 6                  23012202.720    23012205.980
  23012204.940          46.000          41.350
 114347938.161 7  88937315.467 7                  21383592.080    21383596.640
  21383594.280          43.850          44.150
 122066921.135 7  94940950.487 6                  22851183.800    22851186.620
  22851185.700          43.900          40.050
 125733632.459 7  97792848.833 5                  23521078.220    23521082.140
  23521082.160          44.200          35.150
 119625012.803 7  93041684.884 7                  22339126.180    22339127.680
  22339126.660          46.600          42.350
 106908236.700 7  83150797.445 6                  20020443.000    20020445.260
  20020442.780          47.700          37.350
 126349908.193 7  98272155.447 6                  23603230.680    23603234.160
  23603233.240          44.300          40.000
 106873425.908 8  83123776.127 7                  19978805.540    19978805.960
  19978804.320          49.000          46.550
 111438590.386 7  86674505.477 6                  20905582.660    20905589.260
  20905587.940          47.850          40.950
 140227592.524 7                 104715443.885 7  26684412.860
                        46.900
 139100107.882 6                                  26469870.600
                        40.250
 15  1 27 21  6 45.0000000  0 21G22G14G31G15G06G24G12G25G29G02R18R20
                                R16R01R08R09R07R19R10E19E20
 133091744.946 6 103707856.96445                  25326516.760
  25326513.640          39.500          33.600
 115817190.109 8  90247162.99947                  22039269.660
  22039265.220          48.250          42.750
 133164868.458 6 103764827.687 6                  25340431.800    25340429.040
  25340428.200          40.800          38.700
 130895807.345 7 101996754.096 6                  24908631.520    24908630.420
  24908629.980          45.300          39.650
 128529074.574 7 100152531.162 6  95979505.645 8  24458267.780    24458266.980
  24458266.120          44.800          41.150
 111235389.765 8  86677014.328 8  83065489.698 8  21167357.340    21167356.020
  21167355.440          50.100          49.650
 107839843.410 8  84031158.823 8                  20521172.760    20521167.820
  20521166.960          49.700          48.350
 109360429.855 8  85216027.658 8  81665388.489 8  20810553.300    20810552.100
  20810551.240          49.250          49.050
 117732639.636 8  91739873.607 7                  22403710.720    22403707.640
  22403707.060          48.950          45.100
 126360152.442 7  98462446.02946                  24045529.140
  24045522.520          46.900          38.250
 122858934.459 7  95557026.831 6                  23015598.860    23015602.200
  23015601.080          46.100          41.450
 114328363.031 7  88922090.376 7                  21379931.420    21379936.000
  21379933.660          44.350          44.300
 122080248.681 7  94951316.358 6                  22853678.760    22853681.580
  22853680.620          44.200          39.900
 125726975.601 7  97787671.289 5                  23519833.060    23519836.860
  23519836.900          45.450          34.950
 119634180.402 7  93048815.232 7                  22340838.160    22340839.640
  22340838.660          46.650          42.200
 106911192.215 7  83153096.191 6                  20020996.440    20020998.780
  20020996.260          47.450          36.950
 126369072.200 7  98287060.742 6                  23606810.740    23606814.140
  23606813.240          44.100          39.800
 106872179.959 8  83122807.055 7                  19978572.580    19978573.020
  19978571.400          49.000          46.400
 111427690.958 7  86666028.154 6                  20903537.960    20903544.600
  20903543.260          47.850          41.050
 140239171.453 7                 104724090.492 7  26686616.220
                        47.000
 139113866.180 6                                  26472488.800
                        40.000
 15  1 27 21  6 50.0000000  0 21G22G14G31G15G06G24G12G25G29G02R18R20
                                R16R01R08R09R07R19R10E19E20
 133101869.850 6 103715746.51545                  25328443.580
  25328440.340          39.850          33.200
 115808781.574 8  90240610.89647                  22037669.520
  22037665.120          48.350          43.050
 133149502.694 6 103752854.402 6                  25337507.720    25337505.040
  25337504.220          40.700          39.200
 130913969.446 7 102010906.359 6                  24912087.680    24912086.600
  24912086.120          44.900          39.700
 128528056.397 7 100151737.782 6  95978745.331 8  24458074.060    24458073.280
  24458072.360          44.750          41.300
 111243885.181 8  86683634.131 8  83071833.674 8  21168974.000    21168972.620
  21168972.060          50.100          49.700
 107846026.816 8  84035977.063 8                  20522349.420    20522344.500
  20522343.640          49.850          48.350
 109354923.627 8  85211737.082 8  81661276.695 8  20809505.480    20809504.280
  20809503.460          49.300          49.000
 117715687.787 8  91726664.380 7                  22400484.900    22400481.780
  22400481.200          49.100          45.300
 126351530.713 7  98455727.80046                  24043888.520
  24043881.820          46.800          37.850
 122877075.944 7  95571136.881 6                  23018997.400    23019000.720
  23018999.620          46.100          41.250
 114308800.243 7  88906874.878 7                  21376273.100    21376277.680
  21376275.300          44.350          44.350
 122093582.661 7  94961687.250 6                  22856174.960    22856177.760
  22856176.760          43.700          40.350
 125720339.569 7  97782509.912 5                  23518591.740    23518595.500
  23518595.560          45.100          35.550
 119643366.476 7  93055959.948 7                  22342553.580    22342555.100
  22342554.100          46.700          42.300
 106914157.465 7  83155402.494 6                  20021551.740    20021553.960
  20021551.560          47.600          36.950
 126388239.457 7  98301968.568 6                  23610391.380    23610394.700
  23610393.840          44.400          39.350
 106870958.703 8  83121857.187 7                  19978344.260    19978344.700
  19978343.060          48.900          46.350
 111416796.660 8  86657554.822 6                  20901494.200    20901500.800
  20901499.540          48.300          41.050
 140250756.549 7                 104732741.694 7  26688820.780
                        47.200
 139127622.404 6                                  26475106.600
                        39.950
 15  1 27 21  6 55.0000000  0 21G22G14G31G15G06G24G12G25G29G02R18R20
                                R16R01R08R09R07R19R10E19E20
 133111997.491 6 103723638.22044                  25330370.880
  25330367.460          39.200          25.800
 115800386.568 8  90234069.33147                  22036071.980
  22036067.580          48.050          42.850
 133134135.205 7 103740879.772 6                  25334583.360    25334580.800
  25334579.900          42.050          39.100
 130932130.310 7 102025057.649 6                  24915543.600    24915542.500
  24915541.960          45.000          39.950
 128527052.066 7 100150955.196 6  95977995.343 8  24457882.900    24457882.200
  24457881.280          43.500          41.200
 111252389.692 8  86690261.018 8  83078184.438 8  21170592.400    21170590.980
  21170590.420          49.950          49.600
 107852217.253 8  84040800.779 8                  20523527.420    20523522.480
  20523521.640          49.850          48.250
 109349425.451 8  85207452.785 8  81657170.905 8  20808459.180    20808458.000
  20808457.200          49.100          49.000
 117698742.797 8  91713460.491 7                  22397260.380    22397257.240
  22397256.660          48.850          45.200
 126342916.393 7  98449015.34846                  24042249.260
  24042242.580          46.550          38.900
 122895228.418 7  95585255.466 6                  23022398.000    23022401.240
  23022400.200          45.950          41.000
 114289248.024 7  88891667.595 7                  21372616.740    21372621.280
  21372618.940          44.700          44.350
 122106921.331 7  94972061.753 6                  22858671.920    22858674.720
  22858673.800          43.750          40.600
 125713722.386 7  97777363.218 6                  23517354.000    23517357.820
  23517357.800          45.300          36.650
 119652569.177 7  93063117.600 7                  22344272.120    22344273.600
  22344272.640          46.100          42.100
 106917130.708 7  83157715.017 6                  20022108.520    20022110.800
  20022108.360          47.750          37.050
 126407407.864 7  98316877.317 6                  23613972.160    23613975.480
  23613974.680          44.300          39.250
 106869760.369 8  83120925.153 7                  19978120.200    19978120.640
  19978119.020          49.000          46.350
 111405905.617 7  86649084.004 6                  20899451.060    20899457.700
  20899456.440          47.950          41.050
 140262345.991 7                 104741396.144 7  26691026.160
                        46.850
 139141374.800 6                                  26477723.600
                        40.150
 15  1 27 21  7  0.0000000  0 21G22G14G31G15G06G24G12G25G29G02R18R20
                                R16R01R08R09R07R19R10E19E20
 133122128.030 6 103731532.06945                  25332298.700
  25332295.000          37.600          33.800
 115792005.341 7  90227538.50747                  22034477.040
  22034472.680          47.950          42.700
 133118766.118 6 103728903.844 6                  25331658.740    25331656.140
  25331655.160          41.900          39.100
 130950290.131 7 102039208.123 6                  24918999.360    24918998.240
  24918997.660          44.950          40.150
 128526061.799 7 100150183.559 6  95977255.867 8  24457694.400    24457693.740
  24457692.800          43.800          41.450
 111260903.361 8  86696895.044 8  83084542.049 8  21172212.560    21172211.080
  21172210.500          49.900          49.600
 107858414.945 8  84045630.142 8                  20524706.800    20524701.880
  20524701.040          50.200          48.150
 109343935.560 8  85203174.946 8  81653071.317 8  20807414.480    20807413.320
  20807412.520          49.050          48.900
 117681804.929 8  91700262.157 7                  22394037.240    22394034.060
  22394033.480          48.850          45.400
 126334309.675 7  98442308.82646                  24040611.460
  24040604.760          46.700          38.850
 122913391.995 7  95599382.700 6                  23025800.680    23025803.840
  23025802.860          45.600          41.100
 114269706.607 7  88876468.728 7                  21368962.420    21368966.920
  21368964.600          44.550          44.300
 122120264.875 7  94982440.061 6                  22861169.800    22861172.680
  22861171.720          44.200          40.450
 125707124.374 7  97772231.408 6                  23516119.800    23516123.660
  23516123.600          44.950          36.250
 119661788.709 7  93070288.343 7                  22345993.780    22345995.280
  22345994.360          46.250          42.400
 106920112.119 7  83160033.890 6                  20022666.840    20022669.120
  20022666.700          47.600          37.050
 126426577.697 7  98331787.150 6                  23617553.280    23617556.600
  23617555.800          44.250          40.000
 106868585.151 8  83120011.106 7                  19977900.480    19977900.940
  19977899.300          49.150          46.400
 111395017.825 8  86640615.720 6                  20897408.520    20897415.200
  20897413.900          48.000          41.250
 140273939.971 7                 104750053.976 7  26693232.460
                        46.800
 139155123.581 6                                  26480340.000
                        40.050
 15  1 27 21  7  5.0000000  0 21G22G14G31G15G06G24G12G25G29G02R18R20
                                R16R01R08R09R07R19R10E19E20
 133132261.188 6 103739428.07044                  25334227.020
  25334223.220          38.400          27.100
 115783637.451 8  90221018.07747                  22032884.640
  22032880.320          48.000          42.850
 133103394.966 6 103716926.331 6                  25328733.740    25328731.120
  25328730.140          41.850          38.750
 130968448.438 7 102053357.413 6                  24922454.820    24922453.700
  24922453.120          45.300          39.200
 128525085.185 7 100149422.578 6  95976526.578 8  24457508.520    24457507.920
  24457507.020          43.450          41.400
 111269425.828 8  86703535.925 8  83090906.223 8  21173834.380    21173832.860
  21173832.280          49.750          49.600
 107864619.452 8  84050464.830 8                  20525887.500    20525882.540
  20525881.720          50.100          48.050
 109338453.547 8  85198903.251 8  81648977.610 8  20806371.260    20806370.120
  20806369.340          49.150          49.050
 117664873.738 8  91687069.019 7                  22390815.340    22390812.180
  22390811.600          48.650          45.350
 126325710.151 7  98435607.89546                  24038975.060
  24038968.280          46.700          39.400
 122931566.264 7  95613518.245 6                  23029205.360    23029208.500
  23029207.480          45.700          40.750
 114250175.540 7  88861277.902 7                  21365310.040    21365314.500
  21365312.180          44.550          44.250
 122133612.803 7  94992821.797 6                  22863668.500    22863671.340
  22863670.420          43.450          40.000
 125700545.091 7  97767114.178 6                  23514889.140    23514892.920
  23514892.980          44.150          36.850
 119671024.715 7  93077471.889 6                  22347718.540    22347720.000
  22347719.100          46.150          41.850
 106923101.260 7  83162358.775 6                  20023226.600    20023228.880
  20023226.460          47.250          36.700
 126445748.588 7  98346697.783 6                  23621134.520    23621137.960
  23621137.080          43.800          40.100
 106867432.553 8  83119114.635 7                  19977684.960    19977685.480
  19977683.820          49.100          46.600
 111384133.104 7  86632149.824 6                  20895366.580    20895373.260
  20895371.980          47.400          41.150
 140285538.068 7                 104758714.885 7  26695439.520
                        46.750
 139168868.187 6                                  26482955.640
                        39.750
 15  1 27 21  7 10.0000000  0 21G22G14G31G15G06G24G12G25G29G02R18R20
                                R16R01R08R09R07R19R10E19E20
 133142399.673 6 103747328.16143                  25336156.280
  25336152.460          38.150          21.600
 115775285.810 8  90214510.30947                  22031295.340
  22031291.060          48.100          42.700
 133088024.749 6 103704949.545 6                  25325808.880    25325806.180
  25325805.280          41.050          38.800
 130986608.128 7 102067507.790 6                  24925910.540    24925909.380
  24925908.820          45.700          39.550
 128524125.129 7 100148674.462 6  95975809.643 7  24457325.800    24457325.280
  24457324.260          43.650          41.250
 111277960.071 8  86710185.979 8  83097279.195 8  21175458.420    21175456.880
  21175456.300          49.850          49.600
 107870833.668 8  84055307.078 8                  20527070.020    20527065.080
  20527064.240          50.100          48.150
 109332982.274 8  85194639.936 8  81644891.923 8  20805330.080    20805328.980
  20805328.220          49.350          49.050
 117647952.138 8  91673883.367 7                  22387595.280    22387592.120
  22387591.520          48.700          45.450
 126317120.751 7  98428914.85546                  24037340.600
  24037333.740          46.900          38.850
 122949754.102 7  95627664.352 6                  23032612.580    23032615.700
  23032614.620          45.650          40.550
 114230657.882 7  88846097.518 7                  21361660.160    21361664.600
  21361662.300          44.700          44.350
 122146968.102 7  95003209.229 6                  22866168.540    22866171.520
  22866170.540          42.850          39.800
 125693987.556 7  97762013.881 6                  23513662.500    23513666.420
  23513666.380          44.550          37.550
 119680280.018 7  93084670.455 7                  22349446.880    22349448.340
  22349447.440          46.100          42.150
 106926101.078 7  83164691.963 6                  20023788.360    20023790.620
  20023788.240          47.600          37.200
 126464923.339 7  98361611.413 6                  23624716.520    23624719.980
  23624719.120          44.000          39.650
 106866305.584 8  83118238.109 7                  19977474.240    19977474.800
  19977473.160          49.100          46.550
 111373254.548 7  86623688.730 6                  20893325.780    20893332.460
  20893331.220          47.700          41.300
 140297143.147 7                 104767381.023 7  26697647.920
                        47.050
 139182611.652 6                                  26485570.960
                        39.400
 15  1 27 21  7 15.0000000  0 21G22G14G31G15G06G24G12G25G29G02R18R20
                                R16R01R08R09R07R19R10E19E20
 133152540.063 6 103755229.74745                  25338085.960
  25338082.060          37.000          31.050
 115766946.943 8  90208012.49147                  22029708.460
  22029704.220          48.050          43.050
 133072652.005 6 103692970.803 6                  25322883.540    25322880.940
  25322879.940          41.150          38.800
 131004765.733 7 102081656.545 6                  24929365.860    24929364.740
  24929364.060          45.050          39.300
 128523178.132 7 100147936.559 6  95975102.482 7  24457145.580    24457145.120
  24457144.160          43.800          41.400
 111286502.607 8  86716842.498 8  83103658.361 8  21177084.040    21177082.460
  21177081.900          49.900          49.550
 107877054.103 8  84060154.181 8                  20528253.740    20528248.800
  20528247.960          49.950          48.100
 109327518.262 8  85190382.268 8  81640811.662 8  20804290.280    20804289.220
  20804288.480          49.450          49.200
 117631036.686 8  91660702.505 7                  22384376.360    22384373.220
  22384372.620          48.850          45.400
 126308537.996 7  98422226.99046                  24035707.420
  24035700.460          47.050          39.900
 122967951.949 7  95641818.248 6                  23036021.640    23036024.800
  23036023.640          45.400          40.200
 114211150.095 7  88830924.797 7                  21358012.140    21358016.560
  21358014.240          44.650          44.350
 122160327.183 7  95013599.621 6                  22868669.300    22868672.300
  22868671.380          43.150          39.600
 125687448.071 7  97756927.608 6                  23512439.140    23512443.120
  23512443.100          43.850          36.400
 119689551.061 7  93091881.273 7                  22351178.180    22351179.600
  22351178.720          46.300          42.300
 106929108.067 7  83167030.741 6                  20024351.460    20024353.780
  20024351.360          47.550          37.300
 126484098.561 7  98376525.418 6                  23628298.640    23628302.120
  23628301.260          44.200          39.450
 106865200.726 8  83117378.775 7                  19977267.700    19977268.240
  19977266.620          49.050          46.600
 111362378.323 7  86615229.457 6                  20891285.380    20891292.100
  20891290.920          47.250          41.100
 140308751.722 7                 104776049.770 7  26699856.980
                        46.900
 139196350.449 6                                  26488185.540
                        39.950
 15  1 27 21  7 20.0000000  0 21G22G14G31G15G06G24G12G25G29G02R18R20
                                R16R01R08R09R07R19R10E19E20
 133162683.201 6 103763133.49145                  25340016.100
  25340012.100          36.100          31.050
 115758621.843 8  90201525.40847                  22028124.200
  22028119.980          48.050          42.800
 133057277.728 6 103680990.844 6                  25319957.880    25319955.340
  25319954.340          40.050          38.550
 131022922.225 7 102095804.436 6                  24932820.960    24932819.760
  24932819.160          44.450          39.150
 128522245.174 7 100147209.584 6  95974405.791 7  24456968.060    24456967.560
  24456966.600          43.600          41.500
 111295054.344 8  86723506.192 8  83110044.397 8  21178711.420    21178709.820
  21178709.260          49.850          49.550
 107883281.743 8  84065006.891 8                  20529438.820    20529433.900
  20529433.020          49.900          48.000
 109322062.453 8  85186130.995 8  81636737.528 8  20803252.060    20803251.040
  20803250.300          49.350          49.100
 117614128.352 8  91647527.188 7                  22381158.780    22381155.660
  22381155.060          49.000          45.150
 126299962.850 7  98415545.06746                  24034075.680
  24034068.660          47.400          38.200
 122986160.830 7  95655980.713 6                  23039432.800    23039435.960
  23039434.740          44.700          40.050
 114191653.011 7  88815760.404 7                  21354366.100    21354370.520
  21354368.200          44.500          44.700
 122173691.093 7  95023993.771 6                  22871171.060    22871174.020
  22871173.160          43.600          40.200
 125680927.813 7  97751856.322 6                  23511219.320    23511223.500
  23511223.420          43.900          36.550
 119698838.834 7  93099105.094 7                  22352912.560    22352914.060
  22352913.100          46.350          42.400
 106932123.187 7  83169375.831 6                  20024916.100    20024918.400
  20024916.040          47.250          37.300
 126503275.000 7  98391440.381 6                  23631880.920    23631884.500
  23631883.620          44.250          39.250
 106864118.855 8  83116537.318 7                  19977065.460    19977065.980
  19977064.360          49.000          46.550
 111351505.449 7  86606772.792 6                  20889245.660    20889252.420
  20889251.220          47.850          41.100
 140320364.778 7                 104784721.834 7  26702066.860
                        46.700
 139210085.430 6                                  26490799.340
                        40.250
 15  1 27 21  7 25.0000000  0 21G22G14G31G15G06G24G12G25G29G02R18R20
                                R16R01R08R09R07R19R10E19E20
 133172830.212 6 103771040.24743                  25341946.920
  25341943.040          38.200          21.850
 115750311.451 7  90195049.77547                  22026542.740
  22026538.560          47.950          43.350
 133041902.798 6 103669010.419 6                  25317032.100    25317029.580
  25317028.460          39.200          38.550
 131041078.530 7 102109952.159 6                  24936276.040    24936274.820
  24936274.180          44.350          38.800
 128521327.193 7 100146494.256 6  95973720.291 7  24456793.380    24456792.880
  24456791.880          44.200          41.350
 111303616.284 8  86730177.829 8  83116438.051 8  21180340.740    21180339.120
  21180338.540          49.750          49.650
 107889517.489 8  84069865.912 8                  20530625.420    20530620.520
  20530619.640          49.800          48.000
 109316615.853 8  85181886.893 8  81632670.260 8  20802215.580    20802214.580
  20802213.860          49.200          49.100
 117597228.076 8  91634358.145 7                  22377942.720    22377939.660
  22377939.040          49.050          45.250
 126291396.304 7  98408869.83046                  24032445.600
  24032438.520          47.150          38.750
 123004381.620 7  95670152.436 6                  23042846.160    23042849.320
  23042848.060          44.500          40.500
 114172167.852 7  88800605.281 7                  21350722.260    21350726.740
  21350724.380          44.200          44.850
 122187060.756 7  95034392.390 6                  22873673.900    22873676.800
  22873676.060          43.850          40.900
 125674427.650 7  97746800.637 6                  23510003.240    23510007.600
  23510007.460          42.100          36.900
 119708144.342 7  93106342.687 6                  22354650.320    22354651.640
  22354650.780          46.400          41.900
 106935147.355 7  83171727.956 6                  20025482.400    20025484.720
  20025482.380          47.400          37.200
 126522453.872 7  98406357.223 6                  23635463.660    23635467.360
  23635466.440          44.700          38.950
 106863061.119 8  83115714.641 7                  19976867.720    19976868.240
  19976866.620          48.950          46.600
 111340637.111 7  86598319.628 6                  20887206.740    20887213.480
  20887212.360          47.400          41.100
 140331983.217 7                 104793397.939 7  26704277.800
                        46.800
 139223817.636 6                                  26493412.580
                        39.400
 15  1 27 21  7 30.0000000  0 21G22G14G31G15G06G24G12G25G29G02R18R20
                                R16R01R08R09R07R19R10E19E20
 133182980.274 6 103778949.41545                  25343878.440
  25343874.520          38.200          32.700
 115742015.111 7  90188585.09147                  22024963.980
  22024959.800          47.900          42.600
 133026526.580 6 103657028.981 6                  25314106.040    25314103.500
  25314102.460          38.800          38.000
 131059233.955 7 102124099.209 6                  24939730.940    24939729.680
  24939729.060          44.200          38.600
 128520423.566 7 100145790.135 6  95973045.489 7  24456621.420    24456620.900
  24456620.000          44.000          41.700
 111312187.673 8  86736856.837 8  83122838.767 8  21181971.840    21181970.200
  21181969.640          49.750          49.700
 107895760.653 8  84074730.703 8                  20531813.440    20531808.540
  20531807.680          49.850          48.150
 109311177.740 8  85177649.402 8  81628609.336 8  20801180.760    20801179.760
  20801179.060          49.350          49.150
 117580335.215 8  91621194.885 7                  22374728.100    22374725.040
  22374724.420          49.200          45.000
 126282837.664 7  98402200.76846                  24030817.000
  24030809.880          47.200          39.450
 123022613.706 7  95684332.945 6                  23046261.580    23046264.760
  23046263.500          44.450          40.550
 114152693.775 7  88785458.779 7                  21347080.540    21347085.000
  21347082.640          43.800          44.750
 122200435.401 7  95044794.910 6                  22876177.680    22876180.600
  22876179.880          43.600          41.050
 125667946.920 7  97741760.078 5                  23508790.820    23508795.360
  23508795.140          43.100          35.850
 119717466.836 7  93113593.513 7                  22356391.260    22356392.520
  22356391.660          46.300          42.600
 106938179.944 7  83174086.632 6                  20026050.280    20026052.600
  20026050.300          47.300          37.600
 126541634.059 7  98421275.107 6                  23639046.720    23639050.480
  23639049.480          45.200          39.000
 106862026.640 8  83114910.043 7                  19976674.320    19976674.900
  19976673.240          49.000          46.650
 111329772.476 7  86589869.366 6                  20885168.520    20885175.320
  20885174.180          47.200          41.100
 140343606.363 7                 104802077.559 7  26706489.660
                        46.700
 139237546.429 6                                  26496025.080
                        39.350
 15  1 27 21  7 35.0000000  0 21G22G14G31G15G06G24G12G25G29G02R18R20
                                R16R01R08R09R07R19R10E19E20
 133193132.033 6 103786859.80644                  25345810.280
  25345806.400          38.300          29.150
 115733731.425 8  90182130.27547                  22023387.620
  22023383.420          48.150          42.250
 133011147.708 6 103645045.469 6                  25311179.500    25311177.000
  25311176.020          39.400          37.200
 131077387.079 7 102138244.458 6                  24943185.440    24943184.120
  24943183.500          44.150          37.800
 128519532.830 7 100145096.034 6  95972380.335 8  24456451.860    24456451.360
  24456450.540          43.750          41.950
 111320767.154 8  86743542.143 8  83129245.521 8  21183604.500    21183602.840
  21183602.280          49.700          49.600
 107902009.839 8  84079600.204 8                  20533002.600    20532997.720
  20532996.880          49.800          48.200
 109305746.716 8  85173417.437 8  81624553.703 8  20800147.280    20800146.280
  20800145.580          49.600          49.000
 117563448.366 8  91608036.307 7                  22371514.660    22371511.600
  22371510.940          49.450          44.850
 126274285.556 7  98395536.78446                  24029189.640
  24029182.460          47.400          38.800
 123040855.565 7  95698521.054 6                  23049678.880    23049682.000
  23049680.820          44.650          40.950
 114133229.568 7  88770319.955 7                  21343440.680    21343445.120
  21343442.780          44.050          44.700
 122213813.814 7  95055200.338 6                  22878682.160    22878685.140
  22878684.440          44.350          41.550
 125661484.171 7  97736733.482 5                  23507581.700    23507586.520
  23507586.200          43.000          35.700
 119726804.923 7  93120856.468 7                  22358135.140    22358136.360
  22358135.500          46.200          42.600
 106941219.565 7  83176450.782 6                  20026619.480    20026621.880
  20026619.500          47.150          37.150
 126560814.487 7  98436193.169 6                  23642629.800    23642633.560
  23642632.580          44.650          38.350
 106861014.058 8  83114122.476 7                  19976485.020    19976485.600
  19976483.940          48.850          46.750
 111318910.082 7  86581420.833 6                  20883130.740    20883137.620
  20883136.440          47.300          41.350
 140355232.826 7                 104810759.648 7  26708702.100
                        46.750
 139251270.322 6                                  26498636.700
                        39.450
 15  1 27 21  7 40.0000000  0 21G22G14G31G15G06G24G12G25G29G02R18R20
                                R16R01R08R09R07R19R10E19E20
 133203289.270 6 103794774.51244                  25347743.200
  25347739.080          37.550          27.050
 115725464.269 8  90175688.34147                  22021814.420
  22021810.240          48.250          42.800
 132995769.971 6 103633062.840 6                  25308253.140    25308250.760
  25308249.840          40.850          37.300
 131095541.794 7 102152390.986 6                  24946640.220    24946638.840
  24946638.180          43.800          38.250
 128518658.886 7 100144415.068 6  95971727.740 8  24456285.540    24456285.060
  24456284.280          43.600          41.850
 111329358.604 8  86750236.790 8  83135661.218 8  21185239.420    21185237.760
  21185237.180          49.700          49.750
 107908268.954 8  84084477.437 8                  20534193.640    20534188.760
  20534187.960          49.950          48.400
 109300326.667 8  85169194.035 8  81620506.266 8  20799115.880    20799114.900
  20799114.180          49.600          49.100
 117546571.423 8  91594885.453 7                  22368303.120    22368300.020
  22368299.360          49.600          44.950
 126265743.853 7  98388880.92246                  24027564.260
  24027557.000          47.400          38.200
 123059111.090 7  95712719.804 6                  23053098.740    23053101.860
  23053100.720          44.500          40.650
 114113778.966 7  88755191.720 7                  21339803.300    21339807.780
  21339805.460          44.050          45.000
 122227199.807 7  95065611.666 6                  22881188.060    22881191.140
  22881190.480          43.700          41.500
 125655043.375 7  97731723.998 5                  23506376.700    23506381.480
  23506381.340          42.950          35.850
 119736162.375 7  93128134.486 7                  22359882.600    22359883.860
  22359882.940          46.250          42.150
 106944270.083 7  83178823.413 6                  20027190.740    20027193.160
  20027190.760          47.350          36.950
 126579999.033 7  98451114.450 6                  23646213.660    23646217.360
  23646216.420          43.900          38.550
 106860027.385 8  83113355.072 7                  19976300.600    19976301.140
  19976299.520          48.850          46.700
 111308053.895 7  86572977.151 6                  20881094.140    20881101.040
  20881099.860          47.200          41.550
 140366866.442 7                 104819447.081 7  26710915.900
                        46.750
 139264993.154 6                                  26501248.260
                        40.250
 15  1 27 21  7 45.0000000  0 21G22G14G31G15G06G24G12G25G29G02R18R20
                                R16R01R08R09R07R19R10E19E20
 133213447.309 6 103802689.90445                  25349676.240
  25349672.180          38.250          31.750
 115717209.002 8  90169255.66847                  22020243.500
  22020239.280          48.150          42.800
 132980388.782 6 103621077.506 5                  25305326.120    25305323.780
  25305322.980          41.750          35.950
 131113693.380 7 102166535.034 6                  24950094.420    24950093.000
  24950092.320          44.100          38.600
 128517797.110 7 100143743.552 7  95971084.204 8  24456121.580    24456121.060
  24456120.400          43.600          42.000
 111337957.353 8  86756937.113 8  83142082.367 8  21186875.720    21186874.060
  21186873.500          49.750          49.650
 107914533.255 8  84089358.713 8                  20535385.700    20535380.840
  20535380.060          49.850          48.150
 109294912.916 8  85164975.526 8  81616463.536 8  20798085.680    20798084.700
  20798084.000          49.550          49.000
 117529699.727 8  91581738.677 7                  22365092.580    22365089.480
  22365088.780          49.650          44.750
 126257207.889 7  98382229.51946                  24025939.960
  24025932.680          47.050          38.200
 123077375.626 7  95726925.550 6                  23056520.260    23056523.460
  23056522.300          44.600          40.550
 114094337.400 7  88740070.503 7                  21336167.660    21336172.140
  21336169.800          44.150          44.650
 122240588.602 7  95076025.155 6                  22883694.440    22883697.620
  22883697.000          43.650          41.100
 125648619.782 7  97726727.867 5                  23505174.980    23505179.760
  23505179.660          43.000          35.400
 119745534.595 7  93135423.980 7                  22361632.800    22361634.000
  22361633.140          46.200          42.200
 106947326.769 7  83181200.825 6                  20027763.160    20027765.560
  20027763.160          47.650          36.750
 126599182.774 7  98466035.100 6                  23649797.460    23649801.020
  23649800.120          43.900          38.100
 106859061.752 8  83112604.024 7                  19976120.100    19976120.600
  19976119.000          49.100          46.700
 111297199.254 7  86564534.665 6                  20879057.820    20879064.780
  20879063.600          47.350          41.350
 140378502.570 7                 104828136.401 7  26713130.200
                        46.800
 139278710.286 6                                  26503858.620
                        39.000
 15  1 27 21  7 50.0000000  0 21G22G14G31G15G06G24G12G25G29G02R18R20
                                R16R01R08R09R07R19R10E19E20
 133223608.676 6 103810607.84544                  25351609.860
  25351605.660          38.350          29.800
 115708968.016 7  90162834.12747                  22018675.260
  22018671.080          47.550          43.300
 132965006.479 6 103609091.300 5                  25302398.920    25302396.460
  25302395.720          41.300          34.900
 131131844.249 6 102180678.533 6                  24953548.440    24953546.960
  24953546.360          41.850          38.000
 128516949.848 7 100143083.359 6  95970451.518 8  24455960.280    24455959.840
  24455959.180          43.100          41.950
 111346565.768 8  86763644.972 8  83148510.723 8  21188513.840    21188512.180
  21188511.640          49.200          49.750
 107920805.172 8  84094245.918 8                  20536579.180    20536574.360
  20536573.580          49.400          48.300
 109289507.842 8  85160763.786 8  81612427.281 8  20797057.140    20797056.160
  20797055.460          48.900          48.900
 117512835.680 8  91568597.860 7                  22361883.500    22361880.360
  22361879.660          48.850          44.800
 126248680.102 7  98375584.49446                  24024317.180
  24024309.920          46.100          39.400
 123095651.500 7  95741140.124 6                  23059943.920    23059947.200
  23059945.980          44.900          40.100
 114074907.242 7  88724958.173 7                  21332534.140    21332538.560
  21332536.260          44.800          44.300
 122253982.667 7  95086442.767 6                  22886201.880    22886205.140
  22886204.440          44.300          40.600
 125642215.879 7  97721747.056 5                  23503976.980    23503981.600
  23503981.640          44.800          35.100
 119754923.902 7  93142726.779 7                  22363386.160    22363387.400
  22363386.480          46.450          42.100
 106950392.145 7  83183585.017 6                  20028337.200    20028339.640
  20028337.220          47.950          36.750
 126618368.094 7  98480956.995 6                  23653381.400    23653385.000
  23653384.120          43.550          38.250
 106858119.663 8  83111871.295 7                  19975943.980    19975944.520
  19975942.900          49.300          46.550
 111286348.688 7  86556095.349 6                  20877022.260    20877029.220
  20877028.060          47.750          40.800
 140390143.548 7                 104836829.330 7  26715345.420
                        45.950
 139292424.176 6                                  26506468.300
                        38.150
 15  1 27 21  7 55.0000000  0 21G22G14G31G15G06G24G12G25G29G02R18R20
                                R16R01R08R09R07R19R10E19E20
 133233774.677 6 103818529.40344                  25353544.420
  25353540.600          37.800          27.600
 115700742.785 7  90156424.84747                  22017110.080
  22017105.860          47.600          43.050
 132949624.598 6 103597105.392 5                  25299471.800    25299469.280
  25299468.540          41.400          35.100
 131149995.846 7 102194822.598 6                  24957002.600    24957001.080
  24957000.420          43.200          38.250
 128516118.575 7 100142435.634 6  95969830.782 8  24455802.060    24455801.700
  24455801.020          42.850          41.600
 111355185.243 8  86770361.443 8  83154947.348 8  21190154.080    21190152.420
  21190151.900          49.300          49.800
 107927086.156 8  84099140.196 8                  20537774.400    20537769.620
  20537768.840          49.300          48.300
 109284112.917 8  85156559.944 8  81608398.611 8  20796030.540    20796029.560
  20796028.820          49.200          48.900
 117495980.740 8  91555464.149 7                  22358676.120    22358672.960
  22358672.260          48.850          44.950
 126240161.952 7  98368946.97946                  24022696.220
  24022688.960          46.400          39.450
 123113940.268 7  95755364.715 6                  23063370.040    23063373.300
  23063372.120          45.350          40.400
 114055489.995 7  88709855.861 7                  21328903.020    21328907.440
  21328905.160          44.350          44.550
 122267383.481 7  95096865.610 6                  22888710.520    22888713.760
  22888713.120          44.650          40.400
 125635833.080 7  97716782.646 5                  23502783.000    23502787.440
  23502787.500          45.300          34.800
 119764331.811 7  93150044.041 6                  22365143.020    22365144.260
  22365143.300          46.750          41.900
 106953467.680 8  83185977.096 6                  20028913.120    20028915.620
  20028913.160          48.300          36.900
 126637556.418 7  98495881.188 6                  23656966.000    23656969.600
  23656968.700          44.000          39.400
 106857202.706 8  83111158.108 7                  19975772.580    19975773.120
  19975771.500          49.350          46.400
 111275503.557 8  86547660.230 6                  20874987.720    20874994.680
  20874993.500          48.000          40.700
 140401790.838 7                 104845526.981 7  26717561.840
                        46.450
 139306136.232 6                                  26509077.720
                        38.550
 15  1 27 21  8  0.0000000  0 21G22G14G31G15G06G24G12G25G29G02R18R20
                                R16R01R08R09R07R19R10E19E20
 133243943.331 6 103826452.84145                  25355479.520
  25355475.580          36.700          31.150
 115692531.319 7  90150026.30647                  22015547.500
  22015543.280          47.650          43.300
 132934241.084 6 103585118.236 5                  25296544.400    25296541.860
  25296541.180          41.650          34.400
 131168146.137 7 102208965.634 6                  24960456.540    24960454.980
  24960454.260          42.850          37.750
 128515301.346 7 100141798.822 6  95969220.500 8  24455646.500    24455646.180
  24455645.540          43.350          41.700
 111363813.869 8  86777085.044 8  83161390.803 8  21191796.020    21191794.380
  21191793.900          49.300          49.850
 107933374.197 8  84104039.956 8                  20538970.960    20538966.200
  20538965.420          49.500          48.450
 109278726.175 8  85152362.483 8  81604376.046 8  20795005.480    20795004.480
  20795003.760          49.350          49.000
 117479132.946 8  91542336.000 7                  22355470.060    22355466.960
  22355466.220          48.950          44.950
 126231651.422 7  98362315.40146                  24021076.720
  24021069.440          46.650          38.950
 123132239.760 7  95769597.649 6                  23066798.200    23066801.400
  23066800.220          45.150          40.600
 114036083.674 7  88694762.079 7                  21325273.980    21325278.360
  21325276.080          44.550          44.050
 122280789.036 7  95107292.153 6                  22891220.120    22891223.340
  22891222.720          45.050          40.600
 125629469.480 7  97711833.171 5                  23501592.640    23501596.900
  23501596.980          45.150          34.700
 119773756.319 7  93157374.210 6                  22366902.960    22366904.220
  22366903.200          46.950          41.750
 106956551.285 8  83188375.457 6                  20029490.580    20029493.100
  20029490.600          48.000          37.050
 126656746.122 7  98510806.459 6                  23660550.820    23660554.420
  23660553.540          43.900          39.200
 106856308.617 8  83110462.707 7                  19975605.460    19975605.960
  19975604.360          49.350          46.650
 111264661.702 7  86539227.678 6                  20872953.800    20872960.800
  20872959.560          47.650          40.550
 140413442.489 7                 104854227.881 7  26719779.080
                        46.600
 139319844.344 6                                  26511686.380
                        39.250
 15  1 27 21  8  5.0000000  0 21G22G14G31G15G06G24G12G25G29G02R18R20
                                R16R01R08R09R07R19R10E19E20
 133254114.378 6 103834378.49345                  25357415.060
  25357411.060          36.300          31.300
 115684333.450 7  90143638.35947                  22013987.480
  22013983.260          47.750          43.200
 132918855.743 7 103573129.659 5                  25293616.680    25293614.020
  25293613.380          42.300          35.000
 131186295.009 7 102223107.584 6                  24963910.200    24963908.560
  24963907.860          44.100          38.300
 128514497.909 7 100141172.789 6  95968620.541 8  24455493.560    24455493.280
  24455492.640          43.150          41.500
 111372451.432 8  86783815.619 8  83167840.929 8  21193439.660    21193438.080
  21193437.580          49.350          49.900
 107939669.110 8  84108945.093 8                  20540168.820    20540164.080
  20540163.340          49.350          48.450
 109273347.394 8  85148171.239 8  81600359.425 8  20793981.940    20793980.940
  20793980.200          49.450          49.100
 117462292.155 8  91529213.324 7                  22352265.340    22352262.260
  22352261.500          48.900          44.900
 126223148.375 7  98355689.66046                  24019458.640
  24019451.220          47.050          38.650
 123150549.869 7  95783838.854 6                  23070228.300    23070231.480
  23070230.320          45.050          40.800
 114016688.095 7  88679676.631 7                  21321646.900    21321651.280
  21321649.000          43.950          44.350
 122294199.182 7  95117722.264 6                  22893730.560    22893733.700
  22893733.180          44.800          40.800
 125623124.736 7  97706898.358 5                  23500405.860    23500409.760
  23500409.860          44.750          33.600
 119783197.139 7  93164717.074 7                  22368665.980    22368667.240
  22368666.180          46.850          42.400
 106959642.803 7  83190779.979 6                  20030069.520    20030072.140
  20030069.540          47.850          37.350
 126675936.573 7  98525732.316 6                  23664135.760    23664139.400
  23664138.520          44.600          39.200
 106855437.445 8  83109785.137 7                  19975442.600    19975443.100
  19975441.500          49.300          46.750
 111253823.026 7  86530797.599 6                  20870920.500    20870927.440
  20870926.200          47.850          40.700
 140425098.244 7                 104862931.847 7  26721997.100
                        46.400
 139333548.434 6                                  26514294.240
                        38.900
 15  1 27 21  8 10.0000000  0 21G22G14G31G15G06G24G12G25G29G02R18R20
                                R16R01R08R09R07R19R10E19E20
 133264287.215 6 103842305.31945                  25359350.780
  25359346.920          36.100          32.100
 115676148.402 7  90137260.39947                  22012429.940
  22012425.700          47.750          43.550
 132903467.888 7 103561139.106 5                  25290688.520    25290685.760
  25290685.020          42.100          35.650
 131204441.581 7 102237247.758 6                  24967363.440    24967361.740
  24967361.020          44.200          37.950
 128513707.560 7 100140556.931 6  95968030.350 8  24455343.100    24455342.820
  24455342.180          43.000          40.950
 111381097.200 8  86790552.583 8  83174297.188 8  21195084.860    21195083.320
  21195082.840          49.250          49.900
 107945970.152 8  84113854.992 8                  20541367.880    20541363.140
  20541362.400          49.600          48.450
 109267975.799 8  85143985.585 8  81596348.181 8  20792959.780    20792958.740
  20792958.020          49.450          49.100
 117445457.570 8  91516095.480 7                  22349061.800    22349058.740
  22349058.000          49.000          44.800
 126214652.058 7  98349069.14346                  24017841.880
  24017834.380          47.000          38.800
 123168869.798 7  95798087.694 6                  23073660.280    23073663.380
  23073662.260          45.250          40.900
 113997302.623 7  88664599.056 7                  21318021.700    21318026.100
  21318023.820          44.400          44.300
 122307613.081 7  95128155.297 6                  22896241.780    22896244.860
  22896244.240          44.900          40.250
 125616798.301 7  97701977.771 5                  23499222.440    23499226.020
  23499226.100          44.250          33.450
 119792653.480 7  93172071.998 7                  22370431.920    22370433.140
  22370432.120          46.550          42.300
 106962741.476 7  83193190.063 6                  20030649.800    20030652.300
  20030649.840          47.550          37.200
 126695127.075 7  98540658.218 6                  23667720.720    23667724.300
  23667723.480          45.300          39.450
 106854588.285 8  83109124.681 7                  19975283.880    19975284.380
  19975282.780          49.400          46.800
 111242986.901 7  86522369.504 6                  20868887.660    20868894.600
  20868893.360          47.500          41.350
 140436757.371 7                 104871638.324 7  26724215.780
                        46.550
 139347247.733 6                                  26516901.220
                        39.550
 15  1 27 21  8 15.0000000  0 21G22G14G31G15G06G24G12G25G29G02R18R20
                                R16R01R08R09R07R19R10E19E20
 133274465.890 6 103850236.81445                  25361287.640
  25361283.860          37.950          33.000
 115667980.392 7  90130895.71647                  22010875.640
  22010871.400          47.750          42.900
 132888081.641 7 103549149.853 6                  25287760.660    25287757.880
  25287757.120          42.200          36.850
 131222590.107 7 102251389.448 6                  24970817.040    24970815.400
  24970814.540          44.500          38.250
 128512934.489 7 100139954.542 6  95967453.053 8  24455195.940    24455195.680
  24455195.000          43.150          40.800
 111389755.333 8  86797299.180 8  83180762.673 8  21196732.400    21196730.900
  21196730.440          49.100          49.900
 107952281.484 8  84118772.917 8                  20542568.860    20542564.160
  20542563.400          49.550          48.300
 109262615.650 8  85139808.847 8  81592345.467 8  20791939.780    20791938.740
  20791938.000          49.350          49.100
 117428633.385 8  91502985.738 7                  22345860.240    22345857.220
  22345856.460          49.150          44.850
 126206166.673 7  98342457.15946                  24016227.200
  24016219.660          47.050          38.850
 123187203.712 7  95812347.409 6                  23077094.840    23077097.980
  23077096.780          45.450          40.750
 113977931.399 7  88649532.540 7                  21314399.180    21314403.540
  21314401.280          43.900          44.750
 122321035.028 7  95138594.605 6                  22898754.400    22898757.440
  22898756.820          44.650          40.750
 125610494.294 7  97697074.641 5                  23498043.200    23498046.580
  23498046.560          43.850          33.050
 119802129.653 7  93179442.344 7                  22372201.560    22372202.760
  22372201.740          46.450          42.250
 106965851.529 7  83195608.989 6                  20031232.200    20031234.720
  20031232.260          47.250          36.950
 126714322.034 7  98555587.591 6                  23671306.500    23671310.200
  23671309.260          45.150          39.450
 106853765.403 8  83108484.664 7                  19975130.080    19975130.540
  19975128.940          49.250          46.800
 111232157.410 7  86513946.574 6                  20866856.080    20866863.100
  20866861.780          47.650          41.200
 140448424.046 7                 104880350.438 7  26726435.900
                        46.800
 139360946.399 6                                  26519508.160
                        39.450
 15  1 27 21  8 20.0000000  0 21G22G14G31G15G06G24G12G25G29G02R18R20
                                R16R01R08R09R07R19R10E19E20
 133284644.994 6 103858168.48545                  25363224.680
  25363221.220          38.100          30.850
 115659823.931 7  90124540.03647                  22009323.520
  22009319.280          47.900          43.000
 132872691.515 6 103537157.545 6                  25284832.040    25284829.200
  25284828.500          41.750          37.900
 131240735.011 7 102265528.302 6                  24974269.920    24974268.300
  24974267.440          44.350          38.150
 128512173.189 7 100139361.317 6  95966884.550 8  24455051.060    24455050.780
  24455050.080          43.350          40.800
 111398420.401 8  86804051.171 8  83187233.339 8  21198381.240    21198379.820
  21198379.360          49.200          49.850
 107958597.584 8  84123694.545 8                  20543770.780    20543766.060
  20543765.320          49.450          48.350
 109257261.381 8  85135636.694 8  81588347.161 8  20790920.880    20790919.860
  20790919.120          49.450          49.050
 117411814.142 8  91489879.838 7                  22342659.660    22342656.600
  22342655.860          49.350          45.050
 126197686.706 7  98335849.38946                  24014613.560
  24014605.900          47.250          38.650
 123205546.032 7  95826613.657 6                  23080530.980    23080534.020
  23080532.880          45.750          40.550
 113958568.911 7  88634472.837 7                  21310778.280    21310782.640
  21310780.400          44.200          44.300
 122334459.394 7  95149035.777 6                  22901267.500    22901270.540
  22901269.920          44.100          40.850
 125604207.100 7  97692184.569 5                  23496867.180    23496870.320
  23496870.240          44.700          33.200
 119811620.041 7  93186823.747 7                  22373973.820    22373975.040
  22373974.000          46.300          42.250
 106968967.456 7  83198032.481 6                  20031815.700    20031818.300
  20031815.780          47.400          37.300
 126733515.694 7  98570515.912 6                  23674892.040    23674895.760
  23674894.780          45.050          39.250
 106852963.256 8  83107860.766 7                  19974980.120    19974980.580
  19974978.980          49.300          46.450
 111221329.166 7  86505524.600 6                  20864824.680    20864831.740
  20864830.420          47.850          41.500
 140460092.734 7                 104889064.062 7  26728656.400
                        46.650
 139374638.912 6                                  26522113.840
                        38.750
 15  1 27 21  8 25.0000000  0 21G22G14G31G15G06G24G12G25G29G02R18R20
                                R16R01R08R09R07R19R10E19E20
 133294828.144 6 103866103.31945                  25365162.440
  25365159.300          36.900          35.000
 115651682.804 7  90118196.29947                  22007774.300
  22007770.040          47.900          42.550
 132857301.334 6 103525165.232 6                  25281903.440    25281900.580
  25281899.900          40.900          37.800
 131258880.165 7 102279667.354 6                  24977722.900    24977721.260
  24977720.340          44.300          38.500
 128511427.497 7 100138780.250 6  95966327.698 8  24454909.160    24454908.860
  24454908.060          43.750          40.550
 111407096.275 8  86810811.592 8  83193712.072 8  21200032.160    21200030.800
  21200030.320          49.250          49.850
 107964922.219 8  84128622.832 8                  20544974.300    20544969.580
  20544968.860          49.700          48.300
 109251916.818 8  85131472.103 8  81584356.103 8  20789903.840    20789902.820
  20789902.060          49.350          48.900
 117395003.609 8  91476780.734 7                  22339460.740    22339457.620
  22339456.880          49.450          44.850
 126189216.017 7  98329248.84446                  24013001.660
  24012993.940          47.200          39.100
 123223900.655 7  95840889.470 6                  23083969.420    23083972.440
  23083971.320          46.150          40.750
 113939219.039 7  88619422.931 7                  21307159.740    21307164.100
  21307161.840          43.900          44.150
 122347890.111 7  95159481.876 6                  22903781.800    22903784.800
  22903784.200          44.000          40.550
 125597940.718 7  97687310.711 5                  23495695.040    23495698.100
  23495697.840          44.800          34.250
 119821128.424 7  93194219.143 7                  22375749.420    22375750.680
  22375749.640          46.300          42.050
 106972093.053 7  83200463.501 6                  20032401.020    20032403.680
  20032401.100          47.650          36.900
 126752711.908 7  98585446.261 6                  23678478.080    23678481.780
  23678480.800          44.650          39.950
 106852185.710 8  83107256.010 7                  19974834.740    19974835.160
  19974833.600          49.250          46.450
 111210505.927 7  86497106.528 6                  20862794.260    20862801.320
  20862800.040          47.800          41.150
 140471767.282 7                 104897782.063 7  26730877.980
                        46.800
 139388329.094 6                                  26524719.040
                        38.900
 15  1 27 21  8 30.0000000  0 21G22G14G31G15G06G24G12G25G29G02R18R20
                                R16R01R08R09R07R19R10E19E20
 133305013.777 6 103874040.29645                  25367100.720
  25367098.020          38.400          32.150
 115643555.297 8  90111863.18147                  22006227.700
  22006223.400          48.400          42.450
 132841909.406 6 103513171.560 6                  25278974.460    25278971.600
  25278970.900          41.850          38.100
 131277023.808 7 102293805.229 6                  24981175.560    24981173.940
  24981173.020          45.100          38.550
 128510695.663 7 100138209.992 6  95965781.191 8  24454769.860    24454769.640
  24454768.780          44.600          40.700
 111415781.049 8  86817578.953 8  83200197.463 8  21201684.800    21201683.460
  21201683.000          49.850          49.700
 107971253.688 8  84133556.449 8                  20546179.120    20546174.420
  20546173.720          49.900          48.150
 109246580.248 8  85127313.747 8  81580371.015 8  20788888.340    20788887.320
  20788886.520          49.850          48.900
 117378200.105 8  91463687.103 7                  22336263.160    22336259.960
  22336259.260          49.950          44.550
 126180752.827 7  98322654.15446                  24011391.200
  24011383.460          47.550          38.400
 123242265.805 7  95855173.490 6                  23087409.840    23087412.900
  23087411.720          45.250          40.950
 113919880.112 7  88604381.541 7                  21303543.240    21303547.600
  21303545.300          43.000          44.250
 122361325.466 7  95169931.600 6                  22906296.960    22906299.940
  22906299.340          43.050          40.650
 125591693.282 7  97682451.610 5                  23494526.440    23494529.500
  23494529.000          43.900          33.200
 119830653.132 7  93201627.251 7                  22377528.120    22377529.420
  22377528.300          45.950          42.000
 106975226.650 7  83202900.743 6                  20032987.840    20032990.560
  20032987.900          46.850          36.850
 126771908.946 7  98600377.243 6                  23682064.300    23682068.060
  23682067.000          43.400          39.900
 106851430.992 8  83106669.011 7                  19974693.660    19974694.080
  19974692.460          48.450          46.400
 111199685.924 7  86488690.972 6                  20860764.460    20860771.480
  20860770.240          46.900          41.250
 140483445.899 7                 104906503.112 7  26733100.380
                        47.500
 139402015.240 6                                  26527323.520
                        40.500
 15  1 27 21  8 35.0000000  0 21G22G14G31G15G06G24G12G25G29G02R18R20
                                R16R01R08R09R07R19R10E19E20
 133315202.810 6 103881979.69844                  25369039.660
  25369037.140          39.400          25.400
 115635442.384 8  90105541.43547                  22004683.860
  22004679.560          48.350          42.600
 132826516.640 7 103501177.218 6                  25276045.300    25276042.520
  25276041.680          42.050          37.500
 131295166.823 7 102307942.607 6                  24984628.080    24984626.480
  24984625.580          45.850          39.350
 128509978.581 7 100137651.231 6  95965245.730 8  24454633.440    24454633.160
  24454632.260          43.950          40.700
 111424475.726 8  86824354.025 8  83206690.243 8  21203339.320    21203338.000
  21203337.540          49.900          49.650
 107977592.927 8  84138496.115 8                  20547385.420    20547380.720
  20547380.040          50.100          48.250
 109241252.564 8  85123162.316 8  81576392.560 8  20787874.500    20787873.500
  20787872.700          49.700          48.700
 117361404.571 8  91450599.681 7                  22333067.080    22333063.840
  22333063.140          49.700          44.550
 126172298.064 7  98316066.02946                  24009782.280
  24009774.600          47.450          38.350
 123260642.312 7  95869466.335 6                  23090852.440    23090855.380
  23090854.260          45.050          40.850
 113900552.948 7  88589349.317 7                  21299928.960    21299933.300
  21299931.000          43.350          44.100
 122374766.263 7  95180385.562 6                  22908813.160    22908816.140
  22908815.540          43.050          41.100
 125585465.861 7  97677608.026 5                  23493361.520    23493364.540
  23493363.960          42.950          34.600
 119840195.126 7  93209048.802 7                  22379310.020    22379311.360
  22379310.220          46.100          42.300
 106978369.066 7  83205344.847 6                  20033576.300    20033578.960
  20033576.340          47.050          37.100
 126791107.630 7  98615309.513 6                  23685650.840    23685654.620
  23685653.520          43.350          40.350
 106850699.999 8  83106100.467 7                  19974557.000    19974557.400
  19974555.740          48.550          46.350
 111188870.247 7  86480278.779 6                  20858735.500    20858742.440
  20858741.240          47.200          41.050
 140495129.548 7                 104915227.905 7  26735323.760
                        47.200
 139415698.180 6                                  26529927.440
                        40.950
 15  1 27 21  8 40.0000000  0 21G22G14G31G15G06G24G12G25G29G02R18R20
                                R16R01R08R09R07R19R10E19E20
 133325394.825 6 103889921.47544                  25370979.280
  25370976.580          39.300          29.500
 115627343.723 7  90099230.79047                  22003142.720
  22003138.460          47.950          42.450
 132811122.663 7 103489181.933 6                  25273115.900    25273113.160
  25273112.360          42.350          38.050
 131313308.882 7 102322079.251 6                  24988080.460    24988078.860
  24988078.020          46.200          39.650
 128509275.946 7 100137103.746 6  95964721.044 8  24454499.780    24454499.520
  24454498.560          43.900          40.700
 111433179.948 8  86831136.537 8  83213190.152 8  21204995.640    21204994.360
  21204993.880          49.800          49.450
 107983939.625 8  84143441.600 8                  20548593.140    20548588.460
  20548587.800          49.700          48.100
 109235933.420 8  85119017.534 8  81572420.478 8  20786862.300    20786861.300
  20786860.500          49.600          48.850
 117344616.679 8  91437518.216 7                  22329872.440    22329869.160
  22329868.480          49.400          44.200
 126163851.440 7  98309484.25346                  24008174.920
  24008167.260          47.350          38.900
 123279029.882 7  95883767.793 6                  23094297.100    23094300.000
  23094298.860          45.250          40.800
 113881237.263 7  88574326.004 7                  21296316.800    21296321.120
  21296318.800          43.750          44.300
 122388212.176 7  95190843.467 6                  22911330.280    22911333.220
  22911332.700          43.500          40.650
 125579257.948 7  97672779.658 5                  23492200.180    23492203.280
  23492202.660          43.700          34.950
 119849753.891 7  93216483.404 7                  22381095.060    22381096.360
  22381095.280          46.650          42.450
 106981520.060 7  83207795.628 6                  20034166.380    20034169.060
  20034166.440          47.450          36.800
 126810307.714 7  98630242.870 6                  23689237.640    23689241.380
  23689240.300          43.100          40.750
 106849992.444 8  83105550.155 7                  19974424.740    19974425.080
  19974423.420          48.950          46.200
 111178058.395 7  86471869.563 6                  20856707.280    20856714.120
  20856712.940          47.650          40.750
 140506817.819 7                 104923956.161 7  26737547.960
                        47.000
 139429377.597 6                                  26532530.660
                        41.100
 15  1 27 21  8 45.0000000  0 21G22G14G31G15G06G24G12G25G29G02R18R20
                                R16R01R08R09R07R19R10E19E20
 133335589.412 5 103897865.36945                  25372919.300
  25372916.180          34.350          31.100
 115619259.027 7  90092931.02847                  22001604.260
  22001599.980          47.800          43.050
 132795727.211 7 103477185.531 6                  25270186.240    25270183.580
  25270182.760          43.450          36.900
 131331449.635 7 102336214.868 6                  24991532.540    24991531.000
  24991530.180          45.800          39.900
 128508587.482 7 100136567.276 6  95964206.927 8  24454368.800    24454368.580
  24454367.620          44.500          41.650
 111441893.425 8  86837926.253 8  83219696.961 8  21206653.740    21206652.480
  21206652.000          49.700          49.550
 107990293.452 8  84148392.622 8                  20549802.240    20549797.560
  20549796.900          49.950          48.200
 109230622.531 8  85114879.181 8  81568454.560 8  20785851.660    20785850.700
  20785849.860          49.600          49.000
 117327836.148 8  91424442.477 7                  22326679.180    22326675.940
  22326675.220          49.200          44.550
 126155412.681 7  98302908.59046                  24006569.060
  24006561.460          46.900          39.950
 123297428.233 7  95898077.621 6                  23097743.720    23097746.600
  23097745.480          45.050          40.900
 113861932.901 7  88559311.505 7                  21292706.760    21292711.120
  21292708.780          43.350          44.450
 122401663.011 7  95201305.219 6                  22913848.320    22913851.260
  22913850.700          43.650          40.400
 125573069.418 7  97667966.361 5                  23491042.480    23491045.720
  23491045.100          42.550          35.350
 119859329.235 7  93223930.887 6                  22382883.180    22382884.480
  22382883.420          46.550          41.650
 106984679.283 7  83210252.804 6                  20034758.000    20034760.740
  20034758.080          47.100          36.900
 126829508.783 7  98645176.964 6                  23692824.600    23692828.360
  23692827.240          43.150          40.650
 106849307.997 8  83105017.808 7                  19974296.800    19974297.160
  19974295.440          49.050          46.250
 111167250.103 7  86463463.107 6                  20854679.720    20854686.460
  20854685.280          47.750          40.800
 140518510.452 7                 104932687.663 7  26739773.040
                        46.850
 139443053.218 6                                  26535133.140
                        40.950
 15  1 27 21  8 50.0000000  0 21G22G14G31G15G06G24G12G25G29G02R18R20
                                R16R01R08R09R07R19R10E19E20
 133345787.006 5 103905811.47144                  25374859.800
  25374856.700          34.250          29.800
 115611188.572 8  90086642.36647                  22000068.500
  22000064.200          48.000          43.000
 132780330.567 7 103465188.139 6                  25267256.420    25267253.700
  25267252.800          43.750          36.400
 131349589.337 7 102350349.662 6                  24994984.420    24994982.920
  24994982.060          46.000          39.550
 128507913.473 7 100136042.058 7  95963703.603 8  24454240.600    24454240.340
  24454239.480          44.650          42.050
 111450616.414 8  86844723.384 8  83226210.873 8  21208313.660    21208312.400
  21208311.920          49.750          49.650
 107996654.672 8  84153349.419 8                  20551012.740    20551008.060
  20551007.400          49.800          48.150
 109225320.179 8  85110747.487 8  81564495.012 8  20784842.660    20784841.660
  20784840.860          49.700          49.150
 117311063.259 8  91411372.704 7                  22323487.360    22323484.140
  22323483.420          49.200          44.700
 126146982.057 7  98296339.27646                  24004964.720
  24004957.200          46.850          39.300
 123315837.510 7  95912395.943 6                  23101192.420    23101195.280
  23101194.160          44.700          41.100
 113842639.986 7  88544305.908 7                  21289098.860    21289103.200
  21289100.860          43.400          44.450
 122415118.819 7  95211770.862 6                  22916367.300    22916370.140
  22916369.560          43.650          40.400
 125566900.340 6  97663168.156 6                  23489888.300    23489891.760
  23489891.180          41.400          36.050
 119868921.359 7  93231391.409 6                  22384674.460    22384675.740
  22384674.620          46.250          41.550
 106987847.061 7  83212716.623 6                  20035351.220    20035353.980
  20035351.320          47.050          37.250
 126848711.086 7  98660112.051 6                  23696411.800    23696415.580
  23696414.420          43.800          40.850
 106848646.979 8  83104503.678 7                  19974173.240    19974173.600
  19974171.860          48.800          46.300
 111156445.799 8  86455059.764 6                  20852652.940    20852659.620
  20852658.380          48.050          40.550
 140530207.703 7                 104941422.602 7  26741998.960
                        46.950
 139456725.283 6                                  26537734.940
                        40.800
 15  1 27 21  8 55.0000000  0 21G22G14G31G15G06G24G12G25G29G02R18R20
                                R16R01R08R09R07R19R10E19E20
 133355987.26316                                  25376800.660
                        37.200
 115603132.180 8  90080364.65647                  21998535.420
  21998531.120          48.000          43.300
 132764932.528 7 103453189.677 5                  25264326.320    25264323.460
  25264322.560          43.950          35.900
 131367727.885 7 102364483.585 6                  24998436.140    24998434.580
  24998433.800          45.550          39.850
 128507253.725 7 100135527.968 6  95963210.940 8  24454115.080    24454114.820
  24454113.980          44.200          41.900
 111459348.717 8  86851527.772 8  83232731.754 8  21209975.340    21209974.100
  21209973.600          49.750          49.650
 108003023.097 8  84158311.818 8                  20552224.600    20552219.920
  20552219.260          50.150          48.200
 109220026.167 8  85106622.283 8  81560541.693 8  20783835.260    20783834.260
  20783833.460          49.700          49.200
 117294297.860 8  91398308.769 7                  22320296.960    22320293.740
  22320293.040          49.350          44.550
 126138559.446 7  98289776.20746                  24003361.900
  24003354.480          46.900          38.900
 123334257.624 7  95926722.703 6                  23104643.140    23104646.000
  23104644.860          44.550          41.150
 113823358.433 7  88529309.153 7                  21285493.100    21285497.420
  21285495.100          43.000          44.400
 122428579.736 7  95222240.475 6                  22918887.260    22918890.020
  22918889.440          43.350          41.100
 125560750.772 6  97658385.165 6                  23488737.760    23488741.620
  23488740.960          40.700          36.000
 119878530.057 7  93238864.841 7                  22386468.840    22386470.120
  22386468.960          46.150          42.100
 106991023.166 7  83215186.927 6                  20035946.020    20035948.680
  20035946.140          47.350          37.350
 126867914.569 7  98675048.052 6                  23699999.180    23700003.020
  23700001.820          43.800          40.900
 106848009.192 8  83104007.626 7                  19974054.040    19974054.360
  19974052.660          48.500          46.250
 111145645.114 7  86446659.237 6                  20850626.820    20850633.440
  20850632.160          47.900          40.600
 140541909.364 7                 104950160.859 7  26744225.740
                        46.650
 139470393.612 6                                  26540336.080
                        40.800
 15  1 27 21  9  0.0000000  0 21G22G14G31G15G06G24G12G25G29G02R18R20
                                R16R01R08R09R07R19R10E19E20
 133366191.242 6 103921707.90744                  25378742.580
  25378748.760          36.700          27.300
 115595090.730 8  90074098.58947                  21997005.180
  21997000.880          48.350          43.200
 132749534.054 7 103441190.855 6                  25261396.140    25261393.160
  25261392.280          44.250          37.050
 131385866.145 7 102378617.245 6                  25001887.780    25001886.220
  25001885.460          45.050          39.650
 128506609.092 7 100135025.655 6  95962729.552 8  24453992.420    24453992.080
  24453991.300          44.000          41.750
 111468091.293 8  86858340.167 8  83239260.290 8  21211638.960    21211637.740
  21211637.240          49.750          49.750
 108009399.654 8  84163280.568 8                  20553438.000    20553433.340
  20553432.680          49.900          48.200
 109214741.383 8  85102504.263 8  81556595.254 8  20782829.620    20782828.580
  20782827.800          49.750          49.200
 117277540.852 8  91385251.354 7                  22317108.180    22317105.000
  22317104.300          49.450          44.650
 126130145.696 7  98283220.04446                  24001760.760
  24001753.440          46.400          40.050
 123352689.409 7  95941058.525 6                  23108096.000    23108098.900
  23108097.760          44.600          40.800
 113804089.223 7  88514321.986 7                  21281889.560    21281893.980
  21281891.640          43.000          44.400
 122442046.421 7  95232714.538 6                  22921408.300    22921411.000
  22921410.500          43.100          41.600
 125554621.375 6  97653617.897 5                  23487590.960    23487595.080
  23487594.480          41.100          35.550
 119888156.228 7  93246351.852 7                  22388266.500    22388267.700
  22388266.620          46.000          42.250
 106994208.504 7  83217664.414 6                  20036542.560    20036545.220
  20036542.700          47.400          36.900
 126887120.003 7  98689985.545 6                  23703586.920    23703590.840
  23703589.600          44.100          41.000
 106847395.498 8  83103530.304 7                  19973939.320    19973939.640
  19973937.920          48.800          46.150
 111134848.984 7  86438262.237 6                  20848601.540    20848608.100
  20848606.760          47.950          40.700
 140553616.354 7                 104958903.072 7  26746453.500
                        46.850
 139484059.066 6                                  26542936.600
                        40.000
 15  1 27 21  9  5.0000000  0 21G22G14G31G15G06G24G12G25G29G02R18R20
                                R16R01R08R09R07R19R10E19E20
 133376397.390 5 103929660.50944                  25380685.680
  25380685.980          34.800          27.650
 115587062.852 8  90067843.11047                  21995477.520
  21995473.240          48.450          43.250
 132734133.682 7 103429190.578 6                  25258465.560    25258462.540
  25258461.680          44.750          37.000
 131404002.691 7 102392749.588 6                  25005339.140    25005337.580
  25005336.800          45.250          40.000
 128505978.201 7 100134534.087 6  95962258.458 8  24453872.400    24453872.000
  24453871.180          43.650          41.400
 111476842.682 8  86865159.436 8  83245795.420 8  21213304.260    21213303.080
  21213302.580          49.750          49.750
 108015782.972 8  84168254.586 8                  20554652.700    20554648.040
  20554647.360          50.200          48.300
 109209464.418 8  85098392.357 8  81552654.677 8  20781825.460    20781824.400
  20781823.640          49.800          49.250
 117260790.808 8  91372199.385 7                  22313920.760    22313917.560
  22313916.860          49.600          44.800
 126121739.407 7  98276669.70046                  24000160.980
  24000153.840          46.250          39.250
 123371131.430 7  95955402.330 6                  23111550.820    23111553.720
  23111552.560          44.750          40.650
 113784830.846 7  88499343.273 7                  21278288.120    21278292.540
  21278290.200          43.400          44.300
 122455517.562 7  95243192.076 6                  22923930.100    22923932.820
  22923932.360          42.800          40.750
 125548510.930 6  97648865.327 5                  23486447.760    23486452.140
  23486451.560          41.850          35.700
 119897798.394 7  93253851.317 7                  22390067.140    22390068.320
  22390067.300          46.000          42.100
 106997401.748 7  83220148.052 6                  20037140.580    20037143.240
  20037140.720          47.550          37.350
 126906325.984 7  98704923.478 6                  23707174.840    23707178.800
  23707177.540          44.750          41.200
 106846804.446 8  83103070.614 7                  19973828.820    19973829.160
  19973827.420          49.100          46.100
 111124056.044 7  86429867.741 6                  20846576.860    20846583.400
  20846582.020          47.950          40.750
 140565327.205 7                 104967648.198 7  26748682.020
                        47.000
 139497720.280 6                                  26545536.300
                        40.000
 15  1 27 21  9 10.0000000  0 21G22G14G31G15G06G24G12G25G29G02R18R20
                                R16R01R08R09R07R19R10E19E20
 133386607.062 5                                  25382627.380
                        34.300
 115579049.874 8  90061599.22547                  21993952.700
  21993948.440          48.250          42.950
 132718732.812 7 103417189.905 6                  25255534.900    25255531.860
  25255531.000          44.900          37.500
 131422138.843 7 102406881.632 6                  25008790.400    25008788.820
  25008788.080          44.700          40.000
 128505362.430 7 100134054.258 6  95961798.646 7  24453755.220    24453754.800
  24453753.880          43.400          40.900
 111485604.251 8  86871986.628 8  83252338.152 8  21214971.480    21214970.340
  21214969.840          49.700          49.700
 108022174.249 8  84173234.816 8                  20555868.900    20555864.280
  20555863.580          49.750          48.300
 109204196.650 8  85094287.602 8  81548720.958 8  20780823.080    20780822.000
  20780821.220          49.850          49.150
 117244049.147 8  91359153.932 7                  22310734.940    22310731.720
  22310731.040          49.650          44.800
 126113341.968 7  98270126.25146                  23998562.920
  23998555.900          46.950          39.750
 123389585.003 7  95969755.115 6                  23115007.780    23115010.720
  23115009.520          44.800          41.100
 113765584.697 7  88484374.042 7                  21274688.900    21274693.380
  21274691.060          43.350          44.250
 122468994.428 7  95253674.093 6                  22926452.980    22926455.740
  22926455.200          42.950          40.650
 125542420.778 6  97644128.552 5                  23485308.300    23485312.820
  23485312.340          41.850          35.750
 119907458.011 7  93261364.357 7                  22391870.980    22391872.140
  22391871.240          46.100          42.100
 107000604.214 7  83222638.849 6                  20037740.300    20037742.920
  20037740.460          47.700          37.100
 126925533.797 7  98719862.832 6                  23710763.040    23710767.040
  23710765.800          44.650          41.100
 106846237.466 8  83102629.629 7                  19973722.880    19973723.180
  19973721.420          49.300          46.200
 111113267.558 7  86421476.704 6                  20844553.040    20844559.520
  20844558.100          47.850          41.000
 140577043.294 7                 104976397.229 7  26750911.540
                        46.800
 139511378.566 6                                  26548135.500
                        40.750
 15  1 27 21  9 15.0000000  0 21G22G14G31G15G06G24G12G25G29G02R18R20
                                R16R01R08R09R07R19R10E19E20
 133396820.376 5 103945564.62745                  25384570.300
  25384569.280          35.950          32.100
 115571051.970 8  90055367.10047                  21992430.780
  21992426.480          48.250          43.400
 132703331.633 7 103405188.988 6                  25252604.200    25252601.140
  25252600.300          44.100          36.750
 131440274.804 7 102421013.498 6                  25012241.580    25012240.080
  25012239.300          44.900          41.100
 128504761.905 7 100133586.313 6  95961350.201 7  24453640.960    24453640.540
  24453639.600          44.350          40.550
 111494376.150 8  86878821.872 8  83258888.592 8  21216640.700    21216639.580
  21216639.060          49.600          49.650
 108028573.692 8  84178221.378 8                  20557086.680    20557082.020
  20557081.340          49.950          48.250
 109198938.196 8  85090190.105 8  81544794.196 8  20779822.460    20779821.340
  20779820.580          49.900          49.150
 117227315.971 8  91346115.094 7                  22307550.760    22307547.520
  22307546.820          49.750          44.950
 126104953.547 7  98263589.80946                  23996966.620
  23996959.640          47.100          39.000
 123408050.293 7  95984117.007 6                  23118466.960    23118469.840
  23118468.680          44.850          41.550
 113746351.042 7  88469414.543 7                  21271092.040    21271096.580
  21271094.260          44.050          44.350
 122482477.266 7  95264160.744 6                  22928976.920    22928979.680
  22928979.200          42.900          40.700
 125536351.131 7  97639407.735 5                  23484172.700    23484177.420
  23484176.980          43.050          35.750
 119917135.111 7  93268890.981 7                  22393678.120    22393679.320
  22393678.380          46.300          42.200
 107003815.964 7  83225136.889 6                  20038341.780    20038344.320
  20038341.960          47.850          37.350
 126944743.670 7  98734803.786 6                  23714351.640    23714355.740
  23714354.440          44.300          41.100
 106845694.688 8  83102207.475 7                  19973621.420    19973621.700
  19973619.940          49.350          46.600
 111102483.929 8  86413089.441 6                  20842530.080    20842536.580
  20842535.100          48.100          41.250
 140588764.750 7                 104985150.253 7  26753142.080
                        46.850
 139525034.041 6                                  26550734.180
                        40.750
