     2.11           OBSERVATION DATA    M (MIXED)           RINEX VERSION / TYPE
teqc  2011Oct11     IGN-E (SPG)         20150127 19:00:43UTCPGM / RUN BY / DATE
Linux 2.4.21-27.ELsmp|Opteron|gcc -static|Linux x86_64|=+   COMMENT
BIT 2 OF LLI FLAGS DATA COLLECTED UNDER A/S CONDITION       COMMENT
VALE                                                        MARKER NAME
13439M001                                                   MARKER NUMBER
Programas GeodesicosInstituto Geografico Nacional           OBSERVER / AGENCY
1700071             LEICA GR10          3.03/6.214          REC # / TYPE / VERS
10190012            LEIAR25.R3      LEIT                    ANT # / TYPE
  4929534.0457   -29050.6755  4033709.9250                  APPROX POSITION XYZ
        3.0390        0.0000        0.0000                  ANTENNA: DELTA H/E/N
     1     1                                                WAVELENGTH FACT L1/2
     8    L1    L2    L5    C1    C2    P2    S1    S2      # / TYPES OF OBSERV
     5.0000                                                 INTERVAL
Forced Modulo Decimation to 5 seconds                       COMMENT
DefaultJobName                                              COMMENT
DefaultUserDiscription                                      COMMENT
Project creator:                                            COMMENT
 SNR is mapped to RINEX snr flag value [0-9]                COMMENT
  L1 & L2: min(max(int(snr_dBHz/6), 0), 9)                  COMMENT
  2015     1    27    18     0    0.0000000     GPS         TIME OF FIRST OBS
    15                                                      LEAP SECONDS
                                                            END OF HEADER
 15  1 27 18  0  0.0000000  0 19G22G18G13G17G15G28G24G12G05R18R05R16
                                R17R24R06R09R15E19E20
 135064307.344 6 105244890.44345                  25701883.260
  25701881.320          36.900          30.250
 122757926.827 7  95655542.13346                  23360044.280
  23360040.580          46.200          38.150
 110017390.561 8  85727904.76347                  20935587.040
  20935582.900          49.450          46.050
 123085506.652 8  95910847.114 7                  23422364.280    23422361.200
  23422360.720          48.100          43.950
 107068630.979 8  83430133.631 8                  20374463.000    20374459.320
  20374458.580          49.650          49.750
 124929439.980 7  97347750.05646                  23773213.180
  23773208.540          45.600          40.350
 113395670.015 8  88360346.260 8  84678681.983 8  21578447.460    21578447.120
  21578446.480          48.000          48.750
 121063753.817 7  94335493.428 7                  23037607.400    23037605.560
  23037604.760          47.750          43.100
 130312739.325 7 101542395.380 6                  24797686.860    24797687.360
  24797686.700          45.450          41.100
 127641869.440 6  99277076.355 6                  23911612.040    23911618.460
  23911617.060          41.400          36.200
 114204818.093 7  88826015.570 7                  21364358.820    21364362.360
  21364361.800          46.350          45.400
 105305842.854 7  81904603.188 7                  19713458.840    19713461.740
  19713460.700          46.050          46.350
 122763082.537 7  95482411.938 6                  22941214.000    22941215.840
  22941214.960          44.400          41.000
 128598656.920 6 100021190.359 5                  24048597.920    24048600.560
  24048598.420          38.950          32.800
 104388444.838 7  81191071.724 7                  19562334.620    19562336.720
  19562336.920          47.900          46.000
 117813969.814 7  91633024.769 5                  22062743.620    22062748.400
  22062746.040          44.300          32.900
 116446990.595 7  90570035.508 7                  21791408.920    21791414.500
  21791412.320          43.050          42.900
 137895763.317 7                 102974141.701 7  26240681.880
                        46.450


 15  1 27 18  0  5.0000000  0 20G22G18G13G17G15G28G24G12G05R18R05R16
                                R17R24R06R09R07R15E19E20
 135050570.558 6 105234186.29045                  25699269.200
  25699266.460          39.600          30.700
 122750261.877 7  95649569.44946                  23358585.740
  23358582.000          47.300          38.150
 110026251.709 8  85734809.55247                  20937273.260
  20937269.140          50.150          45.150
 123079910.186 8  95906486.232 7                  23421299.320    23421296.180
  23421295.760          48.900          44.050
 107066166.701 8  83428213.420 8                  20373994.060    20373990.360
  20373989.640          50.200          49.700
 124944312.761 7  97359339.22546                  23776043.380
  23776038.740          46.650          37.800
 113386939.885 8  88353543.570 8  84672162.744 8  21576786.160    21576785.820
  21576785.180          48.800          48.600
 121045847.304 8  94321540.320 7                  23034199.860    23034198.060
  23034197.260          48.250          43.050
 130330664.534 7 101556363.023 6                  24801097.940    24801098.440
  24801097.820          45.750          40.800
 127623732.284 7  99262969.701 6                  23908214.360    23908220.660
  23908219.280          43.000          36.750
 114224450.651 7  88841285.334 7                  21368031.500    21368035.040
  21368034.500          47.650          44.750
 105305729.476 7  81904515.008 7                  19713437.620    19713440.520
  19713439.460          47.750          46.600
 122754243.699 7  95475537.305 6                  22939562.240    22939564.140
  22939563.240          45.850          41.550
 128605506.281 6 100026517.650 5                  24049878.760    24049881.280
  24049879.260          41.050          31.650
 104388959.471 8  81191472.000 7                  19562431.040    19562433.180
  19562433.380          49.450          46.250
 117801186.305 7  91623082.069 5                  22060349.660    22060354.400
  22060352.080          46.000          33.750
 119078566.35217  92616676.10117                  22244876.980    22244880.180
  22244879.000          46.800          43.250
 116461557.887 7  90581365.625 7                  21794134.940    21794140.560
  21794138.380          44.700          43.100
 137885210.531 7                 102966261.403 7  26238673.740
                        47.150


 15  1 27 18  0 10.0000000  0 20G22G18G13G17G15G28G24G12G05R18R05R16
                                R17R24R06R09R07R15E19E20
 135036841.807 6 105223488.53345                  25696656.720
  25696653.780          39.900          30.550
 122742610.159 7  95643607.06746                  23357129.680
  23357125.900          46.700          39.250
 110035124.466 8  85741723.38047                  20938961.700
  20938957.580          49.900          46.000
 123074326.590 8  95902135.384 7                  23420236.800    23420233.640
  23420233.240          48.500          43.950
 107063715.245 8  83426303.191 8                  20373527.560    20373523.860
  20373523.160          49.900          49.750
 124959190.265 7  97370932.08646                  23778874.480
  23778869.820          46.350          38.600
 113378215.822 8  88346745.601 8  84665648.028 8  21575126.020    21575125.660
  21575125.060          48.300          48.650
 121027947.668 7  94307592.572 7                  23030793.680    23030791.840
  23030791.020          47.650          43.050
 130348588.780 7 101570329.900 6                  24804508.880    24804509.360
  24804508.800          45.750          41.150
 127605597.519 7  99248864.905 6                  23904817.140    23904823.320
  23904822.040          43.250          37.750
 114244094.227 7  88856563.651 7                  21371706.240    21371709.820
  21371709.240          47.600          44.650
 105305626.678 7  81904435.058 7                  19713418.380    19713421.280
  19713420.220          47.900          46.700
 122745421.892 7  95468675.910 6                  22937913.660    22937915.520
  22937914.720          45.800          40.900
 128612375.050 6 100031860.001 5                  24051163.320    24051165.740
  24051163.740          41.800          32.500
 104389497.353 8  81191890.351 7                  19562531.840    19562533.980
  19562534.200          49.350          46.300
 117788410.828 7  91613145.599 5                  22057957.180    22057961.980
  22057959.640          46.150          33.950
                                                  22241626.080    22241629.080
  22241628.140          46.700          43.400
 116476127.025 7  90592697.173 7                  21796861.320    21796866.940
  21796864.780          44.850          43.000
 137874665.622 7                 102958386.961 7  26236667.100
                        46.650


 15  1 27 18  0 15.0000000  0 20G22G18G13G17G15G28G24G12G05R18R05R16
                                R17R24R06R09R07R15E19E20
 135023121.458 6 105212797.36743                  25694045.920
  25694042.940          40.800          21.750
 122734971.981 7  95637655.24846                  23355676.220
  23355672.360          47.050          38.050
 110044009.189 8  85748646.53647                  20940652.400
  20940648.300          50.100          45.950
 123068756.250 8  95897794.863 7                  23419176.820    23419173.600
  23419173.300          48.800          43.950
 107061276.925 8  83424403.203 8                  20373063.560    20373059.860
  20373059.180          50.200          49.700
 124974072.870 7  97382528.92546                  23781706.560
  23781701.920          47.000          38.250
 113369498.333 8  88339952.762 8  84659138.214 8  21573467.140    21573466.760
  21573466.160          48.450          48.600
 121010055.268 8  94293650.450 7                  23027388.860    23027386.960
  23027386.140          48.100          43.050
 130366512.413 7 101584296.314 6                  24807919.680    24807920.180
  24807919.620          46.000          40.800
 127587465.429 6  99234762.205 6                  23901420.320    23901426.500
  23901425.320          41.550          38.100
 114263749.070 7  88871850.733 7                  21375383.100    21375386.680
  21375386.080          46.350          44.600
 105305534.861 7  81904363.650 7                  19713401.180    19713404.120
  19713403.060          45.700          46.850
 122736617.437 7  95461827.988 6                  22936268.380    22936270.220
  22936269.360          44.400          40.650
 128619263.573 6 100037217.751 5                  24052451.500    24052453.920
  24052451.880          39.450          31.900
 104390058.897 7  81192327.111 7                  19562637.060    19562639.180
  19562639.460          47.800          46.450
 117775643.643 7  91603215.583 5                  22055566.260    22055571.160
  22055568.720          44.000          33.600
                                                  22238377.640    22238380.340
  22238379.440          44.500          43.050
 116490698.311 7  90604030.385 7                  21799588.160    21799593.740
  21799591.580          42.800          42.700
 137864128.934 7                 102950518.673 7  26234662.040
                        47.050


 15  1 27 18  0 20.0000000  0 20G22G18G13G17G15G28G24G12G05R18R05R16
                                R17R24R06R09R07R15E19E20
 135009407.939 6 105202111.41145                  25691436.420
  25691433.020          39.900          30.400
 122727345.773 7  95631712.76746                  23354225.020
  23354221.100          46.200          39.450
 110052904.253 8  85755577.76047                  20942345.080
  20942340.980          49.250          46.400
 123063197.521 7  95893463.394 7                  23418119.040    23418115.840
  23418115.520          47.750          43.900
 107058850.155 8  83422512.217 8                  20372601.760    20372598.060
  20372597.380          49.600          49.750
 124988958.972 7  97394128.48746                  23784539.320
  23784534.640          46.200          38.500
 113360785.770 7  88333163.759 8  84652632.098 8  21571809.200    21571808.780
  21571808.180          47.550          48.550
 120992168.478 7  94279712.708 7                  23023985.140    23023983.240
  23023982.380          47.450          42.800
 130384433.766 7 101598260.939 6                  24811330.060    24811330.580
  24811329.900          45.300          40.900
 127569334.503 7  99220660.403 6                  23898023.780    23898029.820
  23898028.800          42.600          38.100
 114283413.488 7  88887145.286 7                  21379061.740    21379065.320
  21379064.720          47.250          44.750
 105305452.372 7  81904299.505 7                  19713385.760    19713388.660
  19713387.620          46.550          46.900
 122727828.885 7  95454992.447 6                  22934626.060    22934627.800
  22934626.940          45.650          41.100
 128626170.141 6 100042589.530 5                  24053743.080    24053745.240
  24053743.380          39.800          31.200
 104390642.495 8  81192781.025 7                  19562746.440    19562748.580
  19562748.820          48.400          46.300
 117762883.240 7  91593290.829 5                  22053176.620    22053181.660
  22053179.040          44.600          33.800
                                                  22235131.400    22235134.080
  22235132.720          45.350          42.800
 116505270.168 7  90615364.064 7                  21802315.100    21802320.620
  21802318.440          43.700          42.850
 137853598.862 7                 102942655.318 7  26232658.240
                        46.150


 15  1 27 18  0 25.0000000  0 20G22G18G13G17G15G28G24G12G05R18R05R16
                                R17R24R06R09R07R15E19E20
 134995701.264 6 105191430.93144                  25688828.200
  25688824.480          41.400          27.850
 122719731.574 8  95625779.62946                  23352776.060
  23352772.120          48.800          38.900
 110061809.673 8  85762517.04547                  20944039.720
  20944035.620          50.900          45.750
 123057650.431 8  95889140.995 7                  23417063.480    23417060.260
  23417059.920          49.950          43.600
 107056434.969 8  83420630.259 8                  20372142.180    20372138.460
  20372137.800          51.250          49.700
 125003848.553 8  97405730.76746                  23787372.720
  23787368.060          48.750          37.250
 113352078.042 8  88326378.525 8  84646129.584 8  21570152.180    21570151.740
  21570151.140          49.850          48.600
 120974287.379 8  94265779.394 7                  23020582.480    23020580.540
  23020579.700          49.600          42.500
 130402352.898 7 101612223.850 6                  24814740.000    24814740.480
  24814739.840          47.600          40.950
 127551204.724 7  99206559.507 6                  23894627.480    23894633.480
  23894632.480          44.400          37.650
 114303087.453 7  88902447.265 7                  21382742.180    21382745.780
  21382745.160          47.700          44.750
 105305379.187 7  81904242.579 7                  19713372.080    19713374.980
  19713373.940          47.400          46.800
 122719056.063 7  95448169.149 6                  22932986.660    22932988.340
  22932987.480          45.750          41.200
 128633094.831 6 100047975.409 5                  24055037.980    24055040.160
  24055038.260          40.750          31.600
 104391248.048 8  81193252.005 7                  19562859.940    19562862.060
  19562862.260          49.100          46.100
 117750129.590 7  91583371.344 5                  22050788.240    22050793.140
  22050790.660          45.850          34.200
 119009031.50017  92562590.72417                  22231887.140    22231889.520
  22231888.240          46.300          42.600
 116519842.699 7  90626698.264 7                  21805042.200    21805047.660
  21805045.440          45.050          43.100
 137843075.446 8                 102934796.931 7  26230655.700
                        48.350


 15  1 27 18  0 30.0000000  0 20G22G18G13G17G15G28G24G12G05R18R05R16
                                R17R24R06R09R07R15E19E20
 134982004.434 5 105180758.08345                  25686221.800
  25686217.980          33.350          30.350
 122712132.440 7  95619858.22246                  23351330.000
  23351326.080          46.450          38.400
 110070728.553 8  85769466.81247                  20945736.940
  20945732.820          49.550          46.300
 123052118.032 8  95884830.033 7                  23416010.720    23416007.440
  23416007.080          48.050          43.450
 107054034.398 8  83418759.684 8                  20371685.340    20371681.680
  20371681.000          49.750          49.750
 125018744.668 7  97417338.12446                  23790207.320
  23790202.720          46.650          38.350
 113343378.318 8  88319599.521 8  84639633.036 8  21568496.680    21568496.220
  21568495.600          48.000          48.650
 120956415.009 7  94251852.870 7                  23017181.520    23017179.520
  23017178.680          47.400          42.600
 130420272.884 7 101626187.394 6                  24818150.100    24818150.620
  24818149.980          45.600          41.400
 127533079.218 7  99192461.906 6                  23891231.980    23891237.780
  23891236.920          44.800          37.300
 114322774.218 8  88917759.169 7                  21386425.040    21386428.580
  21386427.960          48.350          44.800
 105305318.418 8  81904195.306 7                  19713360.740    19713363.620
  19713362.560          48.550          46.750
 122710302.205 7  95441360.594 6                  22931350.780    22931352.440
  22931351.620          45.650          40.600
 128640040.748 7 100053377.801 5                  24056336.900    24056339.160
  24056337.160          42.250          32.350
 104391878.682 8  81193742.490 7                  19562978.100    19562980.260
  19562980.420          49.900          46.000
 117737385.802 7  91573459.526 5                  22048401.700    22048406.560
  22048404.200          46.900          33.800
                  92549093.564 7                  22228645.560    22228647.960
  22228646.620          47.550          42.450
 116534419.003 7  90638035.384 7                  21807769.960    21807775.400
  21807773.180          45.500          43.150
 137832561.728 7                 102926945.787 7  26228654.960
                        46.250


 15  1 27 18  0 35.0000000  0 18G18G13G17G15G28G24G12G05R18R05R16R17
                                R24R06R09R15E19E20
 122704546.203 7  95613946.87446                  23349886.380
  23349882.440          45.950          39.050
 110079658.724 8  85776425.38547                  20947436.300
  20947432.160          49.550          46.050
 123046598.196 7  95880528.865 7                  23414960.360    23414957.000
  23414956.620          47.850          43.350
 107051646.350 8  83416898.875 8                  20371230.920    20371227.240
  20371226.580          49.450          49.800
 125033645.198 7  97428948.92446                  23793042.820
  23793038.180          45.900          38.600
 113334684.458 7  88312825.086 8  84633140.888 8  21566842.320    21566841.860
  21566841.180          47.700          48.700
 120938549.191 7  94237931.472 7                  23013781.800    23013779.740
  23013778.920          47.200          42.800
 130438191.551 7 101640149.937 6                  24821559.980    24821560.500
  24821559.900          44.400          41.000
 127514955.840 7  99178365.999 6                  23887836.820    23887842.500
  23887841.800          43.350          36.450
 114342471.428 7  88933079.194 7                  21390109.900    21390113.300
  21390112.740          47.500          44.550
 105305267.914 7  81904156.029 7                  19713351.300    19713354.180
  19713353.120          47.700          46.900
 122701565.116 7  95434565.092 6                  22929717.980    22929719.700
  22929718.840          44.050          40.750
 128647005.547 6 100058794.877 5                  24057639.360    24057641.640
  24057639.660          41.200          32.250
 104392532.182 8  81194250.773 7                  19563100.580    19563102.740
  19563102.880          49.100          46.150
 117724649.664 7  91563553.647 5                  22046016.600    22046021.580
  22046019.100          45.200          34.250
 116548996.648 7  90649373.551 7                  21810497.960    21810503.400
  21810501.160          44.200          43.400
 137822055.599 7                 102919100.321 7  26226655.680
                        46.100


 15  1 27 18  0 40.0000000  0 19G18G13G17G15G28G24G12G05R18R05R16R17
                                R24R06R09R07R15E19E20
 122696972.916 7  95608045.61846                  23348445.240
  23348441.300          47.600          38.000
 110088600.188 8  85783392.75347                  20949137.840
  20949133.680          50.650          45.000
 123041090.958 8  95876237.509 7                  23413912.420    23413909.000
  23413908.540          49.250          43.050
 107049270.837 8  83415047.828 8                  20370778.860    20370775.180
  20370774.540          50.400          49.700
 125048550.118 7  97440563.14846                  23795879.140
  23795874.520          47.300          36.850
 113325996.505 8  88306055.255 8  84626653.137 8  21565189.040    21565188.560
  21565187.920          49.000          48.600
 120920690.008 8  94224015.232 7                  23010383.340    23010381.200
  23010380.380          48.450          42.600
 130456108.902 7 101654111.437 6                  24824969.580    24824970.080
  24824969.500          45.300          40.900
 127496834.637 7  99164271.759 6                  23884442.100    23884447.720
  23884446.960          44.950          36.700
 114362179.217 8  88948407.464 7                  21393796.680    21393800.100
  21393799.480          48.750          44.350
 105305227.687 8  81904124.754 7                  19713343.800    19713346.660
  19713345.620          48.750          46.900
 122692844.925 7  95427782.728 6                  22928088.300    22928090.080
  22928089.220          45.300          40.650
 128653989.418 7 100064226.762 5                  24058945.380    24058947.720
  24058945.700          42.600          32.400
 104393208.749 8  81194776.995 7                  19563227.380    19563229.540
  19563229.680          49.800          46.300
 117711921.226 7  91553653.770 5                  22043632.920    22043637.920
  22043635.520          46.550          34.500
                                                  22222169.200    22222171.820
  22222170.440          47.500          42.850
 116563575.712 7  90660712.818 7                  21813226.240    21813231.720
  21813229.440          45.350          43.750
 137811557.070 7                 102911260.514 7  26224657.800
                        47.650


 15  1 27 18  0 45.0000000  0 18G18G13G17G15G28G24G12G05R18R05R16R17
                                R24R06R09R15E19E20
 122689412.000 7  95602153.99946                  23347006.480
  23347002.540          46.550          40.250
 110097552.385 8  85790368.48547                  20950841.420
  20950837.200          49.750          45.550
 123035595.778 8  95871955.551 7                  23412866.760    23412863.240
  23412862.740          48.250          43.100
 107046907.301 8  83413206.108 8                  20370329.080    20370325.420
  20370324.780          49.350          49.750
 125063458.863 7  97452180.34846                  23798716.140
  23798711.600          46.050          39.850
 113317313.762 8  88299289.479 8  84620169.249 8  21563536.780    21563536.280
  21563535.640          48.000          48.750
 120902836.921 7  94210103.742 7                  23006986.000    23006983.860
  23006983.040          47.000          42.750
 130474024.353 7 101668071.447 6                  24828378.820    24828379.340
  24828378.760          44.100          40.750
 127478715.061 7  99150178.758 6                  23881047.720    23881053.260
  23881052.480          43.550          37.700
 114381896.935 7  88963743.471 7                  21397485.340    21397488.700
  21397488.100          47.400          44.550
 105305197.055 7  81904100.937 7                  19713338.100    19713340.940
  19713339.900          47.050          46.900
 122684140.971 7  95421012.985 6                  22926461.700    22926463.540
  22926462.640          44.400          40.700
 128660991.878 6 100069673.129 5                  24060254.900    24060257.200
  24060255.200          40.400          31.900
 104393907.753 8  81195320.664 7                  19563358.400    19563360.500
  19563360.660          48.600          46.100
 117699199.947 7  91543759.462 5                  22041250.620    22041255.580
  22041253.240          44.750          34.200
 116578155.703 7  90672052.803 7                  21815954.620    21815960.180
  21815957.940          43.650          43.900
 137801065.613 7                 102903425.986 7  26222661.300
                        46.550


 15  1 27 18  0 50.0000000  0 20G22G18G13G17G15G28G24G12G05R18R05R16
                                R17R24R06R09R07R15E19E20
 134927293.31716 105138135.02755                  25675810.320
  25675806.560          37.100          34.100
 122681864.237 7  95596272.62646                  23345570.220
  23345566.220          47.200          39.100
 110106516.096 8  85797353.19147                  20952547.200
  20952542.940          50.150          45.550
 123030113.425 8  95867683.594 7                  23411823.560    23411819.940
  23411819.400          48.800          43.450
 107044556.511 8  83411374.329 8                  20369881.740    20369878.080
  20369877.440          50.000          49.800
 125078372.176 7  97463801.11346                  23801554.060
  23801549.520          46.550          38.350
 113308636.997 8  88292528.374 8  84613689.862 8  21561885.640    21561885.140
  21561884.500          48.800          48.900
 120884990.679 7  94196197.593 7                  23003589.960    23003587.820
  23003587.000          47.750          43.150
 130491938.675 7 101682030.593 6                  24831787.840    24831788.420
  24831787.840          44.550          40.400
 127460597.867 7  99136087.638 6                  23877653.800    23877659.240
  23877658.500          44.550          37.600
 114401625.264 8  88979087.731 7                  21401175.940    21401179.300
  21401178.700          48.600          44.700
 105305176.980 8  81904085.328 7                  19713334.380    19713337.180
  19713336.160          48.500          46.800
 122675454.086 7  95414256.518 6                  22924838.280    22924840.220
  22924839.280          45.850          41.150
 128668013.400 6 100075134.340 5                  24061567.920    24061570.240
  24061568.300          41.550          32.300
 104394629.769 8  81195882.234 7                  19563493.740    19563495.800
  19563495.940          49.750          46.150
 117686486.557 7  91533871.284 5                  22038869.760    22038874.800
  22038872.480          46.400          34.000
                                                  22215701.880    22215704.540
  22215703.440          47.150          43.200
 116592737.508 7  90683394.196 7                  21818683.320    21818688.960
  21818686.800          45.300          44.100
 137790581.985 7                 102895597.319 7  26220666.260
                        47.200


 15  1 27 18  0 55.0000000  0 20G22G18G13G17G15G28G24G12G05R18R05R16
                                R17R24R06R09R07R15E19E20
 134913633.525 6 105127491.06044                  25673211.800
  25673209.440          38.300          24.500
 122674327.707 7  95590400.01146                  23344136.100
  23344132.080          47.600          39.050
 110115489.340 8  85804345.32747                  20954254.800
  20954250.480          50.450          46.150
 123024641.927 8  95863420.091 7                  23410782.440    23410778.720
  23410778.160          49.000          43.500
 107042216.522 8  83409550.964 8                  20369436.420    20369432.800
  20369432.160          50.200          49.800
 125093288.090 7  97475423.89746                  23804392.460
  23804387.980          47.100          38.650
 113299964.415 8  88285770.524 8  84607213.591 8  21560235.300    21560234.820
  21560234.180          48.750          49.050
 120867149.313 8  94182295.249 7                  23000194.820    23000192.740
  23000191.880          48.000          43.200
 130509849.930 7 101695987.355 6                  24835196.300    24835196.860
  24835196.240          44.400          40.250
 127442481.143 7  99121996.904 6                  23874259.880    23874265.360
  23874264.620          44.300          37.750
 114421362.401 8  88994438.823 7                  21404868.200    21404871.560
  21404870.960          48.400          44.800
 105305165.273 8  81904076.229 7                  19713332.200    19713334.940
  19713333.960          48.050          46.750
 122666782.335 7  95407511.847 6                  22923217.720    22923219.700
  22923218.780          46.350          40.850
 128675052.323 6 100080609.055 5                  24062884.160    24062886.580
  24062884.660          41.100          32.200
 104395372.943 8  81196460.261 7                  19563633.000    19563635.060
  19563635.160          49.950          46.000
 117673779.209 7  91523987.800 5                  22036490.060    22036495.020
  22036492.780          46.550          34.200
                                                  22212471.420    22212474.100
  22212473.140          46.950          43.300
 116607319.011 7  90694735.349 7                  21821411.980    21821417.740
  21821415.580          45.650          43.950
 137780104.230 7                 102887773.023 7  26218672.340
                        47.350


 15  1 27 18  1  0.0000000  0 19G22G18G13G17G15G28G24G12G05R18R05R16
                                R17R24R06R09R15E19E20
 134899983.462 6 105116854.60944                  25670614.260
  25670610.620          40.050          29.950
 122666806.031 7  95584538.97646                  23342704.800
  23342700.740          47.800          38.500
 110124475.758 8  85811347.72447                  20955964.920
  20955960.540          50.850          45.700
 123019184.967 8  95859167.918 7                  23409744.060    23409740.220
  23409739.700          49.300          43.450
 107039890.959 8  83407738.830 8                  20368993.880    20368990.280
  20368989.600          50.450          49.700
 125108210.273 7  97487051.56846                  23807232.040
  23807227.620          47.150          37.600
 113291299.519 8  88279018.658 8  84600743.067 8  21558586.380    21558585.960
  21558585.360          48.850          49.100
 120849316.477 8  94168399.542 7                  22996801.320    22996799.240
  22996798.380          48.600          43.300
 130527761.718 7 101709944.532 6                  24838604.800    24838605.440
  24838604.800          43.650          39.950
 127424368.582 7  99107909.405 6                  23870866.820    23870872.240
  23870871.580          43.900          37.700
 114441111.874 7  89009799.495 7                  21408562.760    21408566.120
  21408565.520          47.150          44.900
 105305165.786 7  81904076.630 7                  19713332.340    19713334.960
  19713334.060          46.700          46.750
 122658129.417 7  95400781.792 6                  22921600.740    22921602.780
  22921601.760          45.000          41.000
 128682112.026 6 100086099.924 5                  24064204.280    24064206.760
  24064204.960          40.450          31.850
 104396141.019 8  81197057.640 7                  19563776.960    19563778.960
  19563779.060          48.950          45.850
 117661081.409 7  91514111.750 5                  22034112.180    22034117.060
  22034114.840          45.300          33.700
 116621903.843 7  90706079.105 7                  21824141.300    21824147.120
  21824145.000          44.000          43.600
 137769636.013 7                 102879955.874 7  26216680.260
                        47.550


 15  1 27 18  1  5.0000000  0 20G22G18G13G17G15G28G24G12G05R18R05R16
                                R17R24R06R09R07R15E19E20
 134886341.805 6 105106224.75044                  25668018.440
  25668016.280          38.950          25.900
 122659297.920 7  95578688.50646                  23341276.060
  23341271.980          46.650          39.900
 110133474.029 8  85818359.36647                  20957677.280
  20957672.880          49.950          45.850
 123013741.244 8  95854926.062 7                  23408708.220    23408704.280
  23408703.780          48.000          43.450
 107037578.499 8  83405936.911 8                  20368553.800    20368550.220
  20368549.560          49.550          49.700
 125123137.330 7  97498683.03946                  23810072.560
  23810068.180          46.050          39.100
 113282641.073 7  88272271.832 8  84594277.354 8  21556938.700    21556938.300
  21556937.760          47.650          49.050
 120831490.868 7  94154509.474 7                  22993409.160    22993407.080
  22993406.280          47.550          43.200
 130545672.668 6 101723901.039 6                  24842013.160    24842013.740
  24842013.220          41.950          40.100
 127406258.829 7  99093824.075 6                  23867474.260    23867479.700
  23867479.000          44.200          37.400
 114460872.405 7  89025168.774 7                  21412259.360    21412262.720
  21412262.120          47.450          44.350
 105305177.111 7  81904085.440 7                  19713334.460    19713337.040
  19713336.180          47.200          46.800
 122649493.955 7  95394065.315 6                  22919987.040    22919989.040
  22919988.000          45.250          41.400
 128689191.394 6 100091606.097 5                  24065528.180    24065530.460
  24065528.900          39.750          31.950
 104396932.696 8  81197673.389 7                  19563925.360    19563927.260
  19563927.400          48.750          46.000
 117648391.868 7  91504242.125 5                  22031735.840    22031740.580
  22031738.480          45.500          33.900
                                                  22206018.220    22206021.020
  22206020.180          45.750          43.100
 116636490.741 7  90717424.457 7                  21826871.000    21826876.820
  21826874.740          44.700          42.850
 137759175.988 7                 102872144.826 7  26214689.700
                        46.100


 15  1 27 18  1 10.0000000  0 20G22G18G13G17G15G28G24G12G05R18R05R16
                                R17R24R06R09R07R15E19E20
 134872706.076 6 105095599.47245                  25665423.600
  25665420.020          38.550          33.050
 122651800.768 7  95572846.57246                  23339849.360
  23339845.280          46.350          39.700
 110142481.604 8  85825378.26047                  20959391.440
  20959386.940          49.600          46.350
 123008308.197 7  95850692.538 7                  23407674.380    23407670.400
  23407669.880          47.700          43.400
 107035276.594 8  83404143.223 8                  20368115.760    20368112.180
  20368111.520          49.350          49.700
 125138066.717 7  97510316.33246                  23812913.540
  23812909.120          45.950          38.750
 113273986.565 7  88265528.072 8  84587814.582 8  21555291.780    21555291.440
  21555290.900          47.300          49.000
 120813669.960 7  94140623.077 7                  22990017.920    22990015.840
  22990015.080          47.350          43.200
 130563580.208 6 101737854.886 6                  24845420.880    24845421.460
  24845420.940          41.600          39.250
 127388149.343 7  99079738.962 6                  23864081.760    23864087.160
  23864086.520          45.650          37.050
 114480641.161 8  89040544.485 7                  21415957.540    21415960.880
  21415960.260          48.600          44.000
 105305196.627 8  81904100.627 7                  19713338.120    19713340.700
  19713339.860          48.650          46.700
 122640873.401 7  95387360.455 6                  22918376.060    22918378.180
  22918377.120          46.950          41.150
 128696287.718 6 100097125.474 5                  24066855.180    24066857.480
  24066856.080          41.350          32.550
 104397745.419 8  81198305.507 7                  19564077.700    19564079.560
  19564079.700          49.650          45.950
 117635708.048 7  91494376.953 5                  22029360.560    22029365.460
  22029363.160          46.400          33.900
                                                  22202794.700    22202797.460
  22202796.760          47.400          43.050
 116651077.058 7  90728769.382 7                  21829600.640    21829606.440
  21829604.360          46.050          42.350
 137748721.639 7                 102864338.005 7  26212700.280
                        45.850


 15  1 27 18  1 15.0000000  0 20G22G18G13G17G15G28G24G12G05R18R05R16
                                R17R24R06R09R07R15E19E20
 134859078.850 6 105084980.86043                  25662830.440
  25662827.980          40.500          21.550
 122644317.253 8  95567015.26646                  23338425.280
  23338421.200          48.100          37.750
 110151501.102 8  85832406.44047                  20961107.860
  20961103.300          50.850          45.450
 123002888.440 8  95846469.365 7                  23406643.060    23406639.040
  23406638.480          49.350          43.050
 107032987.876 8  83402359.809 8                  20367680.200    20367676.640
  20367675.980          50.700          49.850
 125153001.073 7  97521953.49746                  23815755.460
  23815751.020          47.650          36.700
 113265338.585 8  88258789.402 8  84581356.694 8  21553646.100    21553645.780
  21553645.280          49.100          49.000
 120795856.375 8  94126742.382 7                  22986628.080    22986626.020
  22986625.260          49.050          43.300
 130581486.983 7 101751808.156 6                  24848828.400    24848829.100
  24848828.460          43.900          39.400
 127370042.814 7  99065656.129 6                  23860689.780    23860695.120
  23860694.460          44.400          36.550
 114500420.992 7  89055928.807 7                  21419657.780    21419661.160
  21419660.500          46.950          44.000
 105305226.974 7  81904124.233 7                  19713343.780    19713346.380
  19713345.560          47.200          46.750
 122632270.435 7  95380669.264 6                  22916768.360    22916770.580
  22916769.540          45.300          41.050
 128703403.582 6 100102660.039 5                  24068185.820    24068188.180
  24068186.780          40.050          31.600
 104398581.699 8  81198955.958 7                  19564234.440    19564236.280
  19564236.420          48.900          46.050
 117623032.537 7  91484518.234 5                  22026986.860    22026991.600
  22026989.440          45.200          33.350
                                                  22199573.700    22199576.520
  22199575.820          46.050          43.000
 116665665.324 7  90740115.821 6                  21832330.640    21832336.380
  21832334.280          44.650          41.900
 137738275.572 7                 102856537.382 7  26210712.400
                        47.600


 15  1 27 18  1 20.0000000  0 20G22G18G13G17G15G28G24G12G05R18R05R16
                                R17R24R06R09R07R15E19E20
 134845459.994 6 105074368.64644                  25660239.140
  25660235.700          37.650          27.950
 122636847.268 7  95561194.50446                  23337003.820
  23336999.680          47.900          37.800
 110160532.390 8  85839443.80847                  20962826.520
  20962821.920          50.650          46.100
 122997481.849 8  95842256.426 7                  23405614.240    23405610.200
  23405609.560          48.900          42.950
 107030712.220 8  83400586.570 8                  20367247.160    20367243.620
  20367242.940          50.550          49.800
 125167940.267 7  97533594.41246                  23818598.300
  23818593.820          47.700          36.550
 113256696.899 8  88252055.624 8  84574903.488 8  21552001.640    21552001.320
  21552000.820          48.850          48.950
 120778049.977 8  94112867.280 7                  22983239.620    22983237.580
  22983236.820          48.850          43.100
 130599392.799 7 101765760.666 6                  24852235.820    24852236.480
  24852235.920          44.550          39.450
 127351939.117 7  99051575.482 6                  23857298.360    23857303.540
  23857302.920          44.850          36.700
 114520211.752 7  89071321.614 7                  21423360.000    21423363.420
  21423362.780          46.800          44.100
 105305268.018 7  81904156.149 7                  19713351.480    19713354.060
  19713353.240          47.950          46.550
 122623684.963 7  95373991.680 6                  22915163.920    22915166.200
  22915165.160          44.950          41.050
 128710539.026 6 100108209.849 5                  24069520.140    24069522.500
  24069521.080          40.750          31.850
 104399441.405 8  81199624.612 7                  19564395.580    19564397.360
  19564397.540          49.250          45.900
 117610365.241 7  91474665.900 5                  22024614.720    22024619.400
  22024617.280          46.050          33.250
                                                  22196355.060    22196357.840
  22196357.200          46.200          42.750
 116680255.703 7  90751463.896 6                  21835061.040    21835066.740
  21835064.600          45.400          41.950
 137727837.658 7                 102848742.846 7  26208726.100
                        47.150


 15  1 27 18  1 25.0000000  0 20G22G18G13G17G15G28G24G12G05R18R05R16
                                R17R24R06R09R07R15E19E20
 134831849.618 5 105063763.18545                  25657648.700
  25657643.620          34.850          32.450
 122629390.940 8  95555384.37746                  23335584.920
  23335580.780          48.450          37.100
 110169575.642 8  85846490.49747                  20964547.440
  20964542.800          50.950          45.100
 122992088.627 8  95838053.918 7                  23404587.940    23404583.840
  23404583.160          49.400          42.600
 107028449.827 8  83398823.665 8                  20366816.620    20366813.100
  20366812.440          50.900          49.850
 125182884.403 8  97545239.19646                  23821442.100
  23821437.600          48.500          36.600
 113248061.786 8  88245326.972 8  84568455.202 8  21550358.420    21550358.120
  21550357.640          49.350          49.000
 120760250.972 8  94098997.938 7                  22979852.580    22979850.540
  22979849.800          49.150          43.150
 130617297.906 7 101779712.635 6                  24855643.060    24855643.740
  24855643.240          45.450          39.550
 127333838.430 7  99037497.181 6                  23853907.500    23853912.580
  23853912.000          45.000          37.350
 114540013.503 7  89086722.961 7                  21427064.320    21427067.760
  21427067.100          47.050          44.150
 105305319.935 8  81904196.529 7                  19713361.160    19713363.780
  19713362.940          48.100          46.450
 122615116.996 7  95367327.716 6                  22913562.780    22913565.080
  22913564.060          45.700          41.450
 128717694.002 6 100113774.816 5                  24070858.160    24070860.640
  24070859.060          40.950          32.500
 104400324.814 8  81200311.706 7                  19564561.140    19564562.920
  19564563.080          49.550          45.800
 117597706.361 7  91464820.127 5                  22022244.120    22022248.740
  22022246.620          46.750          33.200
 118801609.00917  92401262.580 7                  22193138.880    22193141.660
  22193140.940          46.550          42.600
 116694848.193 7  90762813.620 6                  21837791.840    21837797.480
  21837795.340          45.600          41.950
 137717408.102 7                 102840954.567 7  26206741.400
                        47.600


 15  1 27 18  1 30.0000000  0 20G22G18G13G17G15G28G24G12G05R18R05R16
                                R17R24R06R09R07R15E19E20
 134818245.839 5                                  25655059.320
                        33.600
 122621946.202 7  95549583.30346                  23334168.240
  23334164.080          47.700          39.100
 110178628.828 8  85853544.94047                  20966270.240
  20966265.600          50.350          45.550
 122986706.719 8  95833860.230 7                  23403563.800    23403559.620
  23403558.960          48.550          42.900
 107026198.625 8  83397069.498 8                  20366388.220    20366384.720
  20366384.040          50.100          49.850
 125197831.479 7  97556886.28246                  23824286.460
  23824281.900          47.750          38.300
 113239431.128 8  88238601.799 8  84562010.239 8  21548716.080    21548715.780
  21548715.280          48.700          49.000
 120742457.325 8  94085132.779 7                  22976466.540    22976464.540
  22976463.800          48.150          43.300
 130635200.204 7 101793662.398 6                  24859049.760    24859050.480
  24859050.060          45.300          38.900
 127315738.753 7  99023419.704 6                  23850516.780    23850521.880
  23850521.280          43.250          37.850
 114559824.242 7  89102131.310 7                  21430770.280    21430773.740
  21430773.120          46.550          44.100
 105305380.669 7  81904243.777 7                  19713372.520    19713375.160
  19713374.260          47.450          46.500
 122606564.729 7  95360675.954 6                  22911964.540    22911966.920
  22911965.920          44.500          41.300
 128724866.664 6 100119353.561 5                  24072199.460    24072201.920
  24072200.400          40.300          31.800
 104401229.704 8  81201015.513 7                  19564730.720    19564732.480
  19564732.640          48.900          45.900
 117585053.751 7  91454979.224 5                  22019874.720    22019879.300
  22019877.180          45.900          32.600
                                                  22189924.800    22189927.480
  22189926.760          46.000          42.350
 116709440.720 7  90774163.374 7                  21840522.600    21840528.280
  21840526.100          45.250          42.550
 137706984.857 7                 102833170.975 7  26204757.880
                        46.650


 15  1 27 18  1 35.0000000  0 20G22G18G13G17G15G28G24G12G05R18R05R16
                                R17R24R06R09R07R15E19E20
 134804651.241 5                                  25652472.180
                        34.700
 122614515.821 8  95543793.39846                  23332754.300
  23332750.140          49.250          37.300
 110187694.544 8  85860609.13047                  20967995.440
  20967990.740          51.350          45.400
 122981338.793 8  95829677.430 7                  23402542.300    23402538.100
  23402537.380          49.750          43.100
 107023961.296 8  83395326.127 8                  20365962.460    20365958.980
  20365958.300          51.100          49.800
 125212784.115 8  97568537.67245                  23827131.880
  23827127.280          49.150          35.950
 113230807.568 8  88231882.143 8  84555570.573 8  21547075.060    21547074.760
  21547074.280          50.100          48.950
 120724671.720 8  94071273.879 7                  22973082.020    22973080.100
  22973079.320          49.400          43.150
 130653102.275 7 101807612.017 6                  24862456.440    24862457.200
  24862456.720          46.950          38.650
 127297642.785 7  99009345.112 6                  23847126.780    23847131.900
  23847131.300          44.300          37.650
 114579646.555 7  89117548.644 7                  21434478.400    21434481.920
  21434481.280          47.700          44.250
 105305452.938 8  81904299.989 7                  19713386.040    19713388.680
  19713387.760          48.100          46.650
 122598030.731 7  95354038.413 6                  22910369.720    22910372.100
  22910371.160          45.050          40.950
 128732059.497 6 100124947.987 5                  24073544.520    24073547.020
  24073545.480          41.000          32.000
 104402159.037 8  81201738.319 7                  19564904.880    19564906.680
  19564906.800          49.250          46.000
 117572410.223 7  91445145.380 5                  22017507.040    22017511.500
  22017509.380          46.250          33.000
 118767212.679 7  92374509.902 7                  22186713.260    22186715.980
  22186715.180          46.650          42.600
 116724036.018 7  90785515.274 7                  21843253.920    21843259.680
  21843257.400          45.050          42.800
 137696570.562 8                 102825394.080 7  26202776.100
                        48.200


 15  1 27 18  1 40.0000000  0 19G22G18G13G17G15G28G24G12G05R18R05R16
                                R17R24R06R09R15E19E20
 134791064.373 5 105032008.59755                  25649886.460
  25649889.280          33.550          31.700
 122607098.210 8  95538013.44946                  23331342.780
  23331338.560          48.300          38.350
 110196771.299 8  85867681.92247                  20969722.720
  20969718.000          50.650          45.600
 122975983.315 8  95825504.334 7                  23401523.200    23401518.960
  23401518.220          48.900          43.300
 107021736.304 8  83393592.370 8                  20365539.020    20365535.560
  20365534.900          50.300          49.850
 125227740.758 8  97580192.20746                  23829978.060
  23829973.420          48.100          36.650
 113222189.622 8  88225166.873 8  84549135.104 8  21545435.140    21545434.800
  21545434.320          49.300          49.050
 120706892.656 8  94057420.074 7                  22969698.720    22969696.860
  22969696.100          48.350          43.150
 130671002.666 7 101821560.312 6                  24865862.740    24865863.580
  24865863.200          45.400          38.750
 127279548.996 7  98995272.190 6                  23843737.180    23843742.300
  23843741.640          45.250          37.300
 114599478.925 7  89132973.810 7                  21438188.400    21438191.940
  21438191.360          47.900          44.250
 105305535.050 8  81904363.868 7                  19713401.400    19713404.000
  19713403.100          48.350          46.550
 122589513.520 7  95347413.909 6                  22908778.060    22908780.400
  22908779.520          46.350          41.550
 128739271.011 6 100130556.932 5                  24074893.060    24074895.700
  24074894.020          40.350          32.050
 104403110.992 8  81202478.729 7                  19565083.260    19565085.060
  19565085.200          49.650          45.900
 117559774.110 7  91435317.305 5                  22015140.700    22015145.240
  22015142.980          46.600          33.600
 116738632.488 7  90796868.070 7                  21845985.460    21845991.220
  21845988.980          45.850          43.300
 137686163.742 7                 102817622.765 7  26200795.740
                        47.000


 15  1 27 18  1 45.0000000  0 20G22G18G13G17G15G28G24G12G05R18R05R16
                                R17R24R06R09R07R15E19E20
 134777484.665 5 105021427.01945                  25647302.380
  25647303.640          35.650          34.300
 122599692.809 7  95532243.00646                  23329933.580
  23329929.320          47.400          38.950
 110205858.527 8  85874762.87947                  20971451.980
  20971447.260          49.950          46.300
 122970639.737 8  95821340.506 7                  23400506.360    23400502.160
  23400501.360          48.000          43.050
 107019523.096 8  83391867.799 8                  20365117.860    20365114.400
  20365113.740          49.600          49.750
 125242700.869 7  97591849.44146                  23832824.900
  23832820.220          47.350          38.350
 113213576.709 8  88218455.524 8  84542703.398 8  21543796.180    21543795.820
  21543795.340          48.750          48.950
 120689119.511 7  94043570.885 7                  22966316.580    22966314.720
  22966313.980          47.350          43.300
 130688900.775 7 101835506.819 6                  24869268.660    24869269.520
  24869269.240          45.000          38.600
 127261456.818 7  98981200.509 6                  23840347.860    23840352.960
  23840352.320          45.700          37.100
 114619320.722 8  89148406.298 7                  21441900.200    21441903.780
  21441903.180          48.200          44.250
 105305626.524 8  81904435.012 7                  19713418.500    19713421.120
  19713420.200          48.050          46.450
 122581012.509 7  95340802.010 6                  22907189.420    22907191.800
  22907190.920          45.600          41.000
 128746500.642 6 100136179.970 5                  24076245.020    24076247.500
  24076245.960          41.250          31.800
 104404085.063 8  81203236.339 7                  19565265.760    19565267.600
  19565267.740          49.600          45.950
 117547144.918 7  91425494.620 5                  22012775.620    22012780.200
  22012777.880          46.400          33.250
                                                  22180297.040    22180299.780
  22180299.000          46.950          42.750
 116753229.633 7  90808221.411 7                  21848717.140    21848722.920
  21848720.720          45.450          44.200
 137675763.817 7                 102809856.605 7  26198816.700
                        46.200


 15  1 27 18  1 50.0000000  0 20G22G18G13G17G15G28G24G12G05R18R05R16
                                R17R24R06R09R07R15E19E20
 134763913.678 6 105010852.24244                  25644720.100
  25644716.320          39.200          28.850
 122592301.162 7  95526483.27646                  23328526.980
  23328522.760          47.850          38.350
 110214957.747 8  85881853.17847                  20973183.500
  20973178.800          50.350          46.000
 122965309.576 8  95817187.135 7                  23399492.060    23399487.880
  23399487.040          48.700          43.250
 107017323.196 8  83390153.587 8                  20364699.220    20364695.780
  20364695.120          50.050          49.650
 125257666.001 7  97603510.58546                  23835672.700
  23835668.000          47.900          37.400
 113204970.408 8  88211749.318 8  84536276.627 8  21542158.480    21542158.100
  21542157.580          49.250          48.950
 120671353.825 7  94029727.502 7                  22962935.840    22962933.980
  22962933.280          47.950          43.000
 130706798.073 7 101849452.718 6                  24872674.440    24872675.280
  24872675.040          45.350          38.500
 127243367.729 7  98967131.236 6                  23836959.080    23836964.260
  23836963.580          45.950          37.250
 114639173.577 8  89163847.399 7                  21445614.080    21445617.740
  21445617.100          49.200          44.350
 105305728.932 8  81904514.654 7                  19713437.680    19713440.300
  19713439.360          48.500          46.650
 122572529.185 7  95334203.885 6                  22905604.060    22905606.440
  22905605.640          46.450          41.100
 128753749.944 7 100141818.329 5                  24077600.660    24077603.120
  24077601.560          42.250          32.150
 104405082.830 8  81204012.372 7                  19565452.760    19565454.580
  19565454.720          50.200          46.100
 117534524.117 7  91415678.448 5                  22010412.160    22010416.680
  22010414.380          46.950          33.750
                                                  22177092.480    22177095.320
  22177094.460          47.750          42.950
 116767828.847 7  90819576.347 7                  21851449.180    21851454.960
  21851452.840          46.200          44.250
 137665372.305 7                 102802096.717 7  26196839.260
                        46.950


 15  1 27 18  1 55.0000000  0 20G22G18G13G17G15G28G24G12G05R18R05R16
                                R17R24R06R09R07R15E19E20
 134750351.052 6 105000283.93344                  25642139.360
  25642135.400          40.950          29.750
 122584922.959 8  95520734.03646                  23327122.940
  23327118.720          48.300          38.050
 110224068.615 8  85888952.55647                  20974917.240
  20974912.560          50.600          45.550
 122959992.599 8  95813044.047 7                  23398480.260    23398476.060
  23398475.260          49.050          43.300
 107015136.329 8  83388449.533 8                  20364283.060    20364279.640
  20364278.960          50.350          49.650
 125272635.776 8  97615175.34346                  23838521.340
  23838516.720          48.150          37.150
 113196370.306 8  88205047.946 8  84529854.477 8  21540521.980    21540521.540
  21540521.020          49.550          48.850
 120653595.347 8  94015889.739 7                  22959556.460    22959554.640
  22959553.940          48.350          43.150
 130724694.312 7 101863397.770 6                  24876080.020    24876080.920
  24876080.660          46.100          39.100
 127225281.594 7  98953064.273 6                  23833570.860    23833576.140
  23833575.420          44.000          38.200
 114659037.077 8  89179296.784 7                  21449329.960    21449333.620
  21449332.980          48.050          44.550
 105305841.916 7  81904602.532 7                  19713458.820    19713461.420
  19713460.500          46.950          46.700
 122564063.431 7  95327619.412 6                  22904021.980    22904024.400
  22904023.560          45.600          41.000
 128761018.427 6 100147471.604 5                  24078959.900    24078962.300
  24078960.840          39.850          32.450
 104406103.891 8  81204806.537 7                  19565644.080    19565645.940
  19565646.080          49.100          46.200
 117521911.471 7  91405868.629 5                  22008050.200    22008054.740
  22008052.360          45.000          33.500
 118698570.139 7  92321122.068 7                  22173890.320    22173893.180
  22173892.380          46.550          43.200
 116782429.791 7  90830932.629 7                  21854181.620    21854187.360
  21854185.300          44.600          44.350
 137654988.930 7                 102794342.900 7  26194863.360
                        47.150


 15  1 27 18  2  0.0000000  0 20G22G18G13G17G15G28G24G12G05R18R05R16
                                R17R24R06R09R07R15E19E20
 134736795.102 6 104989720.83145                  25639559.940
  25639555.600          41.000          31.150
 122577556.497 8  95514993.93946                  23325721.160
  23325716.900          48.300          37.750
 110233189.486 8  85896059.73247                  20976652.860
  20976648.200          50.600          45.400
 122954687.110 8  95808909.906 7                  23397470.640    23397466.460
  23397465.680          49.000          43.250
 107012960.783 8  83386754.305 8                  20363869.080    20363865.640
  20363864.960          50.550          49.550
 125287608.502 8  97626842.41046                  23841370.580
  23841365.920          48.150          36.600
 113187774.844 8  88198350.192 8  84523435.798 8  21538886.360    21538885.880
  21538885.320          49.600          48.850
 120635842.377 8  94002056.272 7                  22956178.160    22956176.360
  22956175.620          48.700          42.900
 130742587.778 7 101877340.659 6                  24879485.100    24879486.020
  24879485.800          46.150          38.350
 127207196.647 7  98938998.247 6                  23830182.920    23830188.180
  23830187.580          44.450          38.300
 114678909.394 8  89194753.033 7                  21453047.460    21453051.120
  21453050.520          48.150          44.650
 105305963.782 7  81904697.316 7                  19713481.600    19713484.240
  19713483.340          47.150          46.800
 122555613.455 7  95321047.196 6                  22902442.880    22902445.300
  22902444.420          45.550          41.200
 128768304.723 6 100153138.739 5                  24080322.540    24080324.960
  24080323.400          39.950          31.250
 104407146.820 8  81205617.708 7                  19565839.520    19565841.400
  19565841.520          49.250          46.000
 117509305.272 7  91396063.826 5                  22005689.440    22005693.880
  22005691.540          45.700          32.950
 118681440.348 7  92307798.903 7                  22170690.360    22170693.240
  22170692.400          46.350          43.200
 116797030.849 7  90842288.997 7                  21856914.080    21856919.700
  21856917.740          44.850          44.150
 137644612.011 7                 102786593.922 7  26192888.680
                        47.300


 15  1 27 18  2  5.0000000  0 20G22G18G13G17G15G28G24G12G05R18R05R16
                                R17R24R06R09R07R15E19E20
 134723246.911 6 104979163.79944                  25636981.960
  25636976.920          39.350          28.350
 122570202.911 8  95509263.89246                  23324321.800
  23324317.540          48.350          38.500
 110242321.426 8  85903175.52447                  20978390.600
  20978385.980          50.600          45.300
 122949394.181 8  95804785.553 7                  23396463.400    23396459.260
  23396458.480          48.950          43.450
 107010797.708 8  83385068.794 8                  20363457.440    20363454.040
  20363453.340          50.550          49.650
 125302585.285 7  97638512.63746                  23844220.560
  23844215.960          47.950          36.600
 113179185.126 8  88191656.911 8  84517021.410 8  21537251.840    21537251.300
  21537250.740          49.600          48.800
 120618096.014 8  93988227.948 7                  22952801.140    22952799.320
  22952798.560          48.700          43.200
 130760479.553 7 101891282.246 6                  24882889.820    24882890.860
  24882890.580          46.350          38.600
 127189114.036 7  98924934.043 6                  23826795.440    23826800.700
  23826800.140          44.200          37.850
 114698791.839 8  89210217.144 7                  21456766.880    21456770.580
  21456769.960          48.100          44.500
 105306095.626 7  81904799.863 7                  19713506.240    19713508.900
  19713508.040          47.150          46.850
 122547180.311 7  95314488.103 6                  22900866.980    22900869.380
  22900868.420          45.600          40.750
 128775609.652 6 100158820.348 5                  24081688.580    24081691.080
  24081689.460          40.200          31.550
 104408212.357 8  81206446.461 7                  19566039.200    19566041.060
  19566041.180          49.250          45.850
 117496706.598 7  91386264.872 5                  22003330.080    22003334.560
  22003332.120          45.700          33.000
 118664322.938 7  92294485.372 7                  22167492.680    22167495.600
  22167494.720          46.100          43.350
 116811633.219 7  90853646.398 7                  21859646.760    21859652.300
  21859650.420          44.900          43.800
 137634242.652 7                 102778850.587 7  26190915.460
                        47.350


 15  1 27 18  2 10.0000000  0 20G22G18G13G17G15G28G24G12G05R18R05R16
                                R17R24R06R09R07R15E19E20
 134709708.011 6 104968614.01943                  25634405.460
  25634401.440          38.050          22.550
 122562863.602 8  95503544.95046                  23322925.200
  23322920.900          48.200          38.300
 110251465.892 8  85910301.08847                  20980130.700
  20980126.120          50.600          45.350
 122944115.230 8  95800672.097 7                  23395458.760    23395454.720
  23395453.940          48.900          43.400
 107008648.483 8  83383394.070 8                  20363048.440    20363045.060
  20363044.360          50.550          49.750
 125317567.473 7  97650187.07946                  23847071.580
  23847066.980          47.600          37.300
 113170602.397 8  88184969.081 8  84510612.233 8  21535618.640    21535618.040
  21535617.460          49.550          48.850
 120600357.692 8  93974405.895 7                  22949425.640    22949423.820
  22949423.100          48.700          43.300
 130778371.007 7 101905223.580 6                  24886294.500    24886295.640
  24886295.320          46.550          39.600
 127171035.171 7  98910872.729 6                  23823408.600    23823413.960
  23823413.340          43.900          37.800
 114718685.740 8  89225690.172 7                  21460488.440    21460492.140
  21460491.560          48.300          44.600
 105306238.768 7  81904911.204 7                  19713532.980    19713535.660
  19713534.880          47.050          46.800
 122538765.629 7  95307943.362 6                  22899294.500    22899296.900
  22899295.900          45.800          41.250
 128782934.759 6 100164517.652 5                  24083058.360    24083060.960
  24083059.220          39.700          31.250
 104409302.186 8  81207294.110 7                  19566243.420    19566245.280
  19566245.380          49.050          45.850
 117484116.873 7  91376472.874 5                  22000972.400    22000976.900
  22000974.420          46.100          33.050
 118647219.454 7  92281182.677 7                  22164297.640    22164300.540
  22164299.660          45.800          43.050
 116826238.160 7  90865005.792 7                  21862379.860    21862385.380
  21862383.540          44.900          43.350
 137623882.265 7                 102771113.946 7  26188943.920
                        47.500


 15  1 27 18  2 15.0000000  0 19G18G13G17G15G28G24G12G05R18R05R16R17
                                R24R06R09R07R15E19E20
 122555536.992 8  95497835.90946                  23321530.980
  23321526.700          48.250          38.050
 110260621.325 8  85917435.19147                  20981872.860
  20981868.360          50.550          45.350
 122938848.715 8  95796568.321 7                  23394456.520    23394452.500
  23394451.780          48.800          43.300
 107006511.533 8  83381728.917 8                  20362641.800    20362638.400
  20362637.720          50.450          49.850
 125332553.533 7  97661864.52346                  23849923.300
  23849918.720          47.550          37.350
 113162025.262 8  88178285.601 8  84504207.232 8  21533986.460    21533985.860
  21533985.260          49.400          48.850
 120582625.862 8  93960588.899 7                  22946051.380    22946049.540
  22946048.820          48.900          43.450
 130796260.619 7 101919163.457 6                  24889698.820    24889699.980
  24889699.720          46.550          39.450
 127152958.565 7  98896813.155 6                  23820022.240    23820027.600
  23820026.860          44.150          36.900
 114738589.420 8  89241170.797 7                  21464211.800    21464215.560
  21464214.980          48.700          44.850
 105306391.787 7  81905030.230 7                  19713561.600    19713564.300
  19713563.520          47.050          46.650
 122530367.680 7  95301411.612 6                  22897725.160    22897727.540
  22897726.560          45.550          41.350
 128790278.425 6 100170229.410 5                  24084431.660    24084434.340
  24084432.500          39.100          32.250
 104410414.782 8  81208159.458 7                  19566451.900    19566453.800
  19566453.840          49.200          45.800
 117471534.549 7  91366686.647 5                  21998616.080    21998620.480
  21998618.160          45.700          33.350
 118630128.408 7  92267889.658 7                  22161104.860    22161107.760
  22161106.920          46.100          42.900
 116840844.111 7  90876365.974 7                  21865113.180    21865118.660
  21865116.780          44.750          42.700
 137613529.296 7                 102763382.835 7  26186973.780
                        47.550


 15  1 27 18  2 20.0000000  0 19G18G13G17G15G28G24G12G05R18R05R16R17
                                R24R06R09R07R15E19E20
 122548223.007 8  95492136.69446                  23320139.180
  23320134.880          48.000          38.650
 110269787.544 8  85924577.69047                  20983617.100
  20983612.620          50.400          45.500
 122933594.520 8  95792474.145 7                  23393456.600    23393452.720
  23393451.940          48.550          43.300
 107004386.741 8  83380073.237 8                  20362237.460    20362234.080
  20362233.380          50.400          49.850
 125347543.327 7  97673544.86946                  23852775.740
  23852771.160          47.200          37.350
 113153453.595 8  88171606.378 8  84497806.325 8  21532355.320    21532354.700
  21532354.100          49.300          48.900
 120564900.423 8  93946776.874 7                  22942678.340    22942676.500
  22942675.800          48.950          43.700
 130814148.198 7 101933101.763 6                  24893102.760    24893103.940
  24893103.640          46.350          39.400
 127134884.035 7  98882755.193 6                  23816636.200    23816641.620
  23816640.720          44.250          37.000
 114758502.805 8  89256658.977 7                  21467936.980    21467940.800
  21467940.220          48.650          44.850
 105306554.521 7  81905156.785 7                  19713592.000    19713594.760
  19713593.960          47.150          46.600
 122521986.317 7  95294892.780 6                  22896158.920    22896161.320
  22896160.360          45.300          41.750
 128797640.365 6 100175955.339 5                  24085808.340    24085811.000
  24085809.180          39.200          32.250
 104411549.744 8  81209042.200 7                  19566664.600    19566666.500
  19566666.500          49.300          45.700
 117458959.459 7  91356906.029 5                  21996261.160    21996265.520
  21996263.320          46.050          33.850
 118613049.366 7  92254605.961 7                  22157914.360    22157917.160
  22157916.380          46.050          42.950
 116855450.972 7  90887726.868 7                  21867846.660    21867852.120
  21867850.180          44.800          42.100
 137603183.618 7                 102755657.176 7  26185005.040
                        47.700


 15  1 27 18  2 25.0000000  0 19G18G13G17G15G28G24G12G05R18R05R16R17
                                R24R06R09R07R15E19E20
 122540923.161 7  95486448.52146                  23318750.020
  23318745.800          47.700          38.600
 110278966.076 8  85931729.79047                  20985363.660
  20985359.240          50.450          45.650
 122928354.162 8  95788390.753 7                  23392459.280    23392455.520
  23392454.720          48.300          43.650
 107002275.680 8  83378428.260 8                  20361835.740    20361832.360
  20361831.680          50.300          49.850
 125362538.348 7  97685229.29946                  23855629.180
  23855624.680          47.200          38.400
 113144888.807 8  88164932.529 8  84491410.554 8  21530725.480    21530724.880
  21530724.260          49.150          49.100
 120547182.855 8  93932970.990 7                  22939306.800    22939304.920
  22939304.280          48.800          43.850
 130832035.321 7 101947039.718 6                  24896506.640    24896507.820
  24896507.520          45.950          40.300
 127116813.186 7  98868700.132 6                  23813250.860    23813256.440
  23813255.380          43.650          37.950
 114778427.365 8  89272155.849 7                  21471664.320    21471668.160
  21471667.560          48.500          45.350
 105306728.386 7  81905292.023 7                  19713624.500    19713627.300
  19713626.500          47.100          46.550
 122513623.183 7  95288388.143 6                  22894596.060    22894598.480
  22894597.500          45.850          41.550
 128805022.327 6 100181696.858 5                  24087188.720    24087191.520
  24087189.620          40.050          33.050
 104412708.832 8  81209943.717 7                  19566881.800    19566883.720
  19566883.700          49.450          46.100
 117446393.192 7  91347132.281 5                  21993907.860    21993912.320
  21993910.060          46.100          33.400
 118595984.231 7  92241333.087 7                  22154726.420    22154729.220
  22154728.480          45.950          43.200
 116870060.313 7  90899089.704 7                  21870580.600    21870586.040
  21870584.020          44.650          42.200
 137592846.772 7                 102747938.114 7  26183038.000
                        47.650


 15  1 27 18  2 30.0000000  0 20G22G18G13G17G15G28G24G12G05R18R05R16
                                R17R24R06R09R07R15E19E20
 134655625.971 6                                  25624114.300
                        37.000
 122533635.657 8  95480769.94446                  23317363.240
  23317359.100          48.000          38.150
 110288155.128 8  85938890.09347                  20987112.240
  20987107.840          50.350          45.700
 122923125.835 8  95784316.731 7                  23391464.240    23391460.600
  23391459.800          48.250          43.650
 107000176.504 8  83376792.543 8                  20361436.280    20361432.900
  20361432.220          50.300          49.800
 125377536.800 7  97696916.40046                  23858483.260
  23858478.820          47.200          38.100
 113136329.135 8  88158262.661 8  84485018.602 8  21529096.580    21529096.000
  21529095.400          49.150          49.100
 120529471.334 8  93919169.820 7                  22935936.400    22935934.520
  22935933.880          48.850          44.000
 130849920.188 7 101960975.888 6                  24899910.060    24899911.340
  24899910.980          46.200          40.300
 127098744.181 7  98854646.505 6                  23809865.860    23809871.480
  23809870.440          44.250          38.750
 114798361.384 8  89287660.067 7                  21475393.400    21475397.260
  21475396.660          48.800          45.250
 105306911.533 7  81905434.481 7                  19713658.760    19713661.600
  19713660.760          47.350          46.650
 122505276.530 7  95281896.311 6                  22893036.260    22893038.660
  22893037.740          45.750          41.550
 128812422.426 6 100187452.511 5                  24088572.680    24088575.280
  24088573.480          40.200          33.250
 104413890.038 8  81210862.429 7                  19567103.140    19567105.080
  19567105.060          49.550          46.100
 117433833.860 7  91337363.913 5                  21991555.860    21991560.440
  21991558.100          45.850          34.100
 118578930.890 7  92228069.389 7                  22151540.700    22151543.460
  22151542.760          46.150          43.350
 116884670.288 7  90910453.017 7                  21873314.620    21873320.060
  21873318.000          44.800          42.050
 137582516.922 7                 102740224.276 7  26181072.280
                        47.700


 15  1 27 18  2 35.0000000  0 20G22G18G13G17G15G28G24G12G05R18R05R16
                                R17R24R06R09R07R15E19E20
 134642125.588 6 104915944.25244                  25621546.720
  25621542.160          38.700          26.000
 122526360.123 7  95475100.71046                  23315978.740
  23315974.600          47.900          39.250
 110297354.312 8  85946058.29047                  20988862.720
  20988858.380          50.350          45.450
 122917909.227 8  95780251.843 7                  23390471.460    23390467.920
  23390467.160          48.000          43.600
 106998088.883 8  83375165.829 8                  20361039.000    20361035.620
  20361034.960          50.450          49.700
 125392538.302 7  97708605.88546                  23861337.940
  23861333.560          47.450          36.900
 113127774.276 8  88151596.551 8  84478630.246 8  21527468.620    21527468.060
  21527467.480          49.150          49.150
 120511765.564 8  93905373.141 7                  22932567.100    22932565.200
  22932564.600          48.900          43.800
 130867802.325 7 101974909.955 6                  24903312.940    24903314.300
  24903313.860          45.900          39.750
 127080676.714 7  98840594.047 6                  23806481.200    23806486.800
  23806485.840          44.900          39.000
 114818304.290 8  89303171.216 7                  21479124.140    21479128.000
  21479127.440          49.100          45.250
 105307103.735 7  81905583.983 7                  19713694.700    19713697.580
  19713696.740          47.550          46.600
 122496945.878 7  95275416.919 6                  22891479.500    22891481.900
  22891480.940          45.350          41.200
 128819840.283 6 100193221.987 5                  24089959.780    24089962.560
  24089960.700          39.750          32.800
 104415093.146 8  81211798.194 7                  19567328.620    19567330.540
  19567330.540          49.550          46.200
 117421281.085 7  91327600.671 5                  21989205.080    21989209.660
  21989207.340          45.700          33.650
 118561889.159 7  92214814.726 7                  22148357.140    22148359.920
  22148359.260          46.650          43.400
 116899280.529 7  90921816.549 6                  21876048.740    21876054.200
  21876052.080          45.000          41.950
 137572193.770 7                 102732515.426 7  26179107.860
                        47.650


 15  1 27 18  2 40.0000000  0 20G22G18G13G17G15G28G24G12G05R18R05R16
                                R17R24R06R09R07R15E19E20
 134628634.454 6 104905431.73144                  25618980.200
  25618971.020          39.400          25.550
 122519098.857 7  95469442.57646                  23314596.940
  23314592.780          47.700          38.550
 110306565.961 8  85953236.19647                  20990615.580
  20990611.280          50.200          45.600
 122912706.600 7  95776197.858 7                  23389481.320    23389477.920
  23389477.180          47.950          43.600
 106996015.136 8  83373549.920 8                  20360644.380    20360641.000
  20360640.340          50.450          49.600
 125407545.154 7  97720299.53146                  23864193.640
  23864189.320          47.450          37.850
 113119226.525 8  88144935.972 8  84472247.188 8  21525842.020    21525841.500
  21525840.920          49.300          49.050
 120494067.863 8  93891582.739 7                  22929199.340    22929197.460
  22929196.820          48.850          43.700
 130885684.078 7 101988843.715 6                  24906715.800    24906717.060
  24906716.680          45.900          39.700
 127062613.122 7  98826544.603 6                  23803097.260    23803102.920
  23803102.000          44.900          39.150
 114838258.528 8  89318691.163 7                  21482857.000    21482860.880
  21482860.320          49.100          45.350
 105307307.261 7  81905742.287 7                  19713732.800    19713735.660
  19713734.800          47.500          46.650
 122488633.693 7  95268951.867 6                  22889926.160    22889928.560
  22889927.640          46.050          41.800
 128827278.157 6 100199006.982 5                  24091350.660    24091353.360
  24091351.600          40.050          33.650
 104416320.465 8  81212752.773 7                  19567558.600    19567560.500
  19567560.540          49.600          46.050
 117408737.299 7  91317844.402 5                  21986856.000    21986860.580
  21986858.220          45.950          33.700
 118544861.400 7  92201570.924 7                  22145176.200    22145179.040
  22145178.400          47.000          43.500
 116913893.253 7  90933182.013 7                  21878783.340    21878788.800
  21878786.640          44.850          42.700
 137561879.594 7                 102724813.297 7  26177145.160
                        47.500


 15  1 27 18  2 45.0000000  0 20G22G18G13G17G15G28G24G12G05R18R05R16
                                R17R24R06R09R07R15E19E20
 134615151.472 6 104894925.44544                  25616414.960
  25616409.000          39.250          29.050
 122511850.734 7  95463794.70246                  23313217.660
  23313213.420          47.700          38.400
 110315788.927 8  85960422.91947                  20992370.600
  20992366.340          50.250          45.600
 122907516.856 7  95772153.926 7                  23388493.640    23388490.380
  23388489.660          47.900          43.850
 106993954.074 8  83371943.900 8                  20360252.180    20360248.780
  20360248.120          50.400          49.600
 125422556.184 7  97731996.44046                  23867050.140
  23867045.840          47.550          37.100
 113110684.609 8  88138279.944 8  84465868.491 8  21524216.520    21524216.040
  21524215.480          49.200          49.150
 120476377.148 8  93877797.783 7                  22925832.920    22925831.040
  22925830.380          48.950          43.550
 130903564.224 7 102002776.236 6                  24910118.340    24910119.600
  24910119.280          46.000          40.400
 127044552.265 7  98812497.302 6                  23799713.840    23799719.520
  23799718.680          45.100          38.650
 114858222.902 8  89334219.001 7                  21486591.780    21486595.640
  21486595.100          48.900          45.350
 105307520.925 7  81905908.477 7                  19713772.800    19713775.680
  19713774.780          47.350          46.550
 122480338.669 7  95262500.198 6                  22888376.000    22888378.500
  22888377.600          46.050          41.600
 128834734.870 6 100204806.640 5                  24092745.120    24092747.800
  24092746.060          40.750          33.250
 104417570.793 8  81213725.249 7                  19567792.900    19567794.820
  19567794.820          49.450          45.800
 117396201.260 7  91308094.167 5                  21984508.380    21984512.940
  21984510.580          46.000          34.100
 118527846.423 7  92188337.070 7                  22141997.640    22142000.520
  22141999.920          47.200          43.650
 116928507.192 7  90944548.422 7                  21881518.140    21881523.580
  21881521.440          44.550          43.350
 137551573.279 7                 102717117.021 7  26175183.960
                        47.350


 15  1 27 18  2 50.0000000  0 20G22G18G13G17G15G28G24G12G05R18R05R16
                                R17R24R06R09R07R15E19E20
 134601675.446 6 104884424.71945                  25613850.780
  25613843.660          38.250          33.250
 122504614.647 7  95458156.19746                  23311840.640
  23311836.480          47.600          38.650
 110325022.069 8  85967617.57347                  20994127.580
  20994123.340          50.250          45.450
 122902338.872 7  95768119.140 7                  23387508.220    23387505.040
  23387504.400          47.950          43.900
 106991904.584 8  83370346.891 8                  20359862.180    20359858.780
  20359858.100          50.500          49.600
 125437570.254 7  97743695.71146                  23869907.240
  23869902.940          47.250          38.150
 113102147.515 8  88131627.669 8  84459493.400 8  21522591.960    21522591.500
  21522590.960          49.000          49.150
 120458692.209 8  93864017.318 7                  22922467.580    22922465.700
  22922465.020          48.950          43.500
 130921441.657 7 102016706.622 6                  24913520.360    24913521.680
  24913521.380          46.050          40.550
 127026493.021 7  98798451.268 6                  23796330.720    23796336.420
  23796335.600          45.200          38.350
 114878196.190 8  89349753.768 7                  21490328.180    21490332.040
  21490331.560          49.200          45.050
 105307743.564 7  81906081.641 7                  19713814.500    19713817.380
  19713816.420          47.800          46.650
 122472059.835 7  95256061.112 6                  22886828.900    22886831.440
  22886830.560          45.700          41.400
 128842209.369 6 100210620.154 5                  24094142.840    24094145.680
  24094143.900          39.700          31.950
 104418843.037 8  81214714.772 7                  19568031.320    19568033.220
  19568033.220          49.650          45.800
 117383671.815 7  91298349.060 5                  21982161.960    21982166.740
  21982164.240          45.900          34.050
 118510843.104 7  92175112.264 7                  22138821.340    22138824.160
  22138823.540          47.300          43.150
 116943121.270 7  90955914.903 7                  21884252.960    21884258.400
  21884256.320          45.050          44.000
 137541273.646 7                 102709425.755 7  26173224.040
                        47.100


 15  1 27 18  2 55.0000000  0 20G22G18G13G17G15G28G24G12G05R18R05R16
                                R17R24R06R09R07R15E19E20
 134588209.315 6 104873931.60345                  25611288.280
  25611280.280          38.500          34.700
 122497393.464 7  95452529.31746                  23310466.460
  23310462.340          47.550          38.250
 110334268.248 8  85974822.39047                  20995887.040
  20995882.820          50.350          45.900
 122897175.513 8  95764095.752 7                  23386525.560    23386522.480
  23386521.900          48.300          43.950
 106989869.582 8  83368761.169 8                  20359474.920    20359471.540
  20359470.840          50.450          49.800
 125452590.243 7  97755399.60346                  23872765.460
  23872761.120          47.150          38.000
 113093618.161 8  88124981.432 8  84453124.074 8  21520968.880    21520968.440
  21520967.900          49.100          49.300
 120441015.954 8  93850243.625 7                  22919103.880    22919101.980
  22919101.280          48.800          43.400
 130939319.267 7 102030637.149 6                  24916922.440    24916923.740
  24916923.460          46.300          40.850
 127008438.295 7  98784408.714 6                  23792948.460    23792954.120
  23792953.360          45.050          38.500
 114898181.288 8  89365297.727 7                  21494066.840    21494070.680
  21494070.200          49.000          44.950
 105307978.193 7  81906264.122 7                  19713858.420    19713861.280
  19713860.340          47.850          46.400
 122463799.998 7  95249636.837 6                  22885285.320    22885287.860
  22885286.960          45.450          40.750
 128849704.624 6 100216449.792 5                  24095544.460    24095547.140
  24095545.540          40.250          32.800
 104420140.031 8  81215723.547 7                  19568274.380    19568276.320
  19568276.280          49.550          45.900
 117371151.872 7  91288611.344 5                  21979817.320    21979822.140
  21979819.700          46.050          33.950
 118493854.457 7  92161898.874 7                  22135647.760    22135650.520
  22135649.900          46.900          42.850
 116957738.582 7  90967283.908 7                  21886988.440    21886993.840
  21886991.840          45.000          44.100
 137530983.667 7                 102701741.675 7  26171265.940
                        46.900


 15  1 27 18  3  0.0000000  0 20G22G18G13G17G15G28G24G12G05R18R05R16
                                R17R24R06R09R07R15E19E20
 134574750.358 6 104863444.16345                  25608726.760
  25608721.000          36.600          33.400
 122490184.425 7  95446911.87246                  23309094.560
  23309090.480          47.350          38.950
 110343524.731 8  85982035.23547                  20997648.460
  20997644.280          50.250          45.950
 122892024.031 8  95760081.612 7                  23385545.220    23385542.160
  23385541.640          48.700          43.550
 106987846.249 8  83367184.550 8                  20359089.900    20359086.500
  20359085.800          50.350          49.750
 125467613.381 7  97767105.92846                  23875624.300
  23875619.940          47.250          38.400
 113085093.603 8  88118338.923 8  84446758.346 8  21519346.720    21519346.280
  21519345.740          49.100          49.250
 120423345.632 8  93836474.551 7                  22915741.340    22915739.460
  22915738.680          48.800          43.350
 130957194.259 7 102044565.647 6                  24920324.020    24920325.280
  24920325.020          45.450          41.100
 126990385.321 7  98770367.535 6                  23789566.480    23789572.160
  23789571.440          45.150          38.600
 114918175.539 8  89380848.813 7                  21497807.200    21497811.020
  21497810.560          48.850          45.000
 105308221.916 7  81906453.682 7                  19713904.040    19713906.880
  19713905.960          47.650          46.450
 122455556.522 7  95243225.220 6                  22883744.800    22883747.460
  22883746.360          45.550          40.550
 128857217.628 6 100222293.233 5                  24096949.500    24096952.080
  24096950.500          40.600          33.250
 104421459.057 8  81216749.450 7                  19568521.580    19568523.520
  19568523.500          49.650          46.000
 117358638.741 7  91278878.923 5                  21977474.000    21977478.880
  21977476.400          46.600          33.700
 118476877.683 7  92148694.733 7                  22132476.340    22132479.180
  22132478.480          46.750          43.050
 116972356.294 7  90978653.236 7                  21889724.060    21889729.340
  21889727.420          44.750          44.150
 137520700.508 7                 102694062.709 7  26169309.140
                        47.000


 15  1 27 18  3  5.0000000  0 20G22G18G13G17G15G28G24G12G05R18R05R16
                                R17R24R06R09R07R15E19E20
 134561299.711 5 104852963.11144                  25606166.860
  25606162.440          34.550          28.650
 122482988.779 7  95441304.89146                  23307725.260
  23307721.200          47.250          38.500
 110352792.750 8  85989257.07347                  20999412.100
  20999407.940          50.200          45.750
 122886885.652 8  95756077.684 7                  23384567.340    23384564.340
  23384563.820          48.000          43.400
 106985835.880 8  83365618.037 8                  20358707.320    20358703.940
  20358703.240          50.200          49.850
 125482640.898 7  97778815.69846                  23878483.940
  23878479.560          47.350          37.950
 113076575.104 8  88111701.140 8  84440397.141 8  21517725.760    21517725.260
  21517724.740          49.300          49.100
 120405682.491 8  93822711.078 7                  22912380.140    22912378.240
  22912377.460          48.700          43.350
 130975067.862 7 102058493.040 6                  24923725.280    24923726.620
  24923726.340          45.250          41.000
 126972335.426 7  98756328.761 6                  23786185.080    23786190.740
  23786190.040          45.050          38.050
 114938179.951 8  89396407.794 7                  21501549.440    21501553.240
  21501552.800          48.650          45.100
 105308475.949 7  81906651.282 7                  19713951.620    19713954.460
  19713953.520          47.900          46.700
 122447330.486 7  95236827.190 6                  22882207.560    22882210.220
  22882209.120          45.800          41.200
 128864749.732 6 100228151.549 5                  24098358.060    24098360.720
  24098359.060          40.500          32.950
 104422801.312 8  81217793.424 7                  19568773.100    19568775.020
  19568775.060          49.450          46.100
 117346133.574 7  91269152.699 5                  21975132.180    21975137.060
  21975134.600          46.300          33.950
 118459914.024 7  92135500.793 7                  22129307.380    22129310.220
  22129309.500          46.900          43.150
 116986975.697 7  90990023.880 7                  21892459.920    21892465.200
  21892463.340          45.100          44.250
 137510425.440 7                 102686389.792 7  26167353.900
                        46.750


 15  1 27 18  3 10.0000000  0 20G22G18G13G17G15G28G24G12G05R18R05R16
                                R17R24R06R09R07R15E19E20
 134547857.130 6 104842488.40644                  25603608.700
  25603603.580          36.100          28.050
 122475806.220 7  95435708.10446                  23306358.420
  23306354.420          47.300          38.700
 110362072.003 8  85996487.65747                  21001177.880
  21001173.720          50.250          45.650
 122881760.127 8  95752083.777 7                  23383591.900    23383589.040
  23383588.440          48.000          43.100
 106983838.170 8  83364061.386 8                  20358327.180    20358323.780
  20358323.080          50.100          49.800
 125497672.460 7  97790528.60946                  23881344.380
  23881339.920          47.050          38.850
 113068062.569 8  88105068.004 8  84434040.382 8  21516105.920    21516105.380
  21516104.860          49.450          49.100
 120388026.250 8  93808952.980 7                  22909020.260    22909018.340
  22909017.540          48.800          43.300
 130992939.752 7 102072419.107 6                  24927126.240    24927127.600
  24927127.300          44.600          40.600
 126954288.262 7  98742292.109 6                  23782804.240    23782809.840
  23782809.120          45.550          37.900
 114958194.290 8  89411974.491 7                  21505293.540    21505297.360
  21505296.900          48.700          45.100
 105308740.108 7  81906856.743 7                  19714001.100    19714003.880
  19714002.980          47.850          46.700
 122439121.739 7  95230442.613 6                  22880673.540    22880676.200
  22880675.060          45.850          40.950
 128872300.499 6 100234024.376 5                  24099770.120    24099772.780
  24099771.100          40.500          33.600
 104424166.510 8  81218855.249 7                  19569028.920    19569030.860
  19569030.900          49.450          45.900
 117333636.180 7  91259432.526 5                  21972791.800    21972796.560
  21972794.260          46.350          33.450
 118442963.143 7  92122316.787 7                  22126140.820    22126143.680
  22126142.900          47.100          43.250
 117001596.385 7  91001395.510 7                  21895196.040    21895201.300
  21895199.480          45.650          43.900
 137500158.209 7                 102678722.720 7  26165400.160
                        46.900


 15  1 27 18  3 15.0000000  0 20G22G18G13G17G15G28G24G12G05R18R05R16
                                R17R24R06R09R07R15E19E20
 134534421.547 6 104832019.18144                  25601052.040
  25601047.280          39.050          28.850
 122468635.556 8  95430120.58046                  23304993.840
  23304989.920          48.500          37.100
 110371361.224 8  86003726.01347                  21002945.540
  21002941.400          50.900          45.100
 122876646.168 8  95748098.878 7                  23382618.680    23382615.860
  23382615.240          49.050          43.100
 106981851.880 8  83362513.631 8                  20357949.200    20357945.800
  20357945.100          50.700          49.750
 125512706.869 8  97802243.73346                  23884205.340
  23884200.880          48.100          36.300
 113059554.625 8  88098438.443 8  84427687.049 8  21514486.980    21514486.380
  21514485.840          50.200          49.050
 120370375.692 8  93795199.305 7                  22905661.460    22905659.500
  22905658.720          49.550          43.350
 131010808.767 7 102086342.925 6                  24930526.660    24930528.040
  24930527.640          45.800          40.700
 126936242.630 7  98728256.634 6                  23779423.700    23779429.260
  23779428.460          45.400          38.250
 114978217.323 8  89427547.955 7                  21509039.300    21509043.080
  21509042.620          48.800          45.100
 105309012.957 7  81907068.957 7                  19714052.200    19714054.960
  19714054.040          47.700          46.550
 122430929.009 7  95224070.490 6                  22879142.520    22879145.140
  22879143.980          45.300          40.950
 128879868.913 6 100239910.926 5                  24101185.480    24101188.200
  24101186.480          39.900          33.350
 104425553.440 8  81219933.974 7                  19569288.820    19569290.800
  19569290.820          49.550          45.950
 117321145.169 7  91249717.298 5                  21970452.640    21970457.460
  21970455.060          46.200          33.600
 118426023.878 7  92109141.811 7                  22122976.480    22122979.260
  22122978.480          47.150          43.550
 117016216.946 7  91012767.055 7                  21897932.100    21897937.340
  21897935.560          45.450          43.450
 137489897.542 8                 102671060.539 7  26163447.640
                        48.100


 15  1 27 18  3 20.0000000  0 19G22G18G13G17G15G28G24G12G05R18R05R16
                                R17R06R09R07R15E19E20
 134520995.806 6 104821557.52844                  25598497.240
  25598493.060          39.300          28.950
 122461479.813 7  95424544.67746                  23303632.120
  23303628.200          47.950          38.000
 110380663.467 8  86010974.51447                  21004715.680
  21004711.560          50.450          45.700
 122871546.850 8  95744125.391 7                  23381648.240    23381645.480
  23381644.820          48.400          43.000
 106979880.070 8  83360977.156 8                  20357573.980    20357570.560
  20357569.860          50.300          49.700
 125527747.164 7  97813963.44246                  23887067.420
  23887062.960          47.400          37.700
 113051054.271 8  88091814.795 8  84421339.396 8  21512869.460    21512868.820
  21512868.280          49.900          49.000
 120352733.852 8  93781452.429 7                  22902304.300    22902302.340
  22902301.560          49.100          43.450
 131028677.840 7 102100266.794 6                  24933927.120    24933928.460
  24933928.020          45.400          40.350
 126918201.591 7  98714224.736 6                  23776043.980    23776049.540
  23776048.680          44.700          39.000
 114998252.154 8  89443130.589 7                  21512787.260    21512791.000
  21512790.580          48.650          46.100
 105309297.748 7  81907290.455 7                  19714105.540    19714108.280
  19714107.320          46.900          47.550
 122422755.326 7  95217713.193 7                  22877615.060    22877617.680
  22877616.540          45.850          42.350
 104426965.124 8  81221031.944 7                  19569553.380    19569555.340
  19569555.340          49.350          46.900
 117308663.712 7  91240009.510 5                  21968115.260    21968119.960
  21968117.640          46.000          34.800
 118409099.259 7  92095978.231 7                  22119814.820    22119817.560
  22119816.780          46.650          44.400
 117030840.586 7  91024140.990 7                  21900668.700    21900673.920
  21900672.140          44.600          43.750
 137479646.513 7                 102663405.546 7  26161496.940
                        47.650


 15  1 27 18  3 25.0000000  0 20G22G18G13G17G15G28G24G12G05R18R05R16
                                R17R24R06R09R07R15E19E20
 134507578.161 6 104811102.14145                  25595943.960
  25595939.800          38.100          33.550
 122454337.124 7  95418978.94746                  23302272.880
  23302268.960          46.650          39.350
 110389976.861 8  86018231.70147                  21006487.940
  21006483.860          49.250          46.550
 122866460.320 7  95740161.864 7                  23380680.260    23380677.540
  23380676.900          47.100          43.300
 106977920.861 8  83359450.502 8                  20357201.160    20357197.740
  20357197.040          49.150          49.600
 125542791.419 7  97825686.24046                  23889930.260
  23889925.760          45.300          39.250
 113042559.656 8  88085195.620 8  84414996.026 8  21511253.020    21511252.320
  21511251.800          48.650          48.900
 120335098.878 7  93767710.897 7                  22898948.460    22898946.540
  22898945.720          47.550          43.550
 131046545.092 7 102114189.248 6                  24937327.220    24937328.540
  24937328.120          43.850          40.150
 126900163.328 7  98700194.988 6                  23772664.760    23772670.300
  23772669.360          45.850          38.850
 115018296.810 8  89458720.863 7                  21516537.100    21516540.780
  21516540.380          49.250          45.850
 105309592.430 8  81907519.654 7                  19714160.700    19714163.460
  19714162.480          48.300          47.350
 122414598.962 7  95211369.349 6                  22876090.860    22876093.380
  22876092.300          46.600          41.900
                 100251730.44615                  24104027.300    24104030.260
  24104028.320          41.000          34.900
 104428399.642 8  81222147.676 7                  19569822.200    19569824.120
  19569824.160          49.950          46.800
 117296189.829 7  91230307.624 5                  21965779.320    21965783.920
  21965781.700          47.050          34.850
 118392187.493 7  92082824.652 7                  22116655.560    22116658.320
  22116657.500          47.750          44.150
 117045465.531 7  91035515.953 7                  21903405.560    21903410.840
  21903408.940          46.150          43.000
 137469403.251 7                 102655756.361 7  26159547.720
                        46.350


 15  1 27 18  3 30.0000000  0 20G22G18G13G17G15G28G24G12G05R18R05R16
                                R17R24R06R09R07R15E19E20
 134494166.614 6 104800651.59744                  25593391.920
  25593387.220          40.700          29.950
 122447205.508 8  95413421.85246                  23300915.780
  23300911.880          48.900          37.000
 110399299.431 8  86025496.03447                  21008261.920
  21008257.880          51.200          44.300
 122861384.612 8  95736206.771 7                  23379714.400    23379711.680
  23379711.080          49.850          43.650
 106975972.265 8  83357932.117 8                  20356830.340    20356826.920
  20356826.220          51.000          49.650
 125557837.687 7  97837410.60646                  23892793.440
  23892789.000          47.850          36.650
 113034068.901 8  88078579.458 8  84408655.533 8  21509637.300    21509636.580
  21509636.060          50.650          48.900
 120317468.814 8  93753973.202 7                  22895593.540    22895591.660
  22895590.840          49.850          43.850
 131064408.560 7 102128108.764 6                  24940726.580    24940727.960
  24940727.560          47.100          40.000
 126882125.812 7  98686165.842 6                  23769285.680    23769291.240
  23769290.220          46.150          38.800
 115038349.172 8  89474317.136 7                  21520288.380    21520292.000
  21520291.600          49.750          45.700
 105309895.057 8  81907755.031 7                  19714217.360    19714220.120
  19714219.120          48.450          47.200
 122406457.718 7  95205037.277 6                  22874569.520    22874572.020
  22874570.900          46.700          41.550
                                                  24105453.040    24105456.240
  24105454.060          40.350          34.150
 104429855.115 8  81223279.711 7                  19570094.960    19570096.880
  19570096.900          50.050          46.550
 117283721.588 7  91220610.113 5                  21963444.420    21963449.100
  21963446.800          47.150          34.500
 118375286.569 8  92069679.504 7                  22113498.340    22113501.100
  22113500.260          48.050          44.100
 117060089.642 7  91046890.270 6                  21906142.240    21906147.460
  21906145.580          46.200          41.800
 137459165.759 8                 102648111.498 7  26157599.600
                        49.000


 15  1 27 18  3 35.0000000  0 20G22G18G13G17G15G28G24G12G05R18R05R16
                                R17R24R06R09R07R15E19E20
 134480765.026 6 104790208.82745                  25590841.640
  25590836.820          37.650          30.950
 122440088.850 7  95407876.40646                  23299561.520
  23299557.640          46.350          40.100
 110408635.022 8  86032770.51747                  21010038.380
  21010034.360          49.400          46.600
 122856323.632 7  95732263.154 7                  23378751.340    23378748.600
  23378748.040          47.800          43.850
 106974038.204 8  83356425.055 8                  20356462.300    20356458.900
  20356458.180          49.350          49.650
 125572889.798 7  97849139.51646                  23895657.760
  23895653.260          44.800          38.300
 113025585.810 8  88071969.259 8  84402320.767 8  21508023.020    21508022.280
  21508021.760          48.500          48.900
 120299847.577 7  93740242.382 7                  22892240.320    22892238.460
  22892237.660          47.600          44.050
 131082272.112 7 102142028.354 6                  24944125.980    24944127.360
  24944126.940          43.450          40.250
 126864093.040 7  98672140.390 6                  23765907.520    23765913.100
  23765912.040          45.100          39.250
 115058413.335 8  89489922.587 7                  21524041.880    21524045.460
  21524045.020          48.650          45.500
 105310209.557 7  81907999.646 7                  19714276.240    19714278.980
  19714277.980          47.050          47.200
 122398335.787 7  95198720.223 6                  22873051.740    22873054.240
  22873053.040          45.050          41.650
                                                  24106882.660    24106885.820
  24106883.640          38.750          33.550
 104431335.406 8  81224431.049 7                  19570372.380    19570374.280
  19570374.300          48.950          46.450
 117271262.932 7  91210920.060 5                  21961111.360    21961115.920
  21961113.740          45.800          34.150
 118358400.305 7  92056545.749 7                  22110343.840    22110346.560
  22110345.760          47.100          43.950
 117074716.869 7  91058267.018 6                  21908879.480    21908884.760
  21908882.760          45.200          41.450
 137448937.967 7                 102640473.875 7  26155653.300
                        46.650


 15  1 27 18  3 40.0000000  0 19G22G18G13G17G15G28G24G12G05R18R05R16
                                R17R06R09R07R15E19E20
 134467370.046 6 104779771.19545                  25588292.680
  25588287.400          38.650          31.600
 122432983.734 7  95402339.96546                  23298209.460
  23298205.560          47.750          38.300
 110417980.254 8  86040052.51647                  21011816.680
  21011812.700          50.400          44.850
 122851273.932 8  95728328.325 7                  23377790.420    23377787.700
  23377787.220          48.850          43.950
 106972115.261 8  83354926.659 8                  20356096.360    20356092.940
  20356092.260          50.450          49.650
 125587944.308 7  97860870.29846                  23898522.500
  23898518.060          46.150          37.750
 113017107.086 8  88065362.476 8  84395989.253 8  21506409.560    21506408.840
  21506408.280          49.600          48.900
 120282231.705 8  93726515.747 7                  22888888.100    22888886.300
  22888885.500          49.050          44.000
 131100132.344 7 102155945.325 6                  24947524.700    24947526.160
  24947525.660          44.000          40.150
 126846061.505 7  98658115.890 6                  23762529.600    23762535.180
  23762534.120          45.500          39.450
 115078485.710 8  89505534.427 7                  21527796.860    21527800.420
  21527799.980          48.950          45.300
 105310532.470 7  81908250.813 7                  19714336.680    19714339.400
  19714338.420          47.650          47.300
 122390229.503 7  95192415.341 6                  22871536.840    22871539.360
  22871538.140          45.350          41.550
 104432837.010 8  81225598.975 7                  19570653.800    19570655.680
  19570655.700          49.450          46.450
 117258810.385 7  91201234.767 5                  21958779.440    21958784.000
  21958781.800          46.400          34.200
 118341525.529 7  92043420.933 7                  22107191.540    22107194.180
  22107193.420          47.650          44.250
 117089343.702 7  91069643.463 6                  21911616.700    21911621.940
  21911619.880          45.400          41.850
 137438716.434 8                 102632840.916 7  26153708.200
                        48.000


 15  1 27 18  3 45.0000000  0 20G22G18G13G17G15G28G24G12G05R18R05R16
                                R17R24R06R09R07R15E19E20
 134453984.125 6 104769340.59545                  25585745.160
  25585740.840          36.550          31.000
 122425892.676 7  95396814.47546                  23296860.020
  23296856.200          47.600          38.800
 110427337.649 8  86047343.99047                  21013597.320
  21013593.340          50.150          45.400
 122846238.037 8  95724404.265 7                  23376832.140    23376829.400
  23376829.040          48.650          44.000
 106970205.928 8  83353438.867 8                  20355733.020    20355729.600
  20355728.920          50.250          49.750
 125603003.760 7  97872604.93546                  23901388.200
  23901383.800          46.150          37.950
 113008635.065 8  88058760.915 8  84389662.761 8  21504797.380    21504796.640
  21504796.100          49.450          48.850
 120264623.734 8  93712795.254 7                  22885537.400    22885535.600
  22885534.840          48.750          43.950
 131117991.713 7 102169861.615 6                  24950923.280    24950924.740
  24950924.200          44.800          40.300
 126828033.852 7  98644094.419 6                  23759152.400    23759158.000
  23759156.920          44.250          38.250
 115098568.866 8  89521154.648 7                  21531553.860    21531557.400
  21531556.960          48.600          45.100
 105310866.302 7  81908510.468 7                  19714399.180    19714401.880
  19714400.940          46.950          47.150
 122382141.605 7  95186124.767 6                  22870025.440    22870027.920
  22870026.720          44.700          41.800
 128925677.111 6 100275540.315 5                  24109751.900    24109755.080
  24109752.900          37.950          34.300
 104434362.513 8  81226785.477 7                  19570939.700    19570941.540
  19570941.600          49.250          46.600
 117246366.481 7  91191556.185 5                  21956449.100    21956453.700
  21956451.440          45.700          34.750
 118324664.523 7  92030306.835 7                  22104041.800    22104044.420
  22104043.680          46.850          44.350
 117103972.714 7  91081021.587 7                  21914354.360    21914359.500
  21914357.440          44.550          42.100
 137428503.707 7                 102625214.534 7  26151764.780
                        47.650


 15  1 27 18  3 50.0000000  0 20G22G18G13G17G15G28G24G12G05R18R05R16
                                R17R24R06R09R07R15E19E20
 134440606.323 6 104758916.42445                  25583199.180
  25583195.380          36.550          34.550
 122418814.753 7  95391299.20846                  23295513.100
  23295509.340          47.800          37.800
 110436706.237 8  86054644.18347                  21015380.100
  21015376.100          50.300          45.500
 122841215.030 8  95720490.254 7                  23375876.320    23375873.580
  23375873.260          49.000          44.100
 106968309.301 8  83351960.975 8                  20355372.080    20355368.680
  20355368.000          50.400          49.850
 125618067.183 7  97884342.66946                  23904254.620
  23904250.240          46.400          38.150
 113000168.859 8  88052163.871 8  84383340.596 8  21503186.280    21503185.560
  21503185.020          49.700          48.950
 120247022.731 8  93699080.201 7                  22882188.040    22882186.260
  22882185.520          48.900          44.000
 131135849.264 7 102183776.512 6                  24954321.520    24954323.040
  24954322.420          44.450          40.300
 126810009.110 7  98630075.203 6                  23755775.720    23755781.360
  23755780.260          45.200          39.000
 115118661.806 8  89536782.486 7                  21535312.680    21535316.200
  21535315.760          49.200          45.150
 105311210.174 7  81908777.922 7                  19714463.580    19714466.240
  19714465.340          47.650          47.350
 122374070.986 7  95179847.650 6                  22868517.200    22868519.720
  22868518.520          45.250          41.150
 128933377.403 6 100281529.425 5                  24111191.880    24111194.920
  24111192.860          38.950          34.100
 104435910.972 8  81227989.828 7                  19571229.880    19571231.720
  19571231.780          49.750          46.450
 117233930.261 7  91181883.565 5                  21954120.180    21954124.920
  21954122.520          46.150          34.750
 118307816.534 7  92017202.859 7                  22100894.460    22100897.040
  22100896.340          47.400          44.200
 117118602.810 7  91092400.555 7                  21917092.180    21917097.360
  21917095.220          45.050          42.850
 137418298.835 7                 102617594.005 7  26149822.840
                        47.800


 15  1 27 18  3 55.0000000  0 20G22G18G13G17G15G28G24G12G05R18R05R16
                                R17R24R06R09R07R15E19E20
 134427238.966 6 104748500.32844                  25580655.280
  25580651.400          37.400          29.900
 122411752.112 7  95385795.84746                  23294169.100
  23294165.380          47.950          38.550
 110446088.175 8  86061954.78047                  21017165.420
  21017161.440          50.500          45.600
 122836207.070 8  95716587.952 7                  23374923.380    23374920.620
  23374920.300          49.050          43.950
 106966427.518 8  83350494.646 8                  20355013.960    20355010.600
  20355009.920          50.350          49.900
 125633136.704 7  97896085.15746                  23907122.220
  23907117.900          46.550          37.850
 112991710.672 8  88045573.080 8  84377024.427 8  21501576.700    21501576.000
  21501575.460          49.750          48.900
 120229430.872 8  93685372.269 7                  22878840.400    22878838.620
  22878837.920          48.950          43.950
 131153707.167 7 102197691.649 6                  24957719.760    24957721.340
  24957720.720          45.050          39.950
 126791989.482 7  98616059.949 6                  23752400.020    23752405.640
  23752404.500          43.950          39.100
 115138766.693 8  89552419.613 7                  21539073.740    21539077.220
  21539076.780          48.750          45.350
 105311566.246 7  81909054.861 7                  19714530.240    19714532.900
  19714532.040          47.150          47.200
 122366019.918 7  95173585.698 6                  22867012.640    22867015.080
  22867013.900          45.000          40.950
 128941098.545 6 100287534.770 5                  24112635.800    24112638.700
  24112636.700          38.900          33.250
 104437484.465 8  81229213.654 7                  19571524.760    19571526.580
  19571526.660          49.100          46.250
 117221503.917 7  91172218.639 5                  21951793.100    21951797.800
  21951795.520          45.750          34.600
 118290983.659 7  92004110.634 7                  22097749.960    22097752.480
  22097751.780          47.000          43.850
 117133236.326 7  91103782.178 7                  21919830.620    21919835.860
  21919833.680          43.700          43.200
 137408104.006 7                 102609981.005 7  26147882.800
                        47.600


 15  1 27 18  4  0.0000000  0 20G22G18G13G17G15G28G24G12G05R18R05R16
                                R17R24R06R09R07R15E19E20
 134413877.710 6 104738088.95845                  25578112.520
  25578109.080          36.750          30.000
 122404700.540 7  95380301.12846                  23292827.220
  23292823.520          47.800          37.900
 110455479.262 8  86069272.51647                  21018952.520
  21018948.480          50.550          45.600
 122831209.926 8  95712694.087 7                  23373972.520    23373969.680
  23373969.400          49.200          43.750
 106964556.294 8  83349036.560 8                  20354657.860    20354654.520
  20354653.820          50.300          49.800
 125648208.148 7  97907829.13946                  23909990.200
  23909985.900          46.900          36.100
 112983256.268 8  88038985.246 8  84370711.089 8  21499967.840    21499967.160
  21499966.600          49.650          48.750
 120211843.910 8  93671668.159 7                  22875493.700    22875491.920
  22875491.240          48.750          43.600
 131171561.187 7 102211603.808 6                  24961117.340    24961118.920
  24961118.260          45.000          39.650
 126773970.773 7  98602045.428 6                  23749024.520    23749030.100
  23749028.980          44.200          38.500
 115158879.134 8  89568062.620 7                  21542836.200    21542839.660
  21542839.220          48.800          45.450
 105311930.120 7  81909337.880 7                  19714598.360    19714601.020
  19714600.200          47.600          47.000
 122357984.099 7  95167335.608 6                  22865510.960    22865513.380
  22865512.140          45.800          41.400
 128948836.232 6 100293552.982 5                  24114082.800    24114085.520
  24114083.680          38.650          34.000
 104439078.794 8  81230453.696 7                  19571823.560    19571825.340
  19571825.420          49.150          46.150
 117209083.177 7  91162558.097 5                  21949467.080    21949471.720
  21949469.520          45.950          33.950
 118274161.773 7  91991026.949 7                  22094607.480    22094610.040
  22094609.260          47.150          43.550
 117147868.997 7  91115163.124 7                  21922568.940    21922574.140
  21922572.020          43.400          43.550
 137397914.925 7                 102602372.288 7  26145943.860
                        47.450


 15  1 27 18  4  5.0000000  0 20G22G18G13G17G15G28G24G12G05R18R05R16
                                R17R24R06R09R07R15E19E20
 134400524.423 6 104727683.80145                  25575571.400
  25575567.240          38.050          30.350
 122397661.901 7  95374816.50146                  23291487.800
  23291484.160          47.750          38.350
 110464881.327 8  86076598.80547                  21020741.700
  21020737.640          50.550          45.400
 122826225.519 8  95708810.136 7                  23373024.100    23373021.220
  23373020.840          49.200          43.300
 106962697.578 8  83347588.213 8                  20354304.140    20354300.820
  20354300.140          50.350          49.850
 125663283.310 7  97919576.02346                  23912858.900
  23912854.660          46.800          37.800
 112974807.443 8  88032401.760 8  84364401.915 8  21498360.060    21498359.380
  21498358.820          49.600          48.850
 120194263.770 8  93657969.373 7                  22872148.320    22872146.540
  22872145.840          48.950          43.700
 131189413.186 7 102225514.381 6                  24964514.540    24964516.180
  24964515.460          45.600          39.450
 126755954.796 7  98588033.000 6                  23745649.500    23745655.060
  23745653.880          44.050          37.600
 115179001.106 8  89583713.041 7                  21546600.460    21546603.920
  21546603.480          48.700          45.650
 105312303.764 7  81909628.503 7                  19714668.280    19714670.980
  19714670.180          47.900          47.000
 122349965.451 7  95161098.898 6                  22864012.500    22864014.860
  22864013.640          46.000          41.600
 128956592.376 6 100299585.548 5                  24115533.300    24115536.020
  24115534.100          39.650          33.200
 104440695.980 8  81231711.509 7                  19572126.620    19572128.360
  19572128.460          49.600          45.950
 117196669.852 7  91152903.307 5                  21947142.400    21947147.100
  21947144.940          46.200          34.400
 118257352.586 7  91977953.151 7                  22091467.420    22091469.940
  22091469.120          47.600          43.350
 117162502.620 7  91126544.825 7                  21925307.400    21925312.620
  21925310.540          44.050          43.600
 137387733.528 7                 102594769.314 7  26144006.380
                        47.450


 15  1 27 18  4 10.0000000  0 20G22G18G13G17G15G28G24G12G05R18R05R16
                                R17R24R06R09R07R15E19E20
 134387180.251 6 104717285.69244                  25573032.040
  25573027.620          38.400          29.450
 122390637.440 7  95369342.89346                  23290151.080
  23290147.420          47.600          39.350
 110474295.595 8  86083934.58947                  21022533.200
  21022529.100          50.550          45.950
 122821255.004 8  95704937.006 7                  23372078.300    23372075.340
  23372074.900          49.300          43.650
 106960852.595 8  83346150.565 8                  20353953.020    20353949.740
  20353949.040          50.350          50.050
 125678363.433 7  97931326.76846                  23915728.560
  23915724.340          46.400          38.200
 112966365.515 8  88025823.640 8  84358097.882 8  21496753.580    21496752.920
  21496752.360          49.300          49.100
 120176691.656 8  93644276.823 7                  22868804.460    22868802.660
  22868801.960          48.850          43.900
 131207264.329 7 102239424.291 6                  24967911.580    24967913.220
  24967912.460          45.750          39.350
 126737942.826 7  98574023.690 6                  23742275.200    23742280.740
  23742279.500          42.650          37.850
 115199133.919 8  89599371.875 7                  21550366.760    21550370.200
  21550369.760          48.400          45.450
 105312688.413 7  81909927.678 7                  19714740.320    19714742.980
  19714742.180          47.350          46.750
 122341965.345 7  95154876.579 6                  22862517.520    22862519.780
  22862518.620          44.950          41.500
 128964368.217 6 100305633.431 5                  24116987.400    24116990.240
  24116988.280          38.100          33.800
 104442337.174 8  81232987.987 7                  19572434.180    19572435.940
  19572435.980          49.350          46.000
 117184265.293 7  91143255.327 5                  21944819.400    21944824.040
  21944821.940          45.650          34.250
 118240557.578 7  91964890.378 7                  22088329.960    22088332.480
  22088331.660          47.450          43.750
 117177138.466 7  91137928.248 7                  21928046.300    21928051.480
  21928049.460          44.350          43.550
 137377561.051 7                 102587172.988 7  26142070.640
                        47.150


 15  1 27 18  4 15.0000000  0 20G22G18G13G17G15G28G24G12G05R18R05R16
                                R17R24R06R09R07R15E19E20
 134373842.942 6 104706893.05145                  25570493.980
  25570490.220          39.750          31.800
 122383624.734 7  95363878.44546                  23288816.600
  23288812.980          47.350          39.000
 110483719.641 8  86091278.00747                  21024326.560
  21024322.440          50.450          45.900
 122816295.948 8  95701072.796 7                  23371134.700    23371131.700
  23371131.200          48.950          43.800
 106959018.877 8  83344721.695 8                  20353604.080    20353600.800
  20353600.120          50.100          50.050
 125693446.063 7  97943079.47146                  23918598.700
  23918594.500          46.150          38.600
 112957927.975 8  88019248.942 8  84351797.129 8  21495147.940    21495147.280
  21495146.740          49.200          49.050
 120159125.134 8  93630588.637 7                  22865461.640    22865459.880
  22865459.160          48.700          43.900
 131225112.258 7 102253331.703 6                  24971308.040    24971309.620
  24971308.860          45.350          38.950
 126719932.428 7  98560015.638 6                  23738901.160    23738906.700
  23738905.440          42.450          37.900
 115219274.961 8  89615037.123 7                  21554134.580    21554138.040
  21554137.580          48.250          45.350
 105313081.560 7  81910233.451 7                  19714813.940    19714816.560
  19714815.760          46.800          46.550
 122333981.215 7  95148666.717 6                  22861025.480    22861027.800
  22861026.600          45.400          41.200
 128972161.355 6 100311694.758 5                  24118444.800    24118447.600
  24118445.700          37.950          33.400
 104443999.803 8  81234281.145 7                  19572745.780    19572747.540
  19572747.560          49.050          46.000
 117171866.887 7  91133612.148 5                  21942497.580    21942502.380
  21942500.120          45.150          33.950
 118223774.080 7  91951836.556 7                  22085194.720    22085197.180
  22085196.340          46.950          43.650
 117191773.986 7  91149311.426 7                  21930785.140    21930790.360
  21930788.340          45.300          43.500
 137367395.025 7                 102579581.494 7  26140136.080
                        46.800


 15  1 27 18  4 20.0000000  0 20G22G18G13G17G15G28G24G12G05R18R05R16
                                R17R24R06R09R07R15E19E20
 134360515.347 6 104696507.91644                  25567957.880
  25567954.200          38.900          28.750
 122376626.703 7  95358425.44446                  23287484.900
  23287481.260          46.350          40.050
 110493156.374 8  86098631.30547                  21026122.360
  21026118.200          49.700          46.400
 122811351.359 8  95697219.872 7                  23370193.860    23370190.780
  23370190.260          48.250          43.950
 106957199.400 8  83343303.921 8                  20353257.840    20353254.560
  20353253.880          49.300          49.950
 125708534.134 7  97954836.39746                  23921469.880
  23921465.660          45.250          40.350
 112949497.800 8  88012679.978 8  84345501.884 8  21493543.720    21493543.060
  21493542.500          48.350          49.000
 120141567.165 7  93616907.112 7                  22862120.480    22862118.720
  22862117.980          47.650          44.100
 131242959.827 7 102267238.818 6                  24974704.400    24974705.920
  24974705.120          44.150          38.850
 126701926.575 7  98546011.123 6                  23735528.000    23735533.660
  23735532.280          43.950          38.550
 115239427.235 8  89630711.099 7                  21557904.500    21557907.940
  21557907.500          48.700          45.600
 105313486.227 7  81910548.190 7                  19714889.680    19714892.300
  19714891.480          47.700          46.350
 122326015.962 7  95142471.518 6                  22859536.980    22859539.360
  22859538.120          46.100          41.300
                                                  24119905.980    24119908.720
  24119906.880          39.250          32.800
 104445686.883 8  81235593.321 7                  19573061.960    19573063.700
  19573063.700          49.450          45.900
 117159477.894 7  91123976.264 5                  21940177.520    21940182.380
  21940180.020          45.400          33.700
 118207005.217 7  91938794.124 7                  22082062.180    22082064.580
  22082063.720          47.700          43.450
 117206412.167 7  91160696.695 7                  21933524.480    21933529.720
  21933527.720          46.050          43.200
 137357238.431 7                 102571997.039 7  26138203.360
                        45.900


 15  1 27 18  4 25.0000000  0 20G22G18G13G17G15G28G24G12G05R18R05R16
                                R17R24R06R09R07R15E19E20
 134347193.806 6 104686127.49044                  25565422.980
  25565418.880          40.800          26.500
 122369639.658 7  95352980.99146                  23286155.280
  23286151.640          47.300          38.600
 110502602.077 8  86105991.58947                  21027919.840
  21027915.660          50.550          45.800
 122806417.514 8  95693375.325 7                  23369255.060    23369251.860
  23369251.400          49.150          43.900
 106955390.425 8  83341894.330 8                  20352913.600    20352910.340
  20352909.660          50.150          49.850
 125723623.871 7  97966594.62846                  23924341.380
  23924337.140          46.100          39.250
 112941071.355 8  88006113.922 8  84339209.416 8  21491940.200    21491939.560
  21491938.980          49.200          48.900
 120124014.032 8  93603229.359 7                  22858780.260    22858778.460
  22858777.720          48.800          44.000
 131260803.371 7 102281142.786 6                  24978100.000    24978101.500
  24978100.700          45.100          39.050
 126683921.517 7  98532007.233 6                  23732155.020    23732160.660
  23732159.300          44.600          39.000
 115259587.016 8  89646390.915 7                  21561675.800    21561679.280
  21561678.840          48.700          45.450
 105313898.568 8  81910868.901 7                  19714966.900    19714969.480
  19714968.640          48.100          46.600
 122318066.047 7  95136288.234 6                  22858051.340    22858053.720
  22858052.500          45.600          41.800
 128987805.321 6 100323860.513 5                  24121370.160    24121372.920
  24121371.060          39.700          34.200
 104447394.584 8  81236921.537 7                  19573381.980    19573383.660
  19573383.700          49.900          45.900
 117147094.232 7  91114344.527 5                  21937858.400    21937863.220
  21937860.880          46.250          34.000
 118190247.309 8  91925760.204 7                  22078931.680    22078934.080
  22078933.140          48.250          43.550
 117221049.210 7  91172081.074 7                  21936263.640    21936268.860
  21936266.880          46.800          43.000
 137347087.555 7                 102564416.835 7  26136271.720
                        47.100


 15  1 27 18  4 30.0000000  0 19G22G18G13G17G15G28G24G12G05R18R05R16
                                R17R06R09R07R15E19E20
 134333882.733 6 104675755.23243                  25562889.980
  25562885.720          41.550          23.200
 122362668.026 8  95347548.56546                  23284828.580
  23284825.020          48.550          38.250
 110512061.159 8  86113362.30447                  21029719.860
  21029715.660          51.300          45.250
 122801498.830 8  95689542.605 7                  23368319.160    23368315.860
  23368315.460          50.150          44.150
 106953596.366 8  83340496.368 8                  20352572.180    20352568.940
  20352568.260          51.000          49.950
 125738719.715 7  97978357.61846                  23927214.060
  23927209.820          47.400          37.300
 112932652.938 8  87999554.129 8  84332922.943 8  21490338.200    21490337.560
  21490337.000          50.150          49.000
 120106470.144 8  93589558.807 7                  22855441.760    22855439.940
  22855439.220          49.800          44.250
 131278647.231 7 102295047.008 6                  24981495.620    24981497.120
  24981496.340          46.950          39.250
 126665921.870 7  98518007.550 6                  23728783.040    23728788.700
  23728787.340          43.900          39.400
 115279758.571 7  89662079.898 7                  21565449.300    21565452.780
  21565452.340          47.800          45.450
 105314323.029 7  81911199.044 7                  19715046.400    19715048.900
  19715048.060          47.850          46.450
 122310135.804 7  95130120.274 6                  22856569.380    22856571.780
  22856570.520          45.300          41.900
 104449127.558 8  81238269.403 7                  19573706.760    19573708.400
  19573708.460          49.400          45.850
 117134720.540 7  91104720.557 5                  21935541.140    21935545.960
  21935543.580          45.750          33.550
 118173504.582 7  91912738.085 7                  22075804.040    22075806.360
  22075805.440          47.600          43.300
 117235689.707 7  91183468.136 7                  21939003.460    21939008.640
  21939006.660          45.750          42.700
 137336946.776 8                 102556844.194 7  26134341.980
                        48.350


 15  1 27 18  4 35.0000000  0 20G22G18G13G17G15G28G24G12G05R18R05R16
                                R17R24R06R09R07R15E19E20
 134320578.904 6 104665388.67144                  25560358.400
  25560353.720          39.550          29.750
 122355708.546 7  95342125.58746                  23283504.200
  23283500.680          47.750          37.850
 110521530.413 8  86120740.93347                  21031521.820
  21031517.600          50.700          45.450
 122796592.114 8  95685719.194 7                  23367385.540    23367382.140
  23367381.820          49.750          44.000
 106951814.024 8  83339107.528 8                  20352233.000    20352229.780
  20352229.100          50.550          49.850
 125753818.456 7  97990122.86446                  23930087.260
  23930083.060          46.800          38.550
 112924239.340 8  87992998.078 8  84326640.070 8  21488737.140    21488736.480
  21488735.920          49.450          48.850
 120088932.283 8  93575892.951 7                  22852104.420    22852102.560
  22852101.840          49.150          43.900
 131296488.123 7 102308948.914 6                  24984890.720    24984892.140
  24984891.380          46.150          38.550
 126647924.286 7  98504009.442 6                  23725411.460    23725417.140
  23725415.780          44.650          39.450
 115299938.777 8  89677775.597 7                  21569224.380    21569227.860
  21569227.460          48.300          45.100
 105314756.472 8  81911536.174 7                  19715127.560    19715130.040
  19715129.160          48.450          46.400
 122302222.021 7  95123965.107 6                  22855090.520    22855092.900
  22855091.620          46.750          41.750
 129003523.811 6 100336085.010 5                  24124309.640    24124312.220
  24124310.420          39.000          33.500
 104450882.335 8  81239634.222 7                  19574035.600    19574037.240
  19574037.300          50.100          45.800
 117122353.499 7  91095101.762 5                  21933225.200    21933230.000
  21933227.560          46.600          33.700
 118156774.036 8  91899725.443 7                  22072678.680    22072680.900
  22072680.000          48.400          43.250
 117250330.410 7  91194855.345 7                  21941743.280    21941748.500
  21941746.520          46.050          42.650
 137326812.929 7                 102549276.704 7  26132413.580
                        47.650


 15  1 27 18  4 40.0000000  0 20G22G18G13G17G15G28G24G12G05R18R05R16
                                R17R24R06R09R07R15E19E20
 134307283.630 6 104655028.65644                  25557828.340
  25557823.360          38.250          27.050
 122348762.569 7  95336713.15446                  23282182.420
  23282178.980          47.900          36.900
 110531011.161 8  86128128.52947                  21033325.980
  21033321.720          50.700          45.000
 122791698.712 8  95681906.161 7                  23366454.460    23366451.000
  23366450.680          49.950          44.050
 106950044.774 8  83337728.894 8                  20351896.320    20351893.100
  20351892.420          50.600          49.800
 125768921.381 7  98001891.37646                  23932961.260
  23932957.080          46.750          37.950
 112915831.922 8  87986446.853 8  84320361.812 8  21487137.240    21487136.580
  21487136.020          49.450          48.900
 120071401.836 8  93562232.873 7                  22848768.480    22848766.620
  22848765.900          49.000          44.000
 131314327.429 7 102322849.598 6                  24988285.520    24988286.920
  24988286.140          46.450          38.850
 126629930.086 7  98490013.963 6                  23722040.540    23722046.240
  23722044.840          43.900          39.350
 115320128.860 8  89693478.989 7                  21573001.340    21573004.840
  21573004.420          48.750          45.000
 105315200.113 7  81911881.239 7                  19715210.640    19715213.060
  19715212.200          47.950          46.600
 122294325.994 7  95117823.757 7                  22853614.980    22853617.340
  22853616.100          46.750          42.300
 129011410.914 6 100342219.425 5                  24125784.540    24125787.160
  24125785.320          40.200          33.050
 104452660.298 8  81241017.082 7                  19574368.800    19574370.420
  19574370.460          49.850          45.900
 117109994.454 7  91085489.196 5                  21930910.720    21930915.460
  21930913.080          46.600          34.100
 118140056.956 7  91886723.276 7                  22069555.820    22069558.000
  22069557.080          47.950          43.200
 117264972.629 7  91206243.741 7                  21944483.400    21944488.620
  21944486.600          45.250          42.300
 137316687.314 7                 102541715.402 7  26130486.740
                        47.800


 15  1 27 18  4 45.0000000  0 20G22G18G13G17G15G28G24G12G05R18R05R16
                                R17R24R06R09R07R15E19E20
 134293997.006 6 104644675.53844                  25555299.900
  25555295.060          38.050          29.850
 122341830.199 7  95331311.30046                  23280863.200
  23280859.820          47.850          38.500
 110540503.468 8  86135525.12647                  21035132.320
  21035128.060          50.650          45.250
 122786818.678 8  95678103.538 7                  23365525.920    23365522.380
  23365522.060          49.800          43.800
 106948288.667 8  83336360.499 8                  20351562.160    20351558.920
  20351558.240          50.550          49.800
 125784028.586 7  98013663.23246                  23935836.060
  23935831.880          46.650          38.200
 112907430.773 8  87979900.505 8  84314088.223 8  21485538.540    21485537.900
  21485537.340          49.400          48.850
 120053878.868 8  93548578.621 7                  22845433.980    22845432.100
  22845431.380          48.900          44.100
 131332165.198 7 102336749.080 6                  24991680.020    24991681.400
  24991680.600          46.000          39.000
 126611939.508 7  98476021.292 6                  23718670.320    23718675.940
  23718674.580          42.550          39.450
 115340328.952 8  89709190.176 7                  21576780.160    21576783.660
  21576783.260          48.250          44.800
 105315654.047 7  81912234.289 7                  19715295.580    19715298.040
  19715297.160          47.600          46.600
 122286447.938 7  95111696.399 6                  22852142.800    22852145.160
  22852143.920          46.150          41.750
 129019316.896 6 100348368.524 5                  24127262.980    24127265.560
  24127263.740          39.750          33.450
 104454461.599 8  81242418.087 7                  19574706.380    19574708.000
  19574708.020          49.850          46.050
 117097643.561 7  91075882.954 5                  21928597.780    21928602.580
  21928600.180          46.200          34.050
 118123353.446 7  91873731.673 7                  22066435.520    22066437.640
  22066436.660          47.450          43.400
 117279616.388 7  91217633.328 6                  21947223.780    21947229.080
  21947226.980          44.650          41.950
 137306570.062 7                 102534160.313 7  26128561.460
                        47.600


 15  1 27 18  4 50.0000000  0 20G22G18G13G17G15G28G24G12G05R18R05R16
                                R17R24R06R09R07R15E19E20
 134280718.114 6 104634328.35044                  25552772.960
  25552767.920          37.950          29.850
 122334910.355 7  95325919.21546                  23279546.400
  23279543.000          46.750          38.950
 110550006.338 8  86142929.96047                  21036940.680
  21036936.400          49.950          46.050
 122781950.965 8  95674310.521 7                  23364599.720    23364596.080
  23364595.780          48.900          43.750
 106946544.697 8  83335001.563 8                  20351230.280    20351227.060
  20351226.400          50.050          49.900
 125799139.057 7  98025437.61546                  23938711.480
  23938707.260          45.700          39.050
 112899034.900 8  87973358.273 8  84307818.588 8  21483940.820    21483940.200
  21483939.660          48.650          48.950
 120036362.395 8  93534929.429 7                  22842100.680    22842098.820
  22842098.120          48.050          44.150
 131350000.444 7 102350646.590 6                  24995074.040    24995075.400
  24995074.640          44.950          38.850
 126593951.399 7  98462030.573 6                  23715300.460    23715306.120
  23715304.760          42.850          38.900
 115360537.990 8  89724908.302 7                  21580560.700    21580564.160
  21580563.780          48.150          44.900
 105316117.317 7  81912594.605 7                  19715382.280    19715384.760
  19715383.880          47.150          46.700
 122278586.792 7  95105582.162 6                  22850673.740    22850676.160
  22850674.840          46.350          41.500
 129027240.902 6 100354531.661 5                  24128744.840    24128747.260
  24128745.540          39.100          32.700
 104456285.248 8  81243836.485 7                  19575048.100    19575049.760
  19575049.780          49.800          46.200
 117085299.770 7  91066282.247 5                  21926286.140    21926291.200
  21926288.600          46.000          34.000
 118106662.543 7  91860749.872 7                  22063317.500    22063319.520
  22063318.580          47.650          43.350
 117294260.608 7  91229023.264 6                  21949964.300    21949969.520
  21949967.440          44.250          41.900
 137296460.118 7                 102526610.695 7  26126637.580
                        46.800


 15  1 27 18  4 55.0000000  0 20G22G18G13G17G15G28G24G12G05R18R05R16
                                R17R24R06R09R07R15E19E20
 134267448.333 6 104623988.29843                  25550247.760
  25550242.680          41.000          23.650
 122328004.524 8  95320538.06746                  23278232.260
  23278228.860          48.050          38.650
 110559521.145 8  86150344.10147                  21038751.320
  21038747.000          50.900          45.050
 122777097.002 8  95670528.210 7                  23363676.120    23363672.380
  23363672.060          49.800          43.550
 106944814.227 8  83333653.149 8                  20350901.000    20350897.780
  20350897.120          50.950          49.950
 125814254.107 7  98037215.58146                  23941587.780
  23941583.560          46.950          37.250
 112890645.583 8  87966821.159 8  84301553.851 8  21482344.360    21482343.760
  21482343.240          49.650          48.900
 120018853.802 8  93521286.388 7                  22838768.880    22838767.020
  22838766.360          49.300          44.350
 131367834.450 7 102364543.139 6                  24998467.820    24998469.140
  24998468.440          46.700          38.900
 126575967.258 7  98448042.944 6                  23711931.380    23711937.020
  23711935.680          42.900          39.300
 115380757.305 8  89740634.423 7                  21584343.140    21584346.620
  21584346.240          48.300          44.900
 105316591.200 7  81912963.188 7                  19715471.000    19715473.480
  19715472.600          47.850          46.650
 122270743.875 7  95099482.125 7                  22849208.080    22849210.520
  22849209.240          46.000          42.000
 129035184.123 6 100360709.724 5                  24130230.260    24130232.760
  24130230.940          39.550          32.750
 104458132.557 8  81245273.287 7                  19575394.300    19575395.960
  19575396.000          49.700          46.100
 117072964.371 7  91056688.066 5                  21923976.080    21923981.320
  21923978.600          46.150          33.850
 118089985.654 7  91847778.975 7                  22060202.120    22060204.040
  22060203.120          47.750          43.200
 117308906.641 7  91240414.621 6                  21952705.100    21952710.360
  21952708.240          44.700          41.800
 137286358.886 8                 102519067.565 7  26124715.340
                        48.100


 15  1 27 18  5  0.0000000  0 20G22G18G13G17G15G28G24G12G05R18R05R16
                                R17R24R06R09R07R15E19E20
 134254186.244 6 104613654.22143                  25547724.120
  25547719.180          40.600          21.200
 122321111.315 7  95315166.74146                  23276920.520
  23276917.120          47.350          38.850
 110569046.530 8  86157766.48147                  21040563.960
  21040559.620          50.400          45.600
 122772255.409 8  95666755.542 7                  23362754.880    23362751.020
  23362750.700          49.100          43.350
 106943095.888 8  83332314.184 8                  20350574.000    20350570.780
  20350570.140          50.350          49.950
 125829372.448 7  98048996.09346                  23944464.680
  23944460.420          46.000          37.650
 112882261.502 8  87960288.115 8  84295293.016 8  21480748.900    21480748.300
  21480747.800          49.100          48.950
 120001351.722 8  93507648.418 7                  22835438.320    22835436.460
  22835435.820          48.700          44.400
 131385665.923 7 102378437.715 6                  25001861.120    25001862.460
  25001861.840          45.950          39.100
 126557985.694 7  98434057.316 6                  23708562.800    23708568.460
  23708567.120          43.900          39.700
 115400985.667 8  89756367.579 7                  21588127.280    21588130.760
  21588130.380          48.450          44.900
 105317074.435 8  81913339.045 7                  19715561.480    19715563.920
  19715563.080          48.300          46.700
 122262917.954 7  95093395.316 6                  22847745.560    22847748.080
  22847746.820          46.250          41.650
 129043145.409 6 100366901.831 5                  24131719.080    24131721.640
  24131719.780          40.100          33.750
 104460002.255 8  81246727.495 7                  19575744.660    19575746.360
  19575746.440          49.750          45.950
 117060636.044 7  91047099.386 5                  21921667.340    21921672.640
  21921669.880          46.650          33.950
 118073321.221 8  91834817.758 7                  22057089.060    22057091.000
  22057090.040          48.200          43.550
 117323553.177 7  91251806.386 7                  21955445.980    21955451.300
  21955449.120          45.100          42.250
 137276265.008 7                 102511529.949 7  26122794.520
                        47.400


 15  1 27 18  5  5.0000000  0 20G22G18G13G17G15G28G24G12G05R18R05R16
                                R17R24R06R09R07R15E19E20
 134240933.158 6 104603327.18444                  25545202.080
  25545197.540          39.650          27.600
 122314231.998 7  95309806.23946                  23275611.400
  23275607.980          47.400          38.650
 110578583.760 8  86165198.08947                  21042378.860
  21042374.480          50.400          45.600
 122767427.534 8  95662993.566 7                  23361836.220    23361832.280
  23361831.920          48.950          43.600
 106941391.008 8  83330985.705 8                  20350249.560    20350246.360
  20350245.720          50.200          49.850
 125844495.286 7  98060780.12746                  23947342.400
  23947338.180          45.900          38.800
 112873883.985 8  87953760.186 8  84289037.092 8  21479154.680    21479154.120
  21479153.580          48.900          48.900
 119983857.473 8  93494016.546 7                  22832109.260    22832107.420
  22832106.780          48.600          44.250
 131403496.153 7 102392331.301 6                  25005254.200    25005255.480
  25005254.920          46.050          39.050
 126540008.055 7  98420074.725 6                  23705194.940    23705200.660
  23705199.300          43.350          38.500
 115421224.167 7  89772108.614 7                  21591913.300    21591916.800
  21591916.440          47.900          45.250
 105317568.179 7  81913723.075 7                  19715653.900    19715656.400
  19715655.520          47.850          46.700
 122255110.191 7  95087322.598 6                  22846286.500    22846288.980
  22846287.720          46.050          41.500
 129051125.977 6 100373108.939 5                  24133211.500    24133213.980
  24133212.240          39.400          33.250
 104461895.725 8  81248200.196 7                  19576099.500    19576101.220
  19576101.300          49.600          46.100
 117048316.150 7  91037517.258 5                  21919360.220    21919365.500
  21919362.720          46.750          33.950
 118056670.835 8  91821867.470 7                  22053978.620    22053980.560
  22053979.600          48.050          43.300
 117338201.469 7  91263199.504 7                  21958187.200    21958192.520
  21958190.340          45.600          42.400
 137266179.799 7                 102503998.786 7  26120875.320
                        47.450


 15  1 27 18  5 10.0000000  0 20G22G18G13G17G15G28G24G12G05R18R05R16
                                R17R24R06R09R07R15E19E20
 134227687.502 6 104593005.89044                  25542681.480
  25542677.040          39.450          29.800
 122307365.012 7  95304455.33646                  23274304.640
  23274301.220          47.350          38.600
 110588131.258 8  86172637.70247                  21044195.720
  21044191.320          50.350          45.700
 122762611.778 8  95659241.036 7                  23360919.860    23360915.860
  23360915.500          49.050          43.700
 106939698.014 8  83329666.490 8                  20349927.400    20349924.180
  20349923.540          50.200          50.000
 125859621.039 7  98072566.42046                  23950220.740
  23950216.520          46.200          38.550
 112865511.439 8  87947236.132 8  84282784.866 8  21477561.400    21477560.840
  21477560.320          48.950          49.000
 119966369.437 8  93480389.517 7                  22828781.380    22828779.560
  22828778.920          48.400          44.400
 131421323.469 7 102406222.640 6                  25008646.700    25008647.960
  25008647.480          45.750          39.600
 126522032.789 7  98406093.987 6                  23701827.500    23701833.260
  23701831.920          43.050          38.900
 115441471.223 7  89787856.305 7                  21595700.900    21595704.440
  21595704.080          47.850          45.150
 105318070.922 7  81914114.105 7                  19715748.000    19715750.540
  19715749.660          47.450          46.650
 122247319.221 7  95081262.950 6                  22844830.540    22844833.060
  22844831.780          45.400          41.600
 129059124.154 6 100379329.740 5                  24134707.200    24134709.780
  24134707.960          38.500          33.000
 104463811.161 8  81249689.980 7                  19576458.440    19576460.160
  19576460.280          49.450          46.100
 117036002.994 7  91027940.357 5                  21917054.360    21917059.500
  21917056.840          46.400          34.250
 118040032.785 7  91808926.777 7                  22050870.500    22050872.420
  22050871.460          47.900          43.550
 117352850.032 7  91274592.831 7                  21960928.480    21960933.780
  21960931.620          45.450          42.850
 137256101.663 7                 102496472.914 7  26118957.460
                        47.350


 15  1 27 18  5 15.0000000  0 20G22G18G13G17G15G28G24G12G05R18R05R16
                                R17R24R06R09R07R15E19E20
 134214451.410 6 104582691.89444                  25540162.700
  25540157.940          38.900          28.150
 122300512.514 7  95299115.73646                  23273000.640
  23272997.240          47.250          38.250
 110597691.148 8  86180086.96647                  21046014.960
  21046010.520          50.200          45.850
 122757810.281 8  95655499.604 7                  23360006.220    23360002.140
  23360001.800          49.150          43.750
 106938019.041 8  83328358.203 8                  20349607.920    20349604.700
  20349604.060          50.150          49.850
 125874751.855 7  98084356.66246                  23953100.020
  23953095.740          46.250          37.500
 112857146.009 8  87940717.617 8  84276537.959 8  21475969.480    21475968.960
  21475968.420          48.850          48.900
 119948889.805 8  93466769.034 7                  22825455.100    22825453.260
  22825452.660          48.350          44.300
 131439150.045 7 102420113.394 6                  25012039.060    25012040.320
  25012039.760          45.150          39.050
 126504062.037 7  98392116.783 6                  23698460.920    23698466.700
  23698465.360          43.900          38.600
 115461729.096 8  89803612.422 7                  21599490.580    21599494.120
  21599493.760          48.250          45.150
 105318584.885 8  81914513.867 7                  19715844.200    19715846.780
  19715845.860          48.100          46.550
 122239547.098 7  95075217.978 7                  22843378.080    22843380.640
  22843379.480          45.850          42.100
 129067142.115 6 100385565.912 5                  24136206.520    24136209.220
  24136207.360          39.400          32.900
 104465750.558 8  81251198.401 7                  19576821.880    19576823.620
  19576823.740          50.050          46.150
 117023698.855 7  91018370.486 5                  21914750.180    21914755.360
  21914752.680          46.900          34.150
 118023409.293 8  91795997.401 7                  22047765.120    22047767.000
  22047766.040          48.550          43.300
 117367501.001 7  91285988.045 7                  21963670.240    21963675.480
  21963673.360          46.050          43.150
 137246032.771 7                 102488953.951 7  26117041.400
                        47.350


 15  1 27 18  5 20.0000000  0 20G22G18G13G17G15G28G24G12G05R18R05R16
                                R17R24R06R09R07R15E19E20
 134201223.414 6 104572384.54944                  25537645.380
  25537640.720          36.850          28.950
 122293673.052 7  95293786.29246                  23271699.100
  23271695.720          47.150          38.200
 110607261.970 8  86187544.74447                  21047836.260
  21047831.780          50.350          45.750
 122753021.582 8  95651768.159 7                  23359095.040    23359090.860
  23359090.560          49.400          44.000
 106936352.635 8  83327059.700 8                  20349290.820    20349287.580
  20349286.940          50.300          49.800
 125889886.249 7  98096149.69246                  23955980.000
  23955975.700          46.650          37.100
 112848786.230 8  87934203.508 8  84270295.277 8  21474378.640    21474378.140
  21474377.600          48.750          48.850
 119931417.109 8  93453153.951 7                  22822130.160    22822128.340
  22822127.700          48.350          43.950
 131456974.437 7 102434002.441 6                  25015431.020    25015432.280
  25015431.700          44.750          39.400
 126486094.357 7  98378141.931 6                  23695095.020    23695100.680
  23695099.320          43.050          39.050
 115481996.176 7  89819375.698 7                  21603281.980    21603285.520
  21603285.100          46.800          44.850
 105319108.483 7  81914921.097 7                  19715942.220    19715944.780
  19715943.900          47.050          46.550
 122231792.358 7  95069186.541 7                  22841928.900    22841931.560
  22841930.440          45.000          42.050
 129075178.339 6 100391816.345 5                  24137709.280    24137712.120
  24137710.160          38.100          32.800
 104467712.830 8  81252724.611 7                  19577189.580    19577191.340
  19577191.480          48.850          46.000
 117011402.141 7  91008806.392 5                  21912447.420    21912452.500
  21912449.900          45.450          33.850
 118006798.922 7  91783078.231 7                  22044662.160    22044664.080
  22044663.060          47.100          43.050
 117382152.758 7  91297383.860 7                  21966412.120    21966417.300
  21966415.260          44.000          43.350
 137235971.659 7                 102481440.785 7  26115126.800
                        47.550


 15  1 27 18  5 25.0000000  0 20G22G18G13G17G15G28G24G12G05R18R05R16
                                R17R24R06R09R07R15E19E20
 134188003.292 6 104562083.22945                  25535129.660
  25535125.040          37.300          35.000
 122286846.301 7  95288466.75946                  23270400.000
  23270396.620          47.400          38.950
 110616843.469 8  86195010.84747                  21049659.580
  21049655.080          50.600          45.650
 122748245.417 8  95648046.482 7                  23358186.240    23358182.000
  23358181.720          49.650          43.750
 106934698.491 8  83325770.764 8                  20348976.040    20348972.820
  20348972.180          50.550          49.800
 125905023.891 7  98107945.26446                  23958860.600
  23958856.280          47.150          36.250
 112840431.785 8  87927693.559 8  84264056.586 8  21472788.820    21472788.340
  21472787.820          49.000          48.950
 119913951.060 8  93439544.047 7                  22818806.480    22818804.620
  22818804.000          48.650          43.850
 131474796.311 7 102447889.516 6                  25018822.440    25018823.720
  25018823.140          44.200          39.300
 126468129.511 7  98364169.290 6                  23691729.580    23691735.160
  23691733.820          42.500          38.800
 115502272.221 7  89835145.955 7                  21607075.040    21607078.580
  21607078.160          46.400          45.050
 105319641.383 7  81915335.576 7                  19716042.000    19716044.540
  19716043.680          47.200          46.650
 122224054.721 7  95063168.366 6                  22840482.960    22840485.600
  22840484.460          45.150          41.250
 129083232.684 6 100398080.853 5                  24139215.380    24139218.340
  24139216.400          37.400          34.100
 104469697.557 8  81254268.287 7                  19577561.500    19577563.280
  19577563.420          48.650          45.950
 116999112.614 7  90999247.883 5                  21910145.980    21910151.100
  21910148.480          45.450          34.100
 117990201.274 7  91770168.968 7                  22041561.600    22041563.460
  22041562.420          46.950          43.150
 117396805.102 7  91308780.122 7                  21969154.140    21969159.300
  21969157.280          43.750          43.350
 137225918.017 7                 102473933.228 7  26113213.660
                        47.700


 15  1 27 18  5 30.0000000  0 20G22G18G13G17G15G28G24G12G05R18R05R16
                                R17R24R06R09R07R15E19E20
 134174791.763 6 104551788.53145                  25532615.540
  25532611.000          39.300          30.900
 122280033.026 7  95283157.72446                  23269103.480
  23269100.080          47.750          37.850
 110626436.347 8  86202485.81947                  21051485.060
  21051480.560          50.700          45.050
 122743482.511 8  95644335.128 7                  23357279.960    23357275.620
  23357275.380          49.650          43.700
 106933057.357 8  83324491.962 8                  20348663.760    20348660.520
  20348659.880          50.650          49.850
 125920165.519 7  98119743.95546                  23961741.980
  23961737.620          47.100          36.900
 112832083.394 8  87921188.332 8  84257822.402 8  21471200.160    21471199.680
  21471199.140          49.200          48.900
 119896492.424 8  93425939.927 7                  22815484.220    22815482.340
  22815481.720          48.750          44.150
 131492616.420 7 102461775.210 6                  25022213.560    25022214.860
  25022214.260          44.050          39.050
 126450168.121 7  98350199.345 6                  23688364.760    23688370.380
  23688369.000          42.350          39.350
 115522557.797 7  89850923.611 7                  21610869.840    21610873.420
  21610872.980          46.750          45.000
 105320184.363 7  81915757.907 7                  19716143.660    19716146.220
  19716145.340          47.100          46.800
 122216334.900 7  95057164.061 6                  22839040.360    22839042.880
  22839041.780          45.700          41.550
 129091305.733 6 100404359.880 5                  24140724.980    24140728.000
  24140726.140          36.800          33.800
 104471705.222 8  81255829.815 7                  19577937.720    19577939.520
  19577939.660          48.750          46.050
 116986831.007 7  90989695.535 5                  21907846.020    21907851.180
  21907848.560          45.250          34.150
 117973617.127 7  91757270.200 7                  22038463.560    22038465.320
  22038464.280          46.900          42.950
 117411458.737 7  91320177.392 7                  21971896.340    21971901.520
  21971899.540          43.600          43.100
 137215872.588 7                 102466431.770 7  26111302.100
                        47.800


 15  1 27 18  5 35.0000000  0 20G22G18G13G17G15G28G24G12G05R18R05R16
                                R17R24R06R09R07R15E19E20
 134161588.342 6 104541500.12844                  25530102.980
  25530098.640          40.150          27.550
 122273232.729 7  95277858.78746                  23267809.440
  23267805.980          47.550          37.550
 110636040.103 8  86209969.27147                  21053312.640
  21053308.080          50.650          45.100
 122738732.350 8  95640633.706 7                  23356376.100    23356371.700
  23356371.440          49.100          43.550
 106931428.756 8  83323222.922 8                  20348353.860    20348350.620
  20348349.960          50.550          49.700
 125935310.644 7  98131545.34546                  23964624.020
  23964619.680          46.800          37.250
 112823740.594 8  87914687.457 8  84251592.397 8  21469612.560    21469612.080
  21469611.540          49.150          48.750
 119879040.724 8  93412341.210 7                  22812163.280    22812161.380
  22812160.740          48.750          43.900
 131510434.215 7 102475659.122 6                  25025604.260    25025605.540
  25025604.980          43.800          39.650
 126432209.844 7  98336231.811 6                  23685000.560    23685006.200
  23685004.800          43.000          38.950
 115542852.516 7  89866708.389 7                  21614666.340    21614669.940
  21614669.500          46.950          44.900
 105320736.904 7  81916187.666 7                  19716247.080    19716249.660
  19716248.820          47.400          46.950
 122208632.482 7  95051173.297 6                  22837601.000    22837603.480
  22837602.360          45.700          41.150
 129099396.972 6 100410653.076 5                  24142238.020    24142241.100
  24142239.240          38.200          33.650
 104473735.627 8  81257409.017 7                  19578318.220    19578320.040
  19578320.160          49.000          45.950
 116974556.867 7  90980148.996 5                  21905547.420    21905552.540
  21905550.060          45.450          34.050
 117957046.165 7  91744381.684 7                  22035367.940    22035369.700
  22035368.620          47.100          42.450
 117426113.224 7  91331575.307 7                  21974638.720    21974643.920
  21974641.940          43.250          42.800
 137205834.929 7                 102458936.114 7  26109392.060
                        47.650


 15  1 27 18  5 40.0000000  0 20G22G18G13G17G15G28G24G12G05R18R05R16
                                R17R24R06R09R07R15E19E20
 134148393.534 6 104531218.49045                  25527592.160
  25527588.240          41.600          30.400
 122266445.877 8  95272570.33946                  23266517.980
  23266514.440          48.450          37.850
 110645655.215 8  86217461.56247                  21055142.320
  21055137.760          51.050          44.900
 122733995.474 8  95636942.649 7                  23355474.760    23355470.280
  23355469.980          49.850          43.050
 106929813.134 8  83321963.998 8                  20348046.420    20348043.180
  20348042.540          50.900          49.750
 125950459.698 7  98143349.81146                  23967506.820
  23967502.420          47.550          37.400
 112815403.832 8  87908191.285 8  84245366.913 8  21468026.100    21468025.640
  21468025.080          49.800          48.750
 119861596.406 8  93398748.241 7                  22808843.720    22808841.840
  22808841.200          49.400          44.150
 131528250.159 7 102489541.578 6                  25028994.600    25028995.900
  25028995.380          44.550          39.600
 126414255.186 7  98322267.108 6                  23681637.000    23681642.700
  23681641.260          43.650          38.850
 115563156.839 7  89882500.638 7                  21618464.640    21618468.260
  21618467.820          47.850          45.000
 105321299.566 8  81916625.292 7                  19716352.400    19716354.980
  19716354.200          48.300          47.050
 122200947.925 7  95045196.416 7                  22836165.020    22836167.400
  22836166.260          46.200          42.100
 129107506.871 6 100416960.777 5                  24143754.580    24143757.820
  24143755.800          39.950          32.650
 104475789.145 8  81259006.202 7                  19578703.060    19578704.920
  19578704.980          49.900          46.150
 116962290.650 7  90970608.634 5                  21903250.380    21903255.420
  21903253.000          46.650          34.600
 117940488.799 7  91731503.743 7                  22032274.840    22032276.660
  22032275.480          47.850          42.800
 117440769.002 7  91342974.223 7                  21977381.280    21977386.580
  21977384.580          44.300          42.400
 137195805.465 8                 102451446.608 7  26107483.560
                        48.450


 15  1 27 18  5 45.0000000  0 20G22G18G13G17G15G28G24G12G05R18R05R16
                                R17R24R06R09R07R15E19E20
 134135207.746 6 104520943.83044                  25525082.960
  25525079.040          41.000          28.400
 122259672.949 8  95267292.73446                  23265229.160
  23265225.520          48.250          37.950
 110655282.153 8  86224963.06447                  21056974.260
  21056969.700          50.800          44.950
 122729272.330 8  95633262.276 7                  23354576.020    23354571.480
  23354571.120          49.650          43.150
 106928210.945 8  83320715.539 8                  20347741.520    20347738.300
  20347737.640          50.550          49.800
 125965613.142 7  98155157.69346                  23970390.440
  23970385.980          47.100          36.900
 112807073.661 8  87901700.246 8  84239146.332 8  21466440.900    21466440.440
  21466439.880          49.400          48.750
 119844159.933 8  93385161.391 7                  22805525.680    22805523.760
  22805523.160          49.400          44.100
 131546064.740 7 102503422.973 6                  25032384.720    25032386.040
  25032385.420          44.000          39.550
 126396304.539 7  98308305.506 6                  23678274.220    23678279.860
  23678278.460          43.200          38.550
 115583471.278 7  89898300.736 7                  21622264.860    21622268.500
  21622268.040          47.800          45.150
 105321872.696 7  81917071.067 7                  19716459.700    19716462.260
  19716461.540          47.900          46.950
 122193281.713 7  95039233.802 6                  22834732.420    22834734.800
  22834733.620          45.300          41.650
 129115636.013 6 100423283.453 5                  24145274.680    24145277.940
  24145276.000          38.950          33.800
 104477866.234 8  81260621.703 7                  19579092.300    19579094.180
  19579094.240          49.650          46.250
 116950032.749 7  90961074.717 5                  21900954.840    21900959.920
  21900957.520          46.350          34.800
 117923945.475 7  91718636.719 7                  22029184.400    22029186.160
  22029184.940          47.850          42.600
 117455426.482 7  91354374.477 7                  21980124.160    21980129.520
  21980127.540          44.600          42.250
 137185784.693 8                 102443963.576 7  26105576.700
                        48.100


 15  1 27 18  5 50.0000000  0 20G22G18G13G17G15G28G24G12G05R18R05R16
                                R17R24R06R09R07R15E19E20
 134122029.501 6 104510675.09145                  25522575.160
  25522571.500          39.300          31.700
 122252912.393 7  95262024.76746                  23263942.700
  23263939.040          47.700          37.750
 110664919.329 8  86232472.55247                  21058808.120
  21058803.600          50.350          45.250
 122724561.395 8  95629591.414 7                  23353679.560    23353675.000
  23353674.580          49.200          43.250
 106926620.695 8  83319476.389 8                  20347438.900    20347435.680
  20347435.040          50.150          49.850
 125980769.478 7  98166967.82846                  23973274.600
  23973270.160          46.350          37.200
 112798748.428 8  87895213.065 8  84232929.447 8  21464856.640    21464856.220
  21464855.640          48.900          48.800
 119826729.784 8  93371579.467 7                  22802208.860    22802206.940
  22802206.340          49.150          44.000
 131563876.357 7 102517302.057 6                  25035774.200    25035775.580
  25035775.000          42.400          39.750
 126378356.436 7  98294345.889 6                  23674911.900    23674917.500
  23674916.100          45.700          37.750
 115603794.140 8  89914107.390 7                  21626066.640    21626070.320
  21626069.840          49.750          44.700
 105322454.714 8  81917523.752 7                  19716568.640    19716571.240
  19716570.520          49.300          46.650
 122185632.400 7  95033284.336 6                  22833302.960    22833305.380
  22833304.140          47.650          41.750
 129123782.716 6 100429619.757 5                  24146798.140    24146801.360
  24146799.480          41.550          32.600
 104479965.286 8  81262254.303 7                  19579485.660    19579487.540
  19579487.600          50.800          45.900
 116937781.694 7  90951546.134 5                  21898660.580    21898665.680
  21898663.300          47.400          33.900
 117907414.658 8  91705779.421 6                  22026096.280    22026098.020
  22026096.720          49.350          41.950
 117470084.101 7  91365774.853 6                  21982867.060    21982872.540
  21982870.540          46.650          41.800
 137175771.092 7                 102436485.891 7  26103671.200
                        47.700


 15  1 27 18  5 55.0000000  0 20G22G18G13G17G15G28G24G12G05R18R05R16
                                R17R24R06R09R07R15E19E20
 134108860.283 6 104500413.27445                  25520068.960
  25520065.800          36.050          31.750
 122246165.750 7  95256767.64246                  23262658.860
  23262655.160          46.450          38.950
 110674568.278 8  86239991.20947                  21060644.220
  21060639.740          49.400          46.650
 122719864.145 8  95625931.215 7                  23352785.700    23352781.120
  23352780.640          48.300          43.350
 106925043.880 8  83318247.696 8                  20347138.860    20347135.640
  20347134.980          49.250          49.950
 125995930.177 7  98178781.34746                  23976159.560
  23976155.160          44.850          39.600
 112790429.576 7  87888730.846 8  84226717.331 8  21463273.580    21463273.200
  21463272.600          47.950          48.950
 119809307.463 8  93358003.641 7                  22798893.500    22798891.620
  22798891.000          48.350          44.350
 131581686.492 6 102531179.957 6                  25039163.360    25039164.840
  25039164.220          41.250          40.050
 126360412.353 7  98280389.394 6                  23671550.380    23671555.860
  23671554.520          43.650          38.550
 115624126.941 7  89929921.770 7                  21629870.280    21629873.960
  21629873.480          47.900          44.550
 105323047.239 7  81917984.601 7                  19716679.520    19716682.140
  19716681.460          47.300          46.600
 122178001.385 7  95027349.107 6                  22831876.900    22831879.340
  22831878.140          44.950          41.700
 129131948.423 6 100435970.873 5                  24148325.180    24148328.180
  24148326.480          39.800          32.500
 104482088.026 8  81263905.323 7                  19579883.460    19579885.360
  19579885.400          49.050          45.750
 116925538.940 7  90942023.998 5                  21896367.880    21896372.940
  21896370.660          45.450          34.100
 117890897.825 7  91692932.990 7                  22023010.760    22023012.520
  22023011.140          47.350          42.450
 117484743.341 7  91377176.493 6                  21985610.320    21985615.820
  21985613.820          45.100          41.700
 137165766.140 7                 102429014.668 7  26101767.360
                        46.550


 15  1 27 18  6  0.0000000  0 20G22G18G13G17G15G28G24G12G05R18R05R16
                                R17R24R06R09R07R15E19E20
 134095699.372 6 104490158.08445                  25517564.300
  25517561.060          37.200          30.600
 122239432.291 7  95251520.82046                  23261377.540
  23261373.840          47.400          38.750
 110684228.226 8  86247518.44247                  21062482.420
  21062477.980          50.200          45.700
 122715179.833 8  95622281.102 7                  23351894.300    23351889.680
  23351889.180          48.950          43.250
 106923479.692 8  83317028.855 8                  20346841.180    20346837.980
  20346837.320          50.200          50.000
 126011094.433 7  98190597.65046                  23979045.180
  23979040.780          46.400          37.300
 112782116.520 8  87882253.150 8  84220509.529 8  21461691.660    21461691.260
  21461690.680          48.950          48.950
 119791892.236 8  93344433.350 7                  22795579.500    22795577.600
  22795577.000          49.400          44.350
 131599494.359 7 102545056.107 6                  25042552.160    25042553.620
  25042553.000          42.600          40.000
 126342471.582 7  98266435.492 6                  23668189.480    23668194.900
  23668193.660          42.950          39.050
 115644468.851 7  89945743.243 7                  21633675.660    21633679.360
  21633678.860          47.400          44.700
 105323649.340 7  81918452.910 7                  19716792.220    19716794.860
  19716794.200          46.650          46.750
 122170387.925 7  95021427.554 6                  22830454.180    22830456.660
  22830455.480          44.200          41.950
 129140132.451 6 100442336.251 5                  24149855.580    24149858.720
  24149856.940          38.200          33.250
 104484233.511 8  81265574.042 7                  19580285.520    19580287.440
  19580287.480          48.450          45.850
 116913303.676 7  90932507.712 5                  21894076.640    21894081.680
  21894079.420          45.000          34.100
 117874394.261 7  91680096.893 7                  22019927.740    22019929.520
  22019928.140          46.650          42.400
 117499403.351 7  91388578.744 6                  21988353.720    21988359.280
  21988357.240          44.350          41.800
 137155769.079 7                 102421549.332 7  26099865.020
                        47.600


 15  1 27 18  6  5.0000000  0 20G22G18G13G17G15G28G24G12G05R18R05R16
                                R17R24R06R09R07R15E19E20
 134082546.005 6 104479908.69345                  25515061.140
  25515057.920          39.300          32.600
 122232711.272 7  95246283.66446                  23260098.580
  23260094.800          47.900          38.900
 110693898.490 8  86255053.70847                  21064322.600
  21064318.180          50.700          44.950
 122710507.836 8  95618640.576 7                  23351005.200    23351000.640
  23351000.060          49.350          43.450
 106921927.470 8  83315819.329 8                  20346545.800    20346542.620
  20346541.960          50.750          49.900
 126026261.574 7  98202416.21446                  23981931.380
  23981927.080          47.100          36.350
 112773808.519 8  87875779.389 8  84214305.508 8  21460110.700    21460110.320
  21460109.680          49.650          48.900
 119774483.404 8  93330868.035 7                  22792266.720    22792264.820
  22792264.200          50.050          44.300
 131617299.334 7 102558930.005 6                  25045940.380    25045941.860
  25045941.240          43.300          38.800
 126324533.463 7  98252483.629 6                  23664829.100    23664834.440
  23664833.260          44.550          39.250
 115664819.272 8  89961571.325 7                  21637482.660    21637486.320
  21637485.820          48.700          44.400
 105324260.497 7  81918928.259 7                  19716906.560    19716909.260
  19716908.600          47.600          46.650
 122162791.284 7  95015519.055 7                  22829034.560    22829037.060
  22829035.980          46.250          42.400
 129148334.113 6 100448715.309 5                  24151389.320    24151392.420
  24151390.660          39.550          32.900
 104486401.075 8  81267259.919 7                  19580691.720    19580693.640
  19580693.700          49.450          46.000
 116901075.262 7  90922996.728 5                  21891786.620    21891791.760
  21891789.420          46.650          33.550
 117857903.571 7  91667270.823 7                  22016847.160    22016848.900
  22016847.520          47.650          42.800
 117514063.407 7  91399981.019 7                  21991097.160    21991102.720
  21991100.680          45.600          42.400
 137145779.264 8                 102414089.416 7  26097964.020
                        48.250


 15  1 27 18  6 10.0000000  0 20G22G18G13G17G15G28G24G12G05R18R05R16
                                R17R24R06R09R07R15E19E20
 134069402.720 6 104469667.21345                  25512560.020
  25512556.960          41.050          34.350
 122226005.100 7  95241058.08046                  23258822.420
  23258818.640          47.750          38.050
 110703581.508 8  86262598.91947                  21066165.180
  21066160.820          50.650          45.000
 122705850.542 8  95615011.520 7                  23350118.900    23350114.340
  23350113.740          49.000          43.700
 106920389.705 8  83314621.072 8                  20346253.180    20346250.000
  20346249.340          50.750          49.950
 126041434.033 7  98214238.91246                  23984818.580
  23984814.340          46.700          38.000
 112765507.904 8  87869311.390 8  84208107.011 8  21458531.140    21458530.760
  21458530.120          49.650          48.850
 119757083.446 8  93317309.640 7                  22788955.640    22788953.740
  22788953.120          49.900          44.300
 131635103.749 7 102572803.482 6                  25049328.480    25049330.080
  25049329.400          44.100          39.750
 126306600.451 7  98238535.751 6                  23661469.620    23661475.020
  23661473.840          44.350          39.250
 115685180.666 8  89977407.961 7                  21641291.720    21641295.340
  21641294.820          48.450          44.300
 105324883.148 7  81919412.555 7                  19717023.140    19717025.840
  19717025.140          47.300          46.600
 122155214.009 7  95009625.633 7                  22827618.600    22827621.120
  22827620.100          45.750          42.800
 129156555.808 6 100455109.986 5                  24152926.840    24152929.840
  24152928.120          40.600          33.250
 104488593.140 8  81268964.858 7                  19581102.520    19581104.440
  19581104.500          49.550          46.100
 116888856.266 7  90913493.083 5                  21889498.400    21889503.540
  21889501.180          46.550          33.250
 117841427.727 7  91654456.289 7                  22013769.360    22013771.020
  22013769.660          47.500          43.050
 117528726.153 7  91411385.386 7                  21993841.100    21993846.680
  21993844.660          44.900          42.400
 137135799.101 8                 102406636.710 7  26096064.860
                        48.150


 15  1 27 18  6 15.0000000  0 20G22G18G13G17G15G28G24G12G05R18R05R16
                                R17R24R06R09R07R15E19E20
 134056267.833 6 104459432.26245                  25510060.580
  25510057.540          41.350          32.200
 122219312.098 7  95235842.75346                  23257548.820
  23257545.000          46.800          39.400
 110713275.545 8  86270152.71447                  21068009.860
  21068005.540          50.050          45.600
 122701206.228 8  95611392.595 7                  23349235.080    23349230.600
  23349229.920          48.600          43.550
 106918864.636 8  83313432.709 8                  20345962.960    20345959.800
  20345959.120          50.150          49.900
 126056610.106 7  98226064.40846                  23987706.440
  23987702.260          45.850          38.250
 112757213.025 8  87862847.858 8  84201912.791 8  21456952.680    21456952.260
  21456951.680          49.100          48.900
 119739690.652 8  93303756.827 7                  22785645.900    22785643.980
  22785643.400          49.300          44.500
 131652905.948 7 102586675.222 6                  25052716.180    25052717.840
  25052717.140          43.800          39.550
 126288670.869 7  98224590.564 6                  23658110.800    23658116.180
  23658115.000          43.900          39.250
 115705551.047 8  89993251.589 7                  21645102.440    21645106.000
  21645105.500          48.600          44.550
 105325515.422 8  81919904.319 7                  19717141.500    19717144.220
  19717143.460          48.100          46.600
 122147654.427 7  95003745.967 7                  22826205.980    22826208.480
  22826207.480          46.550          42.300
 129164795.784 6 100461518.862 5                  24154467.760    24154470.540
  24154469.000          40.600          32.100
 104490808.022 8  81270687.546 7                  19581517.600    19581519.520
  19581519.580          49.900          46.100
 116876644.836 7  90903995.318 5                  21887211.580    21887216.620
  21887214.320          46.450          33.800
 117824965.365 7  91641652.242 7                  22010694.040    22010695.640
  22010694.300          47.550          42.750
 117543389.901 7  91422790.533 7                  21996585.260    21996590.840
  21996588.820          45.100          43.050
 137125826.906 7                 102399189.947 7  26094167.220
                        47.600


 15  1 27 18  6 20.0000000  0 20G22G18G13G17G15G28G24G12G05R18R05R16
                                R17R24R06R09R07R15E19E20
 134043140.604 6 104449203.22045                  25507562.660
  25507559.500          40.650          33.350
 122212631.608 7  95230637.17746                  23256277.580
  23256273.780          46.600          40.600
 110722979.959 8  86277714.59147                  21069856.540
  21069852.220          49.750          45.750
 122696574.233 8  95607783.248 7                  23348353.580    23348349.140
  23348348.460          48.050          43.900
 106917351.635 8  83312253.745 8                  20345675.040    20345671.880
  20345671.220          49.700          50.050
 126071789.099 7  98237892.19246                  23990594.900
  23990590.740          45.600          39.650
 112748923.191 8  87856388.253 8  84195722.340 8  21455375.180    21455374.780
  21455374.180          48.650          49.150
 119722304.328 8  93290209.048 7                  22782337.400    22782335.500
  22782334.880          48.600          44.600
 131670705.211 7 102600544.681 6                  25056103.380    25056105.080
  25056104.360          43.800          39.750
 126270744.043 7  98210647.484 6                  23654752.500    23654757.860
  23654756.660          43.150          39.600
 115725929.935 8  90009101.817 7                  21648914.760    21648918.240
  21648917.740          48.400          44.400
 105326156.673 7  81920403.074 7                  19717261.480    19717264.260
  19717263.460          47.450          46.750
 122140111.876 7  94997879.526 7                  22824796.480    22824798.920
  22824797.980          46.000          42.200
 129173053.444 6 100467941.501 5                  24156011.980    24156014.720
  24156013.120          39.300          32.250
 104493044.962 8  81272427.384 7                  19581936.820    19581938.700
  19581938.780          49.350          46.100
 116864440.238 7  90894502.873 5                  21884926.040    21884931.060
  21884928.720          45.950          33.500
 117808515.749 7  91628858.102 7                  22007621.060    22007622.660
  22007621.360          47.300          43.200
 117558054.063 7  91434195.989 7                  21999329.460    21999335.040
  21999333.040          44.450          43.550
 137115861.998 7                 102391748.631 7  26092270.960
                        47.150


 15  1 27 18  6 25.0000000  0 20G22G18G13G17G15G28G24G12G05R18R05R16
                                R17R24R06R09R07R15E19E20
 134030022.094 6 104438981.05044                  25505066.300
  25505063.160          40.300          28.650
 122205964.626 7  95225442.13446                  23255008.920
  23255005.040          47.550          37.000
 110732695.684 8  86285285.27947                  21071705.360
  21071701.040          50.650          45.350
 122691955.566 8  95604184.299 7                  23347474.640    23347470.260
  23347469.560          49.000          43.800
 106915851.695 8  83311084.963 8                  20345389.620    20345386.480
  20345385.800          50.400          50.000
 126086971.951 7  98249722.98146                  23993484.060
  23993479.940          46.550          36.800
 112740639.447 8  87849933.394 8  84189536.440 8  21453798.820    21453798.440
  21453797.880          49.400          49.250
 119704925.516 8  93276667.127 7                  22779030.340    22779028.400
  22779027.780          49.050          44.400
 131688502.534 7 102614412.625 6                  25059490.140    25059491.940
  25059491.260          44.600          40.200
 126252820.981 7  98196707.337 6                  23651394.960    23651400.280
  23651399.060          43.350          39.850
 115746318.259 8  90024959.401 7                  21652728.860    21652732.280
  21652731.740          48.050          44.200
 105326807.913 7  81920909.600 7                  19717383.360    19717386.180
  19717385.340          47.250          46.750
 122132587.232 7  94992027.036 6                  22823390.300    22823392.740
  22823391.780          45.100          41.750
 129181329.659 6 100474378.551 5                  24157559.720    24157562.180
  24157560.740          39.350          33.050
 104495304.929 8  81274185.137 7                  19582360.320    19582362.220
  19582362.280          48.950          46.100
 116852243.654 7  90885016.650 5                  21882642.000    21882647.040
  21882644.640          45.350          33.900
 117792079.936 7  91616074.709 7                  22004550.680    22004552.260
  22004551.020          46.950          43.050
 117572719.502 7  91445602.435 7                  22002073.860    22002079.440
  22002077.520          43.650          43.350
 137105905.364 8                 102384313.496 7  26090376.280
                        48.050


 15  1 27 18  6 30.0000000  0 20G22G18G13G17G15G28G24G12G05R18R05R16
                                R17R24R06R09R07R15E19E20
 134016911.532 6 104428765.02544                  25502571.480
  25502568.100          40.050          28.800
 122199310.479 7  95220257.09546                  23253742.700
  23253738.760          47.350          37.650
 110742422.090 8  86292864.29547                  21073556.220
  21073551.900          50.700          45.000
 122687349.551 8  95600595.201 7                  23346598.080    23346593.780
  23346593.080          49.000          43.950
 106914364.121 8  83309925.818 8                  20345106.560    20345103.400
  20345102.720          50.400          49.950
 126102158.013 7  98261556.27446                  23996373.880
  23996369.760          46.450          38.000
 112732361.137 8  87843482.769 8  84183354.589 8  21452223.520    21452223.120
  21452222.580          49.300          49.200
 119687553.617 8  93263130.582 7                  22775724.600    22775722.620
  22775721.980          48.750          44.250
 131706297.261 7 102628278.527 6                  25062876.480    25062878.240
  25062877.680          45.400          40.000
 126234900.988 7  98182769.589 6                  23648037.920    23648043.240
  23648042.020          42.700          39.600
 115766715.357 8  90040823.821 7                  21656544.600    21656548.000
  21656547.400          48.100          44.400
 105327468.466 7  81921423.364 7                  19717506.960    19717509.860
  19717509.000          47.000          46.950
 122125079.945 7  94986188.054 6                  22821987.360    22821989.820
  22821988.800          45.250          41.350
 129189623.743 6 100480829.505 5                  24159110.740    24159113.360
  24159111.720          39.950          33.050
 104497587.504 8  81275960.475 7                  19582788.080    19582790.000
  19582790.020          48.950          46.050
 116840054.214 7  90875535.977 5                  21880359.340    21880364.380
  21880361.900          45.200          33.650
 117775657.109 7  91603301.409 7                  22001482.720    22001484.340
  22001483.100          46.650          43.200
 117587385.516 7  91457009.318 7                  22004818.380    22004824.000
  22004822.120          43.650          43.600
 137095956.386 8                 102376884.075 7  26088483.040
                        48.050


 15  1 27 18  6 35.0000000  0 20G22G18G13G17G15G28G24G12G05R18R05R16
                                R17R24R06R09R07R15E19E20
 134003810.765 6 104418556.64845                  25500078.560
  25500074.960          39.800          32.550
 122192670.886 7  95215083.38446                  23252479.220
  23252475.240          46.900          37.900
 110752160.874 8  86300452.95647                  21075409.440
  21075405.120          50.400          45.750
 122682757.930 8  95597017.314 7                  23345724.300    23345720.060
  23345719.340          48.700          43.550
 106912890.641 8  83308777.652 8                  20344826.180    20344823.020
  20344822.340          50.200          49.950
 126117348.951 7  98273393.36946                  23999264.620
  23999260.520          46.300          38.200
 112724090.027 8  87837037.756 8  84177178.114 8  21450649.580    21450649.200
  21450648.660          48.800          49.250
 119670190.262 8  93249600.693 7                  22772420.440    22772418.480
  22772417.840          48.000          44.250
 131724091.040 7 102642143.715 6                  25066262.620    25066264.400
  25066263.800          45.050          39.950
 126216985.875 7  98168835.637 6                  23644681.780    23644687.140
  23644685.980          44.700          39.900
 115787122.884 8  90056696.332 7                  21660362.260    21660365.700
  21660365.020          49.250          44.150
 105328140.147 7  81921945.789 7                  19717632.680    19717635.600
  19717634.760          47.350          46.850
 122117591.730 7  94980363.882 6                  22820587.960    22820590.460
  22820589.280          45.700          41.500
 129197937.660 6 100487295.912 5                  24160665.480    24160667.920
  24160666.400          40.950          32.900
 104499894.276 8  81277754.628 7                  19583220.340    19583222.300
  19583222.300          49.650          45.950
 116827873.844 7  90866062.366 5                  21878078.360    21878083.440
  21878080.840          46.500          34.000
 117759249.076 7  91590539.618 7                  21998417.560    21998419.180
  21998417.940          47.550          42.900
 117602053.752 7  91468417.938 7                  22007563.300    22007569.020
  22007567.140          44.650          43.600
 137086016.749 7                 102369461.628 7  26086591.580
                        47.800


 15  1 27 18  6 40.0000000  0 20G22G18G13G17G15G28G24G12G05R18R05R16
                                R17R24R06R09R07R15E19E20
 133990716.917 6 104408353.65345                  25497586.840
  25497583.400          40.650          31.550
 122186042.962 7  95209918.79546                  23251217.940
  23251213.940          47.250          37.050
 110761909.183 8  86308049.03947                  21077264.480
  21077260.140          50.800          44.950
 122678177.841 8  95593448.415 7                  23344852.680    23344848.480
  23344847.800          49.100          43.700
 106911428.422 8  83307638.265 8                  20344547.940    20344544.760
  20344544.080          50.650          50.000
 126132541.913 7  98285232.03446                  24002155.740
  24002151.640          47.050          37.600
 112715823.157 8  87830596.054 8  84171004.808 8  21449076.440    21449076.060
  21449075.540          49.100          49.100
 119652832.599 8  93236075.255 7                  22769117.380    22769115.400
  22769114.780          48.300          44.200
 131741881.087 7 102656005.989 6                  25069648.000    25069649.780
  25069649.240          45.800          39.850
 126199072.736 7  98154903.219 6                  23641326.120    23641331.440
  23641330.300          43.900          39.750
 115807537.929 8  90072574.703 7                  21664181.360    21664184.780
  21664184.080          48.800          44.500
 105328819.928 7  81922474.512 7                  19717759.860    19717762.840
  19717762.040          46.650          47.000
 122110119.660 7  94974552.274 6                  22819191.580    22819194.060
  22819192.840          44.700          41.850
 129206268.243 6 100493775.254 5                  24162223.360    24162225.840
  24162224.220          39.650          33.000
 104502222.349 8  81279565.350 7                  19583656.620    19583658.560
  19583658.560          49.100          46.100
 116815699.492 7  90856593.449 5                  21875798.500    21875803.600
  21875800.940          45.600          33.750
 117742853.055 7  91577787.176 7                  21995354.620    21995356.200
  21995354.980          46.850          42.800
 117616721.244 7  91479825.985 7                  22010308.140    22010313.840
  22010312.020          44.350          43.750
 137076083.647 8                 102362044.052 7  26084701.380
                        48.300


 15  1 27 18  6 45.0000000  0 20G22G18G13G17G15G28G24G12G05R18R05R16
                                R17R24R06R09R07R15E19E20
 133977633.510 6 104398158.76245                  25495097.140
  25495093.880          40.400          34.950
 122179430.302 7  95204766.06646                  23249959.560
  23249955.600          46.950          38.150
 110771670.503 8  86315655.25647                  21079122.000
  21079117.660          50.700          44.950
 122673612.781 8  95589891.230 7                  23343983.900    23343979.760
  23343979.100          48.900          43.350
 106909980.951 8  83306510.361 8                  20344272.520    20344269.320
  20344268.640          50.550          49.950
 126147740.382 7  98297075.00146                  24005047.940
  24005043.780          46.900          37.550
 112707563.983 8  87824160.334 8  84164837.247 8  21447504.760    21447504.380
  21447503.860          49.050          49.000
 119635484.135 8  93222556.976 7                  22765816.040    22765814.040
  22765813.440          48.150          43.700
 131759670.891 7 102669868.059 6                  25073033.400    25073035.160
  25073034.600          45.950          39.750
 126181165.210 7  98140975.158 6                  23637971.440    23637976.700
  23637975.700          44.750          39.900
 115827964.166 8  90088461.751 7                  21668002.560    21668005.980
  21668005.260          49.950          44.550
 105329511.363 7  81923012.294 7                  19717889.240    19717892.260
  19717891.480          47.550          47.100
 122102667.375 7  94968756.050 6                  22817798.900    22817801.440
  22817800.200          45.750          41.950
 129214619.237 6 100500270.451 5                  24163785.100    24163787.440
  24163785.900          41.850          32.550
 104504575.159 8  81281395.311 7                  19584097.500    19584099.460
  19584099.480          49.850          46.250
 116803534.765 7  90847132.017 5                  21873520.400    21873525.360
  21873522.840          47.050          34.300
 117726472.579 7  91565046.808 7                  21992294.580    21992296.160
  21992294.900          47.950          42.950
 117631391.602 7  91491236.243 7                  22013053.440    22013059.240
  22013057.420          45.700          43.850
 137066160.532 7                 102354633.949 7  26082813.060
                        47.950


 15  1 27 18  6 50.0000000  0 20G22G18G13G17G15G28G24G12G05R18R05R16
                                R17R24R06R09R07R15E19E20
 133964556.980 6 104387969.30744                  25492608.700
  25492605.420          39.450          26.550
 122172829.375 7  95199622.48146                  23248703.400
  23248699.500          45.850          38.950
 110781441.353 8  86323268.90247                  21080981.360
  21080976.980          50.000          45.600
 122669059.269 7  95586343.047 7                  23343117.320    23343113.240
  23343112.600          47.550          43.300
 106908544.708 8  83305391.211 8                  20343999.220    20343996.020
  20343995.340          49.850          49.900
 126162940.872 7  98308919.54046                  24007940.540
  24007936.340          45.800          38.300
 112699309.084 8  87817727.956 8  84158672.896 8  21445933.880    21445933.500
  21445933.000          48.150          48.900
 119618141.385 7  93209043.153 7                  22762515.800    22762513.760
  22762513.180          47.350          43.750
 131777456.895 7 102683727.181 6                  25076418.080    25076419.820
  25076419.300          44.750          39.250
 126163259.644 7  98127048.629 6                  23634617.100    23634622.320
  23634621.420          44.550          41.050
 115848397.761 8  90104354.530 7                  21671825.120    21671828.500
  21671827.780          49.950          44.750
 105330210.933 7  81923556.408 7                  19718020.180    19718023.260
  19718022.460          47.500          47.750
 122095231.294 7  94962972.467 7                  22816409.220    22816411.840
  22816410.640          46.150          43.200
 129222986.782 6 100506778.562 5                  24165350.000    24165352.200
  24165350.620          41.400          33.600
 104506949.241 8  81283241.822 7                  19584542.380    19584544.380
  19584544.380          49.850          46.900
 116791376.147 7  90837675.327 5                  21871243.480    21871248.420
  21871245.900          46.900          35.300
 117710104.121 8  91552315.785 7                  21989236.820    21989238.360
  21989237.100          48.100          43.350
 117646061.375 7  91502646.064 7                  22015798.680    22015804.540
  22015802.660          45.800          44.150
 137056243.938 7                 102347228.707 7  26080925.980
                        47.100


 15  1 27 18  6 55.0000000  0 20G22G18G13G17G15G28G24G12G05R18R05R16
                                R17R24R06R09R07R15E19E20
 133951489.393 6 104377786.77944                  25490122.000
  25490118.540          39.550          29.850
 122166242.144 7  95194489.58146                  23247449.860
  23247445.980          45.900          40.650
 110791223.702 8  86330891.51547                  21082842.880
  21082838.520          49.900          45.900
 122664519.310 7  95582805.421 7                  23342253.280    23342249.360
  23342248.660          47.550          43.450
 106907121.707 8  83304282.389 8                  20343728.460    20343725.220
  20343724.560          49.850          50.000
 126178145.321 7  98320767.16346                  24010833.900
  24010829.700          45.850          38.400
 112691060.405 8  87811300.421 8  84152513.170 8  21444364.200    21444363.820
  21444363.320          48.100          48.950
 119600806.368 7  93195535.360 7                  22759217.020    22759214.980
  22759214.400          47.400          43.750
 131795241.049 7 102697584.875 6                  25079802.380    25079804.100
  25079803.620          45.050          39.300
 126145358.182 7  98113125.284 6                  23631263.480    23631268.800
  23631267.900          44.050          40.650
 115868840.882 8  90120254.731 7                  21675649.500    21675652.860
  21675652.120          49.650          44.700
 105330920.642 7  81924108.415 7                  19718152.960    19718156.120
  19718155.320          47.350          47.650
 122087813.516 7  94957203.087 7                  22815023.060    22815025.680
  22815024.540          45.900          43.050
 129231373.192 6 100513301.330 5                  24166918.360    24166920.380
  24166918.920          40.600          33.600
 104509346.525 8  81285106.380 7                  19584991.600    19584993.620
  19584993.620          49.350          46.800
 116779225.580 7  90828224.902 5                  21868968.080    21868972.920
  21868970.500          46.600          35.000
 117693749.615 7  91539595.618 7                  21986181.660    21986183.200
  21986181.880          47.350          43.650
 117660732.620 7  91514057.049 7                  22018544.200    22018550.080
  22018548.140          45.700          43.650
 137046335.813 7                 102339829.802 7  26079040.520
                        47.000


 15  1 27 18  7  0.0000000  0 20G22G18G13G17G15G28G24G12G05R18R05R16
                                R17R24R06R09R07R15E19E20
 133938431.450 6 104367611.80544                  25487637.140
  25487633.700          39.250          27.850
 122159669.379 7  95189367.94746                  23246199.080
  23246195.180          45.700          39.250
 110801018.268 8  86338523.64347                  21084706.740
  21084702.360          49.700          46.000
 122659993.618 7  95579278.910 7                  23341391.960    23341388.160
  23341387.400          47.350          43.350
 106905712.635 8  83303184.415 8                  20343460.320    20343457.100
  20343456.420          49.700          49.900
 126193354.544 7  98332618.50846                  24013728.140
  24013723.900          45.400          38.500
 112682818.665 7  87804878.296 8  84146358.640 8  21442795.820    21442795.460
  21442794.940          47.800          48.950
 119583479.778 7  93182034.125 7                  22755919.840    22755917.860
  22755917.200          47.600          43.850
 131813024.144 7 102711441.732 6                  25083186.500    25083188.220
  25083187.800          44.600          38.700
 126127461.543 7  98099205.689 6                  23627910.820    23627916.100
  23627915.280          42.900          41.450
 115889294.207 8  90136162.858 7                  21679475.740    21679479.100
  21679478.340          49.000          44.500
 105331641.160 7  81924668.828 7                  19718287.820    19718291.000
  19718290.200          46.300          47.400
 122080414.653 7  94951448.421 7                  22813640.400    22813643.100
  22813641.960          45.350          43.100
 129239778.992 6 100519839.181 5                  24168490.340    24168492.260
  24168490.800          38.900          32.550
 104511767.892 8  81286989.667 7                  19585445.360    19585447.380
  19585447.380          48.800          46.550
 116767083.852 7  90818781.340 5                  21866694.380    21866699.060
  21866696.700          45.750          34.600
 117677409.925 7  91526886.985 7                  21983129.220    21983130.800
  21983129.460          46.700          43.350
 117675405.896 7  91525469.595 7                  22021290.060    22021295.980
  22021293.980          44.100          43.250
 137036436.940 7                 102332437.784 7  26077156.800
                        46.800


 15  1 27 18  7  5.0000000  0 20G22G18G13G17G15G28G24G12G05R18R05R16
                                R17R24R06R09R07R15E19E20
 133925381.053 6 104357442.62345                  25485153.780
  25485150.120          40.200          33.050
 122153108.869 7  95184255.87146                  23244950.640
  23244946.760          46.250          38.150
 110810822.887 8  86346163.61447                  21086572.500
  21086568.120          49.850          45.950
 122655480.081 7  95575761.878 7                  23340532.960    23340529.240
  23340528.500          47.950          43.250
 106904315.395 8  83302095.661 8                  20343194.460    20343191.220
  20343190.540          50.050          49.850
 126208566.293 7  98344471.82946                  24016622.860
  24016618.520          46.000          37.150
 112674581.749 8  87798459.937 8  84140207.712 8  21441228.340    21441228.020
  21441227.460          48.300          48.950
 119566159.518 8  93168537.836 7                  22752623.900    22752621.920
  22752621.220          48.300          43.750
 131830803.957 7 102725296.038 6                  25086570.000    25086571.740
  25086571.280          45.300          38.700
 126109567.547 7  98085288.165 6                  23624558.660    23624563.980
  23624563.120          42.250          40.900
 115909755.585 8  90152077.251 7                  21683303.520    21683306.860
  21683306.080          48.950          44.250
 105332370.345 7  81925235.978 7                  19718424.300    19718427.500
  19718426.700          46.450          47.250
 122073032.598 7  94945706.821 7                  22812260.860    22812263.680
  22812262.480          44.850          42.800
 129248202.040 6 100526390.455 5                  24170065.500    24170067.380
  24170065.800          39.100          32.050
 104514211.150 8  81288889.977 7                  19585903.200    19585905.260
  19585905.240          48.950          46.250
 116754948.773 7  90809342.962 5                  21864421.900    21864426.540
  21864424.160          45.650          34.600
 117661082.822 7  91514188.146 7                  21980079.180    21980080.800
  21980079.400          46.700          43.450
 117690078.995 7  91536882.010 7                  22024035.920    22024041.840
  22024039.740          44.250          42.600
 137026545.161 7                 102325051.085 7  26075274.440
                        47.300


 15  1 27 18  7 10.0000000  0 20G22G18G13G17G15G28G24G12G05R18R05R16
                                R17R24R06R09R07R15E19E20
 133912339.829 6 104347280.63445                  25482672.120
  25482668.280          40.350          31.100
 122146562.317 7  95179154.66646                  23243704.860
  23243701.040          46.400          37.950
 110820639.199 8  86353812.68247                  21088440.480
  21088436.100          50.150          45.100
 122650980.315 8  95572255.569 7                  23339676.580    23339673.000
  23339672.200          48.150          43.150
 106902931.634 8  83301017.403 8                  20342931.160    20342927.900
  20342927.220          50.350          49.850
 126223782.201 7  98356328.37946                  24019518.360
  24019513.940          46.300          38.000
 112666351.331 8  87792046.626 8  84134061.618 8  21439662.100    21439661.820
  21439661.220          48.850          48.800
 119548847.218 8  93155047.741 7                  22749329.460    22749327.480
  22749326.780          48.800          43.750
 131848582.055 7 102739148.988 6                  25089953.160    25089954.900
  25089954.480          45.900          39.250
 126091677.880 7  98071374.027 6                  23621207.240    23621212.680
  23621211.740          44.350          40.150
 115930226.565 8  90167999.118 7                  21687133.060    21687136.420
  21687135.580          50.000          43.850
 105333109.891 7  81925811.185 7                  19718562.700    19718565.960
  19718565.120          47.700          47.350
 122065669.132 7  94939979.679 7                  22810884.820    22810887.620
  22810886.500          46.350          43.100
 129256643.912 6 100532956.376 5                  24171644.180    24171646.020
  24171644.340          41.650          31.350
 104516677.786 8  81290808.467 7                  19586365.440    19586367.500
  19586367.460          50.150          46.300
 116742821.928 7  90799910.980 5                  21862150.940    21862155.660
  21862153.180          47.100          34.900
 117644770.089 8  91501500.473 7                  21977031.780    21977033.420
  21977032.020          48.300          43.300
 117704753.585 7  91548295.603 7                  22026782.080    22026788.020
  22026785.800          45.450          42.100
 137016662.121 7                 102317670.893 7  26073393.760
                        47.550


 15  1 27 18  7 15.0000000  0 20G22G18G13G17G15G28G24G12G05R18R05R16
                                R17R24R06R09R07R15E19E20
 133899307.109 6 104337125.33645                  25480192.020
  25480188.260          40.200          32.200
 122140029.097 7  95174063.85546                  23242461.620
  23242457.800          46.250          37.950
 110830466.546 8  86361470.35147                  21090310.580
  21090306.200          50.150          45.050
 122646493.597 7  95568759.427 7                  23338822.660    23338819.180
  23338818.400          47.950          43.050
 106901560.716 8  83299949.149 8                  20342670.300    20342667.040
  20342666.340          50.200          49.800
 126239001.635 7  98368187.66846                  24022414.480
  24022410.040          45.950          36.300
 112658126.769 8  87785637.877 8  84127919.912 8  21438097.000    21438096.700
  21438096.120          48.800          48.750
 119531542.234 8  93141563.350 7                  22746036.440    22746034.440
  22746033.740          48.700          43.500
 131866357.827 7 102753000.117 6                  25093335.900    25093337.520
  25093337.220          46.150          39.050
 126073791.989 7  98057462.783 6                  23617856.560    23617862.080
  23617861.080          44.650          40.500
 115950706.594 8  90183928.021 7                  21690964.300    21690967.620
  21690966.800          49.750          44.100
 105333859.119 7  81926393.919 7                  19718702.920    19718706.200
  19718705.360          47.750          47.350
 122058323.553 7  94934266.480 7                  22809512.120    22809514.920
  22809513.860          46.300          42.850
 129265104.221 6 100539536.627 5                  24173226.300    24173228.180
  24173226.340          41.250          31.950
 104519167.388 8  81292744.819 7                  19586832.000    19586834.040
  19586834.000          49.800          46.550
 116730702.772 7  90790484.974 5                  21859881.400    21859886.200
  21859883.600          46.850          34.700
 117628471.018 8  91488823.422 7                  21973986.980    21973988.600
  21973987.240          48.300          43.800
 117719428.983 7  91559709.807 7                  22029528.400    22029534.280
  22029532.020          44.950          42.450
 137006787.200 7                 102310296.764 7  26071514.620
                        47.400


 15  1 27 18  7 20.0000000  0 20G22G18G13G17G15G28G24G12G05R18R05R16
                                R17R24R06R09R07R15E19E20
 133886283.597 6 104326977.17445                  25477713.720
  25477710.160          40.000          33.000
 122133509.799 7  95168983.88946                  23241220.980
  23241217.220          46.200          37.200
 110840305.575 8  86369137.13147                  21092182.880
  21092178.480          50.150          44.800
 122642020.685 7  95565274.051 7                  23337971.400    23337968.020
  23337967.220          47.950          43.250
 106900203.251 8  83298891.384 8                  20342411.980    20342408.700
  20342408.020          50.100          49.850
 126254225.241 7  98380050.21646                  24025311.380
  24025306.940          45.850          36.050
 112649908.587 8  87779234.105 8  84121782.960 8  21436533.100    21436532.840
  21436532.220          48.850          48.750
 119514245.251 8  93128085.194 7                  22742744.940    22742742.880
  22742742.240          48.650          43.550
 131884131.931 7 102766849.961 6                  25096718.280    25096719.900
  25096719.580          45.800          38.200
 126055910.415 7  98043554.911 6                  23614506.700    23614512.220
  23614511.240          43.550          40.200
 115971196.141 8  90199864.319 7                  21694797.320    21694800.640
  21694799.800          48.750          43.800
 105334618.629 7  81926984.656 7                  19718845.100    19718848.360
  19718847.520          47.000          47.000
 122050996.457 7  94928567.632 7                  22808142.860    22808145.640
  22808144.560          46.100          42.350
 129273583.337 6 100546131.497 5                  24174811.980    24174813.720
  24174811.880          40.000          31.550
 104521680.503 8  81294699.469 7                  19587302.940    19587304.960
  19587304.960          49.000          46.200
 116718591.872 7  90781065.406 5                  21857613.380    21857618.220
  21857615.580          45.800          34.200
 117612186.362 7  91476157.589 7                  21970944.860    21970946.460
  21970945.200          47.150          44.000
 117733796.965 7  91570755.239 7                  22032275.020    22032280.820
  22032278.580          43.550          42.600
 136996921.025 7                 102302929.190 7  26069637.180
                        47.200


 15  1 27 18  7 25.0000000  0 20G22G18G13G17G15G28G24G12G05R18R05R16
                                R17R24R06R09R07R15E19E20
 133873268.206 6 104316835.35045                  25475237.000
  25475233.460          40.150          32.050
 122127003.304 7  95163913.89046                  23239982.780
  23239979.080          46.250          36.950
 110850155.217 8  86376812.17247                  21094057.220
  21094052.800          50.250          44.650
 122637560.460 8  95561798.556 7                  23337122.560    23337119.260
  23337118.500          48.150          43.650
 106898858.167 8  83297843.263 8                  20342156.060    20342152.740
  20342152.060          50.150          49.850
 126269451.841 7  98391915.09346                  24028208.860
  24028204.480          45.900          36.300
 112641695.803 8  87772834.538 8  84115650.044 8  21434970.280    21434970.000
  21434969.360          48.950          48.850
 119496955.159 8  93114612.393 7                  22739454.760    22739452.680
  22739452.040          48.550          43.800
 131901903.200 7 102780697.609 6                  25100100.100    25100101.760
  25100101.340          45.700          38.550
 126038032.176 7  98029649.653 6                  23611157.420    23611163.020
  23611162.020          43.350          40.550
 115991694.203 8  90215807.256 7                  21698631.940    21698635.200
  21698634.400          48.600          43.900
 105335387.413 7  81927582.606 7                  19718989.040    19718992.260
  19718991.400          46.850          46.700
 122043686.852 7  94922882.370 6                  22806776.880    22806779.600
  22806778.520          45.050          41.900
 129282080.250 6 100552740.201 5                  24176400.840    24176402.700
  24176400.800          39.600          31.800
 104524215.882 8  81296671.439 7                  19587778.060    19587780.060
  19587780.080          49.250          46.250
 116706488.221 7  90771651.463 5                  21855346.740    21855351.560
  21855348.940          45.650          34.400
 117595914.768 7  91463501.921 7                  21967905.200    21967906.860
  21967905.640          46.650          43.850
 117748473.34517  91582170.96017                  22035021.680    22035027.440
  22035025.220          43.800          42.450
 136987062.513 7                 102295567.323 7  26067761.160
                        47.300


 15  1 27 18  7 30.0000000  0 20G22G18G13G17G15G28G24G12G05R18R05R16
                                R17R24R06R09R07R15E19E20
 133860261.781 6 104306700.46245                  25472761.960
  25472758.360          36.950          32.000
 122120510.586 7  95158854.63446                  23238747.220
  23238743.580          44.700          39.950
 110860016.378 8  86384496.19447                  21095933.760
  21095929.320          49.150          46.550
 122633113.886 7  95558333.696 7                  23336276.340    23336273.120
  23336272.400          46.700          44.200
 106897526.367 8  83296805.499 8                  20341902.640    20341899.320
  20341898.640          49.000          50.050
 126284682.350 7  98403783.03646                  24031107.100
  24031102.780          44.000          39.050
 112633489.208 7  87766439.802 8  84109521.769 8  21433408.620    21433408.340
  21433407.680          47.650          49.050
 119479672.832 7  93101145.661 7                  22736166.040    22736163.960
  22736163.320          47.050          44.400
 131919672.551 7 102794543.756 6                  25103481.640    25103483.220
  25103482.760          44.150          39.000
 126020158.134 6  98015747.637 6                  23607808.960    23607814.560
  23607813.600          40.950          38.600
 116012201.650 7  90231757.484 7                  21702468.260    21702471.580
  21702470.780          46.400          43.000
 105336166.211 7  81928188.337 7                  19719134.840    19719138.020
  19719137.140          44.550          46.050
 122036395.617 7  94917211.427 6                  22805414.300    22805417.000
  22805415.880          42.300          40.850
 129290595.905 6 100559363.505 5                  24177993.320    24177995.120
  24177993.220          37.900          31.000
 104526774.597 7  81298661.547 7                  19588257.560    19588259.540
  19588259.600          47.600          45.350
 116694392.596 7  90762243.767 5                  21853081.600    21853086.400
  21853083.840          43.600          33.300
 117579657.493 7  91450857.403 7                  21964868.200    21964869.900
  21964868.720          44.950          43.000
 117763152.139 7  91593587.799 7                  22037768.580    22037774.380
  22037772.140          42.250          42.100
 136977212.585 7                 102288211.871 7  26065886.780
                        45.900


 15  1 27 18  7 35.0000000  0 20G22G18G13G17G15G28G24G12G05R18R05R16
                                R17R24R06R09R07R15E19E20
 133847264.120 6 104296572.42445                  25470288.500
  25470284.740          40.350          30.650
 122114031.401 7  95153805.92346                  23237514.260
  23237510.660          46.400          38.250
 110869888.753 8  86392188.95747                  21097812.420
  21097807.940          50.450          45.350
 122628680.714 8  95554879.287 7                  23335432.680    23335429.500
  23335428.840          48.450          44.050
 106896207.598 8  83295777.890 8                  20341651.720    20341648.360
  20341647.680          50.250          50.050
 126299916.556 7  98415653.84646                  24034006.060
  24034001.760          45.850          37.600
 112625288.728 8  87760049.827 8  84103398.029 8  21431848.160    21431847.840
  21431847.180          49.050          49.050
 119462398.164 8  93087684.891 7                  22732878.780    22732876.720
  22732876.060          48.550          44.300
 131937439.712 7 102808388.193 6                  25106862.740    25106864.340
  25106863.920          45.350          38.850
 126002288.105 7  98001848.753 6                  23604461.260    23604466.800
  23604465.900          42.000          39.450
 116032718.261 7  90247714.849 7                  21706306.320    21706309.640
  21706308.860          47.750          43.100
 105336954.891 7  81928801.759 7                  19719282.480    19719285.660
  19719284.760          45.850          46.300
 122029122.381 7  94911554.465 6                  22804055.100    22804057.720
  22804056.620          43.750          40.850
 129299129.959 6 100566001.112 5                  24179589.160    24179591.080
  24179589.160          39.300          31.550
 104529356.166 8  81300669.434 7                  19588741.360    19588743.320
  19588743.380          48.800          45.400
 116682304.885 7  90752842.245 5                  21850817.980    21850822.860
  21850820.200          45.000          33.650
 117563414.059 7  91438223.627 7                  21961833.800    21961835.520
  21961834.360          46.350          43.000
 117777831.998 7  91605005.465 7                  22040515.720    22040521.480
  22040519.300          43.450          42.900
 136967370.976 7                 102280862.618 7  26064013.940
                        47.300


 15  1 27 18  7 40.0000000  0 20G22G18G13G17G15G28G24G12G05R18R05R16
                                R17R24R06R09R07R15E19E20
 133834273.936 6 104286450.12844                  25467816.480
  25467812.900          39.400          29.300
 122107564.449 7  95148766.74846                  23236283.640
  23236280.040          45.800          40.700
 110879771.068 8  86399889.46047                  21099693.000
  21099688.460          49.950          46.600
 122624259.600 7  95551434.265 7                  23334591.340    23334588.180
  23334587.560          47.800          44.850
 106894900.557 8  83294759.426 8                  20341403.020    20341399.640
  20341398.960          49.750          50.550
 126315153.113 7  98427526.48046                  24036905.440
  24036901.180          44.900          38.650
 112617092.980 8  87753663.530 8  84097277.834 8  21430288.580    21430288.220
  21430287.580          48.500          49.650
 119445129.737 7  93074228.984 7                  22729592.680    22729590.680
  22729590.000          47.700          44.900
 131955203.388 7 102822229.895 6                  25110243.160    25110244.820
  25110244.360          44.200          39.800
 125984420.773 7  97987951.953 6                  23601114.020    23601119.620
  23601118.780          44.500          40.000
 116053242.528 8  90263678.169 7                  21710145.820    21710149.140
  21710148.380          49.050          43.750
 105337752.024 7  81929421.749 7                  19719431.740    19719434.880
  19719433.980          47.050          46.650
 122021866.015 7  94905910.627 6                  22802699.100    22802701.680
  22802700.560          45.350          41.800
 129307681.177 6 100572652.056 5                  24181188.300    24181190.020
  24181188.340          40.350          30.850
 104531959.635 8  81302694.344 7                  19589229.260    19589231.200
  19589231.260          49.500          45.600
 116670223.640 7  90743445.720 5                  21848555.560    21848560.380
  21848557.800          45.800          33.600
 117547183.250 7  91425599.662 7                  21958801.720    21958803.420
  21958802.360          46.800          43.150
 117792511.491 7  91616422.836 7                  22043262.780    22043268.520
  22043266.380          44.900          42.800
 136957536.390 7                 102273518.628 7  26062142.460
                        46.550


 15  1 27 18  7 45.0000000  0 20G22G18G13G17G15G28G24G12G05R18R05R16
                                R17R24R06R09R07R15E19E20
 133821293.948 6 104276335.91345                  25465346.420
  25465342.920          40.900          31.550
 122101112.411 7  95143739.19046                  23235055.860
  23235052.240          47.300          38.550
 110889666.003 8  86407599.80347                  21101575.980
  21101571.380          50.900          45.350
 122619853.235 8  95548000.744 7                  23333752.820    23333749.720
  23333749.100          49.150          44.600
 106893607.940 8  83293752.197 8                  20341157.060    20341153.640
  20341152.980          50.800          50.350
 126330394.658 7  98439403.00246                  24039805.800
  24039801.600          46.550          37.050
 112608904.581 8  87747282.960 8  84091163.122 8  21428730.380    21428730.000
  21428729.380          49.600          49.400
 119427870.245 8  93060780.038 7                  22726308.280    22726306.320
  22726305.600          48.700          44.600
 131972966.259 7 102836070.971 6                  25113623.400    25113625.140
  25113624.680          45.600          38.650
 125966558.911 7  97974059.424 6                  23597767.880    23597773.460
  23597772.680          43.350          40.050
 116073777.341 8  90279649.680 7                  21713987.260    21713990.620
  21713989.860          48.700          43.600
 105338560.471 7  81930050.550 7                  19719583.100    19719586.220
  19719585.340          46.800          46.600
 122014629.188 7  94900282.003 6                  22801346.760    22801349.280
  22801348.180          45.300          41.350
 129316252.091 6 100579318.336 5                  24182791.060    24182792.760
  24182791.160          39.950          31.500
 104534587.416 8  81304738.178 7                  19589721.720    19589723.640
  19589723.680          48.750          45.700
 116658151.623 7  90734056.404 5                  21846294.820    21846299.720
  21846297.120          45.300          34.250
 117530967.954 7  91412987.791 7                  21955772.600    21955774.220
  21955773.240          46.300          43.300
 117807193.498 7  91627842.169 7                  22046010.300    22046016.040
  22046013.920          44.550          42.850
 136947711.523 7                 102266181.881 7  26060272.800
                        47.800


 15  1 27 18  7 50.0000000  0 20G22G18G13G17G15G28G24G12G05R18R05R16
                                R17R24R06R09R07R15E19E20
 133808321.281 6 104266227.32345                  25462877.800
  25462874.320          40.300          35.050
 122094672.484 7  95138721.07446                  23233830.360
  23233826.740          46.800          38.100
 110899570.777 8  86415317.81447                  21103460.820
  21103456.180          50.600          45.800
 122615458.892 8  95544576.588 7                  23332916.580    23332913.560
  23332912.880          48.600          44.300
 106892326.964 8  83292754.043 8                  20340913.320    20340909.880
  20340909.220          50.650          50.300
 126345638.459 7  98451281.30546                  24042706.600
  24042702.400          46.150          38.550
 112600720.728 8  87740905.941 8  84085051.817 8  21427173.080    21427172.640
  21427172.040          49.150          49.450
 119410616.950 8  93047335.930 7                  22723025.080    22723023.100
  22723022.420          48.400          44.600
 131990725.533 7 102849909.274 6                  25117002.920    25117004.720
  25117004.220          45.050          39.200
 125948699.661 7  97960168.908 6                  23594422.220    23594427.780
  23594427.040          45.250          39.400
 116094319.748 8  90295627.099 7                  21717830.140    21717833.480
  21717832.780          49.850          43.450
 105339377.262 8  81930685.834 7                  19719736.000    19719739.100
  19719738.240          48.400          46.750
 122007409.130 7  94894666.410 6                  22799997.500    22800000.020
  22799998.920          46.800          41.600
 129324839.862 6 100585997.716 5                  24184397.040    24184398.640
  24184397.160          41.950          31.100
 104537236.720 8  81306798.764 7                  19590218.200    19590220.120
  19590220.140          49.950          45.900
 116646086.016 7  90724672.060 5                  21844035.260    21844040.180
  21844037.620          46.700          33.750
 117514765.008 7  91400385.518 7                  21952745.700    21952747.420
  21952746.440          47.900          43.300
 117821875.212 7  91639261.294 7                  22048757.760    22048763.540
  22048761.400          45.850          42.800
 136937893.593 7                 102258850.329 7  26058404.460
                        47.350


 15  1 27 18  7 55.0000000  0 20G22G18G13G17G15G28G24G12G05R18R05R16
                                R17R24R06R09R07R15E19E20
 133795358.301 6 104256126.34745                  25460410.920
  25460407.640          40.150          31.900
 122088246.970 7  95133714.19746                  23232607.620
  23232603.960          46.750          37.950
 110909487.642 8  86423045.23247                  21105347.940
  21105343.280          50.700          45.150
 122611078.862 8  95541163.585 7                  23332083.080    23332080.080
  23332079.420          48.650          44.000
 106891059.949 8  83291766.758 8                  20340672.240    20340668.780
  20340668.100          50.750          50.200
 126360886.791 7  98463163.11446                  24045608.260
  24045604.080          46.400          37.400
 112592543.730 8  87734534.257 8  84078945.627 8  21425617.060    21425616.600
  21425616.000          49.100          49.300
 119393372.112 8  93033898.400 7                  22719743.480    22719741.500
  22719740.860          48.400          44.500
 132008483.491 7 102863746.519 6                  25120382.200    25120384.000
  25120383.500          45.550          39.750
 125930845.347 7  97946282.230 6                  23591077.460    23591083.060
  23591082.280          42.450          39.650
 116114872.135 7  90311612.285 7                  21721674.860    21721678.280
  21721677.540          47.800          43.450
 105340204.737 7  81931329.431 7                  19719890.920    19719894.000
  19719893.160          46.000          46.750
 122000208.055 7  94889065.555 7                  22798651.840    22798654.320
  22798653.260          44.350          42.600
 129333447.116 6 100592692.262 5                  24186006.660    24186008.260
  24186006.760          38.550          31.700
 104539910.086 8  81308878.047 7                  19590719.220    19590721.060
  19590721.120          48.250          45.850
 116634029.146 7  90715294.513 5                  21841777.360    21841782.240
  21841779.720          44.250          34.200
 117498577.085 7  91387794.921 7                  21949721.640    21949723.380
  21949722.420          46.000          43.250
 117836558.822 7  91650681.882 7                  22051505.600    22051511.360
  22051509.240          42.950          43.000
 136928084.914 7                 102251525.676 7  26056537.900
                        47.450


 15  1 27 18  8  0.0000000  0 20G22G18G13G17G15G28G24G12G05R18R05R16
                                R17R24R06R09R07R15E19E20
 133782403.033 6 104246031.34945                  25457945.580
  25457942.300          39.000          35.700
 122081833.864 7  95128716.97246                  23231387.240
  23231383.580          46.800          38.650
 110919414.598 8  86430780.52547                  21107237.000
  21107232.320          50.750          45.600
 122606711.082 8  95537760.122 7                  23331251.920    23331248.920
  23331248.240          48.650          44.050
 106889804.823 8  83290788.736 8                  20340433.420    20340429.940
  20340429.260          50.850          50.150
 126376137.613 7  98475046.87046                  24048510.440
  24048506.240          46.850          36.350
 112584371.734 8  87728166.476 8  84072843.171 8  21424061.980    21424061.520
  21424060.940          49.000          49.200
 119376133.728 8  93020465.907 7                  22716463.120    22716461.160
  22716460.460          48.800          44.600
 132026238.056 7 102877581.126 6                  25123760.840    25123762.720
  25123762.200          45.300          39.400
 125912994.016 7  97932397.877 6                  23587733.300    23587738.800
  23587738.100          43.500          39.750
 116135432.297 8  90327603.510 7                  21725521.060    21725524.500
  21725523.780          48.050          43.600
 105341040.894 7  81931979.780 7                  19720047.480    19720050.560
  19720049.700          46.200          46.800
 121993024.074 7  94883478.002 7                  22797309.380    22797311.820
  22797310.860          45.150          42.850
 129342071.378 6 100599400.021 5                  24187619.380    24187621.120
  24187619.540          38.050          31.350
 104542605.257 8  81310974.287 7                  19591224.280    19591226.120
  19591226.180          48.850          45.750
 116621978.926 7  90705922.149 5                  21839520.760    21839525.540
  21839523.100          44.800          34.400
 117482402.060 7  91375214.343 7                  21946700.020    21946701.680
  21946700.800          46.450          43.400
 117851242.267 7  91662102.341 7                  22054253.380    22054259.160
  22054257.060          42.950          42.950
 136918283.456 7                 102244206.417 7  26054672.720
                        47.550


 15  1 27 18  8  5.0000000  0 20G22G18G13G17G15G28G24G12G05R18R05R16
                                R17R24R06R09R07R15E19E20
 133769457.611 6 104235944.00945                  25455482.180
  25455478.980          40.200          34.950
 122075435.386 7  95123731.15546                  23230169.660
  23230165.980          47.400          38.000
 110929353.859 8  86438525.40647                  21109128.420
  21109123.700          51.100          44.800
 122602357.787 8  95534367.950 7                  23330423.520    23330420.460
  23330419.820          49.350          43.800
 106888563.847 8  83289821.741 8                  20340197.300    20340193.780
  20340193.100          51.150          50.100
 126391393.170 7  98486934.31346                  24051413.520
  24051409.340          47.650          36.600
 112576206.783 8  87721804.189 8  84066745.971 8  21422508.240    21422507.780
  21422507.200          49.350          49.100
 119358904.061 8  93007040.193 7                  22713184.420    22713182.460
  22713181.760          49.150          44.500
 132043991.479 7 102891414.837 6                  25127139.260    25127141.200
  25127140.600          44.950          38.700
 125895147.856 7  97918517.550 6                  23584390.120    23584395.560
  23584394.860          44.100          39.650
 116156002.655 8  90343602.669 7                  21729369.140    21729372.640
  21729371.920          48.500          43.600
 105341887.934 7  81932638.587 7                  19720206.060    19720209.100
  19720208.260          46.800          46.850
 121985859.336 7  94877905.445 7                  22795970.460    22795972.980
  22795972.060          46.000          43.150
 129350715.276 6 100606123.057 5                  24189235.760    24189237.700
  24189235.880          39.600          30.600
 104545324.351 8  81313089.140 7                  19591733.820    19591735.680
  19591735.700          49.150          45.950
 116609937.686 7  90696556.756 5                  21837265.800    21837270.580
  21837268.140          44.950          33.850
 117466242.198 7  91362645.573 7                  21943681.220    21943682.840
  21943682.000          47.300          43.600
 117865927.796 7  91673524.415 7                  22057001.600    22057007.380
  22057005.220          43.700          43.100
 136908491.441 8                 102236894.198 7  26052809.340
                        48.050


 15  1 27 18  8 10.0000000  0 20G22G18G13G17G15G28G24G12G05R18R05R16
                                R17R24R06R09R07R15E19E20
 133756520.255 6 104225863.01445                  25453020.300
  25453016.940          38.300          35.600
 122069049.672 7  95118755.26546                  23228954.480
  23228950.820          45.350          41.650
 110939303.601 8  86446278.45447                  21111021.780
  21111017.060          49.400          46.750
 122598017.151 7  95530985.631 7                  23329597.540    23329594.460
  23329593.800          47.450          44.000
 106887335.190 8  83288864.343 8                  20339963.520    20339959.960
  20339959.280          49.600          50.100
 126406651.531 7  98498823.95046                  24054317.140
  24054312.920          45.650          38.750
 112568047.032 7  87715445.948 8  84060652.654 8  21420955.480    21420954.980
  21420954.460          47.250          49.200
 119341681.232 7  92993619.821 7                  22709907.020    22709905.060
  22709904.380          47.450          44.650
 132061741.940 7 102905246.239 6                  25130517.140    25130519.020
  25130518.440          42.650          38.200
 125877305.095 7  97904639.869 6                  23581047.600    23581053.000
  23581052.260          45.150          39.100
 116176581.166 8  90359608.173 7                  21733218.760    21733222.300
  21733221.560          48.600          43.750
 105342743.995 7  81933304.418 7                  19720366.320    19720369.320
  19720368.540          47.350          46.900
 121978712.020 7  94872346.435 7                  22794634.780    22794637.420
  22794636.520          46.000          43.150
 129359376.578 6 100612859.631 5                  24190855.360    24190857.520
  24190855.440          40.350          31.900
 104548065.905 8  81315221.464 7                  19592247.600    19592249.420
  19592249.440          49.600          46.000
 116597903.518 7  90687196.863 5                  21835012.140    21835016.900
  21835014.480          46.000          33.900
 117450095.545 7  91350087.080 7                  21940664.880    21940666.500
  21940665.660          47.900          43.450
 117880613.530 7  91684946.651 7                  22059749.860    22059755.580
  22059753.500          44.600          42.700
 136898707.053 7                 102229587.699 7  26050947.400
                        46.100


 15  1 27 18  8 15.0000000  0 20G22G18G13G17G15G28G24G12G05R18R05R16
                                R17R24R06R09R07R15E19E20
 133743590.158 6 104215787.62044                  25450559.820
  25450556.100          40.950          28.100
 122062675.907 7  95113788.70246                  23227741.620
  23227737.960          46.850          37.750
 110949262.979 8  86454039.01247                  21112917.020
  21112912.280          50.250          45.600
 122593688.329 8  95527612.522 7                  23328773.800    23328770.680
  23328770.060          48.650          43.800
 106886118.001 8  83287915.883 8                  20339731.920    20339728.340
  20339727.640          50.350          50.050
 126421911.886 7  98510715.15546                  24057221.140
  24057216.840          46.700          36.850
 112559891.730 8  87709091.177 8  84054562.669 8  21419403.560    21419403.080
  21419402.560          48.500          49.000
 119324464.532 8  92980204.219 7                  22706630.800    22706628.760
  22706628.120          48.800          44.200
 132079488.558 7 102919074.672 6                  25133894.280    25133896.180
  25133895.600          44.200          38.550
 125859464.799 7  97890764.109 6                  23577705.540    23577710.880
  23577710.100          45.850          39.350
 116197167.048 8  90375619.413 7                  21737069.760    21737073.360
  21737072.600          48.850          43.900
 105343608.254 8  81933976.626 7                  19720528.140    19720531.100
  19720530.320          48.650          46.800
 121971581.340 7  94866800.368 7                  22793302.240    22793304.960
  22793304.080          46.750          42.750
 129368054.696 6 100619609.252 5                  24192478.140    24192480.300
  24192478.300          40.550          31.700
 104550828.828 8  81317370.410 7                  19592765.400    19592767.180
  19592767.200          50.000          45.950
 116585875.529 7  90677841.776 5                  21832759.660    21832764.420
  21832761.960          46.700          34.400
 117433961.466 8  91337538.360 7                  21937650.880    21937652.560
  21937651.700          48.500          43.600
 117895298.600 7  91696368.369 7                  22062498.040    22062503.680
  22062501.620          45.150          42.850
 136888929.453 7                 102222286.256 7  26049086.760
                        47.250


 15  1 27 18  8 20.0000000  0 20G22G18G13G17G15G28G24G12G05R18R05R16
                                R17R24R06R09R07R15E19E20
 133730670.241 6 104205720.15544                  25448101.340
  25448097.400          39.900          28.900
 122056316.996 7  95108833.71546                  23226531.580
  23226527.860          46.200          38.350
 110959234.884 8  86461809.31747                  21114814.620
  21114809.860          49.900          45.100
 122589374.263 8  95524250.912 7                  23327952.880    23327949.740
  23327949.160          48.250          43.800
 106884915.181 8  83286978.621 8                  20339503.040    20339499.460
  20339498.740          49.800          50.000
 126437177.162 7  98522610.16546                  24060126.080
  24060121.780          46.100          36.400
 112551743.800 7  87702742.146 8  84048478.180 8  21417853.040    21417852.560
  21417852.040          47.750          48.950
 119307256.805 8  92966795.603 7                  22703356.280    22703354.200
  22703353.600          48.250          44.350
 132097234.227 7 102932902.330 6                  25137271.240    25137273.220
  25137272.620          43.400          38.150
 125841630.074 7  97876892.679 6                  23574364.500    23574369.920
  23574369.000          44.100          39.400
 116217763.175 7  90391638.614 7                  21740922.640    21740926.320
  21740925.580          47.550          44.000
 105344483.583 7  81934657.448 7                  19720692.020    19720695.000
  19720694.200          47.350          46.800
 121964470.165 7  94861269.458 7                  22791973.360    22791976.080
  22791975.200          45.400          42.050
 129376752.494 6 100626374.206 5                  24194104.640    24194106.800
  24194104.780          38.800          30.050
 104553616.147 8  81319538.329 7                  19593287.720    19593289.520
  19593289.540          48.850          45.900
 116573856.796 7  90668493.873 5                  21830508.920    21830513.640
  21830511.180          44.900          34.150
 117417842.777 7  91325001.610 7                  21934639.800    21934641.500
  21934640.620          46.950          43.300
 117909986.028 7  91707791.921 7                  22065246.600    22065252.300
  22065250.200          43.750          43.100
 136879161.569 7                 102214992.049 7  26047227.980
                        46.750


 15  1 27 18  8 25.0000000  0 20G22G18G13G17G15G28G24G12G05R18R05R16
                                R17R24R06R09R07R15E19E20
 133717758.934 6 104195659.37844                  25445644.380
  25445640.180          40.200          26.650
 122049971.415 7  95103889.10845                  23225324.060
  23225320.300          47.300          35.900
 110969217.749 8  86469588.16547                  21116714.320
  21116709.540          50.550          44.700
 122585073.426 8  95520899.611 7                  23327134.500    23327131.320
  23327130.760          48.900          44.050
 106883725.191 8  83286051.358 8                  20339276.620    20339273.000
  20339272.280          50.500          50.000
 126452445.749 7  98534507.76346                  24063031.660
  24063027.380          47.150          36.100
 112543601.727 8  87696397.676 8  84042398.061 8  21416303.620    21416303.180
  21416302.640          48.650          48.900
 119290056.488 8  92953392.766 7                  22700083.180    22700081.100
  22700080.500          49.050          44.350
 132114977.352 7 102946728.009 6                  25140647.700    25140649.680
  25140649.040          44.200          37.400
 125823799.267 7  97863024.284 6                  23571024.200    23571029.480
  23571028.600          44.650          38.750
 116238367.957 7  90407664.556 7                  21744777.200    21744780.920
  21744780.160          47.800          44.050
 105345368.485 7  81935345.709 7                  19720857.720    19720860.660
  19720859.860          47.500          46.850
 121957377.128 7  94855752.645 6                  22790647.860    22790650.560
  22790649.680          46.350          41.800
 129385468.296 6 100633153.153 5                  24195734.460    24195736.760
  24195734.660          40.000          30.950
 104556426.159 8  81321723.879 7                  19593814.300    19593816.080
  19593816.120          49.250          46.000
 116561845.700 7  90659151.909 5                  21828259.620    21828264.340
  21828261.880          46.200          34.750
 117401737.947 7  91312475.638 7                  21931631.300    21931632.980
  21931632.100          47.200          43.250
 117924674.178 7  91719216.029 7                  22067995.280    22068000.980
  22067998.920          44.250          43.100
 136869401.812 7                 102207703.932 7  26045370.740
                        47.550


 15  1 27 18  8 30.0000000  0 20G22G18G13G17G15G28G24G12G05R18R05R16
                                R17R24R06R09R07R15E19E20
 133704857.644 6 104185606.44845                  25443189.240
  25443185.220          38.050          32.900
 122043640.529 7  95098955.96446                  23224119.320
  23224115.540          45.900          39.550
 110979212.950 8  86477376.63747                  21118616.360
  21118611.560          49.700          45.900
 122580787.151 7  95517559.669 7                  23326318.880    23326315.660
  23326315.120          47.350          44.100
 106882549.427 8  83285135.187 8                  20339052.900    20339049.260
  20339048.540          49.600          50.000
 126467719.016 7  98546409.02046                  24065938.100
  24065933.740          45.350          39.400
 112535466.779 7  87690058.768 8  84036323.276 8  21414755.600    21414755.120
  21414754.600          47.450          48.950
 119272864.947 7  92939996.775 7                  22696811.720    22696809.680
  22696809.100          47.800          44.300
 132132719.342 7 102960552.832 6                  25144023.940    25144025.960
  25144025.340          42.600          37.750
 125805973.862 7  97849160.105 6                  23567684.920    23567690.080
  23567689.160          43.600          38.600
 116258982.806 7  90423698.330 7                  21748633.620    21748637.380
  21748636.660          46.800          44.000
 105346264.314 7  81936042.465 7                  19721025.460    19721028.340
  19721027.540          46.450          46.700
 121950303.430 7  94850250.891 7                  22789326.000    22789328.680
  22789327.740          45.000          42.000
 129394203.604 6 100639947.299 5                  24197368.080    24197370.460
  24197368.260          38.500          30.850
 104559260.267 8  81323928.189 7                  19594345.400    19594347.200
  19594347.240          48.350          45.850
 116549843.553 7  90649816.925 5                  21826011.980    21826016.760
  21826014.240          45.400          34.150
 117385648.352 7  91299961.527 7                  21928625.600    21928627.360
  21928626.440          46.250          43.250
 117939364.503 7  91730641.846 7                  22070744.420    22070750.100
  22070748.020          43.350          43.000
 136859651.598 7                 102200422.946 7  26043515.300
                        46.150


 15  1 27 18  8 35.0000000  0 20G22G18G13G17G15G28G24G12G05R18R05R16
                                R17R24R06R09R07R15E19E20
 133691963.579 6 104175559.12345                  25440735.600
  25440731.600          39.400          33.550
 122037321.544 7  95094032.07946                  23222916.840
  23222913.080          45.800          39.450
 110989217.652 8  86485172.50947                  21120520.200
  21120515.400          49.850          45.700
 122576512.668 7  95514228.901 7                  23325505.540    23325502.240
  23325501.720          47.950          44.250
 106881385.092 8  83284227.911 8                  20338831.340    20338827.680
  20338826.980          50.000          50.100
 126482994.143 7  98558311.71646                  24068844.880
  24068840.500          45.250          38.550
 112527336.249 7  87683723.290 8  84030251.784 8  21413208.420    21413207.920
  21413207.400          47.850          49.000
 119255679.376 7  92926605.428 7                  22693541.400    22693539.420
  22693538.800          47.950          44.450
 132150457.344 6 102974374.533 6                  25147399.400    25147401.520
  25147400.800          41.700          37.850
 125788151.020 7  97835297.896 6                  23564346.140    23564351.220
  23564350.280          44.350          39.350
 116279604.755 7  90439737.602 7                  21752491.340    21752495.200
  21752494.460          47.700          43.900
 105347168.152 7  81936745.450 7                  19721194.680    19721197.520
  19721196.720          47.300          46.450
 121943246.174 7  94844761.920 7                  22788007.180    22788009.820
  22788008.900          45.450          42.250
 129402955.469 6 100646754.320 5                  24199004.740    24199007.280
  24199004.920          39.050          31.400
 104562115.743 8  81326149.121 7                  19594880.540    19594882.280
  19594882.340          48.950          45.800
 116537847.526 7  90640486.694 5                  21823765.480    21823770.240
  21823767.720          46.000          34.350
 117369571.361 7  91287457.209 7                  21925622.240    21925624.040
  21925623.120          47.250          43.550
 117954054.061 7  91742067.062 7                  22073493.340    22073499.020
  22073497.020          44.400          43.350
 136849908.126 7                 102193146.983 7  26041661.140
                        46.550


 15  1 27 18  8 40.0000000  0 20G22G18G13G17G15G28G24G12G05R18R05R16
                                R17R24R06R09R07R15E19E20
 133679077.882 6 104165518.31045                  25438283.540
  25438279.300          40.950          33.100
 122031015.603 7  95089118.36846                  23221716.840
  23221713.060          46.300          38.300
 110999233.051 8  86492976.71447                  21122426.060
  21122421.280          50.250          45.050
 122572251.108 8  95510908.215 7                  23324694.660    23324691.280
  23324690.760          48.750          43.950
 106880233.338 8  83283330.440 8                  20338612.200    20338608.500
  20338607.800          50.600          50.050
 126498272.307 7  98570216.77146                  24071752.220
  24071747.840          45.950          36.200
 112519211.197 8  87677392.083 8  84024184.379 8  21411662.300    21411661.740
  21411661.220          48.700          48.850
 119238500.967 8  92913219.670 7                  22690272.420    22690270.460
  22690269.860          48.850          44.250
 132168192.500 7 102988193.986 6                  25150774.320    25150776.580
  25150775.860          42.900          37.900
 125770331.847 7  97821438.563 6                  23561007.960    23561013.120
  23561012.160          43.600          38.850
 116300235.145 7  90455783.455 7                  21756350.660    21756354.540
  21756353.860          47.300          44.000
 105348081.267 7  81937455.649 7                  19721365.660    19721368.460
  19721367.640          47.200          46.600
 121936206.839 7  94839286.888 6                  22786691.680    22786694.280
  22786693.360          44.200          41.750
 129411725.097 6 100653575.167 5                  24200644.720    24200647.380
  24200644.960          37.900          31.800
 104564993.732 8  81328387.549 7                  19595419.860    19595421.600
  19595421.640          48.750          45.900
 116525858.860 7  90631162.193 5                  21821520.400    21821525.180
  21821522.600          45.750          34.300
 117353507.930 7  91274963.442 7                  21922621.400    21922623.260
  21922622.380          46.850          43.950
 117968744.025 7  91753492.579 7                  22076242.420    22076248.040
  22076246.080          44.400          43.350
 136840172.543 7                 102185876.914 7  26039808.460
                        47.150


 15  1 27 18  8 45.0000000  0 20G22G18G13G17G15G28G24G12G05R18R05R16
                                R17R24R06R09R07R15E19E20
 133666201.658 6 104155484.94045                  25435833.260
  25435829.060          41.950          32.000
 122024723.884 7  95084215.74546                  23220519.580
  23220515.800          46.800          38.700
 111009260.270 8  86500790.12847                  21124334.140
  21124329.400          50.200          44.500
 122568003.655 8  95507598.511 7                  23323886.460    23323883.000
  23323882.500          49.000          44.150
 106879095.316 8  83282443.673 8                  20338395.660    20338391.940
  20338391.220          50.700          50.100
 126513554.626 7  98582125.06346                  24074660.300
  24074656.020          45.700          37.650
 112511092.761 8  87671066.033 8  84018121.916 8  21410117.420    21410116.840
  21410116.300          48.850          48.850
 119221330.898 8  92899840.403 7                  22687005.000    22687003.100
  22687002.520          48.900          44.650
 132185925.956 7 103002012.126 6                  25154148.960    25154151.340
  25154150.520          43.350          37.950
 125752517.663 7  97807583.130 6                  23557670.800    23557675.920
  23557674.920          43.800          38.650
 116320874.993 7  90471836.660 7                  21760211.720    21760215.640
  21760215.000          47.000          43.950
 105349004.756 7  81938173.922 7                  19721538.540    19721541.340
  19721540.480          47.050          46.550
 121929186.383 7  94833826.540 6                  22785379.720    22785382.320
  22785381.300          44.250          41.600
 129420513.651 6 100660410.674 5                  24202288.200    24202291.080
  24202288.560          38.300          31.400
 104567895.326 8  81330644.347 7                  19595963.600    19595965.380
  19595965.400          48.500          46.000
 116513878.655 7  90621844.272 5                  21819276.860    21819281.660
  21819279.080          45.450          34.300
 117337459.409 7  91262481.273 7                  21919623.340    21919625.280
  21919624.400          46.600          44.050
 117983435.571 7  91764919.351 7                  22078991.740    22078997.360
  22078995.460          43.900          43.600
 136830446.029 7                 102178613.618 7  26037957.560
                        47.350


 15  1 27 18  8 50.0000000  0 20G22G18G13G17G15G28G24G12G05R18R05R16
                                R17R24R06R09R07R15E19E20
 133653334.323 7 104145458.44945                  25433384.700
  25433380.740          43.950          31.700
 122018445.627 8  95079323.59545                  23219324.840
  23219321.080          48.300          35.950
 111019298.621 8  86508612.21947                  21126244.360
  21126239.660          51.300          44.250
 122563769.596 8  95504299.253 7                  23323080.800    23323077.260
  23323076.780          50.300          43.750
 106877970.294 8  83281567.035 8                  20338181.600    20338177.860
  20338177.140          51.600          50.050
 126528840.405 7  98594036.07045                  24077569.040
  24077564.740          47.150          35.650
 112502980.150 8  87664744.526 8  84012063.812 8  21408573.660    21408573.020
  21408572.500          50.150          48.700
 119204168.399 8  92886467.050 7                  22683739.060    22683737.200
  22683736.620          49.950          44.300
 132203656.979 7 103015828.383 6                  25157523.160    25157525.460
  25157524.720          45.600          37.400
 125734707.685 7  97793730.931 6                  23554334.460    23554339.500
  23554338.440          45.850          38.900
 116341523.582 8  90487896.656 7                  21764074.400    21764078.420
  21764077.800          48.550          43.750
 105349937.900 8  81938899.711 7                  19721713.240    19721716.020
  19721715.140          48.500          46.600
 121922184.089 7  94828380.313 6                  22784071.080    22784073.740
  22784072.660          46.700          41.650
 129429320.339 6 100667260.330 5                  24203934.980    24203937.900
  24203935.440          40.600          30.800
 104570819.754 8  81332918.910 7                  19596511.640    19596513.400
  19596513.440          50.000          45.950
 116501906.182 7  90612532.372 5                  21817034.800    21817039.520
  21817037.000          47.200          34.050
 117321424.932 8  91250010.039 7                  21916627.940    21916629.920
  21916629.100          48.250          43.350
 117998127.961 7  91776346.762 7                  22081741.180    22081746.820
  22081744.980          46.000          43.400
 136820727.847 8                 102171356.552 7  26036108.220
                        48.850


 15  1 27 18  8 55.0000000  0 20G22G18G13G17G15G28G24G12G05R18R05R16
                                R17R24R06R09R07R15E19E20
 133640476.205 7 104135439.12845                  25430937.820
  25430934.060          42.200          31.400
 122012181.328 7  95074442.32346                  23218132.740
  23218129.000          47.400          37.650
 111029348.505 8  86516443.29447                  21128156.740
  21128152.120          50.600          44.300
 122559549.343 8  95501010.742 7                  23322277.780    23322274.200
  23322273.700          49.650          43.850
 106876858.728 8  83280700.878 8                  20337970.080    20337966.340
  20337965.600          50.900          50.000
 126544130.033 7  98605950.05145                  24080478.540
  24080474.240          46.150          35.400
 112494874.008 8  87658428.054 8  84006010.518 8  21407031.140    21407030.440
  21407029.920          49.350          48.700
 119187013.966 8  92873099.974 7                  22680474.660    22680472.820
  22680472.240          49.250          44.250
 132221386.000 7 103029643.096 6                  25160896.960    25160899.220
  25160898.460          43.950          37.650
 125716902.330 7  97779882.334 6                  23550998.880    23551004.020
  23551002.860          44.750          39.300
 116362181.335 7  90503963.779 7                  21767938.820    21767942.860
  21767942.300          47.250          43.750
 105350881.086 7  81939633.298 7                  19721889.820    19721892.620
  19721891.680          46.950          46.700
 121915200.524 7  94822948.664 6                  22782766.000    22782768.660
  22782767.540          45.650          41.350
 129438145.708 6 100674124.533 5                  24205585.300    24205588.460
  24205585.820          38.850          32.300
 104573767.611 8  81335211.679 7                  19597064.060    19597065.820
  19597065.880          48.850          46.000
 116489941.890 7  90603226.826 5                  21814794.260    21814799.020
  21814796.460          45.900          34.350
 117305405.157 7  91237550.220 7                  21913635.320    21913637.300
  21913636.500          46.800          43.300
 118012821.524 7  91787775.089 7                  22084490.860    22084496.520
  22084494.700          44.550          43.150
 136811018.452 8                 102164106.034 7  26034260.560
                        48.000


 15  1 27 18  9  0.0000000  0 20G22G18G13G17G15G28G24G12G05R18R05R16
                                R17R24R06R09R07R15E19E20
 133627625.431 6 104125425.56045                  25428492.380
  25428488.680          41.800          32.750
 122005929.013 7  95069570.39246                  23216942.940
  23216939.160          46.900          38.800
 111039407.973 8  86524281.83447                  21130070.960
  21130066.380          50.150          45.350
 122555340.950 8  95497731.475 7                  23321477.020    23321473.360
  23321472.840          49.200          44.100
 106875758.665 8  83279843.688 8                  20337760.740    20337757.000
  20337756.260          50.600          50.200
 126559421.532 7  98617865.50146                  24083388.380
  24083384.120          45.800          37.200
 112486772.249 8  87652114.995 8  83999960.511 8  21405489.460    21405488.700
  21405488.180          49.050          48.950
 119169865.677 8  92859737.676 7                  22677211.460    22677209.600
  22677209.040          48.800          44.700
 132239111.038 7 103043454.676 6                  25164270.000    25164272.360
  25164271.460          43.750          37.800
 125699099.706 7  97766035.881 6                  23547663.900    23547669.000
  23547667.840          45.100          39.900
 116382846.222 7  90520036.448 7                  21771804.580    21771808.660
  21771808.120          47.400          44.300
 105351832.307 7  81940373.138 7                  19722067.900    19722070.660
  19722069.740          47.250          47.200
 121908233.660 7  94817529.992 6                  22781464.060    22781466.660
  22781465.540          45.650          41.850
 129446987.691 6 100681001.642 5                  24207238.760    24207241.940
  24207239.360          39.300          32.450
 104576736.753 8  81337521.012 7                  19597620.440    19597622.220
  19597622.300          49.300          46.250
 116477983.804 7  90593926.094 5                  21812554.920    21812559.600
  21812557.080          45.650          34.750
 117289397.981 7  91225100.194 7                  21910645.000    21910647.040
  21910646.220          47.500          44.100
 118027514.430 7  91799202.913 7                  22087240.460    22087246.060
  22087244.240          44.050          43.200
 136801315.907 7                 102156860.642 7  26032414.220
                        47.450


 15  1 27 18  9  5.0000000  0 20G22G18G13G17G15G28G24G12G05R18R05R16
                                R17R24R06R09R07R15E19E20
 133614785.445 6 104115420.37945                  25426048.940
  25426045.320          40.900          32.750
 121999692.153 7  95064710.50946                  23215756.080
  23215752.320          46.100          38.700
 111049480.481 8  86532130.53947                  21131987.640
  21131983.140          49.450          45.900
 122551147.929 8  95494464.189 7                  23320679.200    23320675.480
  23320674.920          48.300          43.950
 106874673.545 8  83278998.146 8                  20337554.280    20337550.520
  20337549.780          50.000          50.150
 126574718.388 7  98629785.13046                  24086299.280
  24086295.000          45.350          37.900
 112478678.267 8  87645808.000 8  83993916.306 8  21403949.240    21403948.480
  21403947.900          48.150          48.800
 119152726.970 7  92846382.854 7                  22673950.080    22673948.200
  22673947.620          47.800          44.500
 132256835.587 7 103057265.892 6                  25167643.000    25167645.460
  25167644.540          42.950          37.450
 125681303.369 7  97752194.313 6                  23544330.060    23544335.140
  23544334.020          44.400          40.050
 116403521.782 7  90536117.412 7                  21775672.320    21775676.540
  21775675.960          47.150          44.150
 105352795.159 7  81941122.022 7                  19722248.140    19722250.940
  19722249.980          47.150          46.950
 121901287.027 7  94812127.059 6                  22780165.920    22780168.460
  22780167.320          45.600          41.300
 129455849.712 6 100687894.314 5                  24208895.960    24208899.260
  24208896.600          38.700          32.850
 104579730.671 8  81339849.615 7                  19598181.480    19598183.280
  19598183.360          48.950          45.950
 116466035.425 7  90584632.931 5                  21810317.320    21810322.080
  21810319.500          45.400          34.300
 117273406.864 7  91212662.673 7                  21907657.720    21907659.700
  21907658.920          47.350          43.900
 118042210.189 7  91810632.946 7                  22089990.620    22089996.140
  22089994.300          43.100          42.800
 136791623.648 7                 102149622.932 7  26030569.860
                        46.450


 15  1 27 18  9 10.0000000  0 20G22G18G13G17G15G28G24G12G05R18R05R16
                                R17R24R06R09R07R15E19E20
 133601952.827 7 104105420.93445                  25423606.940
  25423603.360          43.150          34.850
 121993467.224 7  95059859.92746                  23214571.500
  23214567.740          47.950          36.800
 111059562.526 8  86539986.67447                  21133906.140
  21133901.720          51.050          44.000
 122546966.739 8  95491206.117 7                  23319883.620    23319879.840
  23319879.240          50.200          43.950
 106873599.870 8  83278161.514 8                  20337349.960    20337346.200
  20337345.480          51.400          50.000
 126590017.039 7  98641706.16045                  24089210.520
  24089206.220          47.500          35.100
 112470588.674 8  87639504.427 8  83987875.389 8  21402409.840    21402409.080
  21402408.480          50.100          48.750
 119135594.335 8  92833032.761 7                  22670689.840    22670687.940
  22670687.400          49.800          44.200
 132274556.021 7 103071073.918 6                  25171015.220    25171017.700
  25171016.680          44.250          37.250
 125663509.755 7  97738354.861 6                  23540996.740    23541001.820
  23541000.720          43.100          39.950
 116424204.411 7  90552203.881 7                  21779541.400    21779545.660
  21779545.100          46.000          43.750
 105353766.126 7  81941877.224 7                  19722429.920    19722432.720
  19722431.760          46.250          46.850
 121894357.044 7  94806737.052 6                  22778870.920    22778873.360
  22778872.180          44.100          41.650
 129464728.373 6 100694799.933 5                  24210556.280    24210559.420
  24210557.000          38.400          32.950
 104582746.006 8  81342194.878 7                  19598746.540    19598748.340
  19598748.420          48.100          46.050
 116454093.256 7  90575344.590 5                  21808080.920    21808085.720
  21808083.140          44.850          34.200
 117257428.356 7  91200234.951 7                  21904672.740    21904674.760
  21904673.940          46.650          44.000
 118056905.177 7  91822062.365 7                  22092740.660    22092746.060
  22092744.200          42.050          42.050
 136781938.218 8                 102142390.312 7  26028726.780
                        48.800


 15  1 27 18  9 15.0000000  0 20G22G18G13G17G15G28G24G12G05R18R05R16
                                R17R24R06R09R07R15E19E20
 133589130.601 6 104095429.59145                  25421166.900
  25421163.360          41.200          30.750
 121987257.378 7  95055021.08846                  23213389.800
  23213386.060          46.400          38.050
 111069657.226 8  86547852.67447                  21135827.060
  21135822.700          50.200          44.650
 122542800.523 8  95487959.715 7                  23319090.880    23319087.020
  23319086.440          49.150          44.050
 106872540.802 8  83277336.272 8                  20337148.440    20337144.660
  20337143.940          50.550          50.100
 126605320.643 7  98653631.05346                  24092122.700
  24092118.420          46.100          36.250
 112462506.518 8  87633206.654 8  83981840.031 8  21400871.860    21400871.080
  21400870.480          49.100          48.800
 119118470.946 8  92819689.867 7                  22667431.360    22667429.380
  22667428.900          48.600          44.050
 132292275.706 7 103084881.312 6                  25174387.220    25174389.780
  25174388.720          42.050          37.350
 125645722.008 7  97724519.952 6                  23537664.500    23537669.540
  23537668.480          45.100          39.750
 116444897.314 7  90568298.340 7                  21783412.440    21783416.720
  21783416.160          47.250          44.050
 105354748.268 7  81942641.120 7                  19722613.760    19722616.600
  19722615.640          47.550          46.900
 121887447.013 7  94801362.624 6                  22777579.680    22777582.000
  22777580.800          46.050          41.350
 129473626.588 6 100701720.750 5                  24212220.280    24212223.480
  24212221.060          39.850          31.300
 104585785.776 8  81344559.156 7                  19599316.180    19599318.000
  19599318.060          49.400          45.850
 116442160.377 7  90566063.481 5                  21805846.280    21805851.040
  21805848.520          46.600          34.650
 117241465.571 7  91187819.464 7                  21901690.760    21901692.780
  21901691.900          47.700          43.850
 118071602.699 7  91833493.774 6                  22095491.160    22095496.500
  22095494.560          43.900          41.900
 136772262.728 7                 102135165.122 7  26026885.640
                        47.400


 15  1 27 18  9 20.0000000  0 20G22G18G13G17G15G28G24G12G05R18R05R16
                                R17R24R06R09R07R15E19E20
 133576315.130 6 104085443.51845                  25418728.100
  25418724.740          41.500          31.300
 121981058.911 7  95050191.11646                  23212210.260
  23212206.520          46.550          37.800
 111079760.899 8  86555725.66647                  21137749.680
  21137745.380          50.100          44.950
 122538645.558 8  95484722.082 7                  23318300.300    23318296.360
  23318295.780          49.150          44.250
 106871492.630 8  83276519.513 8                  20336948.980    20336945.200
  20336944.480          50.650          50.100
 126620625.485 7  98665556.90746                  24095035.100
  24095030.820          46.000          36.850
 112454428.207 8  87626911.868 8  83975807.514 8  21399334.600    21399333.800
  21399333.200          49.050          48.850
 119101353.083 8  92806351.279 7                  22664173.920    22664171.940
  22664171.440          48.600          44.250
 132309990.757 7 103098685.098 6                  25177758.360    25177760.920
  25177759.880          42.000          36.800
 125627936.398 7  97710686.704 6                  23534332.640    23534337.680
  23534336.580          44.000          39.700
 116465596.541 7  90584397.718 7                  21787284.680    21787288.980
  21787288.400          46.350          44.150
 105355737.797 7  81943410.763 7                  19722798.980    19722801.820
  19722800.900          46.650          47.000
 121880553.062 7  94796000.667 6                  22776291.400    22776293.680
  22776292.420          45.300          41.250
 129482540.888 6 100708654.109 5                  24213887.340    24213890.400
  24213888.020          38.050          32.500
 104588846.373 8  81346939.611 7                  19599889.720    19599891.540
  19599891.620          48.700          46.050
 116430233.061 7  90556786.707 5                  21803612.700    21803617.400
  21803614.920          45.900          34.700
 117225514.958 7  91175413.450 7                  21898711.040    21898713.100
  21898712.160          46.600          43.750
 118086298.956 7  91844924.189 6                  22098241.420    22098246.640
  22098244.660          43.700          41.900
 136762593.502 7                 102127944.577 7  26025045.640
                        47.300


 15  1 27 18  9 25.0000000  0 20G22G18G13G17G15G28G24G12G05R18R05R16
                                R17R24R06R09R07R15E19E20
 133563510.953 6 104075466.24745                  25416291.480
  25416288.040          41.650          33.250
 121974876.401 7  95045373.58046                  23211033.760
  23211030.000          46.400          38.600
 111089878.098 8  86563609.19047                  21139674.900
  21139670.600          50.000          44.750
 122534506.453 8  95481496.799 7                  23317512.740    23317508.700
  23317508.120          48.950          44.150
 106870459.910 8  83275714.790 8                  20336752.460    20336748.660
  20336747.960          50.350          50.200
 126635936.122 7  98677487.25445                  24097948.620
  24097944.240          46.050          35.650
 112446358.220 8  87620623.564 8  83969781.237 8  21397798.920    21397798.120
  21397797.500          48.950          48.950
 119084245.326 8  92793020.561 7                  22660918.420    22660916.440
  22660915.920          48.350          44.300
 132327705.668 7 103112488.796 6                  25181129.520    25181132.040
  25181131.000          43.050          37.950
 125610157.677 7  97696858.813 6                  23531002.080    23531007.140
  23531006.100          44.100          40.550
 116486306.975 7  90600505.809 7                  21791159.040    21791163.300
  21791162.760          45.900          44.000
 105356739.415 7  81944189.795 7                  19722986.480    19722989.300
  19722988.420          46.200          47.000
 121873679.788 7  94790654.773 6                  22775006.980    22775009.200
  22775007.900          44.400          41.100
 129491475.679 6 100715603.399 5                  24215558.200    24215561.220
  24215558.880          37.200          32.300
 104591932.266 8  81349339.748 7                  19600467.980    19600469.840
  19600469.940          48.300          46.050
 116418315.969 7  90547517.866 5                  21801381.000    21801385.720
  21801383.140          45.300          34.700
 117209581.022 7  91163020.396 7                  21895734.380    21895736.480
  21895735.500          46.100          43.400
 118100998.490 7  91856357.165 6                  22100992.260    22100997.420
  22100995.380          43.600          41.700
 136752935.055 7                 102120732.121 7  26023207.720
                        47.000


 15  1 27 18  9 30.0000000  0 20G22G18G13G17G15G28G24G12G05R18R05R16
                                R17R24R06R09R07R15E19E20
 133550714.048 7 104065494.60545                  25413856.200
  25413852.740          42.100          32.750
 121968705.820 7  95040565.33746                  23209859.560
  23209855.760          47.250          38.750
 111100004.777 8  86571500.11547                  21141601.900
  21141597.640          50.200          45.300
 122530379.156 8  95478280.732 7                  23316727.400    23316723.320
  23316722.740          49.150          44.300
 106869438.631 8  83274918.996 8                  20336558.120    20336554.340
  20336553.620          50.600          50.150
 126651248.492 7  98689418.98546                  24100862.480
  24100858.000          46.600          37.050
 112438292.595 8  87614338.673 8  83963758.211 8  21396264.060    21396263.260
  21396262.660          49.300          49.000
 119067143.659 8  92779694.605 7                  22657664.040    22657662.080
  22657661.580          48.650          44.250
 132345416.406 7 103126289.256 6                  25184499.900    25184502.440
  25184501.360          43.750          39.450
 125592381.626 7  97683033.032 6                  23527672.020    23527677.100
  23527676.120          44.400          41.300
 116507024.214 7  90616619.217 7                  21795034.640    21795038.920
  21795038.340          45.650          45.250
 105357749.011 7  81944975.034 8                  19723175.480    19723178.280
  19723177.420          46.550          48.100
 121866823.312 7  94785321.958 7                  22773725.660    22773727.820
  22773726.540          45.250          42.900
 129500426.962 6 100722565.514 5                  24217232.020    24217235.260
  24217232.860          37.700          33.700
 104595039.365 8  81351756.393 7                  19601050.260    19601052.120
  19601052.220          48.450          47.150
 116406404.978 7  90538253.776 5                  21799150.440    21799155.180
  21799152.560          45.500          35.400
 117193659.742 7  91150637.188 7                  21892760.080    21892762.260
  21892761.180          46.550          44.850
 118115697.298 7  91867789.609 7                  22103742.960    22103748.100
  22103745.980          43.400          43.200
 136743283.367 7                 102113524.720 7  26021371.060
                        47.450


 15  1 27 18  9 35.0000000  0 20G22G18G13G17G15G28G24G12G05R18R05R16
                                R17R24R06R09R07R15E19E20
 133537926.098 6 104055530.02345                  25411422.720
  25411419.280          41.650          33.850
 121962548.808 7  95035767.66946                  23208687.920
  23208684.160          46.450          38.150
 111110142.540 8  86579399.66847                  21143531.040
  21143526.800          49.700          46.300
 122526265.328 8  95475075.154 7                  23315944.620    23315940.500
  23315939.900          48.300          44.850
 106868430.397 8  83274133.362 8                  20336366.260    20336362.480
  20336361.780          50.050          50.350
 126666564.243 7  98701353.34246                  24103777.020
  24103772.420          45.600          38.500
 112430232.978 8  87608058.463 8  83957739.678 8  21394730.360    21394729.560
  21394728.940          48.550          49.350
 119050049.704 7  92766374.650 7                  22654411.140    22654409.240
  22654408.700          47.850          44.750
 132363124.651 7 103140087.733 6                  25187869.760    25187872.260
  25187871.340          43.200          39.200
 125574610.026 7  97669210.712 6                  23524342.780    23524347.920
  23524347.000          44.750          40.850
 116527750.180 7  90632739.408 7                  21798911.900    21798916.120
  21798915.540          45.750          44.700
 105358768.233 7  81945767.779 7                  19723366.280    19723369.060
  19723368.240          46.700          47.850
 121859985.088 7  94780003.358 7                  22772447.760    22772449.920
  22772448.660          45.050          42.600
 129509396.172 6 100729541.573 5                  24218909.320    24218912.460
  24218910.200          38.150          32.950
 104598169.364 8  81354190.833 7                  19601636.820    19601638.700
  19601638.800          48.350          47.000
 116394501.754 7  90528995.733 5                  21796921.320    21796926.060
  21796923.420          45.800          35.350
 117177752.721 7  91138265.069 7                  21889788.500    21889790.640
  21889789.540          46.500          44.650
 118130396.977 7  91879222.701 7                  22106493.780    22106498.880
  22106496.800          43.850          43.150
 136733640.138 7                 102106323.607 7  26019536.020
                        46.700


 15  1 27 18  9 40.0000000  0 20G22G18G13G17G15G28G24G12G05R18R05R16
                                R17R24R06R09R07R15E19E20
 133525147.678 7 104045572.82345                  25408991.060
  25408987.700          44.450          32.000
 121956405.908 7  95030981.00646                  23207519.020
  23207515.200          47.950          37.200
 111120292.005 8  86587308.34447                  21145462.420
  21145458.180          50.900          44.400
 122522165.567 8  95471880.541 7                  23315164.540    23315160.320
  23315159.720          49.800          44.700
 106867435.842 8  83273358.386 8                  20336177.000    20336173.220
  20336172.500          51.050          50.250
 126681883.909 7  98713290.75745                  24106692.280
  24106687.680          47.100          35.800
 112422179.891 8  87601783.343 8  83951726.029 8  21393197.920    21393197.100
  21393196.500          49.900          49.250
 119032964.086 8  92753061.206 7                  22651159.820    22651157.940
  22651157.440          49.600          44.800
 132380830.913 7 103153884.705 6                  25191239.280    25191241.820
  25191240.800          45.550          38.700
 125556843.473 7  97655392.296 6                  23521014.500    23521019.660
  23521018.780          46.150          40.400
 116548485.195 7  90648866.640 7                  21802790.840    21802795.020
  21802794.440          46.900          44.350
 105359797.586 7  81946568.399 7                  19723558.960    19723561.720
  19723560.940          47.600          47.350
 121853165.867 7  94774699.524 7                  22771173.440    22771175.520
  22771174.280          45.950          42.450
 129518384.304 6 100736532.330 5                  24220590.100    24220593.400
  24220591.120          38.900          32.500
 104601322.818 8  81356643.522 7                  19602227.780    19602229.680
  19602229.760          49.150          46.400
 116382606.892 7  90519744.191 5                  21794693.780    21794698.580
  21794695.880          46.750          34.750
 117161860.607 7  91125904.557 7                  21886819.680    21886821.820
  21886820.740          47.700          44.600
 118145098.182 7  91890656.981 7                  22109244.900    22109250.000
  22109247.900          44.300          43.200
 136724005.916 8                 102099129.242 7  26017702.700
                        48.350


 15  1 27 18  9 45.0000000  0 20G22G18G13G17G15G28G24G12G05R18R05R16
                                R17R24R06R09R07R15E19E20
 133512377.116 7 104035621.73045                  25406560.920
  25406557.420          44.200          34.250
 121950275.462 7  95026204.03646                  23206352.460
  23206348.600          47.500          37.700
 111130451.475 8  86595224.81247                  21147395.700
  21147391.460          50.650          44.700
 122518078.185 8  95468695.574 7                  23314386.760    23314382.520
  23314381.940          49.450          44.350
 106866453.308 8  83272592.777 8                  20335990.020    20335986.260
  20335985.540          50.900          50.200
 126697205.824 7  98725229.90346                  24109607.960
  24109603.300          46.550          37.800
 112414131.689 8  87595512.022 8  83945716.013 8  21391666.400    21391665.560
  21391664.960          49.750          49.100
 119015885.105 8  92739752.924 7                  22647909.780    22647907.900
  22647907.400          49.250          44.850
 132398533.585 7 103167678.864 6                  25194608.140    25194610.660
  25194609.660          44.350          39.000
 125539080.300 7  97641576.501 6                  23517686.880    23517691.920
  23517691.180          46.100          40.400
 116569227.719 7  90664999.710 7                  21806671.200    21806675.320
  21806674.740          46.750          44.500
 105360835.475 7  81947375.653 7                  19723753.260    19723756.040
  19723755.240          47.550          47.600
 121846363.898 7  94769409.107 7                  22769902.340    22769904.440
  22769903.160          45.750          42.650
 129527389.280 6 100743536.190 5                  24222274.080    24222277.240
  24222275.100          37.800          32.500
 104604498.031 8  81359113.134 7                  19602822.800    19602824.720
  19602824.820          49.000          46.650
 116370718.716 7  90510497.846 5                  21792467.480    21792472.260
  21792469.580          46.150          35.200
 117145981.765 7  91113554.372 7                  21883853.360    21883855.480
  21883854.440          47.400          44.750
 118159799.095 7  91902091.023 7                  22111995.960    22112001.080
  22111998.960          43.150          43.800
 136714379.049 8                 102091940.359 7  26015870.800
                        48.100


 15  1 27 18  9 50.0000000  0 20G22G18G13G17G15G28G24G12G05R18R05R16
                                R17R24R06R09R07R15E19E20
 133499615.717 7 104025677.81845                  25404132.560
  25404129.060          44.300          31.850
 121944158.838 7  95021437.83946                  23205188.500
  23205184.640          47.500          39.950
 111140622.284 8  86603150.12247                  21149331.160
  21149326.920          50.850          45.100
 122514004.542 8  95465521.309 7                  23313611.600    23313607.340
  23313606.780          49.750          44.500
 106865484.067 8  83271837.522 8                  20335805.560    20335801.820
  20335801.120          51.000          50.150
 126712531.310 7  98737171.83846                  24112524.340
  24112519.560          46.800          36.850
 112406089.664 8  87589245.513 8  83939710.609 8  21390136.080    21390135.220
  21390134.620          50.000          49.050
 118998814.091 8  92726450.845 7                  22644661.260    22644659.420
  22644658.880          49.550          44.800
 132416233.929 7 103181471.195 6                  25197976.500    25197979.060
  25197978.080          44.550          39.050
 125521321.802 7  97627764.347 6                  23514360.060    23514365.200
  23514364.480          44.050          40.150
 116589979.006 7  90681139.600 7                  21810553.220    21810557.240
  21810556.700          46.150          44.600
 105361883.193 7  81948190.542 7                  19723949.380    19723952.180
  19723951.360          45.800          47.150
 121839580.604 7  94764133.223 7                  22768634.760    22768636.920
  22768635.620          44.000          42.900
 129536412.561 6 100750554.326 5                  24223961.380    24223964.600
  24223962.520          37.200          33.200
 104607696.360 7  81361600.729 7                  19603422.160    19603424.080
  19603424.180          47.950          46.600
 116358838.523 7  90501257.696 5                  21790242.680    21790247.420
  21790244.780          44.700          33.950
 117130117.613 7  91101215.603 7                  21880889.800    21880891.920
  21880890.860          46.650          44.350
 118174501.013 6  91913525.829 7                  22114747.140    22114752.360
  22114750.220          41.600          43.700
 136704760.875 8                 102084757.953 7  26014040.540
                        48.450


 15  1 27 18  9 55.0000000  0 20G22G18G13G17G15G28G24G12G05R18R05R16
                                R17R24R06R09R07R15E19E20
 133486864.408 7 104015741.76145                  25401706.040
  25401702.560          44.250          32.650
 121938056.908 7  95016683.10146                  23204027.380
  23204023.460          47.650          37.350
 111150805.316 8  86611084.95247                  21151268.940
  21151264.700          50.900          44.700
 122509945.545 8  95462358.460 7                  23312839.220    23312834.960
  23312834.380          49.800          44.550
 106864529.075 8  83271093.372 8                  20335623.840    20335620.100
  20335619.380          51.050          50.200
 126727861.283 7  98749117.27445                  24115441.520
  24115436.800          46.850          35.300
 112398054.812 8  87582984.600 8  83933710.563 8  21388607.120    21388606.240
  21388605.660          50.150          49.100
 118981752.005 8  92713155.730 7                  22641414.440    22641412.600
  22641412.080          49.400          44.950
 132433932.878 7 103195262.443 6                  25201344.600    25201347.200
  25201346.200          45.050          39.550
 125503568.982 7  97613956.629 6                  23511034.320    23511039.540
  23511038.860          45.400          40.700
 116610739.978 7  90697287.018 7                  21814437.100    21814441.000
  21814440.480          47.350          44.600
 105362941.723 7  81949013.843 7                  19724147.500    19724150.320
  19724149.500          46.850          47.200
 121832816.840 7  94758872.526 7                  22767370.780    22767372.960
  22767371.760          45.350          42.750
 129545455.087 6 100757587.436 5                  24225652.360    24225655.560
  24225653.560          37.650          33.250
 104610918.697 8  81364106.987 7                  19604026.020    19604027.940
  19604028.060          49.100          46.450
 116346967.231 7  90492024.488 5                  21788019.500    21788024.200
  21788021.640          46.050          35.000
 117114268.797 7  91088888.752 7                  21877929.080    21877931.220
  21877930.200          47.900          44.300
 118189204.828 7  91924962.107 7                  22117498.720    22117503.940
  22117501.860          43.300          43.700
 136695152.290 8                 102077582.732 7  26012212.120
                        48.650


 15  1 27 18 10  0.0000000  0 20G22G18G13G17G15G28G24G12G05R18R05R16
                                R17R24R06R09R07R15E19E20
 133474121.596 7 104005812.29345                  25399281.220
  25399277.580          43.250          32.250
 121931968.035 7  95011938.53146                  23202868.720
  23202864.820          47.250          38.400
 111160998.920 8  86619028.01247                  21153208.740
  21153204.460          50.600          44.800
 122505899.501 8  95459205.705 7                  23312069.300    23312065.020
  23312064.440          49.350          44.250
 106863586.629 8  83270359.001 8                  20335444.480    20335440.760
  20335440.040          50.700          50.100
 126743194.055 7  98761064.89746                  24118359.260
  24118354.540          45.950          36.450
 112390025.341 8  87576727.873 8  83927714.531 8  21387079.200    21387078.280
  21387077.700          49.600          49.150
 118964697.150 8  92699866.245 7                  22638168.980    22638167.200
  22638166.660          48.800          44.900
 132451628.708 7 103209051.268 6                  25204712.160    25204714.800
  25204713.880          44.900          39.900
 125485820.154 7  97600151.985 6                  23507709.340    23507714.540
  23507713.920          44.350          39.350
 116631508.847 7  90713440.583 7                  21818322.400    21818326.300
  21818325.720          46.350          43.950
 105364009.222 7  81949844.116 7                  19724347.320    19724350.160
  19724349.320          46.150          46.150
 121826070.906 7  94753625.701 6                  22766110.120    22766112.340
  22766111.160          44.500          41.650
 129554515.177 6 100764634.174 5                  24227346.580    24227349.720
  24227347.840          36.200          31.750
 104614163.280 8  81366630.550 7                  19604634.000    19604635.980
  19604636.120          48.500          45.750
 116335103.285 7  90482796.989 5                  21785797.760    21785802.580
  21785799.860          45.250          34.000
 117098433.872 7  91076572.697 7                  21874970.960    21874973.140
  21874972.120          46.900          43.300
 118203908.830 7  91936398.551 7                  22120250.340    22120255.620
  22120253.520          42.400          42.700
 136685551.658 8                 102070413.431 7  26010385.220
                        48.000


 15  1 27 18 10  5.0000000  0 20G22G18G13G17G15G28G24G12G05R18R05R16
                                R17R24R06R09R07R15E19E20
 133461387.276 7 103995889.45546                  25396857.980
  25396854.340          42.250          36.300
 121925892.316 7  95007204.20446                  23201712.600
  23201708.640          46.450          40.800
 111171203.167 8  86626979.36747                  21155150.540
  21155146.280          49.800          46.050
 122501866.511 8  95456063.113 7                  23311301.860    23311297.560
  23311297.000          48.200          44.650
 106862656.811 8  83269634.463 8                  20335267.540    20335263.820
  20335263.120          50.000          50.550
 126758529.673 7  98773014.72346                  24121277.520
  24121272.860          44.750          39.050
 112382001.319 8  87570475.391 8  83921722.577 8  21385552.300    21385551.360
  21385550.800          48.700          49.450
 118947649.634 7  92686582.478 7                  22634924.940    22634923.160
  22634922.640          47.650          45.400
 132469321.559 7 103222837.759 6                  25208079.160    25208081.820
  25208080.940          44.250          40.550
 125468075.423 7  97586350.553 6                  23504385.120    23504390.320
  23504389.760          44.650          39.950
 116652285.798 7  90729600.412 7                  21822209.220    21822213.040
  21822212.520          46.800          44.300
 105365085.849 7  81950681.503 7                  19724548.860    19724551.660
  19724550.820          46.700          46.600
 121819342.958 7  94748392.850 6                  22764852.860    22764855.120
  22764853.920          44.750          41.550
 129563592.914 6 100771694.607 5                  24229044.040    24229047.420
  24229045.480          37.350          32.250
 104617430.478 8  81369171.689 7                  19605246.280    19605248.260
  19605248.380          48.900          45.950
 116323246.593 7  90473575.134 5                  21783577.340    21783582.160
  21783579.480          46.000          34.550
 117082612.924 7  91064267.524 7                  21872015.480    21872017.640
  21872016.640          47.000          44.050
 118218613.177 7  91947835.248 7                  22123002.060    22123007.360
  22123005.280          44.200          42.850
 136675959.035 7                 102063250.111 7  26008559.860
                        47.050


 15  1 27 18 10 10.0000000  0 20G22G18G13G17G15G28G24G12G05R18R05R16
                                R17R24R06R09R07R15E19E20
 133448661.317 6 103985973.14946                  25394436.260
  25394432.880          41.800          37.200
 121919829.539 7  95002479.96046                  23200558.940
  23200554.920          46.300          39.800
 111181417.836 8  86634938.84847                  21157094.340
  21157090.060          49.400          46.550
 122497846.393 7  95452930.552 7                  23310536.880    23310532.540
  23310532.000          47.600          44.550
 106861739.458 8  83268919.642 8                  20335092.960    20335089.280
  20335088.540          49.600          50.550
 126773867.958 7  98784966.63746                  24124196.280
  24124191.660          44.300          39.450
 112373982.632 8  87564227.072 8  83915734.592 8  21384026.420    21384025.460
  21384024.900          48.300          49.400
 118930609.272 7  92673304.288 7                  22631682.260    22631680.460
  22631679.960          47.050          45.150
 132487011.201 7 103236621.755 6                  25211445.520    25211448.140
  25211447.340          43.650          40.450
 125450334.600 7  97572552.153 6                  23501061.620    23501066.880
  23501066.340          46.550          40.200
 116673070.568 8  90745766.323 7                  21826097.520    21826101.300
  21826100.760          48.300          44.200
 105366171.372 8  81951525.805 7                  19724752.060    19724754.880
  19724754.020          48.400          46.800
 121812632.802 7  94743173.840 6                  22763598.840    22763601.180
  22763599.960          46.750          41.800
 129572687.823 6 100778768.434 5                  24230744.780    24230748.300
  24230746.240          39.300          32.200
 104620719.896 8  81371730.132 7                  19605862.680    19605864.700
  19605864.820          50.150          46.050
 116311396.968 7  90464358.780 5                  21781358.300    21781363.060
  21781360.480          47.800          34.850
 117066805.685 8  91051973.030 7                  21869062.520    21869064.800
  21869063.740          48.400          44.350
 118233317.631 7  91959272.062 7                  22125753.820    22125759.100
  22125757.040          46.050          42.800
 136666374.244 7                 102056092.647 7  26006735.960
                        46.650


