     2.11           OBSERVATION DATA    M (MIXED)           RINEX VERSION / TYPE
teqc  2011Oct11     IGN-E (SPG)         20150127 16:00:39UTCPGM / RUN BY / DATE
Linux 2.4.21-27.ELsmp|Opteron|gcc -static|Linux x86_64|=+   COMMENT
BIT 2 OF LLI FLAGS DATA COLLECTED UNDER A/S CONDITION       COMMENT
VALE                                                        MARKER NAME
13439M001                                                   MARKER NUMBER
Programas GeodesicosInstituto Geografico Nacional           OBSERVER / AGENCY
1700071             LEICA GR10          3.03/6.214          REC # / TYPE / VERS
10190012            LEIAR25.R3      LEIT                    ANT # / TYPE
  4929534.0457   -29050.6755  4033709.9250                  APPROX POSITION XYZ
        3.0390        0.0000        0.0000                  ANTENNA: DELTA H/E/N
     1     1                                                WAVELENGTH FACT L1/2
     8    L1    L2    L5    C1    C2    P2    S1    S2      # / TYPES OF OBSERV
     5.0000                                                 INTERVAL
Forced Modulo Decimation to 5 seconds                       COMMENT
DefaultJobName                                              COMMENT
DefaultUserDiscription                                      COMMENT
Project creator:                                            COMMENT
 SNR is mapped to RINEX snr flag value [0-9]                COMMENT
  L1 & L2: min(max(int(snr_dBHz/6), 0), 9)                  COMMENT
  2015     1    27    15     0    0.0000000     GPS         TIME OF FIRST OBS
    15                                                      LEAP SECONDS
                                                            END OF HEADER
 15  1 27 15  0  0.0000000  0 16G30G07G13G02G15G28G09G10G05R14R05R21
                                R13R03R04R15
 109538621.306 8  85354861.212 8  81798422.457 8  20844472.460    20844472.300
  20844471.600          50.450          49.400
 119623123.282 7  93212891.723 7                  22763500.360    22763498.780
  22763498.220          47.700          44.200
 113821355.871 8  88692027.98847                  21659462.000
  21659459.200          49.950          43.700
 121486413.949 7  94664726.71446                  23118099.260
  23118097.280          47.650          39.800
 130257637.025 7 101499467.463 6                  24787200.480    24787202.280
  24787201.580          43.850          39.700
 117691452.097 8  91707749.93646                  22395877.380
  22395875.000          49.750          41.650
 130178168.757 7 101437545.495 6  97210987.374 7  24772080.100    24772082.340
  24772082.040          44.250          40.950
 116256137.402 8  90589211.16547                  22122804.600
  22122803.000          49.250          44.300
 107953724.474 8  84119801.416 8                  20542896.420    20542893.900
  20542893.140          49.600          49.250
 103464585.274 7  80472548.973 6                  19409651.360    19409658.960
  19409658.240          42.850          41.500
 111531374.076 8  86746668.912 7                  20864236.880    20864241.060
  20864240.560          48.600          45.600
 130108617.925 6 101195628.949 5                  24313907.200    24313913.800
  24313912.940          40.900          33.950
 123677590.371 6  96193775.725 6                  23160814.460    23160821.300
  23160819.760          38.050          40.600
 119563316.332 7  92993706.527 6                  22335433.600    22335438.220
  22335436.800          45.300          41.800
 103608506.287 8  80584435.864 7                  19348146.280    19348148.320
  19348147.240          49.000          47.100
 106782777.972 7  83053419.661 7                  19982887.560    19982894.960
  19982892.960          47.400          46.200
 15  1 27 15  0  5.0000000  0 16G30G07G13G02G15G28G09G10G05R14R05R21
                                R13R03R04R15
 109546808.956 8  85361241.199 8  81804536.608 8  20846030.500    20846030.360
  20846029.660          50.400          49.300
 119637532.390 7  93224119.584 7                  22766242.280    22766240.740
  22766240.160          47.850          43.750
 113811768.135 8  88684557.03147                  21657637.500
  21657634.720          49.900          42.850
 121500646.653 7  94675817.10146                  23120807.680
  23120805.660          47.850          39.050
 130243176.297 7 101488199.365 6                  24784448.640    24784450.440
  24784449.780          43.900          39.650
 117680649.357 8  91699332.23346                  22393821.680
  22393819.280          49.800          41.500
 130191940.595 7 101448276.798 6  97221271.516 8  24774700.820    24774703.020
  24774702.700          44.700          40.750
 116271101.570 8  90600871.53547                  22125652.160
  22125650.580          49.450          44.000
 107950216.617 8  84117068.019 8                  20542228.900    20542226.360
  20542225.600          49.750          49.100
 103471252.686 7  80477734.729 6                  19410902.200    19410909.820
  19410909.040          42.550          40.300
 111516352.837 8  86734985.724 7                  20861426.800    20861431.000
  20861430.480          48.450          44.050
 130113562.256 6 101199474.536 5                  24314831.080    24314837.840
  24314836.980          38.750          32.350
 123698145.499 6  96209763.030 6                  23164663.860    23164670.640
  23164669.100          37.850          38.900
 119579496.793 7  93006291.302 6                  22338456.260    22338460.860
  22338459.460          45.350          40.950
 103610014.872 8  80585609.193 7                  19348427.980    19348430.020
  19348428.940          48.900          45.700
 106769841.601 7  83043358.039 7                  19980466.700    19980474.100
  19980472.100          47.300          44.800
 15  1 27 15  0 10.0000000  0 16G30G07G13G02G15G28G09G10G05R14R05R21
                                R13R03R04R15
 109555007.599 8  85367629.763 8  81810658.983 8  20847590.640    20847590.520
  20847589.840          50.450          49.550
 119651945.938 7  93235350.920 7                  22768985.100    22768983.520
  22768982.980          47.950          44.500
 113802184.963 8  88677089.63447                  21655813.900
  21655811.060          50.000          43.300
 121514884.213 7  94686911.27946                  23123517.060
  23123515.000          47.850          40.750
 130228715.945 7 101476931.568 6                  24781696.920    24781698.700
  24781698.120          44.100          40.400
 117669856.416 8  91690922.17346                  22391767.840
  22391765.440          49.850          41.300
 130205713.572 7 101459008.999 6  97231556.546 7  24777321.700    24777323.960
  24777323.580          44.000          41.750
 116286073.717 8  90612538.14447                  22128501.240
  22128499.700          49.650          44.300
 107946722.523 8  84114345.358 8                  20541563.980    20541561.480
  20541560.680          49.900          49.350
 103477939.037 7  80482935.223 6                  19412156.540    19412164.120
  19412163.400          42.950          41.700
 111501338.028 8  86723307.558 7                  20858617.920    20858622.160
  20858621.620          48.850          45.600
 130118524.289 6 101203333.907 5                  24315758.340    24315765.180
  24315764.260          38.400          33.800
 123718704.254 6  96225753.157 6                  23168513.940    23168520.600
  23168519.120          37.900          40.150
 119595685.797 7  93018882.740 7                  22341480.560    22341485.060
  22341483.700          45.350          42.050
 103611538.613 8  80586794.319 7                  19348712.500    19348714.560
  19348713.440          48.650          47.000
 106756922.348 7  83033309.744 7                  19978049.020    19978056.460
  19978054.440          47.550          46.250
 15  1 27 15  0 15.0000000  0 16G30G07G13G02G15G28G09G10G05R14R05R21
                                R13R03R04R15
 109563217.554 8  85374027.135 7  81816789.790 8  20849152.900    20849152.840
  20849152.140          50.300          47.900
 119666364.231 7  93246585.952 7                  22771728.800    22771727.240
  22771726.660          47.850          42.600
 113792606.678 8  88669626.04446                  21653991.200
  21653988.360          50.000          41.600
 121529126.938 7  94698009.48646                  23126227.400
  23126225.320          47.700          37.250
 130214256.297 7 101465664.335 6                  24778945.320    24778947.080
  24778946.600          44.550          38.500
 117659073.619 8  91682520.01646                  22389715.920
  22389713.540          49.850          39.250
 130219488.029 7 101469742.311 6  97241842.660 7  24779942.860    24779945.200
  24779944.800          44.300          39.700
 116301054.155 8  90624211.20447                  22131351.880
  22131350.380          49.600          42.250
 107943242.565 8  84111633.709 7                  20540901.760    20540899.260
  20540898.440          49.950          47.750
 103484644.584 7  80488150.650 6                  19413414.480    19413422.000
  19413421.360          42.950          40.500
 111486329.973 8  86711634.643 7                  20855810.320    20855814.600
  20855814.040          48.900          44.800
 130123504.321 6 101207207.176 5                  24316688.920    24316695.640
  24316694.880          39.350          32.700
 123739266.903 6  96241746.317 6                  23172364.660    23172371.340
  23172369.840          37.950          39.200
 119611883.773 7  93031481.163 6                  22344506.500    22344510.980
  22344509.640          45.900          40.850
 103613077.957 8  80587991.588 7                  19348999.980    19349002.000
  19349000.880          48.650          46.100
 106744020.722 7  83023275.164 7                  19975634.640    19975642.100
  19975640.100          47.700          44.850
 15  1 27 15  0 20.0000000  0 16G30G07G13G02G15G28G09G10G05R14R05R21
                                R13R03R04R15
 109571438.997 8  85380433.452 8  81822929.173 8  20850717.340    20850717.320
  20850716.640          50.150          49.000
 119680787.488 7  93257824.847 7                  22774473.440    22774471.880
  22774471.320          47.950          43.600
 113783033.509 8  88662166.44047                  21652169.460
  21652166.620          49.900          42.950
 121543374.973 7  94709111.82546                  23128938.780
  23128936.700          47.650          38.950
 130199797.593 7 101454397.834 6                  24776193.940    24776195.640
  24776195.240          44.400          39.950
 117648301.188 8  91674125.94146                  22387665.960
  22387663.580          49.800          41.400
 130233264.144 7 101480476.946 6  97252130.001 7  24782564.320    24782566.700
  24782566.320          43.100          40.700
 116316043.074 8  90635890.86747                  22134204.140
  22134202.700          49.550          43.900
 107939776.943 8  84108933.224 8                  20540242.280    20540239.780
  20540238.940          49.900          48.800
 103491369.539 7  80493381.169 6                  19414676.080    19414683.520
  19414682.940          43.050          41.400
 111471329.007 8  86699967.231 7                  20853004.020    20853008.320
  20853007.820          48.900          46.000
 130128502.395 6 101211094.573 5                  24317622.880    24317629.740
  24317628.980          38.650          34.650
 123759834.080 6  96257743.004 6                  23176216.320    23176222.980
  23176221.460          37.750          40.500
 119628090.811 7  93044086.623 6                  22347534.140    22347538.620
  22347537.260          45.900          41.950
 103614633.043 8  80589201.092 7                  19349290.400    19349292.420
  19349291.260          48.800          47.250
 106731136.997 7  83013254.508 7                  19973223.600    19973231.080
  19973229.100          47.650          46.350
 15  1 27 15  0 25.0000000  0 16G30G07G13G02G15G28G09G10G05R14R05R21
                                R13R03R04R15
 109579671.627 8  85386848.480 8  81829076.922 8  20852283.920    20852283.940
  20852283.260          50.050          49.100
 119695215.417 7  93269067.377 7                  22777219.020    22777217.440
  22777216.860          47.700          43.700
 113773465.122 8  88654710.55847                  21650348.640
  21650345.780          49.750          43.250
 121557628.001 7  94720218.05446                  23131651.100
  23131649.020          47.050          39.550
 130185339.458 7 101443131.780 6                  24773442.700    24773444.380
  24773443.920          44.100          39.800
 117637538.802 8  91665739.68446                  22385617.920
  22385615.560          49.650          41.600
 130247041.649 7 101491212.632 6  97262418.368 7  24785185.940    24785188.540
  24785188.220          42.950          41.200
 116331040.139 8  90647576.87547                  22137057.980
  22137056.560          49.600          43.800
 107936325.349 8  84106243.672 8                  20539585.460    20539582.980
  20539582.120          49.700          48.800
 103498113.493 7  80498626.472 6                  19415941.260    19415948.760
  19415948.080          42.800          41.350
 111456334.658 8  86688304.964 7                  20850198.980    20850203.360
  20850202.840          48.800          45.950
 130133518.360 6 101214995.895 5                  24318560.280    24318567.140
  24318566.380          38.600          33.950
 123780405.067 6  96273742.638 6                  23180068.680    23180075.280
  23180073.780          38.150          39.650
 119644306.728 7  93056698.995 6                  22350563.400    22350567.860
  22350566.500          45.850          41.600
 103616203.601 8  80590422.634 7                  19349583.700    19349585.720
  19349584.540          48.650          47.150
 106718270.802 7  83003247.473 7                  19970815.880    19970823.360
  19970821.360          47.100          46.000
 15  1 27 15  0 30.0000000  0 16G30G07G13G02G15G28G09G10G05R14R05R21
                                R13R03R04R15
 109587913.964 8  85393271.080 8  81835231.910 8  20853852.360    20853852.380
  20853851.740          50.150          49.350
 119709646.514 7  93280312.386 7                  22779965.220    22779963.540
  22779963.020          47.650          44.050
 113763900.087 8  88647257.30347                  21648528.440
  21648525.580          49.850          43.300
 121571884.587 7  94731327.06546                  23134364.020
  23134361.980          46.650          39.800
 130170880.462 7 101431865.046 6                  24770691.260    24770692.880
  24770692.580          44.250          40.600
 117626785.073 8  91657360.18046                  22383571.520
  22383569.180          49.600          41.550
 130260819.015 7 101501948.217 7  97272706.651 8  24787807.600    24787810.360
  24787810.060          43.900          42.350
 116346043.919 8  90659268.12647                  22139913.100
  22139911.720          49.650          44.050
 107932886.346 8  84103563.934 8                  20538931.020    20538928.560
  20538927.700          49.800          49.000
 103504875.072 7  80503885.478 6                  19417209.740    19417217.220
  19417216.500          42.850          40.700
 111441345.618 8  86676646.838 7                  20847394.960    20847399.360
  20847398.860          48.900          45.450
 130138550.657 6 101218909.898 5                  24319500.540    24319507.500
  24319506.780          38.200          32.200
 123800978.411 6  96289744.124 6                  23183921.420    23183928.080
  23183926.520          38.000          39.350
 119660529.944 7  93069317.033 6                  22353594.040    22353598.440
  22353597.120          45.800          40.800
 103617788.097 8  80591655.022 7                  19349879.600    19349881.600
  19349880.440          48.700          46.650
 106705420.608 7  82993252.889 7                  19968411.140    19968418.580
  19968416.620          47.100          45.350
 15  1 27 15  0 35.0000000  0 16G30G07G13G02G15G28G09G10G05R14R05R21
                                R13R03R04R15
 109596169.675 8  85399704.101 8  81841396.893 8  20855423.340    20855423.380
  20855422.740          50.250          49.400
 119724084.500 7  93291562.757 7                  22782712.720    22782711.040
  22782710.500          47.700          44.300
 113754342.061 8  88639809.49847                  21646709.600
  21646706.740          49.900          43.800
 121586148.379 7  94742441.67846                  23137078.320
  23137076.220          46.700          40.150
 130156424.306 7 101420600.524 6                  24767940.360    24767942.000
  24767941.740          44.250          40.550
 117616043.610 8  91648990.22746                  22381527.460
  22381525.140          49.650          41.650
 130274599.969 7 101512686.596 6  97282997.612 7  24790430.040    24790432.860
  24790432.580          44.200          41.700
 116361058.050 8  90670967.43847                  22142770.180
  22142768.840          49.550          44.750
 107929463.607 8  84100896.865 8                  20538279.680    20538277.240
  20538276.380          49.800          49.150
 103511658.039 7  80509161.113 6                  19418482.240    19418489.660
  19418488.960          43.000          39.950
 111426365.454 8  86664995.597 7                  20844592.620    20844597.020
  20844596.520          48.950          44.300
 130143603.037 6 101222839.498 5                  24320444.700    24320451.460
  24320450.860          39.050          30.350
 123821557.974 6  96305750.445 6                  23187775.340    23187781.980
  23187780.420          37.800          38.100
 119676764.227 7  93081943.683 6                  22356626.760    22356631.120
  22356629.780          45.400          40.250
 103619390.270 8  80592901.165 7                  19350178.780    19350180.780
  19350179.640          48.800          45.650
 106692590.077 7  82983273.595 7                  19966010.060    19966017.540
  19966015.560          46.800          44.750
 15  1 27 15  0 40.0000000  0 16G30G07G13G02G15G28G09G10G05R14R05R21
                                R13R03R04R15
 109604436.119 8  85406145.499 8  81847569.897 8  20856996.360    20856996.440
  20856995.780          50.200          49.650
 119738526.707 7  93302816.420 7                  22785461.000    22785459.280
  22785458.800          47.450          43.950
 113744788.446 8  88632365.13147                  21644891.600
  21644888.780          49.850          43.950
 121600416.786 7  94753559.89846                  23139793.540
  23139791.420          46.650          39.650
 130141968.331 7 101409336.132 6                  24765189.460    24765191.120
  24765190.880          43.600          40.300
 117605311.808 8  91640627.81346                  22379485.240
  22379482.920          49.400          41.850
 130288381.862 7 101523425.742 7  97293289.283 7  24793052.660    24793055.480
  24793055.180          44.300          42.000
 116376079.921 8  90682672.78647                  22145628.760
  22145627.440          49.400          45.250
 107926054.521 8  84098240.436 8                  20537630.940    20537628.520
  20537627.640          49.550          49.350
 103518459.598 7  80514451.224 6                  19419758.160    19419765.600
  19419764.900          43.200          41.000
 111411391.720 8  86653349.375 7                  20841791.460    20841795.860
  20841795.360          48.700          45.350
 130148672.849 6 101226782.666 5                  24321392.120    24321398.880
  24321398.200          38.400          32.750
 123842140.864 6  96321759.357 6                  23191629.900    23191636.420
  23191634.960          37.800          39.050
 119693006.821 7  93094576.788 6                  22359661.020    22359665.400
  22359664.040          45.450          41.050
 103621007.563 8  80594159.061 7                  19350480.800    19350482.800
  19350481.680          48.800          46.800
 106679776.664 7  82973307.616 7                  19963612.200    19963619.680
  19963617.720          46.900          46.050
 15  1 27 15  0 45.0000000  0 16G30G07G13G02G15G28G09G10G05R14R05R21
                                R13R03R04R15
 109612713.874 8  85412595.700 8  81853751.333 8  20858571.540    20858571.660
  20858570.980          50.150          49.550
 119752973.656 7  93314073.777 7                  22788210.180    22788208.480
  22788207.980          47.350          44.000
 113735239.799 8  88624924.62747                  21643074.560
  21643071.720          49.900          43.750
 121614690.340 7  94764682.12646                  23142509.740
  23142507.620          46.800          39.950
 130127513.116 7 101398072.332 6                  24762438.680    24762440.360
  24762440.120          43.700          40.000
 117594590.248 8  91632273.36546                  22377444.940
  22377442.640          49.450          41.700
 130302165.253 7 101534166.040 6  97303582.073 7  24795675.600    24795678.380
  24795678.080          44.200          41.650
 116391110.082 8  90694384.58347                  22148488.900
  22148487.620          49.250          44.500
 107922659.682 8  84095595.106 8                  20536984.900    20536982.500
  20536981.620          49.500          49.250
 103525280.362 7  80519756.263 6                  19421037.740    19421045.200
  19421044.460          43.350          40.700
 111396424.958 8  86641708.570 7                  20838991.600    20838995.960
  20838995.520          48.450          45.000
 130153760.595 6 101230739.779 5                  24322342.980    24322349.800
  24322349.000          40.000          32.250
 123862727.665 6  96337771.303 6                  23195485.080    23195491.680
  23195490.220          38.400          39.200
 119709258.435 7  93107216.914 6                  22362696.980    22362701.360
  22362699.980          45.400          40.950
 103622640.420 8  80595429.049 7                  19350785.720    19350787.740
  19350786.620          48.850          46.600
 106666980.990 7  82963355.435 7                  19961217.640    19961225.160
  19961223.200          47.350          45.800
 15  1 27 15  0 50.0000000  0 16G30G07G13G02G15G28G09G10G05R14R05R21
                                R13R03R04R15
 109621002.219 8  85419054.150 8  81859940.681 8  20860148.740    20860148.880
  20860148.200          50.300          49.650
 119767424.617 7  93325334.264 7                  22790960.120    22790958.400
  22790957.940          47.600          44.100
 113725695.425 8  88617487.46547                  21641258.340
  21641255.500          49.800          43.750
 121628968.318 7  94775807.78446                  23145226.780
  23145224.700          46.950          40.150
 130113058.014 7 101386808.624 6                  24759687.940    24759689.660
  24759689.420          44.350          40.200
 117583878.250 8  91623926.37647                  22375406.480
  22375404.200          49.250          42.300
 130315949.481 7 101544906.983 6  97313875.461 7  24798298.720    24798301.460
  24798301.160          44.900          41.600
 116406147.804 8  90706102.28147                  22151350.520
  22151349.240          49.600          44.650
 107919278.361 8  84092960.315 8                  20536341.440    20536339.060
  20536338.200          49.650          49.250
 103532119.543 7  80525075.637 6                  19422320.760    19422328.240
  19422327.500          43.200          41.000
 111381464.406 8  86630072.583 7                  20836192.880    20836197.260
  20836196.840          48.600          45.500
 130158865.572 6 101234710.275 5                  24323297.020    24323303.800
  24323302.920          40.200          32.100
 123883317.887 6  96353785.907 6                  23199341.060    23199347.640
  23199346.160          38.350          39.250
 119725518.303 7  93119863.459 6                  22365734.440    22365738.860
  22365737.460          46.050          40.950
 103624288.273 8  80596710.710 7                  19351093.460    19351095.460
  19351094.340          48.700          46.800
 106654202.351 7  82953416.506 7                  19958826.280    19958833.820
  19958831.840          47.450          45.950
 15  1 27 15  0 55.0000000  0 16G30G07G13G02G15G28G09G10G05R14R05R21
                                R13R03R04R15
 109629303.033 8  85425522.325 8  81866139.354 8  20861728.300    20861728.460
  20861727.800          50.300          50.250
 119781881.519 7  93336599.378 7                  22793711.140    22793709.480
  22793709.020          47.650          45.200
 113716157.218 8  88610055.10647                  21639443.280
  21639440.420          49.800          45.200
 121643252.559 7  94786938.34546                  23147944.960
  23147942.940          46.900          40.250
 130098604.859 7 101375546.437 6                  24756937.580    24756939.300
  24756939.040          44.400          41.700
 117573177.718 8  91615588.32447                  22373370.180
  22373367.940          49.300          43.300
 130329736.424 7 101555650.057 7  97324170.899 7  24800922.420    24800925.080
  24800924.720          45.250          42.150
 116421195.002 8  90717827.36847                  22154213.920
  22154212.700          49.700          45.950
 107915912.484 8  84090337.558 8                  20535700.920    20535698.540
  20535697.720          49.750          50.050
 103538979.148 7  80530410.885 6                  19423607.640    19423615.060
  19423614.360          43.000          40.400
 111366511.956 8  86618442.908 7                  20833395.720    20833400.060
  20833399.660          48.650          44.750
 130163989.626 6 101238695.686 5                  24324254.560    24324261.400
  24324260.500          38.900          30.950
 123903913.339 6  96369804.590 6                  23203197.960    23203204.540
  23203203.060          38.000          38.850
 119741788.318 7  93132517.917 6                  22368773.800    22368778.260
  22368776.840          45.750          41.150
 103625952.930 8  80598005.450 7                  19351404.340    19351406.320
  19351405.200          48.600          46.200
 106641442.733 7  82943492.367 7                  19956438.540    19956446.020
  19956444.060          47.200          45.950
 15  1 27 15  1  0.0000000  0 16G30G07G13G02G15G28G09G10G05R14R05R21
                                R13R03R04R15
 109637612.645 8  85431997.349 8  81872344.587 8  20863309.540    20863309.720
  20863309.060          50.200          49.900
 119796340.710 7  93347866.272 7                  22796462.580    22796460.980
  22796460.500          47.800          44.600
 113706621.499 8  88602624.68447                  21637628.720
  21637625.840          49.850          44.050
 121657539.439 7  94798070.95046                  23150663.640
  23150661.720          47.000          40.150
 130084150.009 7 101364282.938 6                  24754186.900    24754188.640
  24754188.440          44.600          40.650
 117562485.092 8  91607256.42647                  22371335.400
  22371333.180          49.250          42.650
 130343522.392 7 101566392.383 6  97334465.624 7  24803545.900    24803548.420
  24803548.060          44.200          41.050
 116436247.991 8  90729556.96247                  22157078.440
  22157077.240          49.650          45.000
 107912558.324 8  84087723.929 8                  20535062.640    20535060.300
  20535059.460          49.750          49.800
 103545855.401 7  80535759.076 6                  19424897.580    19424905.020
  19424904.340          43.250          41.000
 111351563.983 8  86606816.726 7                  20830599.400    20830603.700
  20830603.320          48.750          45.000
 130169129.231 6 101242693.146 5                  24325215.040    24325221.900
  24325220.960          38.950          31.200
 123924510.174 6  96385824.342 6                  23207055.120    23207061.660
  23207060.220          38.600          39.250
 119758064.671 7  93145177.278 6                  22371814.320    22371818.860
  22371817.460          45.750          41.700
 103627630.849 8  80599310.500 7                  19351717.660    19351719.660
  19351718.540          48.750          46.750
 106628698.313 7  82933580.045 7                  19954053.640    19954061.080
  19954059.100          47.600          45.800
 15  1 27 15  1  5.0000000  0 16G30G07G13G02G15G28G09G10G05R14R05R21
                                R13R03R04R15
 109645934.905 8  85438482.222 8  81878559.256 8  20864893.180    20864893.360
  20864892.720          50.250          49.250
 119810806.020 7  93359137.936 7                  22799215.180    22799213.640
  22799213.160          47.950          42.750
 113697092.151 8  88595199.22047                  21635815.340
  21635812.460          50.000          42.450
 121671832.728 7  94809208.54146                  23153383.580
  23153381.660          47.400          38.550
 130069697.342 7 101353021.126 6                  24751436.660    24751438.440
  24751438.140          44.650          39.550
 117551804.162 8  91598933.63746                  22369302.840
  22369300.660          49.300          41.700
 130357311.261 7 101577136.941 6  97344762.495 7  24806169.860    24806172.340
  24806171.900          44.150          40.250
 116451310.649 8  90741294.08147                  22159944.820
  22159943.580          49.700          44.700
 107909219.800 8  84085122.477 8                  20534427.320    20534424.980
  20534424.180          49.850          49.150
 103552752.118 7  80541123.191 6                  19426191.420    19426198.840
  19426198.140          43.150          41.850
 111336624.419 8  86595197.066 7                  20827804.640    20827808.980
  20827808.560          48.750          46.150
 130174288.116 6 101246705.612 5                  24326179.140    24326186.100
  24326185.000          39.850          31.500
 123945112.407 6  96401848.291 6                  23210913.300    23210919.760
  23210918.380          37.950          40.050
 119774351.436 7  93157844.737 7                  22374856.820    22374861.400
  22374860.060          45.650          42.300
 103629325.689 8  80600628.699 7                  19352034.160    19352036.160
  19352035.020          48.500          47.650
 106615972.932 7  82923682.524 7                  19951672.280    19951679.700
  19951677.720          47.700          46.350
 15  1 27 15  1 10.0000000  0 16G30G07G13G02G15G28G09G10G05R14R05R21
                                R13R03R04R15
 109654269.168 8  85444976.454 8  81884782.908 8  20866479.140    20866479.300
  20866478.680          50.200          49.750
 119825276.790 8  93370413.861 7                  22801968.880    22801967.340
  22801966.860          48.150          44.350
 113687568.524 8  88587778.21847                  21634003.040
  21634000.180          50.150          43.700
 121686131.811 7  94820350.65746                  23156104.640
  23156102.700          47.250          40.000
 130055246.200 7 101341760.510 6                  24748686.660    24748688.480
  24748688.060          44.600          39.700
 117541134.285 8  91590619.47247                  22367272.360
  22367270.260          49.550          42.700
 130371102.413 7 101587883.279 6  97355061.065 7  24808794.200    24808796.660
  24808796.100          44.100          41.100
 116466382.293 8  90753038.20947                  22162812.900
  22162811.640          49.950          44.600
 107905896.263 8  84082532.708 8                  20533794.860    20533792.540
  20533791.740          49.800          49.650
 103559668.773 7  80546502.818 6                  19427488.980    19427496.420
  19427495.700          43.050          41.950
 111321692.608 8  86583583.440 7                  20825011.320    20825015.660
  20825015.260          48.800          46.050
 130179465.674 6 101250732.583 5                  24327146.760    24327153.700
  24327152.440          39.450          32.150
 123965719.177 6  96417875.764 6                  23214772.320    23214778.700
  23214777.340          38.000          39.900
 119790647.898 7  93170519.744 7                  22377901.160    22377905.740
  22377904.440          45.650          42.700
 103631037.047 8  80601959.749 7                  19352353.740    19352355.740
  19352354.600          48.750          47.600
 106603265.971 8  82913799.349 7                  19949294.360    19949301.720
  19949299.760          48.050          46.650
 15  1 27 15  1 15.0000000  0 16G30G07G13G02G15G28G09G10G05R14R05R21
                                R13R03R04R15
 109662614.766 8  85451479.516 8  81891015.000 8  20868067.240    20868067.420
  20868066.780          50.100          48.900
 119839752.364 8  93381693.524 7                  22804723.500    22804721.940
  22804721.460          48.000          43.550
 113678049.937 8  88580361.15147                  21632191.720
  21632188.840          50.150          42.800
 121700436.023 7  94831496.76646                  23158826.660
  23158824.700          47.100          39.900
 130040795.927 7 101330500.578 6                  24745936.880    24745938.760
  24745938.200          45.000          39.100
 117530474.800 8  91582313.40146                  22365243.880
  22365241.820          49.250          41.500
 130384895.166 7 101598630.870 6  97365360.818 7  24811418.760    24811421.360
  24811420.820          43.500          40.250
 116481462.282 8  90764788.84647                  22165682.580
  22165681.300          49.850          43.600
 107902587.073 8  84079954.121 8                  20533165.140    20533162.840
  20533162.040          49.700          49.000
 103566604.632 7  80551897.383 6                  19428790.200    19428797.660
  19428796.880          43.000          41.650
 111306767.934 8  86571975.366 7                  20822219.360    20822223.720
  20822223.300          48.950          46.050
 130184661.215 6 101254773.535 5                  24328117.700    24328124.860
  24328123.300          38.950          30.900
 123986330.126 6  96433906.508 6                  23218632.000    23218638.520
  23218637.120          38.150          40.000
 119806953.278 7  93183201.694 6                  22380947.180    22380951.740
  22380950.460          45.300          41.600
 103632764.095 8  80603303.014 7                  19352676.240    19352678.240
  19352677.120          48.450          47.200
 106590576.837 7  82903930.043 7                  19946919.780    19946927.120
  19946925.140          47.750          45.950
 15  1 27 15  1 20.0000000  0 16G30G07G13G02G15G28G09G10G05R14R05R21
                                R13R03R04R15
 109670971.662 8  85457991.383 8  81897255.540 8  20869657.500    20869657.680
  20869657.040          50.250          48.450
 119854232.829 8  93392976.998 7                  22807479.060    22807477.520
  22807476.960          48.050          42.900
 113668536.431 8  88572948.03446                  21630381.360
  21630378.460          50.150          41.950
 121714745.319 7  94842646.84046                  23161549.640
  23161547.660          46.800          37.950
 130026346.502 7 101319241.309 6                  24743187.200    24743189.040
  24743188.560          45.300          38.700
 117519825.671 8  91574015.39646                  22363217.360
  22363215.380          49.450          40.350
 130398689.502 7 101609379.678 6  97375661.764 7  24814043.640    24814046.300
  24814045.760          43.850          39.750
 116496550.576 8  90776545.95047                  22168553.840
  22168552.520          49.850          43.050
 107899292.202 8  84077386.693 8                  20532538.140    20532535.820
  20532535.060          49.650          48.550
 103573559.553 7  80557306.764 6                  19430094.940    19430102.360
  19430101.660          43.250          41.700
 111291850.243 8  86560372.726 7                  20819428.700    20819433.040
  20819432.660          49.050          46.050
 130189874.774 6 101258828.533 5                  24329091.940    24329099.060
  24329097.580          39.400          32.500
 124006945.012 6  96449940.305 6                  23222492.460    23222499.000
  23222497.640          38.250          40.000
 119823267.726 7  93195890.699 7                  22383994.880    22383999.480
  22383998.160          45.100          42.200
 103634506.932 8  80604658.550 7                  19353001.680    19353003.720
  19353002.580          48.700          47.550
 106577905.609 7  82894074.650 7                  19944548.540    19944555.880
  19944553.840          47.600          46.300
 15  1 27 15  1 25.0000000  0 16G30G07G13G02G15G28G09G10G05R14R05R21
                                R13R03R04R15
 109679338.068 8  85464510.668 8  81903503.184 8  20871249.560    20871249.740
  20871249.100          50.300          49.400
 119868716.227 8  93404262.756 7                  22810235.180    22810233.620
  22810233.060          48.250          43.850
 113659026.185 8  88565537.46547                  21628571.620
  21628568.680          50.000          43.350
 121729057.897 7  94853799.47346                  23164273.280
  23164271.260          46.700          39.050
 130011896.138 7 101307981.321 6                  24740437.380    24740439.260
  24740438.760          45.650          39.200
 117509185.183 8  91565724.13546                  22361192.500
  22361190.540          49.650          41.600
 130412483.587 7 101620128.307 6  97385962.545 7  24816668.500    24816671.260
  24816670.780          43.850          41.250
 116511645.419 8  90788308.15547                  22171426.340
  22171424.980          49.950          44.550
 107896009.865 8  84074829.036 8                  20531913.540    20531911.220
  20531910.460          49.650          49.350
 103580531.906 7  80562729.703 7                  19431402.960    19431410.400
  19431409.680          44.100          43.750
 111276937.915 8  86548774.257 7                  20816639.060    20816643.400
  20816642.980          49.750          47.450
 130195104.396 6 101262896.055 5                  24330069.200    24330076.420
  24330074.920          39.200          35.250
 124027562.008 6  96465975.740 6                  23226353.360    23226359.880
  23226358.540          39.250          41.500
 119839589.123 7  93208585.100 7                  22387043.860    22387048.480
  22387047.140          45.750          43.200
 103636263.611 8  80606024.856 8                  19353329.740    19353331.760
  19353330.640          49.400          48.800
 106565250.493 8  82884231.784 7                  19942180.380    19942187.620
  19942185.600          48.500          47.400
 15  1 27 15  1 30.0000000  0 16G30G07G13G02G15G28G09G10G05R14R05R21
                                R13R03R04R15
 109687717.269 8  85471039.902 8  81909760.376 8  20872844.080    20872844.220
  20872843.600          50.350          49.750
 119883205.839 8  93415553.357 7                  22812992.500    22812990.880
  22812990.320          48.450          44.450
 113649522.551 8  88558132.04047                  21626763.120
  21626760.180          49.950          43.900
 121743377.002 7  94864957.19746                  23166998.180
  23166996.080          46.550          40.250
 129997448.166 7 101296723.162 6                  24737688.040    24737689.860
  24737689.300          45.600          38.950
 117498556.637 8  91557442.16647                  22359169.920
  22359167.960          49.750          42.050
 130426280.785 7 101630879.354 7  97396265.638 7  24819293.940    24819296.780
  24819296.340          44.350          42.050
 116526750.051 8  90800077.98647                  22174300.700
  22174299.320          49.950          44.750
 107892743.372 8  84072283.714 8                  20531291.960    20531289.620
  20531288.880          49.550          49.700
 103587524.940 7  80568168.721 7                  19432714.900    19432722.260
  19432721.580          43.650          42.900
 111262034.256 8  86537182.527 7                  20813851.020    20813855.340
  20813854.920          49.750          46.900
 130200353.508 6 101266978.653 5                  24331050.120    24331057.380
  24331055.960          39.950          33.750
 124048184.384 6  96482015.357 6                  23230215.300    23230221.840
  23230220.500          38.850          41.400
 119855921.194 7  93221287.798 7                  22390094.840    22390099.480
  22390098.160          45.850          43.250
 103638037.606 8  80607404.628 8                  19353661.020    19353663.040
  19353661.940          49.300          48.400
 106552614.854 8  82874404.067 7                  19939815.820    19939823.020
  19939821.000          48.150          47.200
 15  1 27 15  1 35.0000000  0 16G30G07G13G02G15G28G09G10G05R14R05R21
                                R13R03R04R15
 109696106.550 8  85477577.005 8  81916025.098 8  20874440.520    20874440.620
  20874440.000          50.550          49.200
 119897698.972 8  93426846.707 7                  22815750.460    22815748.800
  22815748.300          48.100          43.900
 113640022.753 8  88550729.61047                  21624955.360
  21624952.380          49.950          43.300
 121757699.971 7  94876117.94046                  23169723.780
  23169721.680          46.350          39.550
 129982999.854 7 101285464.732 6                  24734938.620    24734940.380
  24734939.840          45.200          38.850
 117487937.335 8  91549167.41046                  22357149.100
  22357147.160          49.650          41.600
 130440078.388 7 101641630.732 6  97406569.009 7  24821919.520    24821922.380
  24821921.980          44.700          41.700
 116541861.775 8  90811853.35047                  22177176.400
  22177175.020          49.800          44.150
 107889490.040 8  84069748.653 8                  20530672.880    20530670.540
  20530669.780          49.550          49.250
 103594535.861 7  80573621.673 6                  19434030.180    19434037.460
  19434036.820          43.350          41.950
 111247136.550 8  86525595.430 7                  20811064.140    20811068.380
  20811067.940          49.300          46.200
 130205619.367 6 101271074.277 5                  24332034.300    24332041.240
  24332040.000          38.200          31.650
 124068809.566 6  96498057.157 6                  23234077.780    23234084.320
  23234082.980          38.700          41.000
 119872260.927 7  93233996.463 7                  22393147.260    22393151.920
  22393150.580          45.450          42.300
 103639826.236 8  80608795.784 7                  19353995.040    19353997.040
  19353996.000          49.250          47.850
 106539995.842 8  82864589.292 7                  19937454.380    19937461.560
  19937459.520          48.300          46.650
 15  1 27 15  1 40.0000000  0 16G30G07G13G02G15G28G09G10G05R14R05R21
                                R13R03R04R15
 109704507.084 8  85484122.884 8  81922298.232 8  20876039.100    20876039.180
  20876038.540          50.500          49.250
 119912196.816 8  93438143.719 7                  22818509.320    22818507.620
  22818507.120          48.000          44.000
 113630527.981 8  88543331.09547                  21623148.560
  21623145.560          49.850          43.300
 121772027.954 7  94887282.56746                  23172450.300
  23172448.280          46.350          40.500
 129968552.374 7 101274206.976 6                  24732189.340    24732191.060
  24732190.580          45.050          39.250
 117477328.462 8  91540900.77246                  22355130.260
  22355128.320          49.650          41.700
 130453877.525 7 101652383.293 7  97416873.540 8  24824545.360    24824548.320
  24824547.980          44.100          42.250
 116556981.745 8  90823635.12847                  22180053.680
  22180052.260          49.800          44.150
 107886251.033 8  84067224.753 8                  20530056.500    20530054.180
  20530053.420          49.550          49.400
 103601565.853 7  80579089.448 7                  19435348.960    19435356.320
  19435355.600          43.350          42.200
 111232245.935 8  86514013.837 7                  20808278.580    20808282.720
  20808282.280          49.400          46.350
 130210903.119 6 101275183.902 4                  24333021.720    24333028.420
  24333027.280          37.650          29.900
 124089438.708 6  96514102.029 6                  23237941.000    23237947.540
  23237946.200          38.150          40.800
 119888609.672 7  93246712.140 7                  22396201.360    22396206.000
  22396204.680          45.550          42.350
 103641630.524 8  80610199.105 7                  19354332.000    19354333.940
  19354332.960          49.050          47.850
 106527394.609 8  82854788.339 7                  19935096.280    19935103.380
  19935101.360          48.250          46.850
 15  1 27 15  1 45.0000000  0 16G30G07G13G02G15G28G09G10G05R14R05R21
                                R13R03R04R15
 109712917.768 8  85490676.677 8  81928578.934 8  20877639.640    20877639.680
  20877639.020          50.400          49.050
 119926698.260 8  93449443.533 7                  22821268.860    22821267.160
  22821266.680          48.050          43.800
 113621037.182 8  88535935.67947                  21621342.520
  21621339.520          49.750          43.500
 121786359.831 7  94898450.24346                  23175177.540
  23175175.600          46.400          40.150
 129954104.600 7 101262948.989 6                  24729440.020    24729441.740
  24729441.200          44.700          39.300
 117466728.971 8  91532641.44946                  22353113.240
  22353111.320          49.450          41.750
 130467677.146 7 101663136.227 7  97427178.436 7  24827171.280    24827174.420
  24827174.140          43.700          42.050
 116572108.864 8  90835422.48947                  22182932.300
  22182930.840          49.700          43.550
 107883025.295 8  84064711.193 8                  20529442.660    20529440.340
  20529439.600          49.400          49.150
 103608613.950 7  80584571.305 6                  19436671.200    19436678.460
  19436677.820          43.600          41.500
 111217361.409 8  86502436.993 7                  20805494.160    20805498.240
  20805497.800          49.700          45.800
 130216203.694 6 101279306.580 5                  24334012.300    24334018.780
  24334017.660          37.850          30.350
 124110070.528 6  96530148.989 6                  23241804.720    23241811.240
  23241809.880          38.600          40.150
 119904966.284 7  93259433.932 6                  22399256.900    22399261.580
  22399260.260          45.650          41.800
 103643449.503 8  80611613.870 7                  19354671.680    19354673.600
  19354672.660          49.150          47.250
 106514810.171 8  82845000.466 7                  19932741.300    19932748.380
  19932746.340          48.350          45.950
 15  1 27 15  1 50.0000000  0 16G30G07G13G02G15G28G09G10G05R14R05R21
                                R13R03R04R15
 109721341.233 8  85497240.421 8  81934869.193 8  20879242.580    20879242.620
  20879241.920          50.550          49.200
 119941205.926 8  93460748.207 7                  22824029.580    22824027.880
  22824027.400          48.000          44.050
 113611552.981 8  88528545.40947                  21619537.740
  21619534.720          49.900          42.950
 121800698.285 7  94909623.02946                  23177906.060
  23177904.160          46.650          39.700
 129939659.272 7 101251692.891 6                  24726691.140    24726692.860
  24726692.360          44.150          39.850
 117456141.509 8  91524391.49746                  22351098.520
  22351096.580          49.650          41.700
 130481479.903 7 101673891.597 7  97437485.665 8  24829797.800    24829801.060
  24829800.820          43.550          42.600
 116587245.801 8  90847217.49347                  22185812.760
  22185811.300          49.650          44.400
 107879815.485 8  84062210.047 8                  20528831.860    20528829.500
  20528828.780          49.350          49.350
 103615682.734 7  80590069.251 6                  19437997.320    19438004.500
  19438003.900          43.650          41.550
 111202485.620 8  86490866.941 7                  20802711.360    20802715.400
  20802714.940          49.400          45.950
 130221523.719 6 101283444.375 5                  24335006.500    24335012.940
  24335011.700          38.350          30.350
 124130707.717 6  96546200.136 6                  23245669.500    23245675.900
  23245674.560          38.250          40.050
 119921333.375 7  93272163.879 7                  22402314.440    22402319.100
  22402317.840          45.150          42.150
 103645285.858 8  80613042.151 7                  19355014.620    19355016.560
  19355015.560          49.150          47.100
 106502245.176 8  82835227.698 7                  19930390.000    19930397.000
  19930394.960          48.000          46.200
 15  1 27 15  1 55.0000000  0 16G30G07G13G02G15G28G09G10G05R14R05R21
                                R13R03R04R15
 109729775.436 8  85503812.540 8  81941167.474 8  20880847.560    20880847.580
  20880846.880          50.300          48.850
 119955717.785 8  93472056.149 7                  22826791.120    22826789.400
  22826788.940          48.250          43.650
 113602073.325 8  88521158.67547                  21617733.820
  21617730.800          50.050          42.800
 121815041.237 7  94920799.32146                  23180635.480
  23180633.620          47.200          38.950
 129925214.259 7 101240437.055 6                  24723942.280    24723944.100
  24723943.600          44.000          39.550
 117445564.013 8  91516149.31146                  22349085.700
  22349083.720          49.700          41.200
 130495283.718 7 101684647.803 7  97447793.686 7  24832424.480    24832427.940
  24832427.720          43.400          42.050
 116602390.467 8  90859018.52547                  22188694.700
  22188693.200          49.550          43.400
 107876619.559 8  84059719.723 8                  20528223.680    20528221.320
  20528220.620          49.400          49.100
 103622770.029 7  80595581.593 6                  19439326.840    19439334.020
  19439333.460          43.300          41.200
 111187616.534 8  86479302.099 7                  20799929.820    20799933.860
  20799933.320          49.400          45.400
 130226861.164 6 101287595.712 4                  24336003.920    24336010.200
  24336008.960          37.150          29.050
 124151348.203 6  96562253.841 6                  23249534.820    23249541.200
  23249539.880          38.200          39.400
 119937708.786 7  93284900.293 6                  22405373.460    22405378.200
  22405376.920          45.250          41.400
 103647137.452 8  80614482.277 7                  19355360.420    19355362.300
  19355361.300          49.150          46.600
 106489697.593 7  82825468.476 7                  19928041.900    19928048.880
  19928046.840          47.850          45.800
 15  1 27 15  2  0.0000000  0 16G30G07G13G02G15G28G09G10G05R14R05R21
                                R13R03R04R15
 109738221.815 8  85510394.132 8  81947474.829 8  20882454.880    20882454.840
  20882454.160          50.300          48.600
 119970235.275 8  93483368.477 7                  22829553.700    22829552.020
  22829551.520          48.450          43.650
 113592599.681 8  88513776.61847                  21615931.040
  21615928.040          50.050          42.000
 121829390.116 7  94931980.24346                  23183365.980
  23183364.100          47.400          38.550
 129910771.067 7 101229182.633 6                  24721193.800    24721195.640
  24721195.200          43.900          39.050
 117434997.940 8  91507916.02146                  22347075.040
  22347073.020          49.850          40.900
 130509090.041 7 101695405.953 6  97458103.595 7  24835051.680    24835055.260
  24835055.160          43.900          41.550
 116617544.300 8  90870826.69647                  22191578.340
  22191576.860          49.450          43.250
 107873438.915 8  84057241.299 8                  20527618.420    20527616.080
  20527615.360          49.650          48.800
 103629877.279 7  80601109.456 6                  19440660.100    19440667.340
  19440666.740          43.050          41.550
 111172755.616 8  86467743.616 7                  20797149.780    20797153.800
  20797153.280          49.650          45.850
 130232217.465 5 101291761.706 4                  24337004.900    24337011.160
  24337009.800          34.700          29.000
 124171993.463 6  96578311.247 6                  23253401.020    23253407.400
  23253406.100          38.000          40.650
 119954094.174 7  93297644.457 6                  22408434.340    22408439.140
  22408437.840          45.250          41.850
 103649005.796 8  80615935.429 7                  19355709.300    19355711.220
  19355710.180          48.900          47.100
 106477168.829 7  82815723.885 7                  19925697.380    19925704.300
  19925702.260          47.850          46.250
 15  1 27 15  2  5.0000000  0 16G30G07G13G02G15G28G09G10G05R14R05R21
                                R13R03R04R15
 109746677.353 8  85516982.857 8  81953789.030 8  20884063.920    20884063.880
  20884063.180          50.200          49.650
 119984755.401 8  93494682.849 7                  22832316.780    22832315.140
  22832314.640          48.250          45.000
 113583129.046 8  88506396.90547                  21614128.840
  21614125.840          50.000          43.750
 121843741.915 7  94943163.42246                  23186097.060
  23186095.180          47.650          40.550
 129896326.654 7 101217927.262 6                  24718445.100    24718446.940
  24718446.560          44.200          40.350
 117424440.295 8  91499689.29947                  22345066.000
  22345063.920          49.950          42.100
 130522895.902 7 101706163.744 7  97468413.151 7  24837678.860    24837682.420
  24837682.420          43.800          42.700
 116632704.325 8  90882639.68547                  22194463.200
  22194461.680          49.550          44.050
 107870270.601 8  84054772.483 8                  20527015.500    20527013.160
  20527012.440          49.650          49.700
 103637001.571 7  80606650.574 7                  19441996.600    19442003.840
  19442003.200          43.100          42.000
 111157899.820 8  86456189.122 7                  20794370.740    20794374.740
  20794374.240          49.300          46.300
 130237589.532 6 101295940.026 5                  24338008.820    24338015.080
  24338013.740          37.550          31.850
 124192640.555 6  96594370.084 6                  23257267.640    23257273.960
  23257272.660          37.900          41.000
 119970486.319 7  93310393.884 6                  22411496.520    22411501.300
  22411500.020          45.350          41.850
 103650887.883 8  80617399.269 7                  19356060.780    19356062.700
  19356061.600          48.750          47.500
 106464655.841 7  82805991.568 7                  19923355.780    19923362.620
  19923360.620          47.950          46.200
 15  1 27 15  2 10.0000000  0 16G30G07G13G02G15G28G09G10G05R14R05R21
                                R13R03R04R15
 109755144.616 8  85523580.720 8  81960111.986 8  20885675.200    20885675.120
  20885674.440          50.050          49.300
 119999280.694 8  93506001.247 7                  22835080.860    22835079.240
  22835078.700          48.100          44.150
 113573663.978 8  88499021.54847                  21612327.680
  21612324.720          49.800          43.250
 121858099.166 7  94954350.86446                  23188829.200
  23188827.280          47.650          40.000
 129881883.599 7 101206672.958 6                  24715696.660    24715698.520
  24715698.140          44.100          39.650
 117413893.670 8  91491471.16646                  22343059.060
  22343056.940          49.850          41.450
 130536703.826 7 101716923.161 6  97478724.261 7  24840306.460    24840309.980
  24840310.020          44.650          41.400
 116647873.072 8  90894459.48547                  22197349.700
  22197348.200          49.550          44.150
 107867117.123 8  84052315.233 8                  20526415.420    20526413.080
  20526412.380          49.700          49.400
 103644145.447 7  80612206.931 6                  19443336.820    19443344.000
  19443343.320          43.100          41.100
 111143051.833 8  86444640.698 7                  20791593.120    20791597.160
  20791596.660          49.000          45.850
 130242979.971 5 101300132.555 5                  24339016.120    24339022.540
  24339021.280          33.850          32.350
 124213291.892 6  96610432.233 6                  23261135.040    23261141.280
  23261140.040          37.750          39.950
 119986887.966 7  93323150.723 6                  22414560.500    22414565.320
  22414563.960          44.750          41.800
 103652786.185 8  80618875.726 7                  19356415.280    19356417.160
  19356416.080          48.700          46.900
 106452161.314 7  82796273.616 7                  19921017.640    19921024.420
  19921022.420          47.950          45.850
 15  1 27 15  2 15.0000000  0 16G30G07G13G02G15G28G09G10G05R14R05R21
                                R13R03R04R15
 109763622.391 8  85530186.771 8  81966442.790 8  20887288.460    20887288.380
  20887287.680          50.150          49.000
 120013809.985 8  93517322.768 7                  22837845.680    22837844.020
  22837843.520          48.100          43.650
 113564203.303 8  88491649.59847                  21610527.360
  21610524.400          49.700          42.650
 121872460.679 7  94965541.62246                  23191562.140
  23191560.160          47.550          39.800
 129867440.783 7 101195418.832 6                  24712948.260    24712950.160
  24712949.800          44.700          39.200
 117403356.922 8  91483260.72746                  22341054.000
  22341051.820          49.800          41.400
 130550512.651 7 101727683.282 6  97489036.032 7  24842934.300    24842937.680
  24842937.780          45.550          41.450
 116663049.370 8  90906285.16847                  22200237.660
  22200236.140          49.350          43.800
 107863977.381 8  84049868.677 8                  20525817.940    20525815.620
  20525814.900          49.850          49.050
 103651307.602 7  80617777.489 6                  19444680.440    19444687.640
  19444686.900          43.000          40.700
 111128210.285 8  86433097.272 7                  20788816.700    20788820.800
  20788820.280          49.200          45.400
 130248387.586 6 101304338.431 5                  24340026.620    24340033.080
  24340032.080          37.550          32.450
 124233946.417 6  96626496.847 6                  23265003.000    23265009.240
  23265008.000          38.100          39.100
 120003297.809 7  93335913.907 6                  22417625.980    22417630.820
  22417629.460          45.100          40.950
 103654699.657 8  80620363.982 7                  19356772.620    19356774.500
  19356773.380          48.750          46.450
 106439684.102 7  82786569.127 7                  19918682.720    19918689.440
  19918687.440          47.850          45.450
 15  1 27 15  2 20.0000000  0 16G30G07G13G02G15G28G09G10G05R14R05R21
                                R13R03R04R15
 109772111.631 8  85536801.766 8  81972782.163 8  20888903.920    20888903.840
  20888903.120          50.300          49.150
 120028344.215 8  93528648.138 7                  22840611.460    22840609.800
  22840609.300          48.050          43.900
 113554747.936 8  88484281.79147                  21608728.020
  21608725.120          49.450          43.400
 121886827.357 7  94976736.42446                  23194296.040
  23194294.100          47.300          39.700
 129852999.097 7 101184165.590 6                  24710200.120    24710201.980
  24710201.600          44.500          39.350
 117392830.975 8  91475058.70846                  22339051.000
  22339048.760          49.800          41.350
 130564323.299 7 101738444.818 6  97499349.196 7  24845562.500    24845565.720
  24845565.940          45.100          41.150
 116678234.147 8  90918117.44347                  22203127.220
  22203125.700          49.350          43.950
 107860852.319 8  84047433.562 8                  20525223.260    20525220.940
  20525220.240          49.850          49.300
 103658488.968 7  80623362.998 6                  19446027.660    19446034.900
  19446034.100          43.000          40.400
 111113376.421 8  86421559.847 7                  20786041.720    20786045.840
  20786045.360          49.200          44.850
 130253813.394 6 101308558.496 5                  24341040.660    24341047.260
  24341046.160          38.100          31.500
 124254604.760 6  96642564.443 6                  23268871.680    23268877.860
  23268876.660          37.700          38.700
 120019716.859 7  93348684.267 6                  22420693.200    22420698.080
  22420696.660          45.800          40.850
 103656629.227 8  80621864.754 7                  19357132.920    19357134.800
  19357133.700          48.800          46.200
 106427225.099 7  82776878.804 7                  19916351.200    19916357.860
  19916355.880          47.850          44.950
 15  1 27 15  2 25.0000000  0 16G30G07G13G02G15G28G09G10G05R14R05R21
                                R13R03R04R15
 109780611.277 8  85543424.872 8  81979129.296 8  20890521.360    20890521.260
  20890520.540          50.200          48.950
 120042882.341 8  93539976.542 7                  22843378.000    22843376.340
  22843375.820          48.000          43.800
 113545296.852 8  88476917.32147                  21606929.480
  21606926.640          49.350          42.700
 121901198.166 7  94987934.43746                  23197030.740
  23197028.780          47.050          39.700
 129838557.476 7 101172912.394 6                  24707451.960    24707453.760
  24707453.480          43.700          38.400
 117382314.777 8  91466864.28246                  22337049.860
  22337047.540          49.750          41.500
 130578134.765 7 101749206.999 6  97509662.931 7  24848190.780    24848193.940
  24848194.160          45.050          41.050
 116693426.321 8  90929955.49547                  22206018.180
  22206016.680          49.350          43.950
 107857740.873 8  84045009.061 8                  20524631.180    20524628.860
  20524628.160          49.800          49.150
 103665688.663 7  80628962.765 6                  19447378.320    19447385.520
  19447384.720          42.900          40.350
 111098549.017 8  86410027.441 7                  20783267.960    20783272.080
  20783271.620          48.950          44.900
 130259256.190 6 101312791.811 4                  24342057.720    24342064.520
  24342063.360          36.050          29.200
 124275266.249 6  96658634.473 6                  23272740.960    23272747.040
  23272745.900          37.650          38.300
 120036143.976 7  93361460.899 6                  22423761.920    22423766.820
  22423765.400          45.550          41.000
 103658573.825 8  80623377.220 7                  19357496.040    19357497.920
  19357496.840          48.650          46.050
 106414783.274 7  82767201.833 7                  19914022.920    19914029.520
  19914027.540          47.600          45.050
 15  1 27 15  2 30.0000000  0 16G30G07G13G02G15G28G09G10G05R14R05R21
                                R13R03R04R15
 109789123.252 8  85550057.584 8  81985485.639 8  20892141.140    20892141.020
  20892140.300          50.400          49.050
 120057426.259 8  93551309.456 7                  22846145.640    22846143.980
  22846143.460          48.050          44.000
 113535852.024 8  88469557.72047                  21605132.140
  21605129.360          49.400          43.300
 121915575.042 7  94999137.16046                  23199766.620
  23199764.640          46.950          39.650
 129824117.963 7 101161660.835 6                  24704704.180    24704706.000
  24704705.720          43.300          38.950
 117371810.337 8  91458679.01046                  22335050.940
  22335048.540          49.700          40.900
 130591948.955 7 101759971.285 6  97519978.717 7  24850819.620    24850822.740
  24850822.960          45.300          41.700
 116708627.859 8  90941800.84147                  22208910.920
  22208909.440          49.400          44.350
 107854645.000 8  84042596.690 8                  20524042.060    20524039.740
  20524039.040          49.850          49.200
 103672908.540 7  80634578.227 7                  19448732.760    19448739.960
  19448739.160          42.900          42.000
 111083730.043 8  86398501.572 7                  20780495.740    20780499.840
  20780499.420          49.200          46.300
 130264718.047 6 101317039.890 5                  24343078.500    24343085.260
  24343084.120          36.100          31.800
 124295932.546 6  96674708.262 6                  23276611.060    23276617.260
  23276616.060          37.900          40.200
 120052581.189 7  93374245.371 7                  22426832.540    22426837.420
  22426836.040          45.650          42.350
 103660535.473 8  80624902.938 7                  19357862.360    19357864.240
  19357863.140          48.750          47.300
 106402360.595 7  82757539.755 7                  19911698.180    19911704.760
  19911702.780          47.600          46.350
 15  1 27 15  2 35.0000000  0 16G30G07G13G02G15G28G09G10G05R14R05R21
                                R13R03R04R15
 109797646.302 8  85556698.919 8  81991850.266 8  20893763.000    20893762.900
  20893762.160          50.500          48.950
 120071974.685 8  93562645.882 7                  22848914.160    22848912.400
  22848911.940          48.300          43.650
 113526412.183 8  88462202.01147                  21603335.760
  21603333.020          49.450          42.700
 121929956.710 7  95010343.63046                  23202503.360
  23202501.400          46.950          39.100
 129809679.251 7 101150409.908 6                  24701956.520    24701958.460
  24701958.100          43.650          38.950
 117361316.325 8  91450501.86846                  22333054.020
  22333051.580          49.800          40.850
 130605764.606 7 101770736.719 6  97530295.611 7  24853448.760    24853451.800
  24853452.040          44.700          41.250
 116723837.492 8  90953652.48947                  22211805.220
  22211803.720          49.750          43.350
 107851563.456 8  84040195.484 8                  20523455.660    20523453.340
  20523452.660          49.850          49.100
 103680147.236 7  80640208.320 6                  19450090.760    19450097.920
  19450097.100          43.050          41.300
 111068918.350 8  86386981.364 7                  20777724.920    20777729.000
  20777728.560          49.150          45.900
 130270197.568 5 101321301.672 5                  24344102.600    24344109.140
  24344108.060          34.600          30.550
 124316602.639 6  96690784.983 6                  23280481.920    23280488.160
  23280486.900          38.050          40.050
 120069027.152 7  93387036.659 6                  22429904.820    22429909.700
  22429908.360          45.800          41.950
 103662512.863 8  80626440.905 7                  19358231.640    19358233.520
  19358232.400          49.000          47.050
 106389955.783 7  82747891.559 7                  19909376.760    19909383.360
  19909381.380          47.600          46.200
 15  1 27 15  2 40.0000000  0 16G30G07G13G02G15G28G09G10G05R14R05R21
                                R13R03R04R15
 109806179.447 8  85563348.133 8  81998222.424 8  20895386.820    20895386.700
  20895385.940          50.450          49.350
 120086526.685 8  93573985.099 7                  22851683.360    22851681.560
  22851681.100          48.050          44.150
 113516976.378 8  88454849.45247                  21601540.160
  21601537.460          49.350          43.850
 121944342.159 7  95021553.05946                  23205240.860
  23205238.920          46.750          40.250
 129795240.390 7 101139158.883 6                  24699208.880    24699210.820
  24699210.460          43.700          39.600
 117350831.854 8  91442332.17147                  22331058.900
  22331056.420          49.600          42.350
 130619580.814 7 101781502.579 6  97540612.882 7  24856077.880    24856080.960
  24856081.220          43.750          41.650
 116739054.236 8  90965509.68747                  22214700.880
  22214699.360          49.600          44.150
 107848495.287 8  84037804.712 8                  20522871.800    20522869.500
  20522868.820          49.750          49.750
 103687403.824 7  80645852.346 6                  19451452.020    19451459.240
  19451458.400          43.050          41.800
 111054112.941 8  86375466.058 7                  20774955.280    20774959.280
  20774958.860          49.250          46.250
 130275693.806 6 101325576.563 4                  24345129.700    24345136.300
  24345135.140          36.800          29.850
 124337275.173 6  96706863.622 6                  23284353.160    23284359.580
  23284358.220          38.050          40.800
 120085480.941 7  93399834.035 7                  22432978.560    22432983.420
  22432982.100          45.650          42.400
 103664504.951 8  80627990.316 7                  19358603.640    19358605.500
  19358604.400          49.150          47.450
 106377567.883 7  82738256.549 7                  19907058.500    19907065.140
  19907063.160          47.850          46.550
 15  1 27 15  2 45.0000000  0 16G30G07G13G02G15G28G09G10G05R14R05R21
                                R13R03R04R15
 109814723.872 8  85570006.135 8  82004603.004 8  20897012.780    20897012.640
  20897011.900          50.700          49.250
 120101083.417 8  93585328.005 7                  22854453.440    22854451.660
  22854451.160          48.100          43.750
 113507545.773 8  88447500.93647                  21599745.520
  21599742.840          49.350          43.550
 121958732.609 7  95032766.38446                  23207979.280
  23207977.360          46.450          39.800
 129780802.500 7 101127908.613 6                  24696461.460    24696463.320
  24696462.980          44.050          39.450
 117340358.164 8  91434170.87046                  22329065.820
  22329063.300          49.700          41.050
 130633398.717 7 101792269.756 6  97550931.426 7  24858707.320    24858710.340
  24858710.600          43.850          40.500
 116754279.308 8  90977373.37447                  22217598.120
  22217596.620          49.600          44.250
 107845441.660 8  84035425.264 8                  20522290.720    20522288.420
  20522287.740          49.800          49.550
 103694679.563 7  80651511.259 6                  19452816.920    19452824.180
  19452823.320          43.000          41.400
 111039314.957 8  86363956.517 7                  20772187.080    20772190.980
  20772190.560          49.650          46.300
 130281208.132 5 101329865.456 5                  24346160.140    24346166.800
  24346165.560          31.950          31.150
 124357951.670 6  96722945.335 6                  23288225.180    23288231.600
  23288230.300          38.500          40.800
 120101943.769 7  93412638.442 7                  22436053.980    22436058.880
  22436057.540          45.400          42.500
 103666513.003 8  80629552.132 7                  19358978.640    19358980.500
  19358979.380          48.950          47.200
 106365198.157 8  82728635.662 7                  19904743.620    19904750.280
  19904748.340          48.150          46.300
 15  1 27 15  2 50.0000000  0 16G30G07G13G02G15G28G09G10G05R14R05R21
                                R13R03R04R15
 109823279.199 8  85576672.627 8  82010991.732 8  20898640.800    20898640.680
  20898639.900          50.550          49.800
 120115644.503 8  93596674.304 7                  22857224.360    22857222.500
  22857222.060          48.350          43.800
 113498119.992 8  88440156.17647                  21597951.800
  21597949.140          49.200          44.650
 121973127.686 7  95043983.29846                  23210718.580
  23210716.660          46.650          40.850
 129766365.299 7 101116658.874 6                  24693714.180    24693716.000
  24693715.600          44.200          39.800
 117329894.858 8  91426017.65747                  22327074.720
  22327072.180          49.650          42.300
 130647217.978 7 101803038.003 6  97561250.951 7  24861337.020    24861339.940
  24861340.100          42.900          40.500
 116769512.308 8  90989243.23247                  22220496.880
  22220495.380          49.750          44.300
 107842402.260 8  84033056.899 8                  20521712.340    20521710.060
  20521709.360          49.750          49.900
 103701973.939 7  80657184.674 7                  19454185.320    19454192.540
  19454191.720          43.300          42.650
 111024524.122 8  86352452.545 7                  20769420.180    20769424.060
  20769423.620          49.450          46.750
 130286739.846 5 101334167.954 5                  24347194.040    24347200.480
  24347199.340          34.000          31.550
 124378631.503 6  96739029.653 6                  23292097.900    23292104.260
  23292103.000          38.400          41.700
 120118415.145 7  93425449.502 7                  22439131.000    22439135.920
  22439134.540          45.400          43.050
 103668536.774 8  80631126.176 7                  19359356.540    19359358.400
  19359357.280          48.700          47.800
 106352846.154 7  82719028.571 7                  19902432.080    19902438.680
  19902436.820          47.800          46.850
 15  1 27 15  2 55.0000000  0 16G30G07G13G02G15G28G09G10G05R14R05R21
                                R13R03R04R15
 109831846.042 8  85583348.079 8  82017389.036 8  20900271.020    20900270.880
  20900270.120          50.200          49.450
 120130210.560 8  93608024.480 7                  22859996.220    22859994.320
  22859993.900          48.450          43.450
 113488699.658 8  88432815.66447                  21596159.120
  21596156.480          49.100          43.650
 121987527.917 7  95055204.23246                  23213458.820
  23213456.920          46.800          40.050
 129751929.349 7 101105410.111 6                  24690967.160    24690968.900
  24690968.480          44.750          39.650
 117319442.518 8  91417872.98747                  22325085.680
  22325083.160          49.700          42.100
 130661039.163 7 101813807.743 6  97571571.936 7  24863967.100    24863969.920
  24863970.120          42.800          39.250
 116784753.840 8  91001119.74047                  22223397.260
  22223395.760          49.750          44.400
 107839377.662 8  84030700.071 8                  20521136.800    20521134.520
  20521133.800          49.600          49.650
 103709287.621 7  80662873.093 7                  19455557.340    19455564.580
  19455563.760          42.950          42.200
 111009741.009 8  86340954.570 7                  20766654.740    20766658.560
  20766658.100          49.150          46.200
 130292289.839 5 101338484.587 4                  24348231.160    24348237.520
  24348236.600          34.800          29.900
 124399315.366 6  96755117.081 6                  23295971.400    23295977.720
  23295976.480          37.800          41.650
 120134895.895 7  93438267.838 7                  22442209.740    22442214.740
  22442213.340          45.850          42.600
 103670576.691 8  80632712.771 7                  19359737.500    19359739.340
  19359738.200          48.700          47.250
 106340512.474 7  82709435.722 7                  19900123.980    19900130.620
  19900128.720          47.100          46.600
 15  1 27 15  3  0.0000000  0 16G30G07G13G02G15G28G09G10G05R14R05R21
                                R13R03R04R15
 109840424.188 8  85590032.345 8  82023794.799 8  20901903.380    20901903.240
  20901902.480          50.150          48.400
 120144781.418 8  93619378.399 7                  22862768.980    22862767.040
  22862766.680          48.400          42.000
 113479284.634 8  88425479.29247                  21594367.460
  21594364.820          49.150          42.450
 122001933.142 7  95066429.05546                  23216200.020
  23216198.200          47.150          38.500
 129737494.500 7 101094162.201 6                  24688220.340    24688222.040
  24688221.520          44.550          38.400
 117309001.031 8  91409736.77946                  22323098.680
  22323096.220          49.550          40.650
 130674862.124 7 101824578.898 6  97581894.279 7  24866597.500    24866600.160
  24866600.340          43.200          38.000
 116800003.761 8  91013002.79147                  22226299.240
  22226297.740          49.550          43.200
 107836367.711 8  84028354.659 8                  20520564.020    20520561.740
  20520561.040          49.500          48.800
 103716620.519 7  80668576.458 6                  19456932.900    19456940.240
  19456939.400          42.750          41.350
 110994965.538 8  86329462.539 7                  20763890.720    20763894.500
  20763894.020          49.100          45.650
 130297857.709 5 101342815.142 4                  24349271.640    24349278.140
  24349277.200          34.050          29.350
 124420003.151 6  96771207.563 6                  23299845.500    23299851.900
  23299850.700          38.200          40.650
 120151385.627 7  93451093.167 6                  22445290.160    22445295.200
  22445293.780          45.650          41.550
 103672632.720 8  80634311.897 7                  19360121.460    19360123.240
  19360122.140          48.800          46.600
 106328197.014 7  82699857.036 7                  19897819.240    19897825.960
  19897824.020          46.800          45.750
 15  1 27 15  3  5.0000000  0 16G30G07G13G02G15G28G09G10G05R14R05R21
                                R13R03R04R15
 109849012.214 8  85596724.311 8  82030207.933 8  20903537.600    20903537.500
  20903536.700          50.050          48.450
 120159355.594 7  93630734.900 7                  22865542.360    22865540.440
  22865540.060          47.950          42.000
 113469873.464 8  88418145.92147                  21592576.520
  21592573.880          49.300          42.400
 122016341.978 7  95077656.68946                  23218941.940
  23218940.220          47.150          38.250
 129723059.306 7 101082914.024 6                  24685473.440    24685475.120
  24685474.560          44.350          38.350
 117298568.942 8  91401607.89346                  22321113.480
  22321111.060          49.250          40.850
 130688685.421 7 101835350.284 6  97592216.856 7  24869227.920    24869230.580
  24869230.700          42.650          38.900
 116815260.569 8  91024891.19247                  22229202.540
  22229201.040          49.450          43.400
 107833370.983 8  84026019.546 8                  20519993.780    20519991.500
  20519990.780          49.600          48.750
 103723971.008 7  80674293.505 6                  19458311.800    19458319.220
  19458318.340          42.600          40.850
 110980196.099 8  86317975.206 7                  20761127.860    20761131.560
  20761131.080          48.950          45.600
 130303442.159 6 101347158.611 4                  24350315.260    24350321.860
  24350320.820          37.650          28.650
 124440693.395 6  96787299.971 6                  23303720.160    23303726.480
  23303725.340          38.100          40.700
 120167882.984 7  93463924.424 6                  22448372.020    22448377.020
  22448375.640          45.600          40.850
 103674703.342 8  80635922.383 7                  19360508.140    19360509.880
  19360508.800          48.900          46.550
 106315898.346 7  82690291.406 7                  19895517.660    19895524.380
  19895522.460          47.300          45.600
 15  1 27 15  3 10.0000000  0 16G30G07G13G02G15G28G09G10G05R14R05R21
                                R13R03R04R15
 109857611.993 8  85603425.438 8  82036629.832 8  20905174.080    20905173.980
  20905173.160          50.100          48.600
 120173934.972 7  93642095.457 7                  22868316.740    22868314.800
  22868314.400          47.650          42.050
 113460468.047 8  88410817.03447                  21590786.700
  21590784.060          49.300          43.000
 122030756.231 7  95088888.52946                  23221684.860
  23221683.220          47.050          39.300
 129708625.694 7 101071667.075 6                  24682726.800    24682728.460
  24682727.840          44.550          38.550
 117288148.144 8  91393487.80946                  22319130.400
  22319128.020          49.100          41.750
 130702510.949 7 101846123.386 6  97602541.070 7  24871858.800    24871861.500
  24871861.680          43.350          38.850
 116830526.150 8  91036786.44447                  22232107.500
  22232106.000          49.450          43.400
 107830389.338 8  84023696.189 8                  20519426.380    20519424.140
  20519423.400          49.550          48.950
 103731341.030 7  80680025.747 7                  19459694.340    19459701.820
  19459700.940          42.800          42.350
 110965434.804 8  86306494.213 7                  20758366.440    20758370.160
  20758369.660          48.700          46.700
 130309044.975 5 101351516.315 4                  24351362.360    24351368.680
  24351367.780          35.650          29.200
 124461387.703 6  96803395.529 6                  23307595.480    23307601.900
  23307600.760          38.600          41.850
 120184389.809 7  93476763.057 7                  22451455.640    22451460.700
  22451459.280          45.900          42.750
 103676790.478 8  80637545.711 7                  19360897.880    19360899.660
  19360898.560          48.700          47.800
 106303618.381 7  82680740.335 7                  19893219.640    19893226.300
  19893224.400          47.700          46.800
 15  1 27 15  3 15.0000000  0 16G30G07G13G02G15G28G09G10G05R14R05R21
                                R13R03R04R15
 109866222.193 8  85610134.682 8  82043059.531 8  20906812.560    20906812.440
  20906811.620          50.450          48.700
 120188518.276 7  93653459.066 7                  22871091.840    22871089.880
  22871089.500          47.600          42.250
 113451067.069 8  88403491.60447                  21588997.740
  21588995.100          49.350          43.000
 122045174.606 7  95100123.58546                  23224428.580
  23224427.000          47.100          39.950
 129694192.330 7 101060420.313 6                  24679980.180    24679981.860
  24679981.200          44.550          38.500
 117277737.367 8  91385375.53046                  22317149.220
  22317146.920          49.050          41.050
 130716337.357 7 101856897.235 6  97612865.992 7  24874489.960    24874492.600
  24874492.720          44.200          39.100
 116845799.240 8  91048687.54747                  22235013.920
  22235012.400          49.850          43.200
 107827421.499 8  84021383.583 8                  20518861.600    20518859.360
  20518858.640          49.550          49.100
 103738729.262 7  80685772.155 7                  19461080.340    19461087.880
  19461086.940          43.050          42.100
 110950680.268 8  86295018.487 7                  20755606.300    20755610.040
  20755609.480          48.750          45.900
 130314664.893 5 101355887.400 5                  24352412.480    24352419.060
  24352418.020          33.950          31.000
 124482084.995 6  96819493.426 6                  23311471.480    23311477.820
  23311476.720          38.250          41.200
 120200904.826 7  93489608.048 7                  22454540.820    22454545.840
  22454544.480          45.500          42.350
 103678892.839 8  80639180.884 7                  19361290.500    19361292.260
  19361291.180          48.750          47.600
 106291355.816 7  82671202.800 7                  19890924.820    19890931.460
  19890929.600          47.750          46.400
 15  1 27 15  3 20.0000000  0 16G30G07G13G02G15G28G09G10G05R14R05R21
                                R13R03R04R15
 109874843.441 8  85616852.548 8  82049497.487 8  20908453.140    20908453.000
  20908452.160          50.600          48.900
 120203106.066 7  93664826.177 7                  22873867.780    22873865.860
  22873865.500          47.850          43.000
 113441671.187 8  88396170.14147                  21587209.760
  21587207.120          49.350          43.100
 122059597.673 7  95111362.30746                  23227173.200
  23227171.700          47.250          39.300
 129679759.834 7 101049174.238 6                  24677233.720    24677235.420
  24677234.740          45.050          39.100
 117267337.247 8  91377271.55046                  22315170.080
  22315167.840          49.050          41.550
 130730165.326 7 101867672.284 6  97623192.070 7  24877121.360    24877123.980
  24877124.080          43.650          40.450
 116861080.434 8  91060594.97147                  22237921.860
  22237920.320          49.650          44.000
 107824468.091 8  84019082.225 8                  20518299.580    20518297.360
  20518296.640          49.350          49.300
 103746136.298 7  80691533.189 7                  19462469.880    19462477.440
  19462476.480          43.150          42.000
 110935933.273 8  86283548.611 7                  20752847.560    20752851.280
  20752850.680          48.850          45.700
 130320302.619 5 101360272.207 4                  24353466.060    24353472.480
  24353471.420          35.550          27.950
 124502785.922 6  96835594.140 6                  23315348.120    23315354.420
  23315353.380          38.100          41.050
 120217428.615 7  93502459.862 6                  22457627.660    22457632.660
  22457631.320          45.250          41.850
 103681011.020 8  80640828.359 7                  19361686.040    19361687.820
  19361686.760          48.900          47.300
 106279111.218 7  82661679.237 7                  19888633.380    19888640.020
  19888638.140          47.650          46.050
 15  1 27 15  3 25.0000000  0 16G30G07G13G02G15G28G09G10G05R14R05R21
                                R13R03R04R15
 109883476.043 8  85623579.261 8  82055943.911 8  20910095.880    20910095.720
  20910094.900          50.400          48.900
 120217698.650 7  93676197.018 7                  22876644.600    22876642.720
  22876642.380          47.750          43.150
 113432280.691 8  88388852.88147                  21585422.820
  21585420.160          49.450          43.100
 122074025.738 7  95122604.92646                  23229918.800
  23229917.300          46.850          40.050
 129665328.509 7 101037929.078 6                  24674487.500    24674489.200
  24674488.560          45.150          39.250
 117256948.065 8  91369176.09946                  22313193.000
  22313190.860          48.900          41.300
 130743995.145 7 101878448.733 6  97633519.515 7  24879753.080    24879755.800
  24879755.880          43.300          41.700
 116876370.002 8  91072508.91047                  22240831.400
  22240829.840          49.550          43.600
 107821529.433 8  84016792.366 8                  20517740.380    20517738.160
  20517737.440          49.100          49.300
 103753562.558 7  80697309.171 6                  19463863.020    19463870.540
  19463869.660          42.650          41.950
 110921193.900 8  86272084.655 7                  20750090.220    20750093.920
  20750093.320          48.650          45.650
 130325958.224 5                                  24354522.760
                        34.700
 124523490.573 6  96851697.747 6                  23319225.460    23319231.760
  23319230.740          38.050          40.800
 120233961.474 7  93515318.748 6                  22460716.180    22460721.100
  22460719.800          44.850          41.350
 103683145.350 8  80642488.391 7                  19362084.620    19362086.400
  19362085.360          48.900          47.150
 106266884.930 7  82652169.916 7                  19886345.360    19886352.000
  19886350.100          46.950          45.950
 15  1 27 15  3 30.0000000  0 16G30G07G13G02G15G28G09G10G05R14R05R21
                                R13R03R04R15
 109892119.617 8  85630314.514 8  82062398.534 8  20911740.700    20911740.560
  20911739.720          50.450          49.350
 120232295.704 7  93687571.347 7                  22879422.300    22879420.440
  22879420.080          47.550          43.950
 113422895.213 8  88381539.52847                  21583636.820
  21583634.140          49.650          43.700
 122088458.425 7  95133851.14346                  23232665.280
  23232663.780          46.700          40.950
 129650897.987 7 101026684.550 6                  24671741.460    24671743.180
  24671742.540          45.000          39.450
 117246569.520 8  91361088.93747                  22311217.940
  22311215.920          49.000          42.050
 130757826.430 7 101889226.329 7  97643848.085 7  24882385.040    24882387.880
  24882387.940          42.400          42.550
 116891667.607 8  91084429.11247                  22243742.460
  22243740.900          49.300          44.650
 107818605.171 8  84014513.719 8                  20517183.880    20517181.700
  20517180.980          49.050          49.700
 103761007.475 7  80703099.658 6                  19465259.640    19465267.200
  19465266.340          43.150          40.950
 110906461.915 8  86260626.438 7                  20747334.280    20747337.960
  20747337.320          48.650          44.800
 130331631.534 5                                  24355582.880
                        35.550
 124544198.767 6  96867804.106 6                  23323103.520    23323109.760
  23323108.760          38.500          39.800
 120250503.158 7  93528184.484 6                  22463806.320    22463811.260
  22463809.960          45.050          40.400
 103685295.503 8  80644160.735 7                  19362486.140    19362487.940
  19362486.880          48.850          46.400
 106254676.833 7  82642674.727 7                  19884060.760    19884067.400
  19884065.500          46.750          45.300
 15  1 27 15  3 35.0000000  0 16G30G07G13G02G15G28G09G10G05R14R05R21
                                R13R03R04R15
 109900773.262 8  85637057.606 8  82068860.666 8  20913387.460    20913387.280
  20913386.460          50.400          49.300
 120246896.295 7  93698948.413 7                  22882200.660    22882198.860
  22882198.500          47.750          43.650
 113413513.858 8  88374229.38047                  21581851.600
  21581848.900          49.700          43.600
 122102894.885 7  95145100.29646                  23235412.440
  23235411.020          46.300          40.700
 129636467.399 7 101015439.967 6                  24668995.400    24668997.140
  24668996.480          45.700          39.300
 117236200.710 8  91353009.35146                  22309244.760
  22309242.780          49.200          41.600
 130771658.356 7 101900004.404 7  97654177.064 7  24885017.160    24885020.080
  24885020.200          42.450          42.400
 116906972.330 8  91096354.84547                  22246654.860
  22246653.320          49.550          43.900
 107815694.415 8  84012245.593 8                  20516629.960    20516627.800
  20516627.080          49.150          49.600
 103768470.215 7  80708904.012 6                  19466659.580    19466667.200
  19466666.340          43.800          40.900
 110891736.411 8  86249173.281 7                  20744579.520    20744583.220
  20744582.580          48.900          44.850
 130337321.478 6                                  24356646.100
                        36.200
 124564909.386 6  96883912.356 6                  23326982.020    23326988.220
  23326987.220          38.400          40.050
 120267052.574 7  93541056.229 6                  22466897.900    22466902.800
  22466901.500          45.050          40.300
 103687460.688 8  80645844.755 7                  19362890.480    19362892.260
  19362891.200          48.850          46.200
 106242485.993 7  82633192.955 7                  19881779.340    19881786.040
  19881784.120          46.850          45.250
 15  1 27 15  3 40.0000000  0 16G30G07G13G02G15G28G09G10G05R14R05R21
                                R13R03R04R15
 109909438.001 8  85643809.346 8  82075331.090 8  20915036.300    20915036.120
  20915035.320          50.200          49.600
 120261501.389 8  93710329.007 7                  22884979.920    22884978.120
  22884977.760          48.000          44.250
 113404137.656 8  88366923.26047                  21580067.360
  21580064.680          49.700          44.250
 122117336.004 7  95156353.09346                  23238160.520
  23238159.120          46.600          41.450
 129622037.734 7 101004196.088 6                  24666249.580    24666251.260
  24666250.600          45.600          39.450
 117225842.628 8  91344938.13447                  22307273.640
  22307271.700          49.200          42.800
 130785491.859 7 101910783.730 7  97664507.257 7  24887649.620    24887652.620
  24887652.780          43.100          42.700
 116922285.202 8  91108286.95147                  22249568.840
  22249567.260          49.650          44.400
 107812798.186 8  84009988.797 8                  20516078.820    20516076.700
  20516075.960          49.350          49.950
 103775951.867 7  80714723.085 7                  19468063.120    19468070.800
  19468069.880          43.750          42.400
 110877018.421 8  86237725.970 7                  20741826.160    20741829.900
  20741829.260          49.050          46.700
 130343029.233 6 101377949.494 4                  24357712.840    24357718.180
  24357717.620          36.600          28.500
 124585623.558 6  96900023.373 6                  23330861.140    23330867.380
  23330866.360          38.900          41.950
 120283610.940 7  93553934.942 6                  22469991.180    22469996.000
  22469994.720          45.400          41.650
 103689641.729 8  80647541.120 7                  19363297.780    19363299.540
  19363298.480          48.950          47.650
 106230313.303 7  82623725.321 7                  19879501.340    19879508.060
  19879506.160          47.050          46.750
 15  1 27 15  3 45.0000000  0 16G30G07G13G02G15G28G09G10G05R14R05R21
                                R13R03R04R15
 109918114.231 8  85650570.036 8  82081810.080 8  20916687.340    20916687.160
  20916686.340          50.450          49.400
 120276111.496 8  93721713.505 7                  22887760.140    22887758.320
  22887758.000          48.150          44.250
 113394767.000 8  88359621.46147                  21578284.180
  21578281.500          49.750          43.400
 122131782.262 7  95167609.89146                  23240909.600
  23240908.200          46.450          41.400
 129607609.411 7 100992953.278 6                  24663503.960    24663505.640
  24663504.940          45.700          39.550
 117215495.797 8  91336875.68947                  22305304.660
  22305302.760          49.250          42.650
 130799327.363 7 101921564.639 7  97674838.952 7  24890282.520    24890285.540
  24890285.660          42.950          42.300
 116937606.599 8  91120225.70047                  22252484.440
  22252482.840          49.750          44.200
 107809916.926 8  84007743.660 8                  20515530.500    20515528.420
  20515527.680          49.600          49.750
 103783452.729 7  80720557.092 6                  19469470.320    19469477.920
  19469477.020          43.300          41.800
 110862308.505 8  86226284.930 7                  20739074.340    20739078.120
  20739077.460          49.100          46.300
 130348755.057 5 101382402.875 5                  24358782.820    24358790.980
  24358788.240          34.900          31.050
 124606341.802 6  96916137.556 6                  23334740.980    23334747.280
  23334746.260          38.100          41.150
 120300178.351 7  93566820.683 6                  22473086.100    22473090.980
  22473089.640          45.050          41.250
 103691839.071 8  80649250.168 7                  19363708.100    19363709.860
  19363708.820          48.900          47.250
 106218159.227 7  82614272.168 7                  19877226.800    19877233.580
  19877231.680          46.950          46.350
 15  1 27 15  3 50.0000000  0 16G30G07G13G02G15G28G09G10G05R14R05R21
                                R13R03R04R15
 109926800.423 8  85657338.498 8  82088296.531 8  20918340.300    20918340.080
  20918339.260          50.700          49.700
 120290725.035 8  93733100.680 7                  22890541.000    22890539.220
  22890538.880          48.350          44.850
 113385400.414 8  88352322.82647                  21576501.760
  21576499.120          49.600          44.100
 122146232.164 7  95178869.51846                  23243659.340
  23243657.980          46.900          40.850
 129593180.955 7 100981710.364 6                  24660758.280    24660759.980
  24660759.200          45.950          39.250
 117205158.658 8  91328820.78247                  22303337.540
  22303335.660          49.300          42.600
 130813163.407 7 101932345.938 7  97685171.042 7  24892915.520    24892918.560
  24892918.560          44.250          42.550
 116952935.028 8  91132169.91647                  22255401.360
  22255399.760          49.750          44.350
 107807049.093 8  84005508.985 8                  20514984.760    20514982.700
  20514981.960          49.650          50.050
 103790971.256 7  80726404.838 6                  19470880.780    19470888.380
  19470887.480          43.100          41.950
 110847604.950 8  86214848.834 7                  20736323.720    20736327.460
  20736326.840          48.650          46.300
 130354497.512 5 101386869.273 5                  24359855.820    24359864.060
  24359862.680          35.250          31.100
 124627062.454 6  96932253.603 6                  23338621.360    23338627.660
  23338626.580          37.900          41.000
 120316753.748 7  93579712.636 6                  22476182.580    22476187.420
  22476186.080          44.650          41.650
 103694051.312 8  80650970.792 7                  19364121.200    19364122.980
  19364121.940          48.750          47.450
 106206022.075 7  82604832.165 7                  19874955.460    19874962.280
  19874960.360          46.550          46.600
 15  1 27 15  3 55.0000000  0 16G30G07G13G02G15G28G09G10G05R14R05R21
                                R13R03R04R15
 109935498.474 8  85664116.206 8  82094791.819 8  20919995.500    20919995.260
  20919994.460          50.400          49.350
 120305343.934 8  93744492.020 7                  22893322.880    22893321.120
  22893320.780          48.400          44.250
 113376039.769 8  88345028.82247                  21574720.460
  21574717.880          49.400          43.950
 122160687.582 7  95190133.46146                  23246410.160
  23246408.760          46.950          39.650
 129578754.269 7 100970468.801 6                  24658012.940    24658014.600
  24658013.800          45.950          38.950
 117194833.097 8  91320774.90447                  22301372.640
  22301370.800          49.450          42.250
 130827001.820 7 101943129.107 7  97695504.911 7  24895549.020    24895551.960
  24895551.980          44.650          42.100
 116968272.348 8  91144121.06247                  22258319.960
  22258318.340          49.600          44.200
 107804196.623 8  84003286.283 8                  20514441.920    20514439.920
  20514439.160          49.550          49.800
 103798509.407 7  80732267.850 7                  19472294.900    19472302.500
  19472301.620          43.400          42.150
 110832909.815 8  86203419.305 7                  20733574.640    20733578.380
  20733577.820          48.500          46.200
 130360258.474 5 101391349.992 4                  24360932.280    24360939.420
  24360938.920          34.050          29.750
 124647787.512 6  96948373.084 6                  23342502.540    23342508.820
  23342507.740          37.950          40.850
 120333338.645 7  93592611.973 6                  22479280.800    22479285.600
  22479284.260          45.300          41.500
 103696280.269 8  80652704.423 7                  19364537.460    19364539.220
  19364538.160          49.050          47.250
 106193903.950 7  82595406.971 7                  19872687.620    19872694.580
  19872692.620          46.350          46.350
 15  1 27 15  4  0.0000000  0 16G30G07G13G02G15G28G09G10G05R14R05R21
                                R13R03R04R15
 109944206.362 8  85670901.569 8  82101294.468 8  20921652.560    20921652.320
  20921651.500          50.400          49.250
 120319966.089 8  93755885.902 7                  22896105.400    22896103.640
  22896103.320          48.550          44.450
 113366683.100 8  88337737.92047                  21572939.900
  21572937.380          49.250          43.550
 122175146.465 7  95201400.09946                  23249161.620
  23249160.220          46.750          40.300
 129564327.300 7 100959227.017 6                  24655267.520    24655269.140
  24655268.420          45.550          38.800
 117184517.173 8  91312736.53347                  22299409.600
  22299407.740          49.400          42.300
 130840840.643 7 101953912.590 6  97705839.085 7  24898182.600    24898185.400
  24898185.420          43.950          41.500
 116983616.529 8  91156077.56347                  22261239.880
  22261238.260          49.550          44.200
 107801357.469 8  84001073.957 8                  20513901.600    20513899.640
  20513898.900          49.400          49.700
 103806065.186 7  80738144.572 7                  19473712.360    19473719.960
  19473719.060          43.300          42.450
 110818221.163 8  86191994.811 7                  20730826.760    20730830.580
  20730830.020          48.600          46.350
 130366035.964 5 101395843.497 5                  24362011.760    24362019.100
  24362018.240          34.700          31.250
 124668514.599 6  96964494.135 6                  23346384.060    23346390.380
  23346389.240          37.800          40.600
 120349931.148 7  93605517.245 7                  22482380.460    22482385.180
  22482383.920          44.850          42.300
 103698524.030 8  80654449.578 7                  19364956.460    19364958.220
  19364957.140          48.950          47.250
 106181802.686 7  82585994.883 7                  19870422.940    19870430.000
  19870428.040          46.550          46.650
 15  1 27 15  4  5.0000000  0 16G30G07G13G02G15G28G09G10G05R14R05R21
                                R13R03R04R15
 109952925.627 8  85677695.812 8  82107805.621 8  20923311.780    20923311.520
  20923310.740          50.450          49.250
 120334593.115 8  93767283.583 7                  22898888.840    22898887.080
  22898886.760          48.400          44.250
 113357331.948 8  88330451.31947                  21571160.380
  21571157.920          49.050          43.400
 122189610.356 7  95212670.63546                  23251913.980
  23251912.540          46.600          39.400
 129549901.626 7 100947986.263 6                  24652522.400    24652524.000
  24652523.240          46.150          39.350
 117174212.443 8  91304706.87947                  22297448.660
  22297446.800          49.600          42.650
 130854681.432 7 101964697.597 6  97716174.723 7  24900816.500    24900819.200
  24900819.320          44.100          40.300
 116998969.165 8  91168040.64947                  22264161.380
  22264159.760          49.300          44.050
 107798533.243 8  83998873.261 8                  20513364.120    20513362.200
  20513361.480          49.300          49.700
 103813640.180 7  80744036.234 7                  19475133.460    19475141.020
  19475140.100          43.050          42.050
 110803540.375 8  86180576.426 7                  20728080.400    20728084.240
  20728083.700          48.500          46.400
 130371831.441 6 101400351.087 5                  24363094.880    24363102.440
  24363100.600          37.900          30.900
 124689245.581 6  96980618.222 6                  23350266.300    23350272.660
  23350271.480          37.300          40.650
 120366532.861 7  93618429.665 7                  22485481.800    22485486.540
  22485485.320          44.650          42.100
 103700784.062 8  80656207.383 7                  19365378.520    19365380.300
  19365379.180          49.000          47.100
 106169719.922 7  82576597.180 7                  19868161.760    19868168.860
  19868166.920          47.000          46.550
 15  1 27 15  4 10.0000000  0 16G30G07G13G02G15G28G09G10G05R14R05R21
                                R13R03R04R15
 109961656.206 8  85684498.865 8  82114325.216 8  20924973.160    20924972.880
  20924972.120          50.050          49.050
 120349224.944 8  93778685.006 7                  22901673.200    22901671.460
  22901671.100          48.300          44.050
 113347986.212 8  88323168.93947                  21569381.880
  21569379.520          48.850          43.900
 122204079.187 7  95223945.01646                  23254667.320
  23254665.840          46.800          39.700
 129535477.239 7 100936746.487 6                  24649777.560    24649779.180
  24649778.360          45.950          39.000
 117163918.814 8  91296685.87946                  22295489.860
  22295487.980          49.550          41.950
 130868524.104 7 101975484.110 6  97726511.772 7  24903450.740    24903453.340
  24903453.320          43.550          39.400
 117014330.180 8  91180010.25547                  22267084.460
  22267082.840          49.400          44.050
 107795723.885 8  83996684.153 8                  20512829.500    20512827.620
  20512826.880          49.300          49.450
 103821234.206 7  80749942.701 6                  19476558.140    19476565.600
  19476564.720          42.900          40.900
 110788867.608 8  86169164.276 7                  20725335.480    20725339.400
  20725338.880          48.450          45.150
 130377644.818 6 101404872.590 4                  24364181.320    24364187.960
  24364187.080          36.100          28.250
 124709980.368 6  96996745.262 6                  23354149.340    23354155.580
  23354154.440          37.400          39.350
 120383143.645 7  93631349.149 6                  22488584.860    22488589.620
  22488588.400          44.200          40.850
 103703060.359 8  80657977.830 7                  19365803.640    19365805.380
  19365804.260          49.200          46.400
 106157655.709 7  82567213.912 7                  19865904.080    19865911.220
  19865909.260          47.100          45.550
 15  1 27 15  4 15.0000000  0 16G30G07G13G02G15G28G09G10G05R14R05R21
                                R13R03R04R15
 109970396.647 8  85691309.577 8  82120852.150 8  20926636.420    20926636.100
  20926635.360          50.550          49.050
 120363860.113 8  93790089.032 7                  22904458.180    22904456.460
  22904456.080          48.450          44.050
 113338644.490 8  88315889.69247                  21567604.140
  21567601.860          49.100          43.300
 122218551.450 7  95235222.07146                  23257421.300
  23257419.860          47.100          39.700
 129521052.626 7 100925506.554 6                  24647032.640    24647034.220
  24647033.440          46.050          38.750
 117153634.862 8  91288672.42647                  22293532.920
  22293531.020          49.600          42.200
 130882367.208 7 101986270.937 6  97736849.149 7  24906085.040    24906087.460
  24906087.240          43.100          38.550
 117029698.087 8  91191985.23847                  22270008.860
  22270007.240          49.650          43.600
 107792927.946 8  83994505.499 8                  20512297.420    20512295.560
  20512294.840          49.450          49.550
 103828845.674 7  80755862.729 6                  19477985.980    19477993.520
  19477992.580          42.950          41.000
 110774201.117 8  86157757.020 7                  20722591.760    20722595.720
  20722595.200          48.350          45.100
 130383474.843 6 101409406.977 5                  24365271.000    24365277.700
  24365276.900          37.150          30.350
 124730717.331 6  97012873.996 6                  23358032.680    23358038.920
  23358037.820          37.500          39.450
 120399762.111 7  93644274.616 6                  22491689.340    22491694.080
  22491692.920          44.700          40.950
 103705351.517 8  80659759.842 7                  19366231.540    19366233.300
  19366232.140          49.000          46.550
 106145608.644 7  82557843.982 7                  19863649.580    19863656.760
  19863654.820          47.000          45.600
 15  1 27 15  4 20.0000000  0 16G30G07G13G02G15G28G09G10G05R14R05R21
                                R13R03R04R15
 109979148.869 8  85698129.499 8  82127387.910 8  20928301.920    20928301.580
  20928300.860          50.750          48.850
 120378500.497 8  93801497.121 7                  22907244.140    22907242.400
  22907242.000          48.050          43.900
 113329308.828 8  88308615.14847                  21565827.560
  21565825.340          48.850          43.450
 122233029.120 7  95246503.34646                  23260176.340
  23260174.960          47.100          38.600
 129506629.735 7 100914267.956 6                  24644288.060    24644289.560
  24644288.840          45.600          38.850
 117143362.586 8  91280668.06046                  22291578.200
  22291576.260          49.700          41.400
 130896212.734 7 101997059.657 6  97747188.313 7  24908719.680    24908722.060
  24908721.640          42.850          37.600
 117045074.828 8  91203967.10847                  22272934.960
  22272933.340          49.650          43.450
 107790147.375 8  83992338.817 8                  20511768.260    20511766.420
  20511765.700          49.350          49.350
 103836476.804 7  80761798.054 6                  19479417.600    19479425.080
  19479424.180          43.350          41.800
 110759543.219 8  86146356.439 7                  20719849.660    20719853.620
  20719853.120          48.150          45.950
 130389323.191 6 101413955.745 4                  24366364.000    24366370.240
  24366369.860          37.350          29.800
 124751458.526 6  97029006.022 6                  23361916.700    23361923.020
  23361921.980          37.900          40.050
 120416390.051 7  93657207.436 6                  22494795.560    22494800.360
  22494799.240          45.050          41.400
 103707659.451 8  80661554.904 7                  19366662.540    19366664.300
  19366663.160          48.900          47.400
 106133580.608 7  82548488.851 7                  19861398.640    19861405.880
  19861403.920          47.150          46.250
 15  1 27 15  4 25.0000000  0 16G30G07G13G02G15G28G09G10G05R14R05R21
                                R13R03R04R15
 109987911.512 8  85704957.540 8  82133931.435 8  20929969.400    20929969.060
  20929968.340          50.400          48.850
 120393144.780 7  93812908.255 7                  22910030.840    22910029.140
  22910028.740          47.450          43.850
 113319977.698 8  88301344.15247                  21564051.860
  21564049.680          49.050          43.600
 122247510.810 7  95257787.75146                  23262932.080
  23262930.780          47.050          38.550
 129492207.240 7 100903029.689 6                  24641543.540    24641545.120
  24641544.360          45.800          38.950
 117133100.592 8  91272671.70946                  22289625.440
  22289623.440          49.750          41.750
 130910059.271 7 102007849.179 6  97757528.246 7  24911354.520    24911356.800
  24911356.300          42.800          37.950
 117060459.052 8  91215954.80647                  22275862.480
  22275860.840          49.600          43.550
 107787380.791 8  83990183.041 8                  20511241.780    20511239.980
  20511239.260          49.300          49.400
 103844126.006 7  80767747.438 6                  19480852.540    19480860.100
  19480859.180          43.000          41.950
 110744892.358 8  86134961.333 7                  20717108.900    20717112.880
  20717112.340          48.600          46.050
 130395188.590 6 101418517.766 4                  24367460.100    24367465.560
  24367465.540          36.250          27.850
 124772202.637 6  97045140.331 6                  23365801.400    23365807.720
  23365806.660          37.500          40.150
 120433026.305 7  93670146.738 6                  22497903.340    22497908.200
  22497907.040          45.350          41.450
 103709982.682 8  80663361.863 7                  19367096.400    19367098.160
  19367097.040          48.750          47.350
 106121570.238 7  82539147.467 7                  19859151.040    19859158.300
  19859156.340          47.000          46.300
 15  1 27 15  4 30.0000000  0 16G30G07G13G02G15G28G09G10G05R14R05R21
                                R13R03R04R15
 109996685.196 8  85711794.161 8  82140483.204 8  20931639.000    20931638.640
  20931637.880          50.650          48.850
 120407793.610 7  93824322.907 7                  22912818.400    22912816.720
  22912816.320          47.150          43.850
 113310651.802 8  88294077.22447                  21562277.180
  21562275.020          49.250          43.250
 122261997.143 7  95269075.77646                  23265688.740
  23265687.380          46.900          39.550
 129477785.773 7 100891792.202 6                  24638799.220    24638800.780
  24638800.020          45.750          38.600
 117122849.526 8  91264683.87846                  22287674.760
  22287672.720          49.750          41.500
 130923907.428 7 102018639.936 6  97767869.382 7  24913989.720    24913991.920
  24913991.380          42.450          38.900
 117075851.403 8  91227948.83047                  22278791.540
  22278789.900          49.600          43.250
 107784628.863 8  83988038.677 8                  20510718.080    20510716.300
  20510715.580          49.450          49.300
 103851793.944 7  80773711.385 6                  19482291.020    19482298.560
  19482297.660          42.950          41.900
 110730249.179 8  86123572.194 7                  20714369.560    20714373.500
  20714372.980          48.300          45.900
 130401071.797 5 101423093.559 4                  24368559.700    24368565.140
  24368564.720          34.700          29.100
 124792950.050 6  97061277.204 6                  23369686.680    23369693.020
  23369691.940          37.500          40.050
 120449671.328 7  93683092.840 6                  22501012.740    22501017.600
  22501016.480          45.050          41.300
 103712322.082 8  80665181.389 7                  19367533.280    19367535.020
  19367533.960          48.800          47.250
 106109578.052 7  82529820.216 7                  19856906.840    19856914.140
  19856912.180          47.200          46.050
 15  1 27 15  4 35.0000000  0 16G30G07G13G02G15G28G09G10G05R14R05R21
                                R13R03R04R15
 110005469.557 8  85718639.128 8  82147042.962 8  20933310.620    20933310.280
  20933309.480          50.800          48.900
 120422446.611 7  93835740.826 7                  22915606.740    22915605.120
  22915604.660          47.400          43.800
 113301330.793 8  88286814.10247                  21560503.420
  21560501.300          49.750          43.150
 122276487.775 7  95280367.13446                  23268446.240
  23268444.880          47.500          38.200
 129463364.991 7 100880555.250 6                  24636055.020    24636056.600
  24636055.780          46.150          38.500
 117112609.086 8  91256704.31446                  22285726.120
  22285724.020          50.100          41.550
 130937756.934 7 102029431.755 6  97778211.538 7  24916625.140    24916627.400
  24916626.800          42.000          40.350
 117091251.508 8  91239948.89947                  22281722.060
  22281720.440          49.950          43.050
 107781891.249 8  83985905.470 8                  20510197.100    20510195.340
  20510194.640          49.800          49.400
 103859480.311 7  80779689.669 6                  19483732.940    19483740.500
  19483739.620          42.350          41.800
 110715613.470 7  86112188.867 7                  20711631.620    20711635.560
  20711635.020          47.700          45.900
 130406972.201 5 101427682.785 4                  24369662.320    24369666.920
  24369667.460          33.900          28.050
 124813700.601 6  97077416.510 6                  23373572.440    23373578.980
  23373577.820          36.850          39.750
 120466324.808 7  93696045.528 6                  22504123.740    22504128.560
  22504127.460          44.300          41.750
 103714677.175 8  80667013.132 7                  19367973.100    19367974.820
  19367973.780          48.050          47.350
 106097603.808 7  82520506.932 7                  19854666.000    19854673.340
  19854671.380          47.050          46.250
 15  1 27 15  4 40.0000000  0 16G30G07G13G02G15G28G09G10G05R14R05R21
                                R13R03R04R15
 110014266.124 8  85725493.602 8  82153611.831 8  20934984.560    20934984.220
  20934983.400          50.550          48.500
 120437105.246 7  93847163.135 7                  22918396.160    22918394.560
  22918394.080          47.050          43.200
 113292016.135 8  88279555.93547                  21558730.900
  21558728.780          49.900          42.650
 122290984.184 7  95291663.01946                  23271204.860
  23271203.480          47.100          39.950
 129448946.409 7 100869320.007 6                  24633311.240    24633312.800
  24633311.960          45.750          38.700
 117102380.751 8  91248734.19346                  22283779.780
  22283777.640          50.200          41.100
 130951609.239 6 102040225.720 6  97788555.786 7  24919261.040    24919263.440
  24919262.900          41.950          39.850
 117106660.848 8  91251956.17147                  22284654.320
  22284652.700          49.900          42.200
 107779169.409 8  83983784.555 8                  20509679.160    20509677.400
  20509676.680          49.750          49.100
 103867186.604 7  80785683.459 7                  19485178.640    19485186.180
  19485185.300          42.850          42.650
 110700986.718 7  86100812.521 7                  20708895.320    20708899.320
  20708898.760          47.800          46.550
 130412891.433 5 101432276.385 4                  24370768.540
  24370773.060          34.500          27.900
 124834455.720 6  97093559.372 6                  23377459.220    23377465.820
  23377464.540          36.700          40.550
 120482988.253 7  93709005.962 7                  22507236.580    22507241.460
  22507240.320          43.950          42.750
 103717049.517 8  80668858.284 8                  19368416.120    19368417.860
  19368416.820          48.250          48.100
 106085649.029 7  82511208.788 7                  19852428.820    19852436.160
  19852434.200          46.950          47.050
 15  1 27 15  4 45.0000000  0 16G30G07G13G02G15G28G09G10G05R14R05R21
                                R13R03R04R15
 110023072.137 8  85732355.422 8  82160187.746 8  20936660.280    20936659.960
  20936659.120          50.600          48.700
 120451766.842 7  93858587.733 7                  22921186.140    22921184.580
  22921184.080          47.000          43.650
 113282705.100 8  88272300.59247                  21556959.060
  21556956.940          49.950          42.750
 122305483.657 7  95302961.27146                  23273964.040
  23273962.660          47.100          38.900
 129434527.298 7 100858084.366 6                  24630567.340    24630568.880
  24630568.160          45.950          38.550
 117092161.827 8  91240771.40246                  22281835.240
  22281833.020          50.150          41.550
 130965461.649 7 102051019.771 6  97798900.102 7  24921897.000    24921899.560
  24921899.100          43.450          40.600
 117122076.705 8  91263968.51547                  22287587.860
  22287586.240          49.750          42.800
 107776460.664 8  83981673.845 8                  20509163.700    20509161.940
  20509161.220          49.750          49.200
 103874909.996 7  80791690.543 7                  19486627.520    19486635.000
  19486634.180          43.150          42.400
 110686366.060 8  86089440.906 7                  20706160.160    20706164.240
  20706163.660          48.050          46.300
 130418826.866 5                                  24371877.560
                        30.000
 124855212.742 6  97109703.707 6                  23381346.360    23381352.940
  23381351.640          37.500          40.100
 120499658.956 7  93721972.048 7                  22510350.780    22510355.680
  22510354.540          44.650          42.200
 103719436.314 8  80670714.678 7                  19368861.840    19368863.580
  19368862.520          48.700          47.700
 106073710.988 7  82501923.652 7                  19850194.780    19850202.100
  19850200.160          46.800          46.650
 15  1 27 15  4 50.0000000  0 17G30G07G13G02G15G28G09G10G05R14R05R16
                                R21R13R03R04R15
 110031888.641 8  85739225.425 8  82166771.505 8  20938338.000    20938337.660
  20938336.840          50.650          49.450
 120466432.383 7  93870015.412 7                  22923976.880    22923975.320
  22923974.820          47.100          44.700
 113273398.797 8  88265048.93447                  21555188.160
  21555186.020          49.950          43.600
 122319987.206 7  95314262.70746                  23276723.980
  23276722.680          46.700          40.800
 129420108.687 7 100846849.107 6                  24627823.540    24627825.080
  24627824.380          45.600          39.200
 117081953.340 8  91232816.74247                  22279892.680
  22279890.400          50.150          42.450
 130979315.076 7 102061814.629 6  97809245.176 7  24924533.220    24924535.860
  24924535.420          43.850          41.850
 117137500.137 8  91275986.75947                  22290522.820
  22290521.220          49.550          44.250
 107773766.079 8  83979574.166 8                  20508650.940    20508649.180
  20508648.460          49.700          49.750
 103882651.638 7  80797711.829 6                  19488079.820    19488087.300
  19488086.500          42.950          41.000
 110671752.834 8  86078075.072 7                  20703426.420    20703430.520
  20703429.960          48.000          45.000
 131112652.069 6                                  24544563.720
                        37.650
 130424779.420 5 101441523.536 4                  24372989.960
  24372995.780          35.100          26.550
 124875972.590 6  97125850.248 6                  23385234.020    23385240.520
  23385239.240          37.200          38.200
 120516338.048 7  93734944.669 6                  22513466.520    22513471.480
  22513470.360          44.600          40.700
 103721838.696 8  80672583.199 7                  19369310.500    19369312.180
  19369311.120          48.750          46.400
 106061790.681 7  82492652.310 7                  19847964.080    19847971.340
  19847969.420          46.850          45.100
 15  1 27 15  4 55.0000000  0 16G30G07G13G02G15G28G09G10G05R14R05R21
                                R13R03R04R15
 110040716.123 8  85746103.979 8  82173363.452 8  20940017.820    20940017.480
  20940016.680          50.600          49.650
 120481102.316 7  93881446.521 7                  22926768.460    22926766.940
  22926766.400          46.900          44.750
 113264097.724 8  88257801.35047                  21553418.240
  21553416.080          49.850          44.300
 122334495.300 7  95325567.67046                  23279484.780
  23279483.500          46.700          40.750
 129405691.064 7 100835614.607 6                  24625079.920    24625081.440
  24625080.760          45.200          39.400
 117071755.739 8  91224870.56647                  22277952.180
  22277949.840          49.950          43.200
 130993170.251 7 102072610.852 7  97819591.543 8  24927169.780    24927172.520
  24927172.060          43.550          42.000
 117152931.578 8  91288011.25047                  22293459.320
  22293457.700          49.650          44.250
 107771086.106 8  83977485.871 8                  20508140.940    20508139.200
  20508138.480          49.650          49.950
 103890412.055 7  80803747.709 6                  19489535.720    19489543.100
  19489542.340          42.700          41.850
 110657147.323 7  86066715.242 7                  20700694.140    20700698.260
  20700697.700          47.900          46.050
 130430749.494 5                                  24374105.840    24374117.080
                        35.050          28.250
 124896735.791 6  97141999.398 6                  23389122.340    23389128.800
  23389127.500          37.350          39.450
 120533025.887 7  93747924.066 7                  22516583.920    22516588.940
  22516587.820          44.950          42.150
 103724257.141 8  80674464.214 7                  19369762.100    19369763.840
  19369762.740          48.700          47.250
 106049888.630 7  82483395.166 7                  19845736.780    19845744.040
  19845742.120          46.900          46.250
 15  1 27 15  5  0.0000000  0 17G30G07G13G02G15G28G09G10G05R14R05R16
                                R21R13R03R04R15
 110049553.861 8  85752990.523 8  82179963.055 8  20941699.580    20941699.220
  20941698.440          50.750          49.900
 120495775.986 7  93892880.533 7                  22929560.740    22929559.260
  22929558.720          47.200          44.950
 113254801.177 8  88250557.30047                  21551649.180
  21551647.020          49.850          44.600
 122349007.214 7  95336875.62246                  23282246.320
  23282245.040          46.550          41.850
 129391273.748 7 100824380.360 6                  24622336.360    24622337.940
  24622337.320          44.950          40.550
 117061568.477 8  91216932.45447                  22276013.640
  22276011.280          50.050          43.450
 131007026.352 7 102083407.794 7  97829938.587 8  24929806.540    24929809.360
  24929808.880          43.700          42.600
 117168370.344 8  91300041.46047                  22296397.200
  22296395.580          49.650          44.350
 107768420.097 8  83975408.464 8                  20507633.640    20507631.880
  20507631.140          49.600          50.150
 103898190.338 7  80809797.488 7                  19490994.880    19491002.260
  19491001.520          43.000          42.700
 110642548.883 8  86055360.909 7                  20697963.120    20697967.320
  20697966.740          48.350          46.800
 131069723.677 6 101943216.605 5                  24536527.580
  24536550.700          36.950          31.200
 130436736.550 5 101450829.540 4                  24375224.740
  24375230.880          34.550          27.500
 124917501.499 6  97158150.501 6                  23393011.020    23393017.580
  23393016.220          37.200          40.050
 120549721.734 7  93760909.718 7                  22519702.860    22519707.880
  22519706.780          45.450          42.950
 103726690.845 8  80676357.091 7                  19370216.580    19370218.300
  19370217.220          48.600          47.950
 106038004.094 7  82474151.646 7                  19843512.760    19843520.040
  19843518.100          47.050          47.100
 15  1 27 15  5  5.0000000  0 17G30G07G13G02G15G28G09G10G05R14R05R16
                                R21R13R03R04R15
 110058403.404 8  85759886.277 8  82186571.478 8  20943383.600    20943383.240
  20943382.480          50.600          49.700
 120510454.929 7  93904318.662 7                  22932354.040    22932352.580
  22932352.060          47.550          44.750
 113245510.689 8  88243317.96947                  21549881.300
  21549879.080          49.750          44.800
 122363524.520 7  95348187.79147                  23285008.920
  23285007.680          46.200          42.200
 129376858.297 7 100813147.584 6                  24619593.180    24619594.860
  24619594.200          44.300          39.950
 117051393.070 8  91209003.57247                  22274077.360
  22274074.960          49.950          43.050
 131020884.916 7 102094206.675 7  97840287.511 8  24932443.800    24932446.600
  24932446.220          44.050          42.200
 117183818.001 8  91312078.59147                  22299336.760
  22299335.180          49.200          44.200
 107765769.573 8  83973343.125 8                  20507129.280    20507127.500
  20507126.760          49.550          50.000
 103905988.208 7  80815862.509 7                  19492457.720    19492465.140
  19492464.380          43.200          42.400
 110627959.232 8  86044013.415 7                  20695233.780    20695237.980
  20695237.440          48.700          46.650
 131048265.619 5 101926499.373 5                  24532510.200    24532532.740
  24532532.280          34.500          31.150
 130442742.011 5 101455500.419 4                  24376347.160    24376353.500
  24376353.020          34.500          29.650
 124938271.511 6  97174304.950 6                  23396900.600    23396907.140
  23396905.760          37.550          39.700
 120566427.273 7  93773902.907 7                  22522823.600    22522828.660
  22522827.560          45.000          43.100
 103729141.623 8  80678263.249 7                  19370674.260    19370675.980
  19370674.880          48.650          47.900
 106026138.725 7  82464923.044 7                  19841292.340    19841299.600
  19841297.660          47.650          47.050
 15  1 27 15  5 10.0000000  0 17G30G07G13G02G15G28G09G10G05R14R05R16
                                R21R13R03R04R15
 110067263.651 8  85766790.360 8  82193187.902 8  20945069.660    20945069.280
  20945068.520          50.350          50.100
 120525138.058 7  93915760.049 7                  22935148.160    22935146.740
  22935146.180          47.900          44.950
 113236225.173 8  88236082.50447                  21548114.360
  21548112.080          49.900          45.100
 122378046.099 7  95359503.27247                  23287772.340
  23287771.080          46.550          42.850
 129362443.627 7 100801915.400 6                  24616850.140    24616851.800
  24616851.080          44.300          40.550
 117041228.442 8  91201083.08647                  22272143.120
  22272140.660          50.100          43.550
 131034744.901 7 102105006.647 7  97850637.466 7  24935081.300    24935084.180
  24935083.900          43.550          43.700
 117199273.449 8  91324121.77347                  22302277.800
  22302276.240          49.250          44.700
 107763133.469 8  83971289.009 8                  20506627.640    20506625.880
  20506625.140          49.550          50.450
 103913804.382 7  80821941.745 6                  19493924.020    19493931.380
  19493930.640          43.200          41.750
 110613377.209 8  86032671.841 7                  20692505.880    20692510.100
  20692509.540          48.650          45.800
 131026809.890 5 101909811.739 5                  24528493.680    24528514.940
  24528515.820          33.650          30.700
 130448764.829 5                                  24377472.800
                        34.200
 124959044.553 6  97190461.747 6                  23400790.800    23400797.300
  23400795.820          36.900          38.800
 120583141.302 7  93786902.676 7                  22525945.960    22525951.020
  22525949.900          44.850          42.350
 103731608.195 8  80680181.686 7                  19371134.860    19371136.560
  19371135.500          48.750          47.350
 106014291.591 7  82455708.607 7                  19839075.320    19839082.560
  19839080.620          47.400          46.550
 15  1 27 15  5 15.0000000  0 17G30G07G13G02G15G28G09G10G05R14R05R16
                                R21R13R03R04R15
 110076133.610 8  85773702.014 8  82199811.567 8  20946757.540    20946757.160
  20946756.420          50.300          49.850
 120539824.371 8  93927203.927 7                  22937942.860    22937941.420
  22937940.940          48.000          44.600
 113226943.661 8  88228850.16347                  21546348.200
  21546345.840          49.850          45.150
 122392570.896 7  95370821.26046                  23290536.360
  23290535.100          46.600          41.900
 129348028.792 7 100790683.077 6                  24614107.060    24614108.720
  24614108.020          44.100          40.050
 117031073.614 8  91193170.23747                  22270210.720
  22270208.240          49.900          42.900
 131048605.262 7 102115806.879 7  97860987.722 7  24937718.900    24937721.860
  24937721.600          44.500          43.250
 117214735.666 8  91336170.24547                  22305220.100
  22305218.600          49.150          44.650
 107760510.783 8  83969245.356 8                  20506128.560    20506126.780
  20506126.060          49.550          50.250
 103921637.983 7  80828034.535 6                  19495393.580    19495400.960
  19495400.180          43.050          41.700
 110598801.651 8  86021335.303 7                  20689779.220    20689783.400
  20689782.840          49.000          45.900
 131005355.360 5 101893125.076 4                  24524477.300    24524498.020
  24524499.300          33.100          28.250
 130454803.979 5 101464892.25614                  24378601.440    24378609.540
  24378608.720          32.750          29.950
 124979819.542 6  97206620.059 6                  23404681.300    23404687.780
  23404686.240          37.600          39.050
 120599862.833 7  93799908.293 7                  22529069.680    22529074.800
  22529073.680          44.800          42.600
 103734089.601 8  80682111.674 7                  19371598.260    19371599.940
  19371598.900          48.750          47.400
 106002461.633 7  82446507.536 7                  19836861.540    19836868.760
  19836866.800          47.100          46.600
 15  1 27 15  5 20.0000000  0 17G30G07G13G02G15G28G09G10G05R14R05R16
                                R21R13R03R04R15
 110085015.134 8  85780622.681 8  82206443.868 8  20948447.640    20948447.280
  20948446.500          50.250          48.850
 120554515.747 7  93938651.753 7                  22940738.540    22940737.120
  22940736.660          47.750          42.900
 113217668.035 8  88221622.40847                  21544583.160
  21544580.740          49.750          43.550
 122407100.817 7  95382143.24846                  23293301.360
  23293300.120          46.400          40.850
 129333615.559 7 100779452.013 6                  24611364.280    24611365.960
  24611365.180          44.150          38.550
 117020930.486 8  91185266.51246                  22268280.560
  22268278.040          49.900          41.150
 131062467.907 7 102126608.921 6  97871339.673 7  24940356.980    24940359.920
  24940359.680          44.900          40.900
 117230206.519 8  91348225.44147                  22308164.060
  22308162.600          49.050          43.100
 107757903.439 8  83967213.662 8                  20505632.400    20505630.620
  20505629.920          49.600          49.350
 103929490.853 7  80834142.321 6                  19496866.760    19496874.140
  19496873.300          43.000          41.500
 110584234.638 8  86010005.404 7                  20687054.140    20687058.280
  20687057.720          48.700          45.750
 130983904.048 5 101876440.824 4                  24520460.820    24520483.260
                        32.200          25.850
 130460861.294 5 101469603.501 4                  24379733.400    24379742.220
  24379740.780          31.750          28.800
 125000598.520 6  97222781.482 6                  23408572.580    23408579.000
  23408577.420          37.700          38.550
 120616593.775 7  93812921.220 7                  22532195.180    22532200.320
  22532199.200          45.000          42.100
 103736587.770 8  80684054.691 7                  19372064.760    19372066.480
  19372065.400          48.600          47.200
 105990650.673 7  82437321.241 7                  19834651.320    19834658.520
  19834656.520          47.200          46.350
 15  1 27 15  5 25.0000000  0 17G30G07G13G02G15G28G09G10G05R14R05R16
                                R21R13R03R04R15
 110093907.175 8  85787551.545 8  82213084.034 8  20950139.740    20950139.380
  20950138.620          50.350          48.950
 120569211.107 7  93950102.681 7                  22943534.960    22943533.560
  22943533.120          47.750          42.800
 113208397.204 8  88214398.39447                  21542819.020
  21542816.560          49.700          43.650
 122421634.808 7  95393468.39546                  23296067.100
  23296065.900          46.750          39.800
 129319202.970 7 100768221.447 6                  24608621.640    24608623.300
  24608622.560          44.200          38.150
 117010797.987 8  91177371.06846                  22266352.380
  22266349.880          49.700          41.900
 131076331.728 7 102137411.934 6  97881692.537 7  24942995.360    24942998.100
  24942997.860          44.850          40.150
 117245684.951 8  91360286.55247                  22311109.480
  22311108.060          49.000          43.150
 107755310.384 8  83965193.105 8                  20505138.980    20505137.180
  20505136.480          49.600          49.400
 103937361.858 7  80840264.218 6                  19498343.300    19498350.680
  19498349.840          43.400          41.400
 110569675.166 8  85998681.371 7                  20684330.500    20684334.600
  20684334.020          48.450          45.750
 130962454.689 5                                  24516445.260
                        30.950
 130466935.807 5 101474328.926 4                  24380868.680
  24380873.000          31.650          26.250
 125021380.253 6  97238945.062 6                  23412464.320    23412470.740
  23412469.140          38.000          38.600
 120633332.979 7  93825940.597 7                  22535322.220    22535327.380
  22535326.260          44.850          42.350
 103739101.565 8  80686009.865 7                  19372534.200    19372535.920
  19372534.840          48.550          47.250
 105978857.551 7  82428148.817 7                  19832444.420    19832451.560
  19832449.580          47.350          46.400
 15  1 27 15  5 30.0000000  0 16G30G07G13G02G15G28G09G10G05R14R05R21
                                R13R03R04R15
 110102808.198 8  85794487.408 8  82219730.899 8  20951833.540    20951833.180
  20951832.440          50.500          49.250
 120583908.955 7  93961555.550 7                  22946331.860    22946330.480
  22946329.980          47.950          43.150
 113199129.688 8  88207176.96247                  21541055.500
  21541053.000          49.700          44.200
 122436171.358 7  95404795.53846                  23298833.380
  23298832.180          47.200          40.500
 129304789.501 7 100756990.183 6                  24605878.840    24605880.400
  24605879.700          43.750          38.950
 117000674.634 8  91169482.74747                  22264425.920
  22264423.460          49.650          42.250
 131090195.290 7 102148214.711 6  97892045.196 7  24945633.600    24945636.240
  24945636.000          43.650          40.550
 117261169.472 8  91372352.40347                  22314056.040
  22314054.640          48.900          43.950
 107752730.112 8  83963182.499 8                  20504647.960    20504646.180
  20504645.460          49.600          49.800
 103945249.556 7  80846399.106 6                  19499823.040    19499830.340
  19499829.520          43.950          39.750
 110555121.632 8  85987361.956 7                  20681607.940    20681612.040
  20681611.480          48.800          44.100
 130473025.991 5                                  24382006.580
                        31.750
 125042163.340 6  97255109.692 6                  23416356.320    23416362.680
  23416361.100          38.300          36.800
 120650079.107 7  93838965.343 6                  22538450.540    22538455.700
  22538454.620          45.050          40.950
 103741629.551 8  80687976.076 7                  19373006.280    19373008.020
  19373006.920          49.000          45.800
 105967080.848 7  82418989.167 7                  19830240.580    19830247.700
  19830245.720          47.750          44.700
 15  1 27 15  5 35.0000000  0 16G30G07G13G02G15G28G09G10G05R14R05R21
                                R13R03R04R15
 110111721.269 8  85801432.654 8  82226386.755 8  20953529.640    20953529.280
  20953528.540          50.650          49.200
 120598612.348 7  93973012.740 7                  22949129.800    22949128.440
  22949127.880          47.750          42.800
 113189868.545 8  88199960.48747                  21539293.200
  21539290.680          49.850          44.150
 122450713.481 7  95416127.02346                  23301600.700
  23301599.460          47.700          39.800
 129290378.173 7 100745760.617 6                  24603136.400    24603137.960
  24603137.280          44.200          39.350
 116990563.497 8  91161603.95147                  22262501.800
  22262499.380          49.550          42.350
 131104061.689 7 102159019.681 6  97902399.949 7  24948272.280    24948274.940
  24948274.740          42.450          40.700
 117276663.122 8  91384425.35947                  22317004.380
  22317003.000          49.150          44.100
 107750165.667 8  83961184.229 8                  20504159.980    20504158.180
  20504157.460          49.650          49.650
 103953157.096 7  80852549.416 6                  19501306.520    19501313.760
  19501312.920          44.000          40.050
 110540577.118 8  85976049.576 7                  20678887.080    20678891.220
  20678890.660          48.650          44.750
 130479134.808 5                                  24383147.920
                        31.700
 125062950.838 6  97271277.746 6                  23420249.200    23420255.500
  23420253.900          37.750          37.200
 120666835.003 7  93851997.677 6                  22541580.700    22541585.900
  22541584.820          45.300          40.950
 103744174.699 8  80689955.636 7                  19373481.560    19373483.320
  19373482.200          49.050          46.100
 105955323.766 7  82409844.783 7                  19828040.420    19828047.520
  19828045.540          47.700          45.300
 15  1 27 15  5 40.0000000  0 16G30G07G13G02G15G28G09G10G05R14R05R21
                                R13R03R04R15
 110120645.560 8  85808386.642 8  82233050.996 8  20955227.880    20955227.520
  20955226.780          50.000          49.100
 120613320.456 7  93984473.604 7                  22951928.620    22951927.280
  22951926.760          46.650          42.650
 113180613.006 8  88192748.38947                  21537531.960
  21537529.400          49.250          44.700
 122465260.367 7  95427462.23146                  23304368.920
  23304367.660          46.700          40.150
 129275968.230 7 100734532.109 6                  24600394.240    24600395.860
  24600395.060          43.150          39.250
 116980463.770 8  91153734.03447                  22260579.860
  22260577.440          48.700          42.800
 131117930.021 6 102169826.137 6  97912756.154 7  24950911.240    24950913.980
  24950913.720          41.900          40.250
 117292165.069 8  91396504.78847                  22319954.280
  22319952.940          48.350          44.300
 107747616.258 8  83959197.672 8                  20503674.860    20503673.040
  20503672.340          48.850          49.600
 103961083.430 7  80858714.346 6                  19502793.500    19502800.660
  19502799.880          43.750          40.500
 110526040.899 8  85964743.648 7                  20676167.760    20676171.940
  20676171.400          48.400          45.250
 130485261.456 5                                  24384292.780
                        33.600
 125083741.750 6  97287448.449 6                  23424142.680    23424148.900
  23424147.360          37.500          37.800
 120683600.043 7  93865037.141 6                  22544712.560    22544717.760
  22544716.700          45.400          41.050
 103746736.354 8  80691948.030 7                  19373959.940    19373961.680
  19373960.580          48.900          46.350
 105943585.377 7  82400714.937 7                  19825843.760    19825850.860
  19825848.860          47.400          45.600
 15  1 27 15  5 45.0000000  0 16G30G07G13G02G15G28G09G10G05R14R05R21
                                R13R03R04R15
 110129580.965 8  85815349.297 8  82239723.539 8  20956928.240    20956927.880
  20956927.120          49.950          48.950
 120628033.139 7  93995938.033 7                  22954728.300    22954727.020
  22954726.480          46.800          42.900
 113171362.964 8  88185540.56447                  21535771.780
  21535769.180          49.450          44.750
 122479811.926 7  95438801.07546                  23307138.000
  23307136.780          46.950          39.450
 129261559.522 7 100723304.571 6                  24597652.340    24597653.880
  24597653.200          42.950          39.550
 116970375.361 8  91145872.94447                  22258660.040
  22258657.680          48.700          43.050
 131131800.183 7 102180634.068 6  97923113.735 7  24953550.600    24953553.320
  24953553.140          42.350          40.800
 117307675.238 8  91408590.62647                  22322905.760
  22322904.460          48.650          43.250
 107745081.789 8  83957222.755 8                  20503192.560    20503190.740
  20503190.040          48.900          49.550
 103969028.482 7  80864893.833 6                  19504283.980    19504291.120
  19504290.340          43.650          40.900
 110511512.799 8  85953444.027 7                  20673449.920    20673454.140
  20673453.680          48.550          45.650
 130491405.856 5                                  24385441.160
                        33.950
 125104536.257 6  97303621.939 6                  23428036.860    23428043.000
  23428041.480          37.750          38.300
 120700374.008 7  93878083.532 6                  22547846.120    22547851.300
  22547850.280          44.850          41.750
 103749314.411 8  80693953.177 7                  19374441.380    19374443.100
  19374442.020          48.950          46.750
 105931865.632 7  82391599.586 7                  19823650.600    19823657.680
  19823655.680          47.300          45.850
 15  1 27 15  5 50.0000000  0 17G30G07G13G02G15G28G09G10G05R14R05R16
                                R21R13R03R04R15
 110138526.643 8  85822319.952 8  82246403.753 8  20958630.560    20958630.180
  20958629.440          50.000          49.000
 120642749.551 7  94007405.360 7                  22957528.740    22957527.500
  22957526.940          47.050          42.850
 113162117.554 8  88178336.35047                  21534012.480
  21534009.840          49.850          44.450
 122494367.236 7  95450142.83646                  23309907.840
  23309906.500          47.150          39.050
 129247151.260 7 100712077.389 6                  24594910.480    24594912.080
  24594911.380          42.900          39.900
 116960297.474 8  91138020.05647                  22256742.280
  22256739.920          49.000          42.450
 131145671.396 7 102191442.797 6  97933472.096 7  24956190.160    24956192.940
  24956192.760          42.650          41.550
 117323192.748 8  91420682.18447                  22325858.640
  22325857.380          48.650          44.350
 107742561.447 8  83955258.851 8                  20502712.960    20502711.140
  20502710.420          48.900          49.650
 103976991.484 7  80871087.267 6                  19505777.860    19505784.960
  19505784.160          43.650          40.950
 110496992.135 8  85942150.177 7                  20670733.520    20670737.760
  20670737.320          48.650          45.800
 130855242.43415                                  24496375.800
                        35.950
 130497567.155 5                                  24386592.700
                        35.150
 125125333.374 6  97319797.465 6                  23431931.460    23431937.620
  23431936.100          37.500          38.600
 120717156.037 7  93891136.192 6                  22550981.200    22550986.380
  22550985.340          44.800          41.900
 103751907.955 8  80695970.372 7                  19374925.720    19374927.420
  19374926.340          49.100          46.900
 105920163.652 7  82382498.056 7                  19821460.780    19821467.840
  19821465.840          47.650          45.950
 15  1 27 15  5 55.0000000  0 17G30G07G13G02G15G28G09G10G05R14R05R16
                                R21R13R03R04R15
 110147483.097 8  85829299.009 8  82253092.014 8  20960334.920    20960334.560
  20960333.780          50.000          49.100
 120657470.224 7  94018876.013 7                  22960329.960    22960328.760
  22960328.180          47.050          43.100
 113152877.273 8  88171136.13747                  21532254.160
  21532251.460          49.800          44.600
 122508926.853 7  95461487.96646                  23312678.480
  23312677.080          47.100          39.650
 129232744.010 7 100700850.991 6                  24592168.860    24592170.440
  24592169.840          43.450          40.150
 116950230.558 8  91130175.71447                  22254826.580
  22254824.240          49.100          42.200
 131159544.135 7 102202252.701 6  97943831.599 7  24958829.920    24958832.900
  24958832.640          42.000          41.600
 117338718.099 8  91432779.84147                  22328813.020
  22328811.800          48.750          44.000
 107740055.715 8  83953306.332 8                  20502236.140    20502234.320
  20502233.620          48.950          49.650
 103984972.973 7  80877295.091 6                  19507275.160    19507282.260
  19507281.460          43.800          41.100
 110482479.284 8  85930862.415 7                  20668018.600    20668022.800
  20668022.440          48.750          45.650
 130833807.612 5                                  24492363.000
  24492380.720          35.700          30.250
 130503745.840 5                                  24387747.160
                        33.000
 125146133.442 6  97335975.279 6                  23435826.680    23435832.800
  23435831.300          37.350          38.500
 120733946.732 7  93904195.608 6                  22554117.900    22554123.080
  22554122.040          44.600          41.650
 103754517.473 8  80697999.992 7                  19375413.060    19375414.760
  19375413.680          49.000          47.050
 105908480.041 7  82373410.814 7                  19819274.360    19819281.400
  19819279.420          47.600          46.100
 15  1 27 15  6  0.0000000  0 17G30G07G13G02G15G28G09G10G05R14R05R16
                                R21R13R03R04R15
 110156449.336 8  85836285.694 8  82259787.584 8  20962041.140    20962040.780
  20962040.000          49.950          48.750
 120672194.156 7  94030349.210 7                  22963131.820    22963130.640
  22963130.040          47.350          42.200
 113143641.178 8  88163939.19247                  21530496.620
  21530493.880          49.900          43.950
 122523489.757 7  95472835.65746                  23315449.720
  23315448.320          47.100          37.900
 129218336.671 7 100689624.511 6                  24589427.180    24589428.860
  24589428.180          43.200          39.050
 116940173.705 8  91122339.22146                  22252912.800
  22252910.460          49.200          41.950
 131173417.436 6 102213063.047 6  97954191.540 7  24961469.780    24961472.940
  24961472.780          41.650          40.850
 117354250.300 8  91444882.84447                  22331768.720
  22331767.520          49.150          43.450
 107737563.612 8  83951364.435 8                  20501761.900    20501760.080
  20501759.380          49.050          49.300
 103992971.797 7  80883516.403 7                  19508775.720    19508782.840
  19508782.000          43.750          42.000
 110467973.256 8  85919579.967 7                  20665304.960    20665309.140
  20665308.780          48.900          46.350
 130812374.375 5 101743031.093 5                  24488350.620
  24488370.180          34.950          32.100
 130509940.865 4                                  24388904.840
                        29.050
 125166935.724 6  97352154.837 6                  23439722.080    23439728.460
  23439726.880          37.600          39.650
 120750745.029 7  93917260.944 7                  22557255.940    22557261.120
  22557260.160          44.550          42.700
 103757142.083 8  80700041.362 7                  19375903.160    19375904.880
  19375903.820          48.850          47.800
 105896813.679 7  82364336.985 7                  19817091.200    19817098.180
  19817096.240          47.850          47.050
 15  1 27 15  6  5.0000000  0 17G30G07G13G02G15G28G09G10G05R14R05R16
                                R21R13R03R04R15
 110165427.403 8  85843281.585 8  82266491.981 8  20963749.600    20963749.240
  20963748.480          50.150          48.900
 120686923.410 7  94041826.556 7                  22965934.700    22965933.540
  22965932.920          47.200          42.350
 113134411.318 8  88156747.10247                  21528740.260
  21528737.500          50.000          43.900
 122538058.022 7  95484187.51446                  23318221.980
  23318220.600          46.950          39.400
 129203931.357 7 100678399.618 6                  24586685.880    24586687.580
  24586686.860          43.800          39.450
 116930128.965 8  91114512.15347                  22251001.320
  22250999.000          49.300          42.450
 131187293.389 6 102223875.435 6  97964553.413 7  24964110.140    24964113.460
  24964113.220          41.600          40.600
 117369791.434 8  91456992.81147                  22334726.140
  22334724.920          49.300          43.150
 107735087.226 8  83949434.784 8                  20501290.640    20501288.840
  20501288.160          49.050          49.400
 104000990.109 7  80889752.875 6                  19510279.980    19510287.000
  19510286.200          43.300          41.800
 110453476.425 8  85908304.652 7                  20662593.020    20662597.200
  20662596.820          48.750          46.050
 130790944.716 5 101726359.96015                  24484338.840    24484355.980
  24484359.120          35.650          32.050
 130516154.467 5                                  24390065.920
                        31.750
 125187742.007 6  97368337.494 6                  23443618.420    23443624.880
  23443623.260          37.200          39.750
 120767553.050 7  93930333.819 7                  22560395.840    22560401.060
  22560400.080          44.500          42.300
 103759783.792 8  80702096.023 7                  19376396.480    19376398.220
  19376397.160          48.800          47.500
 105885166.590 7  82355278.152 7                  19814911.620    19814918.560
  19814916.640          47.850          46.850
 15  1 27 15  6 10.0000000  0 17G30G07G13G02G15G28G09G10G05R14R05R16
                                R21R13R03R04R15
 110174415.500 8  85850285.295 8  82273203.866 8  20965459.980    20965459.620
  20965458.860          50.300          49.250
 120701656.147 7  94053306.579 7                  22968738.260    22968737.100
  22968736.440          47.150          43.200
 113125185.890 8  88149558.45947                  21526984.780
  21526981.960          50.000          44.650
 122552629.841 7  95495542.13846                  23320994.900
  23320993.520          47.150          39.400
 129189526.323 7 100667174.938 6                  24583944.660    24583946.380
  24583945.580          43.700          39.750
 116920094.567 8  91106693.14447                  22249091.800
  22249089.540          49.200          42.850
 131201170.151 7 102234688.473 6  97974915.909 7  24966750.680    24966754.100
  24966753.740          42.250          40.500
 117385339.699 8  91469108.33647                  22337684.920
  22337683.680          49.000          44.450
 107732624.756 8  83947515.976 8                  20500822.040    20500820.260
  20500819.560          49.150          49.900
 104009026.189 7  80896003.148 7                  19511787.500    19511794.500
  19511793.720          43.150          42.100
 110438986.720 8  85897034.886 7                  20659882.420    20659886.600
  20659886.180          48.900          46.700
 130769516.866 5 101709694.002 5                  24480327.540    24480347.180
  24480347.280          34.600          32.600
 130522384.729 5                                  24391230.220
                        31.100
 125208550.568 6  97384521.906 6                  23447515.160    23447521.680
  23447520.060          37.700          40.300
 120784368.935 7  93943412.828 7                  22563537.160    22563542.400
  22563541.460          44.350          43.200
 103762440.872 8  80704162.630 8                  19376892.700    19376894.380
  19376893.360          48.700          48.000
 105873537.132 7  82346233.027 7                  19812735.360    19812742.300
  19812740.360          47.350          47.150
 15  1 27 15  6 15.0000000  0 17G30G07G13G02G15G28G09G10G05R14R05R16
                                R21R13R03R04R15
 110183415.547 8  85857298.325 8  82279924.683 8  20967172.640    20967172.280
  20967171.520          50.400          49.200
 120716394.375 7  94064790.923 7                  22971542.860    22971541.680
  22971541.040          46.950          43.350
 113115966.921 8  88142374.85147                  21525230.500
  21525227.660          50.000          44.300
 122567207.125 7  95506901.04846                  23323768.880
  23323767.400          46.950          39.300
 129175123.461 7 100655951.964 6                  24581203.840    24581205.540
  24581204.780          44.350          39.900
 116910072.449 8  91098883.71047                  22247184.640
  22247182.400          49.300          42.450
 131215049.656 7 102245503.685 6  97985280.457 7  24969391.880    24969395.200
  24969394.860          42.800          40.250
 117400897.019 8  91481230.91747                  22340645.400
  22340644.160          48.950          44.350
 107730178.164 8  83945609.543 8                  20500356.480    20500354.700
  20500353.980          49.250          49.750
 104017081.863 7  80902268.670 7                  19513298.740    19513305.740
  19513304.940          43.300          42.050
 110424506.252 8  85885772.306 7                  20657173.580    20657177.660
  20657177.280          49.000          46.550
 130748092.827 6 101693031.087 5                  24476316.660    24476336.020
  24476336.820          36.850          32.800
 130528633.579 5                                  24392397.980
                        31.050
 125229363.479 6  97400709.729 6                  23451412.680    23451419.340
  23451417.680          37.300          40.650
 120801194.599 7  93956499.415 7                  22566680.380    22566685.640
  22566684.680          44.800          42.750
 103765115.220 8  80706242.682 7                  19377392.140    19377393.800
  19377392.780          48.700          47.800
 105861927.232 7  82337203.119 7                  19810562.720    19810569.680
  19810567.740          47.300          47.100
 15  1 27 15  6 20.0000000  0 17G30G07G13G02G15G28G09G10G05R14R05R16
                                R21R13R03R04R15
 110192423.869 8  85864317.798 8  82286651.687 8  20968886.860    20968886.500
  20968885.760          50.350          48.650
 120731134.334 7  94076276.603 7                  22974347.800    22974346.620
  22974345.880          46.350          42.700
 113106750.679 8  88135193.36547                  21523476.740
  21523473.840          49.900          43.800
 122581786.165 7  95518261.30846                  23326543.180
  23326541.660          47.000          38.250
 129160719.083 7 100644727.802 6                  24578462.780    24578464.520
  24578463.720          44.700          39.250
 116900058.979 8  91091081.01246                  22245279.120
  22245276.920          49.300          41.950
 131228928.223 7 102256318.134 6  97995644.312 7  24972032.880    24972036.100
  24972035.760          43.050          39.350
 117416459.693 8  91493357.66047                  22343606.880
  22343605.680          48.950          43.600
 107727743.792 8  83943712.624 8                  20499893.220    20499891.460
  20499890.760          49.250          49.250
 104025153.388 7  80908546.515 7                  19514812.900    19514819.940
  19514819.120          43.350          42.600
 110410031.092 8  85874513.848 7                  20654465.700    20654469.740
  20654469.360          49.000          46.650
 130726668.850 6 101676368.160 5                  24472305.900    24472326.060
  24472325.300          36.650          32.650
 130534897.231 5                                  24393568.500
                        32.400
 125250176.750 6  97416897.814 6                  23455310.300    23455316.980
  23455315.380          37.250          40.750
 120818026.436 7  93969590.829 7                  22569824.720    22569830.000
  22569829.060          45.000          43.150
 103767803.187 8  80708333.322 7                  19377894.100    19377895.740
  19377894.720          48.850          47.850
 105850333.259 7  82328185.593 7                  19808393.080    19808400.040
  19808398.080          47.600          47.200
 15  1 27 15  6 25.0000000  0 17G30G07G13G02G15G28G09G10G05R14R05R16
                                R21R13R03R04R15
 110201442.208 8  85871345.076 8  82293386.150 8  20970603.000    20970602.620
  20970601.880          50.300          48.750
 120745877.783 7  94087764.999 7                  22977153.420    22977152.160
  22977151.400          46.050          43.050
 113097538.870 8  88128015.33947                  21521723.820
  21521720.860          50.000          43.800
 122596368.699 7  95529624.28146                  23329318.140
  23329316.600          46.950          38.700
 129146314.967 7 100633503.844 6                  24575721.760    24575723.500
  24575722.740          44.900          39.400
 116890055.864 8  91083286.38547                  22243375.560
  22243373.400          49.400          42.050
 131242807.634 7 102267133.255 6  98006008.779 7  24974674.100    24974677.180
  24974676.840          43.600          39.350
 117432029.462 8  91505489.93947                  22346569.720
  22346568.520          49.050          43.200
 107725323.354 8  83941826.572 8                  20499432.600    20499430.880
  20499430.160          49.350          49.400
 104033242.501 7  80914838.051 7                  19516330.400    19516337.500
  19516336.600          43.650          42.100
 110395563.291 8  85863261.120 7                  20651759.220    20651763.200
  20651762.860          48.850          46.550
 130705246.694 6 101659706.680 5                  24468295.420    24468315.520
  24468314.580          36.250          32.000
 130541177.372 5                                  24394742.160
                        30.800
 125270992.469 6  97433087.812 6                  23459208.400    23459215.140
  23459213.560          37.050          40.750
 120834866.195 7  93982688.392 7                  22572970.540    22572975.860
  22572974.880          44.750          42.600
 103770506.371 8  80710435.798 7                  19378398.880    19378400.540
  19378399.520          48.800          47.700
 105838756.981 7  82319181.834 7                  19806226.780    19806233.700
  19806231.720          47.350          47.000
 15  1 27 15  6 30.0000000  0 17G30G07G13G02G15G28G09G10G05R14R05R16
                                R21R13R03R04R15
 110210473.310 8  85878382.288 8  82300130.147 8  20972321.560    20972321.200
  20972320.440          50.200          49.050
 120760627.474 7  94099258.251 7                  22979960.240    22979958.920
  22979958.140          45.900          43.600
 113088334.294 8  88120842.94447                  21519972.280
  21519969.260          50.050          44.400
 122610957.534 7  95540992.15746                  23332094.320
  23332092.760          46.950          39.200
 129131913.887 7 100622282.242 6                  24572981.340    24572983.020
  24572982.260          44.700          40.000
 116880065.929 8  91075502.02647                  22241474.540
  22241472.400          49.550          42.900
 131256690.657 7 102277951.185 6  98016375.943 7  24977315.960    24977318.940
  24977318.640          43.700          39.950
 117447609.105 8  91517629.90847                  22349534.440
  22349533.240          49.150          43.700
 107722919.641 8  83939953.547 8                  20498975.160    20498973.460
  20498972.760          49.350          49.800
 104041352.024 7  80921145.462 7                  19517851.720    19517858.840
  19517857.920          43.350          42.350
 110381105.525 8  85852016.204 7                  20649054.600    20649058.580
  20649058.240          48.950          46.900
 130683829.228 6 101643048.888 5                  24464285.960    24464305.640
  24464304.500          36.100          31.500
 130547477.142 5                                  24395919.540
                        30.900
 125291813.064 6  97449281.589 6                  23463107.520    23463114.280
  23463112.640          36.800          40.950
 120851716.537 7  93995794.193 7                  22576118.360    22576123.700
  22576122.700          44.900          42.900
 103773227.813 8  80712552.470 7                  19378907.040    19378908.740
  19378907.720          48.750          47.950
 105827201.298 7  82310194.091 7                  19804064.280    19804071.220
  19804069.220          47.650          47.050
 15  1 27 15  6 35.0000000  0 16G30G07G13G02G15G28G09G10G05R14R05R16
                                R13R03R04R15
 110219513.792 8  85885426.821 8  82306881.160 8  20974041.900    20974041.540
  20974040.780          50.100          49.000
 120775380.030 7  94110753.747 7                  22982767.580    22982766.200
  22982765.440          45.550          43.600
 113079133.607 8  88113673.58847                  21518221.480
  21518218.380          50.000          44.050
 122625549.202 7  95552362.27346                  23334871.020
  23334869.480          46.800          39.150
 129117512.454 7 100611060.369 6                  24570240.760    24570242.520
  24570241.740          44.600          39.900
 116870085.760 8  91067725.28547                  22239575.340
  22239573.220          49.300          42.350
 131270573.891 7 102288769.289 6  98026743.294 7  24979957.960    24979960.840
  24979960.480          44.250          40.150
 117463195.225 8  91529774.93147                  22352500.400
  22352499.200          49.050          43.750
 107720529.312 8  83938090.957 8                  20498520.280    20498518.620
  20498517.900          49.250          49.650
 104049478.662 7  80927466.185 7                  19519376.240    19519383.340
  19519382.440          43.550          42.250
 110366654.493 8  85840776.524 7                  20646351.280    20646355.200
  20646354.860          48.650          46.850
 130662413.058 5 101626392.050 5                  24460276.540    24460295.620
  24460294.480          35.950          31.650
 125312635.239 6  97465476.610 6                  23467006.860    23467013.680
  23467012.020          37.700          40.800
 120868574.117 7  94008905.637 7                  22579267.540    22579272.880
  22579271.860          44.700          42.800
 103775963.977 8  80714680.599 7                  19379417.960    19379419.740
  19379418.680          48.750          47.850
 105815662.771 7  82301219.697 7                  19801905.020    19801911.920
  19801909.900          47.450          47.000
 15  1 27 15  6 40.0000000  0 16G30G07G13G02G15G28G09G10G05R14R05R16
                                R13R03R04R15
 110228564.776 8  85892479.534 8  82313640.013 8  20975764.240    20975763.880
  20975763.140          50.200          49.700
 120790136.561 7  94122252.336 7                  22985575.660    22985574.260
  22985573.500          45.150          44.400
 113069937.873 8  88106508.09147                  21516471.600
  21516468.460          49.950          45.300
 122640144.803 7  95563735.43846                  23337648.480
  23337646.920          46.600          40.050
 129103111.841 7 100599839.149 6                  24567500.380    24567502.120
  24567501.320          44.200          41.250
 116860116.519 8  91059957.05447                  22237678.220
  22237676.140          49.300          43.650
 131284458.438 7 102299588.413 6  98037111.629 7  24982600.240    24982603.020
  24982602.700          44.550          41.550
 117478788.923 8  91541925.84947                  22355467.800
  22355466.600          49.200          44.900
 107718153.465 8  83936239.650 8                  20498068.160    20498066.520
  20498065.800          49.300          50.200
 104057623.372 7  80933800.968 6                  19520904.160    19520911.240
  19520910.360          43.250          40.050
 110352211.203 8  85829542.853 7                  20643649.380    20643653.300
  20643652.920          48.750          44.850
 130640999.345 5 101609737.143 4                  24456267.500    24456286.300
  24456285.220          35.950          28.300
 125333460.234 6  97481673.828 6                  23470906.680    23470913.580
  23470911.960          37.950          38.400
 120885440.015 7  94022023.538 6                  22582418.260    22582423.540
  22582422.580          44.750          40.500
 103778716.073 8  80716821.116 7                  19379931.860    19379933.660
  19379932.600          48.650          46.100
 105804142.464 7  82292259.471 7                  19799749.180    19799756.060
  19799754.020          47.100          45.250
 15  1 27 15  6 45.0000000  0 16G30G07G13G02G15G28G09G10G05R14R05R16
                                R13R03R04R15
 110237628.120 8  85899541.880 8  82320408.091 8  20977488.940    20977488.580
  20977487.840          49.950          49.650
 120804899.001 7  94133755.510 7                  22988384.840    22988383.460
  22988382.700          44.500          44.250
 113060748.995 8  88099347.92647                  21514723.060
  21514719.840          49.600          45.350
 122654746.294 7  95575113.18746                  23340427.020
  23340425.520          45.650          40.750
 129088713.880 7 100588619.976 6                  24564760.500    24564762.220
  24564761.380          44.400          41.150
 116850160.116 8  91052198.82647                  22235783.540
  22235781.520          49.000          43.700
 131298346.230 7 102310410.071 6  98047482.377 7  24985243.160    24985245.860
  24985245.520          44.250          41.650
 117494392.093 8  91554084.14747                  22358437.020
  22358435.800          49.000          44.550
 107715793.962 8  83934401.074 8                  20497619.160    20497617.500
  20497616.800          49.000          50.050
 104065788.075 7  80940151.284 6                  19522435.820    19522442.940
  19522442.020          44.400          40.600
 110337777.645 8  85818316.760 7                  20640949.320    20640953.180
  20640952.800          49.350          45.000
 130619589.793 6 101593085.475 4                  24452259.240    24452279.020
  24452277.160          37.000          29.950
 125354289.778 6  97497874.591 6                  23474807.380    23474814.360
  23474812.700          38.850          38.950
 120902316.194 7  94035149.438 6                  22585570.920    22585576.220
  22585575.180          46.400          41.000
 103781485.932 8  80718975.439 7                  19380449.060    19380450.920
  19380449.860          49.400          46.550
 105792642.243 8  82283314.857 7                  19797597.080    19797603.980
  19797601.880          48.300          45.600
 15  1 27 15  6 50.0000000  0 16G30G07G13G02G15G28G09G10G05R14R05R16
                                R13R03R04R15
 110246699.719 8  85906610.654 8  82327182.337 8  20979215.220    20979214.860
  20979214.120          50.000          49.200
 120819663.189 7  94145260.061 7                  22991194.380    22991193.000
  22991192.260          44.500          43.600
 113051562.848 8  88092189.88847                  21512975.020
  21512971.760          49.750          44.400
 122669349.518 7  95586492.28146                  23343205.920
  23343204.440          45.600          40.200
 129074314.441 7 100577399.643 6                  24562020.360    24562022.060
  24562021.160          44.850          40.350
 116840212.462 8  91044447.41647                  22233890.540
  22233888.560          49.150          42.350
 131312233.108 7 102321231.023 6  98057852.476 7  24987885.920    24987888.480
  24987888.300          44.100          41.500
 117510000.617 8  91566246.62247                  22361407.260
  22361405.980          48.950          43.900
 107713446.711 8  83932572.048 8                  20497172.500    20497170.840
  20497170.140          49.150          49.650
 104073968.618 7  80946513.922 6                  19523970.480    19523977.580
  19523976.680          44.050          41.200
 110323349.751 8  85807095.065 7                  20638250.280    20638254.180
  20638253.780          49.100          45.600
 130598180.540 6 101576434.033 4                  24448251.140    24448271.040
  24448268.840          38.000          29.750
 125375119.803 6  97514075.709 6                  23478708.180    23478715.160
  23478713.520          38.950          39.600
 120919198.505 7  94048280.097 6                  22588724.680    22588729.980
  22588728.940          46.550          40.900
 103784269.397 8  80721140.355 7                  19380968.860    19380970.720
  19380969.660          49.350          46.900
 105781157.859 8  82274382.564 7                  19795447.980    19795454.780
  19795452.720          48.250          45.900
 15  1 27 15  6 55.0000000  0 16G30G07G13G02G15G28G09G10G05R14R05R16
                                R13R03R04R15
 110255780.436 8  85913686.534 8  82333963.385 8  20980943.220    20980942.840
  20980942.120          50.050          49.150
 120834429.946 7  94156766.607 7                  22994004.340    22994003.020
  22994002.260          45.050          43.600
 113042380.323 8  88085034.67147                  21511227.680
  21511224.360          49.900          44.050
 122683955.305 7  95597873.37846                  23345985.300
  23345983.920          45.350          39.800
 129059914.433 7 100566178.882 6                  24559280.100    24559281.760
  24559280.920          44.950          40.400
 116830274.394 8  91036703.47347                  22231999.380
  22231997.420          49.400          42.450
 131326120.023 7 102332051.981 6  98068222.543 7  24990528.580    24990531.160
  24990531.020          43.050          41.650
 117525615.353 8  91578413.92847                  22364378.680
  22364377.380          48.950          43.800
 107711112.601 8  83930753.258 8                  20496728.320    20496726.680
  20496725.960          49.200          49.750
 104082165.784 7  80952889.492 6                  19525508.240    19525515.440
  19525514.500          43.600          41.400
 110308928.301 8  85795878.377 7                  20635552.480    20635556.320
  20635555.940          49.000          45.650
 130576772.348 6 101559783.396 5                  24444243.180    24444262.920
  24444261.080          37.150          30.650
 125395951.142 6  97530277.851 6                  23482609.180    23482616.140
  23482614.580          37.750          39.600
 120936087.745 7  94061416.164 6                  22591879.740    22591885.060
  22591883.940          46.300          41.350
 103787067.428 8  80723316.590 7                  19381491.320    19381493.260
  19381492.200          49.150          47.000
 105769690.176 8  82265463.263 7                  19793301.980    19793308.740
  19793306.680          48.450          46.000
 15  1 27 15  7  0.0000000  0 16G30G07G13G02G15G28G09G10G05R14R05R16
                                R13R03R04R15
 110264874.782 8  85920773.045 8  82340754.619 8  20982673.780    20982673.460
  20982672.740          50.000          49.250
 120849203.785 7  94168278.683 7                  22996815.660    22996814.420
  22996813.640          45.450          43.750
 113033205.958 8  88077885.81847                  21509481.860
  21509478.520          50.100          44.000
 122698568.164 7  95609259.98846                  23348766.020
  23348764.740          45.700          39.800
 129045518.400 7 100554961.222 6                  24556540.620    24556542.280
  24556541.360          45.800          40.400
 116820350.496 8  91028970.57747                  22230110.900
  22230108.980          49.700          42.650
 131340011.446 7 102342876.440 7  98078595.985 7  24993172.000    24993174.760
  24993174.660          42.700          42.350
 117541240.841 8  91590589.63147                  22367352.140
  22367350.840          49.250          43.850
 107708796.160 8  83928948.245 8                  20496287.520    20496285.900
  20496285.160          49.500          49.750
 104090384.185 7  80959281.583 6                  19527049.960    19527057.220
  19527056.300          43.400          41.550
 110294518.020 8  85784670.394 7                  20632856.740    20632860.640
  20632860.200          48.650          45.800
 130555369.794 6 101543137.189 5                  24440236.380    24440255.660
  24440254.540          38.150          31.750
 125416788.472 6  97546484.647 6                  23486511.320    23486518.320
  23486516.780          38.150          39.550
 120952988.594 7  94074561.240 6                  22595036.960    22595042.300
  22595041.200          45.850          41.900
 103789884.535 8  80725507.680 7                  19382017.380    19382019.340
  19382018.320          49.050          47.200
 105758243.974 8  82256560.681 7                  19791160.020    19791166.760
  19791164.680          48.550          46.150
 15  1 27 15  7  5.0000000  0 16G30G07G13G02G15G28G09G10G05R14R05R16
                                R13R03R04R15
 110273978.911 8  85927867.163 8  82347553.142 8  20984406.220    20984405.920
  20984405.180          49.950          49.200
 120863980.929 7  94179793.320 7                  22999627.620    22999626.420
  22999625.660          45.900          43.650
 113024035.885 8  88070740.30847                  21507736.880
  21507733.520          50.050          43.900
 122713184.238 7  95620649.11646                  23351547.360
  23351546.140          45.700          40.600
 129031122.504 7 100543743.655 6                  24553801.180    24553802.780
  24553801.880          45.900          40.450
 116810436.895 8  91021245.69647                  22228224.420
  22228222.500          49.800          42.400
 131353903.535 7 102353701.422 7  98088969.929 7  24995815.540    24995818.400
  24995818.340          43.200          42.400
 117556873.200 8  91602770.68647                  22370326.920
  22370325.580          49.350          43.950
 107706493.517 8  83927153.969 8                  20495849.320    20495847.720
  20495846.980          49.600          49.750
 104098620.043 7  80965687.242 6                  19528595.020    19528602.300
  19528601.360          43.350          41.400
 110280114.836 8  85773467.925 7                  20630162.340    20630166.260
  20630165.780          48.850          46.000
 130533969.034 6 101526492.354 5                  24436230.020    24436249.300
  24436248.240          38.500          32.500
 125437627.724 6  97562692.958 6                  23490413.940    23490420.900
  23490419.320          38.100          39.550
 120969897.084 7  94087712.260 6                  22598195.620    22598200.980
  22598199.860          45.750          41.650
 103792716.934 8  80727710.647 7                  19382546.260    19382548.260
  19382547.280          48.950          47.350
 105746815.439 8  82247671.833 7                  19789021.340    19789028.020
  19789025.980          48.300          46.550
 15  1 27 15  7 10.0000000  0 17G30G07G13G02G15G28G09G10G05R14R05R16
                                R21R13R03R04R15
 110283094.327 8  85934970.074 8  82354360.117 8  20986140.800    20986140.520
  20986139.780          50.100          49.000
 120878762.816 7  94191311.663 7                  23002440.480    23002439.300
  23002438.600          46.400          43.750
 113014871.678 8  88063599.37847                  21505993.000
  21505989.600          49.900          43.800
 122727805.100 7  95632041.97146                  23354329.640
  23354328.420          45.900          39.450
 129016728.236 7 100532527.378 6                  24551062.040    24551063.660
  24551062.720          45.950          40.550
 116800535.166 8  91013530.08547                  22226340.180
  22226338.260          49.800          42.400
 131367797.814 7 102364528.115 6  98099345.538 7  24998459.540    24998462.480
  24998462.420          42.700          41.900
 117572513.986 8  91614958.31147                  22373303.300
  22373301.920          49.100          43.600
 107704206.289 8  83925371.716 8                  20495414.100    20495412.500
  20495411.740          49.400          49.750
 104106874.832 7  80972107.632 7                  19530143.580    19530150.900
  19530149.940          43.450          42.400
 110265720.504 8  85762272.356 7                  20627469.580    20627473.500
  20627473.040          48.600          46.900
 130512571.646 6 101509850.146 5                  24432224.200    24432243.080
  24432242.680          39.650          35.100
                 101576618.868 4                                  24405455.560
                                        29.350
 125458470.506 6  97578904.007 6                  23494317.220    23494324.000
  23494322.500          38.200          40.300
 120986814.714 7  94100870.401 7                  22601355.960    22601361.340
  22601360.160          44.900          42.350
 103795566.118 8  80729926.679 8                  19383078.300    19383080.380
  19383079.400          48.700          48.300
 105735406.120 7  82238797.933 7                  19786886.260    19786892.900
  19786890.880          47.950          47.350
 15  1 27 15  7 15.0000000  0 16G30G07G13G02G15G28G09G10G05R14R05R16
                                R13R03R04R15
 110292219.325 8  85942080.467 8  82361174.235 8  20987877.200    20987876.960
  20987876.200          50.200          49.000
 120893547.787 7  94202832.406 7                  23005253.940    23005252.780
  23005252.140          46.950          43.700
 113005711.639 8  88056461.68947                  21504249.900
  21504246.500          49.750          44.300
 122742428.989 7  95643437.17446                  23357112.480
  23357111.260          45.900          40.200
 129002333.937 7 100521311.069 6                  24548322.880    24548324.540
  24548323.620          45.900          40.300
 116790643.612 8  91005822.38347                  22224457.900
  22224455.960          49.750          42.900
 131381692.614 6 102375355.229 6  98109721.497 7  25001103.580    25001106.620
  25001106.400          41.900          41.400
 117588161.495 8  91627151.15747                  22376280.980
  22376279.520          49.250          43.850
 107701932.742 8  83923600.117 8                  20494981.460    20494979.860
  20494979.100          49.300          49.750
 104115146.735 7  80978541.339 7                  19531695.420    19531702.680
  19531701.760          43.450          42.400
 110251333.180 8  85751082.213 7                  20624778.140    20624782.020
  20624781.600          48.450          46.600
 130491175.953 6 101493209.264 5                  24428218.760    24428237.920
  24428237.460          39.600          35.000
 125479315.149 6  97595116.505 6                  23498220.760    23498227.520
  23498226.040          37.850          39.700
 121003739.863 7  94114034.391 6                  22604517.740    22604523.060
  22604521.860          44.600          41.950
 103798430.250 8  80732154.331 8                  19383613.160    19383615.240
  19383614.300          48.650          48.150
 105724014.086 7  82229937.455 7                  19784754.380    19784761.020
  19784759.020          47.700          47.300
 15  1 27 15  7 20.0000000  0 16G30G07G13G02G15G28G09G10G05R14R05R16
                                R13R03R04R15
 110301355.023 8  85949199.197 8  82367996.345 8  20989615.620    20989615.420
  20989614.660          50.200          48.950
 120908336.920 7  94214356.416 7                  23008068.240    23008067.100
  23008066.460          47.100          43.550
 112996556.855 8  88049328.09547                  21502507.800
  21502504.420          49.800          43.900
 122757057.021 7  95654835.60446                  23359896.120
  23359895.000          46.450          39.600
 128987940.703 7 100510095.599 6                  24545583.920    24545585.560
  24545584.600          45.800          40.000
 116780763.352 8  90998123.49747                  22222577.780
  22222575.780          49.850          42.350
 131395589.038 6 102386183.587 6  98120098.665 7  25003747.840    25003751.040
  25003750.800          41.150          40.900
 117603816.790 8  91639350.08247                  22379260.140
  22379258.620          49.250          43.750
 107699673.965 8  83921840.035 8                  20494551.620    20494550.040
  20494549.280          49.450          49.700
 104123436.946 7  80984989.278 7                  19533250.620    19533257.880
  19533256.980          43.400          42.600
 110236954.091 8  85739898.480 7                  20622088.260    20622092.140
  20622091.700          48.600          46.250
 130469782.988 6 101476570.509 5                  24424213.840    24424233.220
  24424232.540          39.550          35.100
 125500162.537 6  97611331.150 6                  23502124.780    23502131.480
  23502130.040          37.900          39.950
 121020673.513 7  94127205.013 7                  22607681.100    22607686.400
  22607685.180          44.300          42.450
 103801310.670 8  80734394.670 7                  19384151.040    19384153.120
  19384152.220          48.650          47.850
 105712640.492 7  82221091.341 7                  19782625.940    19782632.600
  19782630.620          47.350          47.250
 15  1 27 15  7 25.0000000  0 16G30G07G13G02G15G28G09G10G05R14R05R16
                                R13R03R04R15
 110310500.790 8  85956325.762 8  82374825.974 8  20991355.980    20991355.840
  20991355.060          50.400          49.050
 120923129.627 7  94225883.190 7                  23010883.200    23010882.040
  23010881.420          47.500          43.450
 112987406.743 8  88042198.13747                  21500766.580
  21500763.200          49.850          43.850
 122771688.535 7  95666236.74546                  23362680.420
  23362679.380          46.800          40.000
 128973547.859 7 100498880.421 6                  24542845.060    24542846.600
  24542845.640          46.100          40.050
 116770893.773 8  90990432.91247                  22220699.680
  22220697.640          50.050          42.550
 131409486.436 6 102397012.704 6  98130476.571 7  25006392.300    25006395.620
  25006395.520          41.200          40.850
 117619479.247 8  91651554.58347                  22382240.640
  22382239.080          49.400          43.400
 107697429.358 8  83920090.983 8                  20494124.500    20494122.900
  20494122.160          49.550          49.750
 104131744.767 7  80991450.904 7                  19534809.140    19534816.420
  19534815.520          43.450          42.550
 110222582.614 8  85728720.681 7                  20619399.780    20619403.640
  20619403.200          48.350          46.400
 130448392.269 6 101459933.461 6                  24420209.260    24420228.760
  24420228.100          39.200          36.450
 125521012.147 6  97627547.503 6                  23506029.340    23506035.980
  23506034.480          37.850          39.600
 121037615.093 7  94140381.760 6                  22610845.940    22610851.240
  22610850.000          44.550          41.800
 103804206.626 8  80736647.078 7                  19384691.820    19384693.940
  19384693.020          48.800          47.650
 105701284.981 7  82212259.275 7                  19780500.900    19780507.540
  19780505.600          47.300          47.150
 15  1 27 15  7 30.0000000  0 16G30G07G13G02G15G28G09G10G05R14R05R16
                                R13R03R04R15
 110319657.072 8  85963460.525 8  82381663.450 8  20993098.340    20993098.200
  20993097.440          50.300          48.250
 120937926.338 7  94237413.091 7                  23013698.940    23013697.800
  23013697.160          47.600          42.550
 112978261.751 8  88035072.17047                  21499026.320
  21499022.960          49.950          43.150
 122786323.977 7  95677640.94646                  23365465.500
  23365464.440          47.300          38.500
 128959156.067 7 100487666.062 6                  24540106.380    24540107.880
  24540106.880          46.000          38.800
 116761035.358 8  90982751.03846                  22218823.720
  22218821.640          50.000          41.350
 131423385.285 6 102407842.939 6  98140855.536 7  25009037.080    25009040.460
  25009040.360          41.750          40.150
 117635149.313 8  91663765.01247                  22385222.560
  22385221.000          49.350          44.050
 107695199.384 8  83918353.336 8                  20493700.160    20493698.540
  20493697.820          49.450          49.100
 104140070.616 7  80997926.556 7                  19536371.020    19536378.340
  19536377.440          43.850          42.400
 110208219.187 8  85717549.139 7                  20616712.780    20616716.660
  20616716.240          48.500          46.400
 130427004.210 6 101443298.522 6                  24416205.180    24416224.900
  24416224.180          40.350          36.650
 125541864.460 6  97643765.959 6                  23509934.160    23509940.920
  23509939.440          37.800          39.300
 121054565.216 7  94153565.173 6                  22614012.360    22614017.680
  22614016.400          44.750          41.550
 103807118.686 8  80738912.001 7                  19385235.620    19385237.760
  19385236.800          49.050          47.550
 105689947.984 7  82203441.621 7                  19778379.280    19778385.940
  19778384.020          47.650          46.850
 15  1 27 15  7 35.0000000  0 17G30G07G13G02G15G28G09G10G05R14R05R16
                                R21R13R03R04R15
 110328823.251 8  85970602.998 8  82388508.316 8  20994842.600    20994842.480
  20994841.700          50.200          48.850
 120952726.423 7  94248945.622 7                  23016515.340    23016514.160
  23016513.520          47.850          43.050
 112969121.261 8  88027949.71847                  21497286.920
  21497283.580          49.850          44.000
 122800962.724 7  95689047.73046                  23368251.220
  23368250.160          47.400          39.250
 128944764.535 7 100476451.899 6                  24537367.780    24537369.200
  24537368.200          45.750          38.800
 116751187.498 8  90975077.39147                  22216949.760
  22216947.640          49.800          42.300
 131437284.983 7 102418673.850 6  98151235.167 8  25011682.060    25011685.480
  25011685.360          42.700          40.050
 117650826.379 8  91675980.90247                  22388205.840
  22388204.240          49.050          43.550
 107692983.440 8  83916626.631 8                  20493278.480    20493276.840
  20493276.140          49.550          49.650
 104148413.874 7  81004415.761 6                  19537936.220    19537943.540
  19537942.640          43.650          40.800
 110193863.191 8  85706383.379 7                  20614027.200    20614031.080
  20614030.620          48.500          45.550
 130405618.170 6 101426665.127 6                  24412201.500    24412221.300
  24412220.580          40.250          36.050
 130630931.15116                                  24411511.920
                        37.250
 125562718.974 6  97659986.130 6                  23513839.600    23513846.220
  23513844.820          37.950          38.550
 121071523.107 7  94166754.629 6                  22617180.220    22617185.540
  22617184.220          44.500          40.400
 103810046.116 8  80741188.889 7                  19385782.300    19385784.460
  19385783.460          49.050          46.700
 105678628.762 7  82194637.809 7                  19776261.000    19776267.700
  19776265.780          47.550          45.850
 15  1 27 15  7 40.0000000  0 17G30G07G13G02G15G28G09G10G05R14R05R16
                                R21R13R03R04R15
 110338001.830 8  85977755.142 8  82395362.458 8  20996589.200    20996589.120
  20996588.340          50.050          49.550
 120967532.446 7  94260482.789 7                  23019332.880    23019331.680
  23019331.040          47.650          43.700
 112959987.830 8  88020832.77047                  21495548.840
  21495545.560          49.950          44.550
 122815607.294 7  95700459.04646                  23371038.040
  23371036.940          47.550          39.250
 128930375.830 7 100465239.940 6                  24534629.700    24534631.120
  24534630.040          45.600          40.150
 116741352.699 8  90967413.92447                  22215078.280
  22215076.140          49.700          43.700
 131451188.033 7 102429507.383 6  98161617.303 7  25014327.780    25014331.140
  25014330.960          44.000          40.950
 117666512.997 8  91688204.21647                  22391190.900
  22391189.300          49.050          44.300
 107690784.056 8  83914912.825 8                  20492859.960    20492858.320
  20492857.620          49.550          50.150
 104156777.191 7  81010920.575 6                  19539505.100    19539512.440
  19539511.580          43.400          41.650
 110179517.375 8  85695225.520 7                  20611343.500    20611347.360
  20611346.920          48.450          46.200
 130384236.793 6 101410035.354 6                  24408198.720    24408218.540
  24408217.840          41.250          37.700
 130637470.802 5                                  24412733.660
                        35.800
 125583577.918 6  97676209.755 6                  23517745.900    23517752.400
  23517751.020          38.000          39.350
 121088491.316 7  94179952.100 6                  22620350.020    22620355.380
  22620354.000          44.900          41.500
 103812991.558 8  80743479.790 7                  19386332.340    19386334.500
  19386333.500          48.900          47.250
 105667329.911 7  82185849.830 7                  19774146.520    19774153.240
  19774151.320          47.500          46.650
 15  1 27 15  7 45.0000000  0 17G30G07G13G02G15G28G09G10G05R14R05R16
                                R21R13R03R04R15
 110347189.327 8  85984914.226 8  82402223.247 8  20998337.500    20998337.460
  20998336.660          49.950          49.450
 120982340.860 7  94272021.813 7                  23022150.880    23022149.620
  23022148.980          47.650          43.450
 112950857.905 8  88013718.55047                  21493811.420
  21493808.200          50.000          44.000
 122830254.182 7  95711872.18146                  23373825.300
  23373824.200          47.500          39.850
 128915986.471 7 100454027.471 6                  24531891.480    24531892.800
  24531891.840          45.600          40.150
 116731527.501 8  90959757.92947                  22213208.620
  22213206.460          49.750          42.800
 131465090.920 7 102440340.810 6  98171999.335 7  25016973.540    25016976.640
  25016976.500          44.600          39.900
 117682205.612 8  91700432.22447                  22394177.140
  22394175.500          49.250          44.000
 107688597.727 8  83913209.192 8                  20492443.920    20492442.260
  20492441.580          49.550          50.100
 104165156.942 7  81017438.154 6                  19541077.140    19541084.460
  19541083.620          42.900          41.750
 110165178.001 8  85684072.673 7                  20608661.020    20608664.900
  20608664.400          48.700          45.800
 130362856.416 6 101393406.363 6                  24404196.060    24404216.100
  24404215.300          41.200          37.850
 130644025.947 5                                  24413958.240
                        33.600
 125604438.066 6  97692434.306 6                  23521652.360    23521658.860
  23521657.460          37.600          39.450
 121105466.305 7  94193154.844 6                  22623521.160    22623526.500
  22623525.080          44.800          41.400
 103815951.488 8  80745781.950 7                  19386885.060    19386887.280
  19386886.240          48.700          47.150
 105656047.764 7  82177074.833 7                  19772035.180    19772041.900
  19772040.000          46.950          46.550
 15  1 27 15  7 50.0000000  0 17G30G07G13G02G15G28G09G10G05R14R05R16
                                R21R13R03R04R15
 110356386.372 8  85992080.745 8  82409091.162 8  21000087.620    21000087.600
  21000086.800          50.100          49.550
 120997152.327 7  94283563.225 7                  23024969.460    23024968.220
  23024967.500          47.100          43.700
 112941732.202 8  88006607.61347                  21492074.820
  21492071.660          49.950          44.850
 122844904.080 7  95723287.64146                  23376613.140
  23376612.000          47.100          39.950
 128901597.091 7 100442814.987 6                  24529153.280    24529154.540
  24529153.660          45.550          40.600
 116721712.584 8  90952109.94747                  22211340.920
  22211338.720          49.650          42.900
 131478994.346 7 102451174.659 6  98182381.748 7  25019619.380    25019622.400
  25019622.100          44.750          39.450
 117697904.894 8  91712665.42247                  22397164.600
  22397162.980          49.150          43.950
 107686425.161 8  83911516.282 8                  20492030.520    20492028.840
  20492028.160          49.650          50.100
 104173553.756 7  81023968.997 6                  19542652.360    19542659.700
  19542658.840          42.950          41.300
 110150845.849 8  85672925.448 7                  20605979.880    20605983.760
  20605983.220          48.700          45.000
 130341477.841 6 101376778.770 6                  24400193.760    24400213.700
  24400213.060          39.550          36.400
 130650597.271 5                                  24415186.220
                        34.000
 125625299.855 6  97708660.136 6                  23525559.160    23525565.560
  23525564.180          38.050          38.900
 121122448.761 7  94206363.396 6                  22626693.660    22626698.880
  22626697.600          44.900          40.900
 103818926.543 8  80748095.877 7                  19387440.640    19387442.880
  19387441.820          48.650          46.650
 105644783.155 7  82168313.476 7                  19769927.100    19769933.860
  19769931.980          46.900          45.950
 15  1 27 15  7 55.0000000  0 17G30G07G13G02G15G28G09G10G05R14R05R16
                                R21R13R03R04R15
 110365595.701 8  85999256.845 8  82415968.258 8  21001840.080    21001840.080
  21001839.260          50.100          49.450
 121011969.607 7  94295109.150 7                  23027789.120    23027787.840
  23027787.120          46.950          43.150
 112932613.457 8  87999502.10447                  21490339.540
  21490336.440          49.900          44.250
 122859559.683 7  95734707.55246                  23379402.060
  23379400.880          46.950          39.750
 128887210.435 7 100431604.633 6                  24526415.560    24526416.880
  24526415.940          45.300          40.400
 116711910.682 8  90944472.11347                  22209475.680
  22209473.460          49.650          42.450
 131492901.059 7 102462011.067 6  98192766.625 7  25022265.860    25022268.700
  25022268.340          45.400          39.950
 117713613.596 8  91724905.96147                  22400153.880
  22400152.240          48.900          44.000
 107684269.120 8  83909836.246 8                  20491620.240    20491618.560
  20491617.880          49.650          50.050
 104181970.526 7  81030515.356 6                  19544231.340    19544238.680
  19544237.820          43.200          41.600
 110136523.668 8  85661785.975 7                  20603300.640    20603304.500
  20603303.900          48.600          45.350
 130320103.738 6 101360154.671 6                  24396192.280    24396212.200
  24396211.600          39.350          36.900
 130657187.472 5                                  24416417.860
                        35.350
 125646166.058 6  97724889.395 6                  23529466.700    23529473.140
  23529471.800          37.900          39.650
 121139441.420 7  94219579.878 6                  22629868.080    22629873.240
  22629872.000          44.950          40.750
 103821919.496 8  80750423.724 7                  19387999.540    19388001.800
  19388000.720          48.900          46.850
 105633538.886 7  82159567.945 7                  19767822.840    19767829.620
  19767827.760          47.250          45.900
 15  1 27 15  8  0.0000000  0 17G30G07G13G02G15G28G09G10G05R14R05R16
                                R21R13R03R04R15
 110374813.848 8  86006439.815 8  82422851.934 8  21003594.220    21003594.240
  21003593.420          50.000          48.950
 121026789.167 7  94306656.851 7                  23030609.180    23030607.900
  23030607.220          46.800          42.300
 112923498.254 8  87992399.35847                  21488604.940
  21488601.900          49.950          43.800
 122874217.543 7  95746129.23346                  23382191.440
  23382190.280          46.900          39.200
 128872823.060 7 100420393.714 6                  24523677.660    24523679.020
  24523678.080          45.450          39.750
 116702118.346 8  90936841.72847                  22207612.260
  22207610.020          49.600          42.400
 131506807.570 7 102472847.325 6  98203151.367 7  25024912.320    25024915.040
  25024914.540          44.950          39.850
 117729328.256 8  91737151.12847                  22403144.260
  22403142.640          48.950          43.300
 107682126.154 8  83908166.402 8                  20491212.460    20491210.780
  20491210.100          49.550          49.550
 104190403.574 7  81037074.398 6                  19545813.360    19545820.720
  19545819.860          43.550          41.750
 110122208.053 8  85650651.615 7                  20600622.640    20600626.440
  20600625.820          48.600          45.850
 130298730.743 6 101343531.434 6                  24392191.060    24392210.880
  24392210.400          39.900          37.750
 130663793.073 5                                  24417652.400
                        34.300
 125667033.263 6  97741119.438 6                  23533374.520    23533380.940
  23533379.600          38.300          39.700
 121156440.814 7  94232801.626 6                  22633043.740    22633048.860
  22633047.640          44.850          41.550
 103824926.849 8  80752762.782 7                  19388561.160    19388563.400
  19388562.360          49.000          47.350
 105622311.330 7  82150835.416 7                  19765721.720    19765728.520
  19765726.660          47.600          46.200
 15  1 27 15  8  5.0000000  0 17G30G07G13G02G15G28G09G10G05R14R05R16
                                R21R13R03R04R15
 110384042.560 8  86013631.017 8  82429743.506 8  21005350.380    21005350.420
  21005349.600          50.000          48.950
 121041612.883 7  94318207.799 7                  23033430.060    23033428.740
  23033428.100          46.700          42.350
 112914388.290 8  87985300.68947                  21486871.360
  21486868.340          49.900          43.800
 122888879.373 7  95757554.01146                  23384981.560
  23384980.360          46.850          38.700
 128858436.709 7 100409183.595 6                  24520940.020    24520941.360
  24520940.440          45.600          39.450
 116692337.338 8  90929220.17546                  22205750.980
  22205748.740          49.650          41.800
 131520715.647 7 102483684.790 6  98213537.269 7  25027559.000    25027561.700
  25027561.160          44.200          40.250
 117745050.595 8  91749402.30147                  22406136.140
  22406134.500          49.050          43.300
 107679997.977 8  83906508.084 8                  20490807.480    20490805.800
  20490805.120          49.400          49.550
 104198854.739 7  81043647.541 6                  19547398.800    19547406.120
  19547405.300          43.000          41.800
 110107900.615 8  85639523.608 7                  20597946.140    20597949.940
  20597949.280          48.550          45.850
 130277360.616 6 101326910.444 6                  24388190.380    24388210.160
  24388209.680          39.900          37.750
 130670415.782 5                                  24418890.080
                        35.350
 125687903.014 6  97757351.474 6                  23537282.740    23537289.160
  23537287.880          38.250          40.000
 121173448.726 7  94246029.984 6                  22636221.000    22636226.080
  22636224.920          44.800          41.650
 103827950.407 8  80755114.444 7                  19389125.740    19389128.040
  19389127.000          48.900          47.400
 105611102.384 7  82142117.357 7                  19763624.100    19763630.880
  19763629.020          47.550          46.300
 15  1 27 15  8 10.0000000  0 17G30G07G13G02G15G28G09G10G05R14R05R16
                                R21R13R03R04R15
 110393282.134 8  86020830.683 8  82436643.180 8  21007108.600    21007108.660
  21007107.860          50.000          49.250
 121056440.901 7  94329762.095 7                  23036251.740    23036250.400
  23036249.780          46.750          42.900
 112905283.870 8  87978206.34247                  21485138.860
  21485135.820          49.700          44.550
 122903545.463 7  95768982.09346                  23387772.480
  23387771.280          46.450          38.950
 128844051.667 7 100397974.496 6                  24518202.620    24518203.920
  24518203.120          44.950          39.200
 116682567.996 8  90921607.71547                  22203891.920
  22203889.680          49.650          42.800
 131534625.615 7 102494523.706 6  98223924.553 7  25030206.040    25030208.680
  25030208.180          44.200          41.250
 117760780.921 8  91761659.69447                  22409129.500
  22409127.900          49.050          44.050
 107677884.888 8  83904861.523 8                  20490405.380    20490403.680
  20490403.020          49.450          49.800
 104207324.278 7  81050234.952 6                  19548987.640    19548994.960
  19548994.180          42.800          41.350
 110093601.876 8  85628402.383 7                  20595271.260    20595275.060
  20595274.380          48.550          45.350
 130255993.604 6 101310291.869 6                  24384190.200    24384210.200
  24384209.560          39.050          37.800
 130677055.963 5                                  24420130.940
                        33.900
 125708775.983 6  97773585.995 6                  23541191.620    23541198.040
  23541196.760          37.750          39.250
 121190465.333 7  94259265.108 6                  22639399.940    22639404.920
  22639403.800          44.900          41.200
 103830990.522 8  80757478.974 7                  19389693.440    19389695.760
  19389694.740          48.950          46.950
 105599912.424 7  82133414.065 7                  19761530.020    19761536.820
  19761534.940          47.050          45.900
 15  1 27 15  8 15.0000000  0 17G30G07G13G02G15G28G09G10G05R14R05R16
                                R21R13R03R04R15
 110402533.159 8  86028039.274 8  82443551.413 8  21008869.020    21008869.080
  21008868.300          49.950          49.200
 121071273.869 7  94341320.244 7                  23039074.360    23039073.000
  23039072.400          46.450          42.600
 112896185.656 8  87971116.82547                  21483407.520
  21483404.480          49.650          44.550
 122918216.389 7  95780413.94746                  23390564.280
  23390563.060          46.150          38.350
 128829668.612 7 100386766.936 6                  24515465.580    24515466.880
  24515466.060          44.700          39.250
 116672810.958 8  90914004.84147                  22202035.220
  22202032.960          49.550          42.950
 131548538.038 7 102505364.530 6  98234313.694 7  25032853.540    25032856.200
  25032855.700          44.550          41.850
 117776519.818 8  91773923.76147                  22412124.520
  22412122.960          49.050          44.150
 107675787.517 8  83903227.212 8                  20490006.260    20490004.580
  20490003.900          49.400          49.800
 104215812.848 7  81056837.162 6                  19550580.020    19550587.380
  19550586.660          43.250          41.850
 110079312.352 8  85617288.327 7                  20592598.120    20592601.920
  20592601.240          48.400          45.750
 130234630.475 6 101293676.306 6                  24380190.880    24380210.900
  24380210.220          38.150          37.850
 130683714.172 5                                  24421374.980
                        32.600
 125729652.436 6  97789823.225 6                  23545101.080    23545107.620
  23545106.260          38.550          39.750
 121207491.366 7  94272507.567 6                  22642580.560    22642585.580
  22642584.440          45.100          41.550
 103834047.767 8  80759856.827 7                  19390264.360    19390266.680
  19390265.680          48.850          47.000
 105588741.952 7  82124725.939 7                  19759439.600    19759446.400
  19759444.520          47.050          45.950
 15  1 27 15  8 20.0000000  0 17G30G07G13G02G15G28G09G10G05R14R05R16
                                R21R13R03R04R15
 110411793.424 8  86035255.057 8  82450466.539 8  21010631.180    21010631.260
  21010630.500          49.850          49.300
 121086109.568 7  94352880.516 7                  23041897.520    23041896.100
  23041895.560          46.750          43.000
 112887091.421 8  87964030.40347                  21481676.940
  21481673.880          49.700          44.650
 122932889.935 7  95791847.85346                  23393356.540
  23393355.360          45.900          38.700
 128815285.306 7 100375559.186 6                  24512728.520    24512729.860
  24512728.940          44.650          39.350
 116663064.034 8  90906409.84147                  22200180.420
  22200178.160          49.400          42.850
 131562450.721 7 102516205.569 6  98244703.023 7  25035501.100    25035503.720
  25035503.340          44.250          41.400
 117792265.097 8  91786192.78947                  22415120.800
  22415119.240          49.300          44.200
 107673703.674 8  83901603.439 8                  20489609.720    20489608.040
  20489607.340          49.350          49.900
 104224318.099 7  81063452.358 6                  19552175.580    19552182.980
  19552182.260          43.350          41.700
 110065029.942 8  85606179.781 7                  20589926.280    20589930.100
  20589929.440          48.600          45.900
 130213268.810 6 101277061.881 6                  24376191.740    24376211.840
  24376211.180          36.650          36.900
 130690388.234 5                                  24422621.960
                        31.700
 125750530.259 6  97806061.528 6                  23549010.860    23549017.340
  23549016.020          38.350          39.750
 121224524.580 7  94285755.591 6                  22645762.520    22645767.540
  22645766.420          45.100          41.250
 103837119.872 8  80762246.238 7                  19390838.100    19390840.380
  19390839.360          48.800          46.900
 105577588.641 7  82116051.144 7                  19757352.360    19757359.200
  19757357.280          47.250          46.000
 15  1 27 15  8 25.0000000  0 17G30G07G13G02G15G28G09G10G05R14R05R16
                                R21R13R03R04R15
 110421063.507 8  86042478.492 8  82457388.995 8  21012395.220    21012395.300
  21012394.560          49.850          49.250
 121100948.545 7  94364443.349 7                  23044721.300    23044719.860
  23044719.340          47.300          42.650
 112878001.739 8  87956947.53847                  21479947.220
  21479944.140          49.800          44.550
 122947566.653 7  95803284.21346                  23396149.480
  23396148.280          46.350          39.350
 128800902.319 7 100364351.690 6                  24509991.500    24509992.780
  24509991.980          44.750          38.700
 116653327.754 8  90898823.13647                  22198327.660
  22198325.420          49.550          42.850
 131576364.247 7 102527047.288 6  98255093.018 7  25038148.780    25038151.420
  25038151.080          43.000          41.150
 117808017.326 8  91798467.24347                  22418118.420
  22418116.840          49.450          44.300
 107671633.923 8  83899990.646 8                  20489215.860    20489214.180
  20489213.480          49.400          49.850
 104232840.661 7  81070081.021 6                  19553774.360    19553781.800
  19553781.080          43.300          41.750
 110050755.129 8  85595077.157 7                  20587255.900    20587259.720
  20587259.100          48.800          46.050
 130191909.364 5 101260449.188 6                  24372193.080    24372213.220
  24372212.580          35.800          36.550
 130697078.620 5                                  24423872.260
                        33.550
 125771410.036 6  97822301.363 6                  23552920.940    23552927.440
  23552926.140          38.650          40.000
 121241565.392 7  94299009.542 6                  22648945.920    22648950.880
  22648949.820          45.150          41.650
 103840207.558 8  80764647.776 7                  19391414.720    19391416.980
  19391415.960          48.950          47.000
 105566453.099 7  82107390.170 7                  19755268.500    19755275.320
  19755273.380          47.500          46.150
 15  1 27 15  8 30.0000000  0 17G30G07G13G02G15G28G09G10G05R14R05R16
                                R21R13R03R04R15
 110430344.606 8  86049710.507 8  82464319.686 8  21014161.360    21014161.440
  21014160.700          50.250          49.300
 121115792.050 7  94376009.714 7                  23047545.960    23047544.460
  23047543.960          47.600          43.050
 112868917.819 8  87949869.16147                  21478218.600
  21478215.520          50.000          44.000
 122962247.801 7  95814724.03646                  23398943.240
  23398942.040          46.550          38.700
 128786520.921 7 100353145.423 6                  24507254.800    24507256.100
  24507255.240          45.000          39.300
 116643603.382 8  90891245.71347                  22196477.160
  22196474.900          49.750          42.650
 131590279.878 7 102537890.616 6  98265484.554 7  25040796.760    25040799.480
  25040799.220          42.600          41.200
 117823777.705 8  91810748.04647                  22421117.580
  22421115.980          49.900          43.700
 107669579.512 8  83898389.804 8                  20488824.900    20488823.240
  20488822.540          49.650          50.000
 104241381.803 7  81076724.128 7                  19555376.700    19555384.100
  19555383.400          42.700          42.100
 110036489.193 8  85583981.438 7                  20584587.160    20584590.980
  20584590.400          48.450          46.450
 130170553.383 6 101243839.180 6                  24368194.940    24368215.180
  24368214.540          37.400          36.700
 130703786.667 5                                  24425125.840    24425131.580
  24425134.420          33.900          29.050
 125792292.940 6  97838543.607 6                  23556831.660    23556838.140
  23556836.840          37.600          40.450
 121258615.281 7  94312270.546 7                  22652131.040    22652135.980
  22652134.940          45.050          42.200
 103843311.876 8  80767062.245 7                  19391994.420    19391996.680
  19391995.660          48.700          47.550
 105555336.708 7  82098744.095 7                  19753188.220    19753195.020
  19753193.060          47.250          46.350
 15  1 27 15  8 35.0000000  0 17G30G07G13G02G15G28G09G10G05R14R05R16
                                R21R13R03R04R15
 110439637.193 8  86056951.484 8  82471258.946 8  21015929.680    21015929.760
  21015929.000          50.300          49.100
 121130640.515 7  94387579.935 7                  23050371.540    23050370.000
  23050369.560          47.900          42.750
 112859840.147 8  87942795.65347                  21476491.180
  21476488.100          50.100          44.450
 122976933.749 7  95826167.59746                  23401737.920
  23401736.680          46.850          38.100
 128772141.560 7 100341940.750 6                  24504518.440    24504519.740
  24504518.960          44.950          38.900
 116633891.378 8  90883677.92347                  22194629.000
  22194626.760          50.000          42.350
 131604198.010 7 102548735.896 6  98275877.951 7  25043445.200    25043448.100
  25043447.840          43.700          41.050
 117839546.708 8  91823035.57347                  22424118.400
  22424116.760          50.000          43.250
 107667540.916 8  83896801.291 8                  20488436.960    20488435.300
  20488434.600          49.650          49.900
 104249941.986 7  81083382.039 7                  19556982.560    19556990.020
  19556989.300          42.900          42.200
 110022232.701 8  85572893.063 7                  20581920.160    20581924.080
  20581923.480          48.700          46.750
 130149201.341 6 101227232.250 6                  24364197.620    24364217.840
  24364217.300          38.750          37.050
 130710512.959 5 101663752.109 4                  24426382.960    24426393.020
  24426391.460          34.600          29.500
 125813179.323 6  97854788.567 6                  23560743.040    23560749.460
  23560748.240          38.100          40.750
 121275674.514 7  94325538.820 7                  22655317.880    22655322.820
  22655321.780          44.950          42.050
 103846433.520 8  80769490.184 7                  19392577.380    19392579.640
  19392578.600          48.900          47.600
 105544239.965 7  82090113.314 7                  19751111.600    19751118.440
  19751116.400          47.600          46.400
 15  1 27 15  8 40.0000000  0 17G30G07G13G02G15G28G09G10G05R14R05R16
                                R21R13R03R04R15
 110448938.950 8  86064199.596 8  82478205.057 8  21017699.760    21017699.860
  21017699.080          50.450          49.450
 121145491.668 8  94399152.260 7                  23053197.680    23053196.080
  23053195.620          48.400          43.700
 112850766.424 8  87935725.22647                  21474764.500
  21474761.420          50.100          44.300
 122991622.266 7  95837613.14646                  23404533.100
  23404531.800          46.850          39.450
 128757761.933 7 100330735.869 6                  24501782.040    24501783.400
  24501782.540          45.100          39.700
 116624189.457 8  90876117.99047                  22192782.740
  22192780.560          49.700          42.950
 131618116.402 7 102559581.376 7  98286271.530 7  25046093.820    25046096.740
  25046096.460          44.550          42.000
 117855322.007 8  91835328.00347                  22427120.400
  22427118.720          49.950          44.600
 107665515.846 8  83895223.319 8                  20488051.580    20488049.940
  20488049.240          49.650          50.200
 104258518.894 7  81090052.959 7                  19558591.560    19558599.000
  19558598.320          43.150          42.250
 110007983.248 8  85561810.160 7                  20579254.520    20579258.460
  20579257.860          48.800          46.850
 130127850.883 6 101210626.546 5                  24360200.520    24360220.700
  24360220.320          40.000          35.600
 130717254.765 6 101668995.725 4                  24427642.860    24427653.860
  24427650.520          36.600          27.950
 125834067.190 6  97871034.676 6                  23564654.640    23564661.060
  23564659.920          38.050          40.850
 121292740.966 7  94338812.687 6                  22658506.040    22658510.960
  22658509.960          44.650          41.650
 103849569.898 8  80771929.586 7                  19393163.100    19393165.360
  19393164.300          48.850          47.400
 105533160.481 7  82081495.955 7                  19749038.180    19749045.060
  19749043.000          47.450          46.550
 15  1 27 15  8 45.0000000  0 17G30G07G13G02G15G28G09G10G05R14R05R16
                                R21R13R03R04R15
 110458252.005 8  86071456.526 8  82485159.606 8  21019471.980    21019472.100
  21019471.300          50.350          49.250
 121160347.625 8  94410728.334 7                  23056024.740    23056023.100
  23056022.660          48.300          43.150
 112841698.769 8  87928659.52447                  21473038.980
  21473035.880          50.050          44.500
 123006315.422 7  95849062.32346                  23407329.160
  23407327.880          46.600          39.850
 128743384.164 7 100319532.445 6                  24499046.040    24499047.300
  24499046.540          45.050          39.600
 116614499.803 8  90868567.63447                  22190938.840
  22190936.680          49.650          43.000
 131632037.138 7 102570428.709 6  98296666.897 7  25048742.880    25048745.800
  25048745.500          44.450          41.250
 117871105.763 8  91847627.02847                  22430124.020
  22430122.320          49.850          44.150
 107663506.388 8  83893657.514 8                  20487669.200    20487667.560
  20487666.860          49.700          50.000
 104267114.607 7  81096738.512 7                  19560204.060    19560211.540
  19560210.860          43.100          42.250
 109993743.079 8  85550734.474 7                  20576590.620    20576594.540
  20576593.980          48.800          46.700
 130106504.221 6 101194023.805 5                  24356204.240    24356224.180
  24356224.020          40.650          34.200
 130724014.521 5 101674253.319 4                  24428906.140    24428915.400
  24428913.220          33.350          28.400
 125854958.392 6  97887283.395 6                  23568566.960    23568573.260
  23568572.220          38.250          40.800
 121309816.547 7  94352093.680 6                  22661695.900    22661700.800
  22661699.800          44.450          41.350
 103852723.385 8  80774382.302 7                  19393751.980    19393754.280
  19393753.180          48.950          47.250
 105522100.546 7  82072893.799 7                  19746968.440    19746975.280
  19746973.260          47.400          46.500
 15  1 27 15  8 50.0000000  0 17G30G07G13G02G15G28G09G10G05R14R05R16
                                R21R13R03R04R15
 110467573.742 8  86078720.215 8  82492120.647 8  21021245.860    21021245.980
  21021245.160          50.250          49.650
 121175205.741 8  94422306.083 7                  23058852.200    23058850.520
  23058850.060          48.300          44.100
 112832634.592 8  87921596.53347                  21471314.120
  21471311.000          50.150          45.250
 123021010.606 7  95860513.08346                  23410125.620
  23410124.360          46.450          41.000
 128729005.682 7 100308328.464 6                  24496309.880    24496311.160
  24496310.440          44.900          40.000
 116604819.804 8  90861024.79047                  22189096.760
  22189094.620          49.550          43.300
 131645957.677 7 102581275.882 6  98307062.081 7  25051391.840    25051394.720
  25051394.420          43.100          41.200
 117886895.316 8  91859930.55947                  22433128.740
  22433127.000          49.850          44.600
 107661509.951 8  83892101.842 8                  20487289.280    20487287.660
  20487286.940          49.700          50.250
 104275726.371 7  81103436.544 7                  19561819.600    19561827.100
  19561826.420          43.100          42.050
 109979509.491 8  85539663.910 7                  20573927.940    20573931.820
  20573931.300          49.100          46.600
 130085158.722 6 101177421.927 5                  24352208.220    24352227.960
  24352227.800          41.250          32.800
 130730789.584 5                                  24430172.160
                        32.100
 125875850.251 6  97903532.614 6                  23572479.360    23572485.620
  23572484.620          38.200          40.650
 121326898.776 7  94365379.835 6                  22664887.020    22664891.980
  22664890.880          44.600          40.950
 103855891.293 8  80776846.222 7                  19394343.540    19394345.860
  19394344.740          48.950          47.300
 105511057.511 7  82064304.771 7                  19744901.820    19744908.720
  19744906.700          47.350          46.700
 15  1 27 15  8 55.0000000  0 17G30G07G13G02G15G28G09G10G05R14R05R16
                                R21R13R03R04R15
 110476906.112 8  86085992.194 8  82499089.622 8  21023021.760    21023021.880
  21023021.040          50.400          49.550
 121190068.029 8  94433887.081 7                  23061680.460    23061678.720
  23061678.260          48.350          44.000
 112823575.857 8  87914537.77847                  21469590.320
  21469587.180          50.250          44.300
 123035709.794 7  95871966.96146                  23412922.880
  23412921.560          46.900          40.800
 128714628.402 7 100297125.411 6                  24493573.980    24493575.260
  24493574.500          44.850          39.950
 116595151.458 8  90853491.02747                  22187256.900
  22187254.800          49.400          43.050
 131659879.956 7 102592124.407 6  98317458.570 7  25054041.100    25054044.060
  25054043.660          42.750          41.100
 117902692.617 8  91872240.13847                  22436134.940
  22436133.160          49.950          44.600
 107659528.510 8  83890557.859 8                  20486912.220    20486910.600
  20486909.880          49.700          50.100
 104284356.275 7  81110148.686 7                  19563438.460    19563446.040
  19563445.380          43.800          42.250
 109965284.512 8  85528600.047 7                  20571266.860    20571270.740
  20571270.220          49.400          46.800
 130063816.405 7 101160822.524 5                  24348212.780    24348232.640
  24348232.220          42.300          33.850
 130737581.750 5                                  24431441.540
  24431444.280          35.800          27.100
 125896744.895 6  97919784.006 6                  23576392.280    23576398.540
  23576397.560          38.650          40.650
 121343989.632 7  94378672.715 6                  22668079.720    22668084.680
  22668083.560          45.600          41.600
 103859075.655 8  80779322.946 7                  19394938.220    19394940.540
  19394939.400          49.300          47.600
 105500033.208 7  82055730.326 7                  19742838.720    19742845.660
  19742843.640          47.850          46.850
 15  1 27 15  9  0.0000000  0 17G30G07G13G02G15G28G09G10G05R14R05R16
                                R21R13R03R04R15
 110486250.335 8  86093273.404 8  82506067.447 8  21024799.920    21024800.020
  21024799.180          50.350          49.250
 121204935.676 8  94445472.249 7                  23064509.720    23064508.000
  23064507.500          48.300          44.150
 112814523.816 8  87907484.24147                  21467867.800
  21467864.620          50.400          44.150
 123050414.187 7  95883424.90146                  23415721.160
  23415719.760          47.400          39.700
 128700253.602 7 100285924.289 6                  24490838.520    24490839.780
  24490839.080          44.850          40.050
 116585495.985 8  90845967.28547                  22185419.480
  22185417.400          49.450          42.900
 131673805.154 7 102602975.202 6  98327857.247 7  25056690.940    25056693.940
  25056693.580          43.100          40.950
 117918498.910 8  91884556.72047                  22439142.820
  22439141.020          50.000          44.050
 107657563.324 8  83889026.537 8                  20486538.260    20486536.600
  20486535.920          49.750          49.900
 104293005.638 7  81116875.962 7                  19565061.040    19565068.680
  19565067.960          43.900          42.050
 109951069.498 8  85517543.925 7                  20568607.680    20568611.560
  20568611.020          49.400          46.600
 130042478.415 7 101144226.517 5                  24344218.160    24344238.020
  24344237.480          42.400          33.150
 130744392.358 5                                  24432714.280
  24432718.980          34.000          27.300
 125917643.383 6  97936038.379 6                  23580305.900    23580312.200
  23580311.200          38.100          40.650
 121361090.274 7  94391973.170 6                  22671274.280    22671279.280
  22671278.120          45.100          41.400
 103862277.824 8  80781813.519 7                  19395536.180    19395538.540
  19395537.380          49.000          47.450
 105489029.016 7  82047171.518 7                  19740779.420    19740786.400
  19740784.380          47.700          46.700
 15  1 27 15  9  5.0000000  0 17G30G07G13G02G15G28G09G10G05R14R05R16
                                R21R13R03R04R15
 110495603.000 8  86100561.189 8  82513051.580 8  21026579.680    21026579.760
  21026578.940          50.300          49.150
 121219805.245 8  94457058.904 7                  23067339.360    23067337.560
  23067337.060          48.450          43.950
 112805475.037 8  87900433.24147                  21466145.880
  21466142.720          50.300          44.600
 123065120.380 7  95894884.25446                  23418519.760
  23418518.280          47.300          40.000
 128685877.864 7 100274722.437 6                  24488102.900    24488104.180
  24488103.440          44.850          39.400
 116575849.936 8  90838450.89647                  22183583.860
  22183581.800          49.550          42.900
 131687729.949 7 102613825.679 6  98338255.584 7  25059340.660    25059343.800
  25059343.500          42.800          41.650
 117934310.776 8  91896877.64647                  22442151.760
  22442149.940          49.800          43.300
 107655610.979 8  83887505.224 8                  20486166.720    20486165.100
  20486164.400          49.550          49.850
 104301670.926 7  81123615.628 7                  19566686.620    19566694.300
  19566693.540          44.000          42.050
 109936860.823 8  85506492.731 7                  20565949.640    20565953.560
  20565953.000          49.400          46.650
 130021141.459 7 101127631.277 5                  24340223.700    24340243.620
  24340242.960          42.700          34.300
 130751218.028 5 101695415.523 4                  24433989.920    24433996.620
  24433995.480          31.750          29.600
 125938542.403 6  97952293.166 6                  23584219.540    23584225.940
  23584224.940          37.750          40.750
 121378197.291 7  94405278.617 6                  22674470.000    22674475.080
  22674473.840          44.550          41.450
 103865494.028 8  80784314.999 7                  19396136.780    19396139.160
  19396138.000          48.850          47.600
 105478041.464 7  82038625.659 7                  19738723.220    19738730.200
  19738728.220          47.450          46.700
 15  1 27 15  9 10.0000000  0 17G30G07G13G02G15G28G09G10G05R14R05R16
                                R21R13R03R04R15
 110504966.491 8  86107857.422 8  82520043.799 8  21028361.480    21028361.580
  21028360.760          50.200          49.900
 121234679.150 8  94468648.958 7                  23070169.800    23070168.000
  23070167.500          48.600          45.100
 112796431.912 8  87893386.65947                  21464425.060
  21464421.880          50.350          45.150
 123079830.722 7  95906346.82546                  23421319.120
  23421317.600          47.400          40.300
 128671503.576 7 100263521.702 6                  24485367.540    24485368.880
  24485368.120          44.900          41.250
 116566215.780 8  90830943.77247                  22181750.520
  22181748.440          49.550          43.950
 131701656.634 6 102624677.615 7  98348655.379 7  25061990.740    25061993.980
  25061993.660          41.850          43.050
 117950130.616 8  91909204.78847                  22445162.180
  22445160.360          49.550          45.050
 107653673.939 8  83885995.849 8                  20485798.120    20485796.500
  20485795.800          49.400          50.550
 104310354.517 7  81130369.536 6                  19568315.620    19568323.340
  19568322.560          43.950          41.750
 109922661.051 8  85495448.477 7                  20563293.280    20563297.240
  20563296.640          49.250          46.150
 129999807.913 7 101111038.727 5                  24336229.880    24336249.820
  24336249.160          42.400          34.100
 130758061.030 5 101700737.804 4                  24435269.020    24435276.020
  24435275.920          34.250          29.600
 125959444.386 6  97968550.246 6                  23588133.940    23588140.180
  23588139.240          37.550          40.250
 121395313.012 7  94418590.816 6                  22677667.340    22677672.460
  22677671.200          45.000          41.050
 103868726.836 8  80786829.409 7                  19396740.460    19396742.860
  19396741.700          48.750          47.200
 105467072.968 7  82030094.617 7                  19736670.580    19736677.620
  19736675.600          47.150          46.250
 15  1 27 15  9 15.0000000  0 17G30G07G13G02G15G28G09G10G05R14R05R16
                                R21R13R03R04R15
 110514340.247 8  86115161.643 8  82527043.672 8  21030145.260    21030145.360
  21030144.540          50.050          49.750
 121249556.849 8  94480241.966 7                  23073000.980    23072999.160
  23072998.620          48.600          44.650
 112787393.897 8  87886344.05647                  21462705.180
  21462702.040          50.300          44.550
 123094544.664 7  95917812.20446                  23424119.140
  23424117.620          47.600          39.850
 128657130.227 7 100252321.712 6                  24482632.380    24482633.680
  24482632.980          45.050          40.800
 116556592.959 8  90823445.48847                  22179919.340
  22179917.220          49.800          43.250
 131715584.772 6 102635530.685 7  98359056.228 7  25064641.160    25064644.440
  25064644.220          41.900          42.250
 117965957.879 8  91921537.71047                  22448174.020
  22448172.200          49.550          44.400
 107651751.586 8  83884497.920 8                  20485432.300    20485430.700
  20485430.000          49.400          50.350
 104319055.784 7  81137137.186 6                  19569947.960    19569955.640
  19569954.900          43.750          41.550
 109908469.554 8  85484410.656 7                  20560638.460    20560642.440
  20560641.840          48.700          46.050
 129978477.236 7 101094448.410 5                  24332236.560    24332256.560
  24332255.920          42.700          33.550
 130764920.752 6 101706073.231 5                  24436551.040    24436558.960
  24436557.760          36.000          30.250
 125980348.658 6  97984809.124 6                  23592048.540    23592054.940
  23592053.980          36.650          40.450
 121412437.092 7  94431909.526 6                  22680866.240    22680871.440
  22680870.120          44.650          41.000
 103871975.759 8  80789356.362 7                  19397347.160    19397349.580
  19397348.420          48.650          46.950
 105456122.953 7  82021577.961 7                  19734621.400    19734628.460
  19734626.440          46.750          46.000
 15  1 27 15  9 20.0000000  0 17G30G07G13G02G15G28G09G10G05R14R05R16
                                R21R13R03R04R15
 110523724.172 8  86122473.778 8  82534051.137 8  21031930.980    21031931.060
  21031930.260          50.150          49.750
 121264438.156 8  94491837.786 7                  23075832.820    23075831.000
  23075830.440          48.650          44.450
 112778360.911 8  87879305.37447                  21460986.240
  21460983.140          50.200          44.400
 123109262.103 7  95929280.30346                  23426919.820
  23426918.320          47.750          39.700
 128642757.662 7 100241122.332 6                  24479897.340    24479898.660
  24479897.900          45.050          40.600
 116546981.375 8  90815955.95447                  22178090.320
  22178088.160          49.800          42.700
 131729514.158 7 102646384.733 6  98369458.042 7  25067291.860    25067295.160
  25067295.000          42.900          41.900
 117981792.444 8  91933876.32847                  22451187.220
  22451185.420          49.450          44.000
 107649843.816 8  83883011.352 8                  20485069.280    20485067.660
  20485066.960          49.650          50.200
 104327774.633 7  81143918.518 7                  19571583.620    19571591.280
  19571590.580          43.250          42.950
 109894286.380 8  85473379.303 7                  20557985.200    20557989.200
  20557988.580          48.850          47.250
 129957149.267 7 101077860.168 5                  24328243.820    24328263.700
  24328263.180          43.050          35.400
 130771797.292 5 101711421.718 5                  24437836.140    24437843.880
  24437842.380          33.800          32.050
 126001254.999 6  98001069.599 6                  23595963.640    23595970.020
  23595969.100          36.900          41.500
 121429569.255 7  94445234.512 7                  22684066.660    22684071.900
  22684070.620          44.400          42.450
 103875240.694 8  80791895.749 8                  19397956.840    19397959.260
  19397958.120          48.750          48.000
 105445191.473 7  82013075.716 7                  19732575.680    19732582.780
  19732580.740          46.250          46.950
 15  1 27 15  9 25.0000000  0 17G30G07G13G02G15G28G09G10G05R14R05R16
                                R21R13R03R04R15
 110533118.220 8  86129793.808 8  82541066.175 8  21033718.600    21033718.700
  21033717.900          50.200          49.700
 121279323.133 8  94503436.453 7                  23078665.380    23078663.500
  23078662.980          48.800          44.400
 112769333.000 8  87872270.63847                  21459268.240
  21459265.200          50.100          44.550
 123123983.005 7  95940751.10146                  23429721.180
  23429719.640          47.850          39.450
 128628385.892 7 100229923.574 6                  24477162.460    24477163.780
  24477163.000          45.050          40.600
 116537381.064 8  90808475.19747                  22176263.440
  22176261.260          49.900          43.000
 131743444.844 7 102657239.795 7  98379860.818 7  25069942.860    25069946.060
  25069945.900          44.200          42.000
 117997634.295 8  91946220.61347                  22454201.800
  22454200.020          49.450          44.100
 107647950.677 8  83881536.172 8                  20484709.040    20484707.400
  20484706.720          49.850          50.300
 104336511.068 7  81150713.510 7                  19573222.600    19573230.180
  19573229.540          42.850          42.650
 109880111.500 8  85462354.400 7                  20555333.500    20555337.460
  20555336.880          49.300          46.950
 129935824.175 7 101061274.174 5                  24324251.580    24324271.420
  24324271.000          43.200          35.250
 130778690.633 5 101716783.099 5                  24439124.320    24439132.000
  24439130.780          34.600          31.050
 126022163.649 6  98017331.870 6                  23599879.160    23599885.540
  23599884.680          37.150          40.550
 121446709.520 7  94458565.801 6                  22687268.620    22687273.880
  22687272.560          45.000          41.650
 103878521.658 8  80794447.600 7                  19398569.520    19398571.920
  19398570.800          48.750          47.600
 105434278.455 7  82004587.809 7                  19730533.420    19730540.520
  19730538.500          46.700          46.550
 15  1 27 15  9 30.0000000  0 17G30G07G13G02G15G28G09G10G05R14R05R16
                                R21R13R03R04R15
 110542522.658 8  86137121.943 8  82548088.958 8  21035508.200    21035508.300
  21035507.520          50.100          48.900
 121294211.989 8  94515038.158 7                  23081498.680    23081496.780
  23081496.220          48.750          43.400
 112760310.337 8  87865240.00047                  21457551.240
  21457548.260          49.900          43.900
 123138707.614 7  95952224.78846                  23432523.220
  23432521.640          47.500          38.350
 128614015.167 7 100218725.629 6                  24474427.780    24474429.080
  24474428.280          44.950          39.750
 116527792.282 8  90801003.42946                  22174438.760
  22174436.540          49.950          41.900
 131757377.031 7 102668096.057 6  98390264.735 8  25072594.180    25072597.340
  25072597.120          44.300          40.750
 118013483.661 8  91958570.76247                  22457217.800
  22457216.020          49.100          42.800
 107646072.364 8  83880072.546 8                  20484351.600    20484349.960
  20484349.280          49.850          49.550
 104345265.470 7  81157522.475 6                  19574864.900    19574872.480
  19574871.880          43.150          41.400
 109865945.089 8  85451336.093 7                  20552683.380    20552687.360
  20552686.780          49.250          46.200
 129914502.087 7 101044690.549 5                  24320259.840    24320279.660
  24320279.400          43.250          33.650
 130785600.841 6 101722157.680 5                  24440415.760    24440423.800
  24440422.680          36.350          30.700
 126043074.638 6  98033595.968 6                  23603795.080    23603801.460
  23603800.660          37.350          40.050
 121463858.044 7  94471903.534 6                  22690472.120    22690477.340
  22690476.060          44.800          40.550
 103881818.966 8  80797012.163 7                  19399185.280    19399187.660
  19399186.580          48.800          46.850
 105423384.006 7  81996114.357 7                  19728494.620    19728501.740
  19728499.720          47.150          46.050
 15  1 27 15  9 35.0000000  0 16G30G07G13G02G15G28G09G10G05R14R05R16
                                R13R03R04R15
 110551936.936 8  86144457.736 8  82555119.098 8  21037299.680    21037299.780
  21037299.020          50.250          49.200
 121309104.199 8  94526642.472 7                  23084332.620    23084330.680
  23084330.100          48.700          43.600
 112751292.408 8  87858213.04847                  21455835.140
  21455832.240          49.800          43.950
 123153435.403 7  95963700.95046                  23435325.880
  23435324.300          47.350          38.350
 128599645.005 7 100207528.128 6                  24471693.200    24471694.600
  24471693.720          45.050          39.800
 116518214.505 8  90793540.23646                  22172616.200
  22172613.940          50.100          41.850
 131771310.250 7 102678953.107 6  98400669.418 7  25075245.720    25075248.780
  25075248.500          44.950          41.000
 118029340.013 8  91970926.34747                  22460235.100
  22460233.400          49.250          42.900
 107644208.393 8  83878620.100 8                  20483996.920    20483995.240
  20483994.580          49.800          49.800
 104354037.095 7  81164344.844 6                  19576510.420    19576518.040
  19576517.440          43.650          40.650
 109851786.762 8  85440324.067 7                  20550034.780    20550038.800
  20550038.220          49.100          45.450
 129893182.564 7 101028108.890 5                  24316268.620    24316288.300
  24316288.220          42.450          31.750
 126063987.563 6  98049861.556 6                  23607711.380    23607717.820
  23607716.980          36.950          38.600
 121481014.524 7  94485247.435 6                  22693677.080    22693682.260
  22693681.040          44.250          39.200
 103885131.977 8  80799588.949 7                  19399803.940    19399806.380
  19399805.280          48.650          46.100
 105412507.742 7  81987655.053 7                  19726459.220    19726466.380
  19726464.340          47.200          44.950
 15  1 27 15  9 40.0000000  0 16G30G07G13G02G15G28G09G10G05R14R05R16
                                R13R03R04R15
 110561362.144 8  86151802.046 8  82562157.399 8  21039093.220    21039093.340
  21039092.580          50.600          48.350
 121324000.848 8  94538250.236 7                  23087167.380    23087165.420
  23087164.840          49.150          42.800
 112742280.340 8  87851190.65947                  21454120.160
  21454117.300          50.150          42.900
 123168167.406 7  95975180.37846                  23438129.300
  23438127.720          47.150          36.900
 128585276.469 7 100196331.881 6                  24468958.960    24468960.280
  24468959.480          45.700          39.100
 116508648.800 8  90786086.44846                  22170795.960
  22170793.620          50.400          40.950
 131785245.582 7 102689811.797 6  98411075.653 7  25077897.640    25077900.640
  25077900.320          45.800          40.300
 118045204.452 8  91983288.23846                  22463253.960
  22463252.300          49.300          41.900
 107642359.805 8  83877179.637 8                  20483645.140    20483643.460
  20483642.780          49.850          49.000
 104362827.092 7  81171181.506 6                  19578159.360    19578167.060
  19578166.460          42.300          41.100
 109837637.554 8  85429319.129 7                  20547387.880    20547391.900
  20547391.320          48.750          46.150
 129871866.640 7 101011530.022 5                  24312278.060    24312297.660
  24312297.680          42.050          32.400
 126084903.358 6  98066129.395 6                  23611628.300    23611634.740
  23611633.840          36.600          38.900
 121498179.796 7  94498598.181 6                  22696883.720    22696888.880
  22696887.620          44.250          40.250
 103888461.704 8  80802178.731 7                  19400425.740    19400428.180
  19400427.100          48.300          46.750
 105401650.783 7  81979210.757 7                  19724427.480    19724434.620
  19724432.580          46.850          45.350
 15  1 27 15  9 45.0000000  0 16G30G07G13G02G15G28G09G10G05R14R05R16
                                R13R03R04R15
 110570797.539 8  86159154.310 8  82569203.315 8  21040888.720    21040888.840
  21040888.100          50.500          48.800
 121338901.194 8  94549860.895 7                  23090002.880    23090000.920
  23090000.320          49.200          43.100
 112733273.424 8  87844172.28647                  21452406.160
  21452403.320          50.150          43.150
 123182902.914 7  95986662.55946                  23440933.340
  23440931.840          46.650          39.450
 128570908.842 7 100185136.352 6                  24466224.900    24466226.200
  24466225.360          45.300          39.350
 116499094.476 8  90778641.53246                  22168977.860
  22168975.460          50.300          41.700
 131799182.262 7 102700671.552 6  98421482.916 7  25080549.840    25080552.780
  25080552.500          45.950          41.300
 118061076.262 8  91995655.85947                  22466274.200
  22466272.620          49.300          42.800
 107640525.926 8  83875750.648 8                  20483296.160    20483294.500
  20483293.820          49.800          49.450
 104371634.783 7  81178031.932 6                  19579811.680    19579819.320
  19579818.760          42.400          41.400
 109823496.709 8  85418320.703 7                  20544742.520    20544746.580
  20544746.020          48.650          46.200
 129850553.490 6 100994953.326 5                  24308288.060    24308307.500
  24308307.620          41.950          32.100
 126105821.474 6  98082399.034 6                  23615545.440    23615552.040
  23615551.120          36.550          39.400
 121515353.287 7  94511955.312 6                  22700091.880    22700097.060
  22700095.840          44.900          40.750
 103891807.667 8  80804781.151 7                  19401050.560    19401053.000
  19401051.940          48.650          47.050
 105390812.349 7  81970780.886 7                  19722399.200    19722406.340
  19722404.280          47.150          45.750
 15  1 27 15  9 50.0000000  0 16G30G07G13G02G15G28G09G10G05R14R05R16
                                R13R03R04R15
 110580242.570 8  86166514.074 8  82576256.416 8  21042686.020    21042686.160
  21042685.440          50.400          48.850
 121353804.656 8  94561473.982 7                  23092838.940    23092837.000
  23092836.400          49.000          43.350
 112724271.055 8  87837157.45247                  21450693.060
  21450690.200          50.050          43.300
 123197641.336 7  95998146.99746                  23443737.940
  23443736.520          46.850          38.550
 128556541.559 7 100173941.089 6                  24463490.860    24463492.200
  24463491.320          44.750          39.900
 116489551.011 8  90771205.07646                  22167161.840
  22167159.380          50.350          41.850
 131813119.765 7 102711531.941 6  98431890.785 7  25083202.180    25083205.080
  25083204.900          45.600          41.550
 118076954.846 8  92008028.76947                  22469295.740
  22469294.220          49.250          42.750
 107638706.218 8  83874332.700 8                  20482949.880    20482948.220
  20482947.520          49.850          49.400
 104380459.468 7  81184895.562 6                  19581467.080    19581474.820
  19581474.260          43.100          41.300
 109809363.754 8  85407328.404 7                  20542098.660    20542102.680
  20542102.160          48.700          46.150
 129829242.834 7 100978378.563 5                  24304298.440    24304317.980
  24304318.000          42.600          32.500
 126126741.367 6  98098670.068 6                  23619463.080    23619469.620
  23619468.700          36.350          39.400
 121532534.265 7  94525318.274 6                  22703301.400    22703306.600
  22703305.360          44.950          40.700
 103895169.063 8  80807395.570 7                  19401678.280    19401680.740
  19401679.660          48.750          47.150
 105379991.887 7  81962364.975 7                  19720374.320    19720381.420
  19720379.340          47.250          45.750
 15  1 27 15  9 55.0000000  0 16G30G07G13G02G15G28G09G10G05R14R05R16
                                R13R03R04R15
 110589697.676 8  86173881.683 8  82583317.042 8  21044485.260    21044485.420
  21044484.680          50.400          49.150
 121368711.749 8  94573089.893 7                  23095675.720    23095673.740
  23095673.180          48.900          43.350
 112715273.706 8  87830146.53547                  21448980.920
  21448978.060          50.000          43.600
 123212383.138 7  96009634.09046                  23446543.220
  23446541.840          46.750          38.800
 128542175.135 7 100162746.504 6                  24460756.980    24460758.300
  24460757.480          44.550          40.050
 116480018.850 8  90763777.43047                  22165347.960
  22165345.440          50.300          42.100
 131827058.533 7 102722393.313 6  98442299.629 7  25085854.740    25085857.560
  25085857.400          45.150          40.350
 118092840.671 8  92020407.32447                  22472318.660
  22472317.220          49.300          43.000
 107636901.179 8  83872926.178 8                  20482606.420    20482604.740
  20482604.020          49.900          49.550
 104389301.742 7  81191772.884 6                  19583125.860    19583133.680
  19583133.060          43.450          41.650
 109795239.124 8  85396342.594 7                  20539456.320    20539460.360
  20539459.880          48.950          46.250
 129807935.060 7 100961806.030 5                  24300309.460    24300328.940
  24300328.880          43.100          33.100
 126147663.130 5  98114942.536 6                  23623381.100    23623387.540
  23623386.680          35.900          39.400
 121549723.363 7  94538687.550 6                  22706512.540    22706517.700
  22706516.460          44.900          40.800
 103898546.449 8  80810022.423 7                  19402308.980    19402311.440
  19402310.360          48.650          47.200
 105369189.903 7  81953963.438 7                  19718352.920    19718359.960
  19718357.880          47.150          45.850
 15  1 27 15 10  0.0000000  0 16G30G07G13G02G15G28G09G10G05R14R05R16
                                R13R03R04R15
 110599163.314 8  86181257.499 8  82590385.538 8  21046286.520    21046286.680
  21046285.940          50.250          50.700
 121383622.894 8  94584708.965 7                  23098513.240    23098511.240
  23098510.720          48.700          45.350
 112706281.888 8  87823139.92247                  21447269.820
  21447266.940          49.900          46.150
 123227128.751 7  96021124.14446                  23449349.200
  23449347.860          46.100          41.950
 128527809.973 7 100151552.890 7                  24458023.380    24458024.720
  24458023.900          44.050          43.200
 116470498.475 8  90756358.96947                  22163536.320
  22163533.800          50.100          44.750
 131840999.097 7 102733256.108 7  98452709.794 7  25088507.600    25088510.360
  25088510.160          44.250          42.200
 118108734.190 8  92032791.88447                  22475343.060
  22475341.680          49.150          45.400
 107635111.246 8  83871531.427 8                  20482265.820    20482264.140
  20482263.420          49.850          51.000
 104398161.905 7  81198664.124 6                  19584788.000    19584795.900
  19584795.180          43.600          41.750
 109781123.446 8  85385363.742 7                  20536815.680    20536819.700
  20536819.240          49.050          46.400
 129786630.661 7 100945236.130 5                  24296321.080    24296340.440
  24296340.420          42.650          33.950
 126168587.528 6  98131217.061 6                  23627299.600    23627306.020
  23627305.140          36.300          39.300
 121566921.016 7  94552063.492 6                  22709725.240    22709730.380
  22709729.100          45.250          39.550
 103901940.382 8  80812662.145 7                  19402942.780    19402945.220
  19402944.160          48.700          47.200
 105358406.887 7  81945576.666 7                  19716335.020    19716342.040
  19716339.980          47.200          45.450
 15  1 27 15 10  5.0000000  0 16G30G07G13G02G15G28G09G10G05R14R05R16
                                R13R03R04R15
 110608639.788 8  86188641.758 8  82597462.108 8  21048089.840    21048090.000
  21048089.260          49.950          49.000
 121398538.374 8  94596331.423 7                  23101351.580    23101349.560
  23101349.060          48.250          43.000
 112697295.857 8  87816137.81947                  21445559.820
  21445556.940          49.650          43.900
 123241878.509 7  96032617.42146                  23452155.980
  23452154.680          46.100          39.200
 128513446.398 7 100140360.524 6                  24455290.020    24455291.360
  24455290.580          44.200          40.800
 116460990.206 8  90748949.94247                  22161726.980
  22161724.460          49.900          42.350
 131854941.667 7 102744120.470 6  98463121.470 7  25091160.780    25091163.500
  25091163.360          42.800          38.750
 118124635.690 8  92045182.64947                  22478369.000
  22478367.640          49.150          43.250
 107633336.696 8  83870148.661 8                  20481928.140    20481926.420
  20481925.720          49.850          49.500
 104407040.306 7  81205569.547 6                  19586453.560    19586461.440
  19586460.760          43.250          41.900
 109767016.893 8  85374391.974 7                  20534176.760    20534180.760
  20534180.320          49.000          46.450
 129765329.906 7 100928669.065 5                  24292333.380    24292352.780
  24292352.640          42.950          34.100
 126189514.756 6  98147493.779 6                  23631218.500    23631225.060
  23631224.120          36.400          39.700
 121584127.392 7  94565446.203 6                  22712939.600    22712944.720
  22712943.400          45.300          40.750
 103905351.295 8  80815315.069 7                  19403579.760    19403582.140
  19403581.120          48.950          47.250
 105347643.199 7  81937204.923 7                  19714320.760    19714327.740
  19714325.740          47.100          46.300
 15  1 27 15 10 10.0000000  0 16G30G07G13G02G15G28G09G10G05R14R05R16
                                R13R03R04R15
 110618126.932 8  86196034.332 8  82604546.661 8  21049895.180    21049895.340
  21049894.580          50.000          48.800
 121413458.047 7  94607957.137 7                  23104190.720    23104188.680
  23104188.220          47.650          42.750
 112688315.479 8  87809140.12747                  21443850.900
  21443848.000          49.700          43.600
 123256632.213 7  96044113.77846                  23454963.520
  23454962.260          46.700          38.700
 128499084.241 7 100129169.256 6                  24452556.960    24452558.320
  24452557.520          44.550          40.550
 116451493.889 8  90741550.21747                  22159919.920
  22159917.340          50.100          42.150
 131868886.148 6 102754986.321 6  98473534.572 7  25093814.240    25093816.940
  25093816.760          40.950          38.350
 118140545.003 8  92057579.50247                  22481396.400
  22481395.100          49.350          42.450
 107631577.395 8  83868777.777 8                  20481593.380    20481591.640
  20481590.940          49.900          49.150
 104415936.911 7  81212489.127 6                  19588122.600    19588130.340
  19588129.740          43.350          41.100
 109752919.412 8  85363427.279 7                  20531539.540    20531543.520
  20531543.100          49.200          45.850
 129744032.661 7 100912104.715 5                  24288346.340    24288365.780
  24288365.520          42.600          33.850
 126210444.683 6  98163772.601 6                  23635137.960    23635144.560
  23635143.620          36.250          38.600
 121601342.431 7  94578835.637 6                  22716155.560    22716160.640
  22716159.280          44.850          39.350
 103908778.715 8  80817980.844 7                  19404219.840    19404222.180
  19404221.160          48.800          46.650
 105336898.512 7  81928847.959 7                  19712310.060    19712317.020
  19712315.040          47.150          45.800
 15  1 27 15 10 15.0000000  0 16G30G07G13G02G15G28G09G10G05R14R05R16
                                R13R03R04R15
 110627623.099 8  86203433.938 8  82611637.955 8  21051702.240    21051702.400
  21051701.640          50.100          48.950
 121428380.288 7  94619584.836 7                  23107030.340    23107028.340
  23107027.880          47.850          42.700
 112679339.140 8  87802145.57547                  21442142.720
  21442139.860          49.650          43.750
 123271388.237 7  96055611.94246                  23457771.520
  23457770.260          47.000          38.000
 128484721.922 7 100117977.859 6                  24449823.880    24449825.280
  24449824.420          44.800          41.150
 116442007.914 8  90734158.55547                  22158114.820
  22158112.240          50.050          42.400
 131882830.900 6 102765852.345 6  98483947.858 7  25096467.700    25096470.380
  25096470.340          40.750          38.750
 118156460.508 8  92069981.18447                  22484425.040
  22484423.740          49.350          43.150
 107629831.751 8  83867417.533 8                  20481261.220    20481259.440
  20481258.740          49.850          49.400
 104424849.887 7  81219421.443 6                  19589794.680    19589802.400
  19589801.760          43.200          41.700
 109738829.232 8  85352468.258 7                  20528903.680    20528907.620
  20528907.220          49.250          46.750
 129722737.307 7 100895541.838 5                  24284359.640    24284379.080
  24284378.840          42.300          35.300
 126231375.719 6  98180052.289 6                  23639057.560    23639064.240
  23639063.280          36.350          38.850
 121618564.496 7  94592230.568 6                  22719372.840    22719377.840
  22719376.440          44.800          40.100
 103912221.134 8  80820658.277 7                  19404862.720    19404865.040
  19404864.000          48.600          47.200
 105326171.258 7  81920504.541 7                  19710302.660    19710309.580
  19710307.620          47.200          46.550
 15  1 27 15 10 20.0000000  0 16G30G07G13G02G15G28G09G10G05R14R05R16
                                R13R03R04R15
 110637128.460 8  86210840.709 8  82618736.116 8  21053511.040    21053511.220
  21053510.440          50.150          48.900
 121443305.227 7  94631214.655 7                  23109870.480    23109868.420
  23109868.020          47.700          43.000
 112670366.984 8  87795154.28547                  21440435.360
  21440432.520          49.550          43.950
 123286146.733 7  96067112.03246                  23460580.020
  23460578.760          47.450          37.800
 128470359.616 7 100106786.478 6                  24447090.800    24447092.180
  24447091.340          44.600          41.300
 116432532.483 8  90726775.11247                  22156311.720
  22156309.100          50.100          42.100
 131896776.130 6 102776718.729 6  98494361.479 7  25099121.160    25099123.940
  25099123.960          40.850          39.400
 118172382.386 8  92082387.82547                  22487454.900
  22487453.600          49.650          42.800
 107628099.904 8  83866068.042 8                  20480931.680    20480929.880
  20480929.180          49.800          49.450
 104433779.488 7  81226366.684 6                  19591469.900    19591477.540
  19591476.940          42.900          41.750
 109724746.638 8  85341515.121 7                  20526269.280    20526273.140
  20526272.800          49.450          46.750
 129701444.003 7 100878980.571 5                  24280373.360    24280392.840
  24280392.520          42.850          35.650
 126252307.873 6  98196332.850 6                  23642977.560    23642984.200
  23642983.160          36.700          38.650
 121635793.796 7  94605631.116 6                  22722591.500    22722596.420
  22722595.000          44.200          40.300
 103915678.818 8  80823347.578 7                  19405508.420    19405510.760
  19405509.720          48.450          47.300
 105315461.685 7  81912174.873 7                  19708298.520    19708305.440
  19708303.500          47.300          46.300
 15  1 27 15 10 25.0000000  0 16G30G07G13G02G15G28G09G10G05R14R05R16
                                R13R03R04R15
 110646646.385 8  86218257.278 8  82625843.640 8  21055322.220    21055322.420
  21055321.640          50.000          48.950
 121458236.255 7  94642849.215 7                  23112711.760    23112709.700
  23112709.340          47.350          43.050
 112661402.383 8  87788168.89147                  21438729.440
  21438726.620          49.400          44.550
 123300911.052 7  96078616.67246                  23463389.640
  23463388.320          47.600          38.350
 128456000.660 7 100095597.699 6                  24444358.340    24444359.760
  24444358.880          43.950          41.500
 116423070.958 8  90719402.50547                  22154511.280
  22154508.640          50.050          42.450
 131910725.162 6 102787588.097 6  98504777.940 7  25101775.380    25101778.360
  25101778.300          40.600          40.200
 118188313.990 8  92094802.06147                  22490486.620
  22490485.320          49.200          43.550
 107626385.238 8  83864731.943 8                  20480605.400    20480603.600
  20480602.880          49.600          49.750
 104442729.034 7  81233327.434 6                  19593148.860    19593156.520
  19593155.880          43.000          41.950
 109710675.122 8  85330570.607 7                  20523636.940    20523640.780
  20523640.440          49.700          46.650
 129680156.165 7 100862423.534 5                  24276388.100    24276407.520
  24276407.200          43.200          35.150
 126273244.507 6  98212616.905 6                  23646898.240    23646905.000
  23646903.880          36.750          39.200
 121653033.551 7  94619039.799 6                  22725812.020    22725816.940
  22725815.540          44.400          40.900
 103919155.070 8  80826051.329 7                  19406157.580    19406159.920
  19406158.880          48.950          47.500
 105304773.164 7  81903861.596 7                  19706298.340    19706305.260
  19706303.320          47.550          46.400
 15  1 27 15 10 30.0000000  0 16G30G07G13G02G15G28G09G10G05R14R05R16
                                R13R03R04R15
 110656173.825 8  86225681.259 8  82632958.287 8  21057135.240    21057135.440
  21057134.640          50.200          48.650
 121473170.319 7  94654486.135 7                  23115553.600    23115551.580
  23115551.220          47.550          42.250
 112652442.366 8  87781187.06047                  21437024.380
  21437021.600          49.600          43.600
 123315678.156 7  96090123.47446                  23466199.780
  23466198.400          47.800          37.400
 128441642.035 7 100084409.189 6                  24441625.920    24441627.400
  24441626.560          44.300          41.100
 116413620.333 8  90712038.39546                  22152712.900
  22152710.280          50.300          41.900
 131924674.979 6 102798458.064 6  98515195.007 7  25104429.800    25104432.860
  25104432.880          41.600          39.300
 118204252.276 8  92107221.48847                  22493519.620
  22493518.320          49.250          43.200
 107624684.774 8  83863406.906 8                  20480281.840    20480280.020
  20480279.300          49.800          49.400
 104451695.517 7  81240301.349 7                  19594831.000    19594838.600
  19594838.000          43.250          42.900
 109696611.545 8  85319632.275 7                  20521006.100    20521009.880
  20521009.540          49.450          47.350
 129658870.816 7 100845868.441 5                  24272403.340    24272422.760
  24272422.360          43.650          35.300
 126294182.586 6  98228902.077 6                  23650819.240    23650826.000
  23650824.860          37.200          40.700
 121670280.934 7  94632454.416 7                  22729034.000    22729038.860
  22729037.500          44.550          42.150
 103922646.832 8  80828767.143 8                  19406809.660    19406811.980
  19406810.940          49.000          48.050
 105294102.579 7  81895562.275 7                  19704301.500    19704308.440
  19704306.460          47.700          47.350
 15  1 27 15 10 35.0000000  0 16G30G07G13G02G15G28G09G10G05R14R05R16
                                R13R03R04R15
 110665709.951 8  86233111.999 8  82640079.422 8  21058949.920    21058950.120
  21058949.320          50.150          49.050
 121488106.609 7  94666124.794 7                  23118395.880    23118393.880
  23118393.540          47.550          43.300
 112643486.125 8  87774208.17747                  21435320.060
  21435317.280          49.600          44.000
 123330447.215 7  96101631.79546                  23469010.280
  23469008.940          47.550          39.100
 128427282.929 7 100073220.304 6                  24438893.440    24438894.980
  24438894.220          43.900          41.550
 116404179.770 8  90704682.12447                  22150916.460
  22150913.780          50.200          42.950
 131938624.752 7 102809328.013 6  98525612.057 7  25107084.260    25107087.400
  25107087.500          42.100          40.000
 118220196.403 8  92119645.46747                  22496553.700
  22496552.400          49.300          43.950
 107622997.656 8  83862092.266 8                  20479960.820    20479958.960
  20479958.240          49.750          49.850
 104460678.038 7  81247287.752 7                  19596516.080    19596523.740
  19596523.160          43.700          42.950
 109682555.072 8  85308699.479 7                  20518376.540    20518380.280
  20518380.000          49.200          47.400
 129637587.034 7 100829314.545 6                  24268418.880    24268438.340
  24268437.840          42.950          36.550
 126315121.345 6  98245187.771 6                  23654740.380    23654747.220
  23654746.000          37.250          40.300
 121687534.957 7  94645874.191 7                  22732257.200    22732262.040
  22732260.740          44.800          42.300
 103926153.297 8  80831494.389 7                  19407464.480    19407466.760
  19407465.740          48.900          47.950
 105283449.182 7  81887276.304 7                  19702307.880    19702314.820
  19702312.840          47.800          47.350
 15  1 27 15 10 40.0000000  0 16G30G07G13G02G15G28G09G10G05R14R05R16
                                R13R03R04R15
 110675257.634 8  86240551.753 8  82647209.185 8  21060766.780    21060766.960
  21060766.200          50.350          49.350
 121503047.970 7  94677767.413 7                  23121239.140    23121237.160
  23121236.820          47.700          43.600
 112634536.481 8  87767234.43547                  21433616.980
  21433614.240          49.850          44.450
 123345221.057 7  96113143.84646                  23471821.680
  23471820.380          47.300          39.350
 128412926.245 7 100062033.300 7                  24436161.400    24436163.000
  24436162.240          43.850          42.300
 116394752.186 8  90697335.96947                  22149122.500
  22149119.760          50.200          43.050
 131952577.336 7 102820200.173 6  98536031.203 7  25109739.320    25109742.400
  25109742.500          43.000          40.150
 118236149.251 8  92132076.25347                  22499589.480
  22499588.160          49.450          44.350
 107621326.754 8  83860790.271 8                  20479642.840    20479641.000
  20479640.280          49.850          50.100
 104469679.493 7  81254288.887 7                  19598204.780    19598212.360
  19598211.840          43.050          42.000
 109668508.678 8  85297774.517 7                  20515748.900    20515752.600
  20515752.340          48.900          46.850
 129616307.810 7 100812764.250 5                  24264435.220    24264454.620
  24264454.100          42.150          35.150
 126336063.667 6  98261476.245 6                  23658662.160    23658669.060
  23658667.820          37.050          39.100
 121704798.573 7  94659301.421 6                  22735482.200    22735487.100
  22735485.780          45.050          41.950
 103929677.430 8  80834235.381 7                  19408122.620    19408124.860
  19408123.820          48.900          47.200
 105272816.021 7  81879006.074 7                  19700318.060    19700324.960
  19700322.980          47.300          47.500
 15  1 27 15 10 45.0000000  0 16G30G07G13G02G15G28G09G10G05R14R05R16
                                R13R03R04R15
 110684813.437 8  86247997.834 8  82654345.010 8  21062585.220    21062585.380
  21062584.640          50.450          48.750
 121517990.966 7  94689411.295 7                  23124082.680    23124080.720
  23124080.400          47.800          42.650
 112625590.025 8  87760263.17447                  21431914.540
  21431911.780          49.750          43.150
 123359996.319 7  96124656.99946                  23474633.340
  23474632.020          47.450          37.800
 128398568.532 7 100050845.501 6                  24433429.160    24433430.780
  24433430.080          43.100          40.800
 116385334.149 8  90689997.24647                  22147330.340
  22147327.560          50.200          42.050
 131966529.332 7 102831071.876 6  98546449.911 7  25112394.280    25112397.340
  25112397.440          43.400          38.750
 118252107.409 8  92144511.17147                  22502626.280
  22502624.880          49.600          43.000
 107619668.646 8  83859498.236 8                  20479327.320    20479325.460
  20479324.760          49.750          49.450
 104478696.470 7  81261302.071 6                  19599896.340    19599903.920
  19599903.400          43.300          41.900
 109654468.883 8  85286854.668 7                  20513122.440    20513126.200
  20513125.900          49.100          46.850
 129595029.771 6 100796214.856 5                  24260451.780    24260471.080
  24260470.580          41.900          35.950
 126357006.047 6  98277764.759 6                  23662583.920    23662590.840
  23662589.620          37.050          39.650
 121722068.353 7  94672733.453 6                  22738708.360    22738713.260
  22738711.920          44.950          41.200
 103933215.735 8  80836987.388 7                  19408783.420    19408785.600
  19408784.560          49.050          47.400
 105262199.621 7  81870748.882 7                  19698331.340    19698338.240
  19698336.280          47.000          46.750
 15  1 27 15 10 50.0000000  0 16G30G07G13G02G15G28G09G10G05R14R05R16
                                R13R03R04R15
 110694381.924 8  86255453.794 8  82661490.317 8  21064406.040    21064406.200
  21064405.480          50.300          48.850
 121532940.157 7  94701060.014 7                  23126927.420    23126925.440
  23126925.140          47.750          42.650
 112616651.336 8  87753297.95847                  21430213.580
  21430210.780          49.700          43.700
 123374777.507 7  96136174.76846                  23477446.140
  23477444.840          47.250          37.600
 128384214.382 7 100039660.479 6                  24430697.560    24430699.300
  24430698.620          43.450          41.150
 116375930.286 8  90682669.56347                  22145540.860
  22145538.040          50.100          42.050
 131980485.324 7 102841946.683 6  98556871.601 7  25115050.040    25115053.060
  25115053.100          43.650          39.000
 118268075.410 8  92156953.76147                  22505664.940
  22505663.480          49.250          43.400
 107618027.916 8  83858219.748 8                  20479015.120    20479013.240
  20479012.540          49.650          49.450
 104487733.504 7  81268330.871 6                  19601591.720    19601599.240
  19601598.720          44.150          41.800
 109640440.345 8  85275943.598 7                  20510498.100    20510501.900
  20510501.540          49.050          46.300
 129573757.415 6 100779669.888 6                  24256469.440    24256488.660
  24256488.140          41.600          36.000
 126377953.139 6  98294056.938 6                  23666506.500    23666513.540
  23666512.280          36.500          39.400
 121739348.794 7  94686173.760 6                  22741936.540    22741941.400
  22741940.080          44.800          40.900
 103936772.916 8  80839754.084 7                  19409447.720    19409449.880
  19409448.820          49.050          47.300
 105251604.460 7  81862508.207 7                  19696348.600    19696355.460
  19696353.520          47.450          46.300
 15  1 27 15 10 55.0000000  0 16G30G07G13G02G15G28G09G10G05R14R05R16
                                R13R03R04R15
 110703959.242 8  86262916.639 8  82668642.196 8  21066228.560    21066228.680
  21066228.000          50.350          48.950
 121547891.703 7  94712710.569 7                  23129772.620    23129770.620
  23129770.360          47.550          42.850
 112607716.567 8  87746335.80447                  21428513.360
  21428510.560          49.850          43.550
 123389560.726 7  96147694.14146                  23480259.320
  23480257.980          47.100          37.250
 128369859.947 7 100028475.230 6                  24427966.000    24427967.760
  24427967.080          43.650          41.300
 116366536.721 8  90675349.91347                  22143753.360
  22143750.480          50.150          42.350
 131994441.429 7 102852821.581 6  98567293.358 7  25117705.860    25117708.840
  25117708.860          44.150          40.000
 118284049.380 8  92169401.00047                  22508704.740
  22508703.260          49.600          42.600
 107616400.726 8  83856951.813 8                  20478705.480    20478703.600
  20478702.880          49.700          49.550
 104496786.771 7  81275372.320 6                  19603290.080    19603297.700
  19603297.080          44.200          41.000
 109626419.121 8  85265038.211 7                  20507875.120    20507878.900
  20507878.520          49.100          45.500
 129552486.855 7 100763126.347 5                  24252487.400    24252506.580
  24252505.980          42.000          33.450
 126398900.849 6  98310349.592 6                  23670429.320    23670436.280
  23670435.100          36.550          38.250
 121756635.971 7  94699619.328 6                  22745165.940    22745170.800
  22745169.520          44.850          40.050
 103940344.952 8  80842532.338 7                  19410114.780    19410116.900
  19410115.860          48.900          46.550
 105241026.609 7  81854281.001 7                  19694369.120    19694375.940
  19694374.000          47.750          45.650
 15  1 27 15 11  0.0000000  0 17G30G07G13G02G15G28G09G10G05R14R05R16
                                R21R13R03R04R15
 110713544.590 8  86270385.735 8  82675800.089 8  21068052.620    21068052.720
  21068052.060          50.300          49.600
 121562844.840 7  94724362.352 7                  23132618.100    23132616.120
  23132615.880          47.450          44.000
 112598784.943 8  87739376.09747                  21426813.760
  21426810.900          49.800          44.750
 123404345.293 7  96159214.54846                  23483072.760
  23483071.440          47.050          38.950
 128355504.454 7 100017289.144 7                  24425234.200    24425235.960
  24425235.360          43.000          42.450
 116357152.678 8  90668037.68047                  22141967.660
  22141964.760          50.100          42.950
 132008396.898 7 102863695.993 6  98577714.662 7  25120361.640    25120364.600
  25120364.560          43.800          41.000
 118300028.577 8  92181852.31247                  22511745.520
  22511744.020          49.550          44.050
 107614786.366 8  83855693.871 8                  20478398.280    20478396.400
  20478395.700          49.650          50.100
 104505855.498 7  81282425.772 6                  19604991.420    19604998.980
  19604998.340          43.700          41.200
 109612404.546 8  85254137.987 7                  20505253.400    20505257.180
  20505256.760          49.000          45.800
 129531217.411 6 100746583.629 5                  24248505.580    24248524.700
  24248523.940          41.400          33.300
 130912857.808 5                                  24464196.520
                        30.050
 126419848.622 6  98326642.299 6                  23674352.080    23674359.160
  23674357.940          36.300          38.800
 121773929.270 7  94713069.647 6                  22748396.520    22748401.400
  22748400.100          44.100          41.150
 103943931.068 8  80845321.534 7                  19410784.500    19410786.580
  19410785.540          48.900          46.750
 105230465.402 7  81846066.734 7                  19692392.740    19692399.560
  19692397.580          47.600          46.050
 15  1 27 15 11  5.0000000  0 16G30G07G13G02G15G28G09G10G05R14R05R16
                                R13R03R04R15
 110723141.961 8  86277864.210 8  82682966.954 8  21069878.960    21069879.060
  21069878.380          50.300          49.500
 121577803.488 7  94736018.429 7                  23135464.620    23135462.640
  23135462.400          47.850          43.700
 112589860.495 8  87732421.98247                  21425115.500
  21425112.600          49.850          44.400
 123419135.072 7  96170739.02546                  23485887.200
  23485885.860          46.950          38.800
 128341151.846 7 100006105.324 7                  24422502.960    24422504.720
  24422504.080          43.500          42.250
 116347782.177 8  90660736.00147                  22140184.500
  22140181.600          50.100          42.800
 132022355.704 7 102874572.976 6  98588138.448 7  25123018.060    25123020.920
  25123020.920          43.600          41.100
 118316016.941 8  92194310.76947                  22514788.020
  22514786.520          49.450          43.400
 107613188.772 8  83854448.992 8                  20478094.300    20478092.400
  20478091.680          49.650          49.900
 104514943.582 7  81289494.274 6                  19606696.340    19606703.840
  19606703.260          43.700          41.250
 109598400.666 8  85243246.080 7                  20502633.660    20502637.440
  20502636.960          48.900          45.800
 129509953.130 6 100730044.939 5                  24244524.700    24244543.680
  24244542.860          41.550          32.700
 126440800.422 6  98342938.139 6                  23678275.680    23678282.780
  23678281.540          36.100          38.900
 121791232.536 7  94726527.720 6                  22751628.920    22751633.860
  22751632.620          44.100          41.350
 103947535.448 8  80848124.936 7                  19411457.620    19411459.660
  19411458.640          49.150          46.700
 105219924.845 7  81837868.538 7                  19690420.260    19690427.040
  19690425.020          47.550          45.750
 15  1 27 15 11 10.0000000  0 16G30G07G13G02G15G28G09G10G05R14R05R16
                                R13R03R04R15
 110732750.262 8  86285351.192 8  82690141.978 8  21071707.380    21071707.460
  21071706.780          50.350          49.400
 121592766.613 7  94747678.005 7                  23138312.000    23138310.060
  23138309.800          47.750          43.600
 112580942.201 8  87725472.66447                  21423418.400
  21423415.480          49.800          44.050
 123433929.035 7  96182266.76046                  23488702.400
  23488701.080          47.050          39.150
 128326801.151 7  99994922.989 7                  24419772.120    24419773.900
  24419773.220          44.100          42.300
 116338424.139 8  90653444.02547                  22138403.720
  22138400.820          50.050          42.750
 132036316.802 7 102885451.745 6  98598563.934 8  25125674.860    25125677.680
  25125677.620          42.850          40.800
 118332013.447 8  92206775.56947                  22517832.060
  22517830.580          49.250          43.400
 107611606.880 8  83853216.345 8                  20477793.300    20477791.360
  20477790.640          49.750          49.850
 104524050.006 7  81296577.038 6                  19608404.680    19608412.200
  19608411.580          43.750          41.300
 109584406.434 8  85232361.683 7                  20500015.720    20500019.520
  20500019.000          49.050          45.750
 129488692.821 6 100713509.303 5                  24240544.620    24240563.480
  24240562.480          40.950          33.700
 126461754.943 5  98359236.087 6                  23682199.800    23682206.860
  23682205.600          35.950          39.400
 121808544.838 7  94739992.817 6                  22754862.940    22754867.980
  22754866.820          43.750          41.750
 103951156.859 8  80850941.596 7                  19412133.900    19412135.940
  19412134.900          49.100          46.750
 105209403.755 7  81829685.485 7                  19688451.400    19688458.100
  19688456.100          47.250          46.150
 15  1 27 15 11 15.0000000  0 16G30G07G13G02G15G28G09G10G05R14R05R16
                                R13R03R04R15
 110742367.143 8  86292844.863 8  82697323.415 8  21073537.460    21073537.480
  21073536.800          50.550          49.000
 121607731.848 7  94759339.223 7                  23141159.800    23141157.860
  23141157.580          47.450          43.000
 112572027.585 8  87718526.20847                  21421722.020
  21421719.020          49.850          43.500
 123448724.774 7  96193795.87246                  23491517.980
  23491516.740          46.950          38.700
 128312449.917 7  99983740.224 6                  24417041.120    24417042.920
  24417042.200          43.950          41.650
 116329076.243 8  90646159.96247                  22136624.840
  22136621.940          49.800          42.300
 132050277.865 7 102896330.490 6  98608989.388 7  25128331.540    25128334.400
  25128334.320          42.600          39.200
 118348015.711 8  92219244.84747                  22520877.200
  22520875.700          49.200          42.500
 107610038.334 8  83851994.101 8                  20477494.840    20477492.880
  20477492.160          49.850          49.550
 104533172.284 7  81303672.140 6                  19610116.020    19610123.520
  19610122.840          43.550          41.650
 109570419.325 8  85221482.837 7                  20497399.100    20497402.920
  20497402.380          49.450          46.350
 129467434.298 6 100696975.098 5                  24236564.800    24236583.700
  24236582.620          40.500          35.500
 126482710.013 5  98375534.456 6                  23686124.000    23686131.060
  23686129.800          35.850          39.400
 121825863.703 7  94753463.020 7                  22758098.260    22758103.300
  22758102.200          44.300          42.450
 103954793.088 8  80853769.775 7                  19412812.940    19412814.980
  19412813.940          48.850          47.450
 105198899.968 7  81821515.875 7                  19686485.760    19686492.460
  19686490.420          47.550          46.550
 15  1 27 15 11 20.0000000  0 16G30G07G13G02G15G28G09G10G05R14R05R16
                                R13R03R04R15
 110751994.738 8  86300346.887 8  82704512.851 8  21075369.580    21075369.560
  21075368.860          50.700          48.700
 121622701.368 7  94771003.774 7                  23144008.400    23144006.480
  23144006.180          47.450          43.050
 112563118.800 8  87711584.29547                  21420026.740
  21420023.720          49.900          43.350
 123463524.412 7  96205328.01246                  23494334.300
  23494333.080          47.250          38.950
 128298100.328 7  99972558.752 6                  24414310.460    24414312.260
  24414311.560          44.500          41.550
 116319740.615 8  90638885.45746                  22134848.280
  22134845.440          49.800          41.300
 132064240.959 6 102907210.839 6  98619416.364 7  25130988.540    25130991.540
  25130991.280          41.400          39.850
 118364025.823 8  92231720.25146                  22523923.820
  22523922.320          49.200          41.750
 107608485.247 8  83850783.904 8                  20477199.320    20477197.340
  20477196.600          49.950          49.300
 104542312.613 7  81310781.289 6                  19611830.740    19611838.260
  19611837.520          43.550          40.900
 109556441.704 8  85210611.353 7                  20494784.260    20494788.100
  20494787.520          49.250          45.800
 129446179.584 6 100680443.872 5                  24232585.760    24232604.660
  24232603.520          40.050          35.550
 126503667.807 6  98391834.950 6                  23690048.700    23690055.820
  23690054.520          36.050          38.200
 121843191.246 7  94766939.975 6                  22761335.160    22761340.340
  22761339.220          44.250          41.650
 103958446.074 8  80856610.969 7                  19413495.140    19413497.140
  19413496.100          48.800          46.650
 105188415.609 7  81813361.375 7                  19684523.780    19684530.440
  19684528.380          47.750          45.700
 15  1 27 15 11 25.0000000  0 16G30G07G13G02G15G28G09G10G05R14R05R16
                                R13R03R04R15
 110761631.722 8  86307856.227 8  82711709.298 8  21077203.480    21077203.440
  21077202.700          50.650          49.300
 121637673.805 7  94782670.595 7                  23146857.560    23146855.660
  23146855.340          47.400          43.600
 112554214.618 8  87704645.97347                  21418332.300
  21418329.300          49.800          44.050
 123478326.678 7  96216862.19646                  23497151.120
  23497149.960          47.500          38.850
 128283751.102 7  99961377.559 7                  24411579.880    24411581.660
  24411581.000          44.200          42.400
 116310415.998 8  90631619.53247                  22133073.800
  22133071.000          49.900          42.700
 132078204.871 6 102918091.783 6  98629843.927 7  25133645.640    25133648.800
  25133648.500          41.750          40.850
 118380042.553 8  92244200.81247                  22526971.680
  22526970.240          48.800          43.750
 107606946.408 8  83849584.810 8                  20476906.520    20476904.500
  20476903.760          50.000          50.000
 104551469.696 7  81317903.467 6                  19613548.580    19613556.160
  19613555.360          43.800          41.150
 109542472.110 8  85199746.111 7                  20492170.920    20492174.780
  20492174.180          49.400          45.800
 129424927.488 6 100663914.701 6                  24228607.140    24228626.120
  24228624.960          40.650          36.400
 126524626.928 6  98408136.484 6                  23693973.620    23693980.740
  23693979.460          36.500          38.050
 121860526.269 7  94780422.743 6                  22764573.540    22764578.720
  22764577.640          44.700          41.300
 103962114.754 8  80859464.386 7                  19414180.280    19414182.280
  19414181.200          48.900          46.700
 105177949.388 7  81805220.987 7                  19682565.160    19682571.780
  19682569.720          47.550          45.400
 15  1 27 15 11 30.0000000  0 16G30G07G13G02G15G28G09G10G05R14R05R16
                                R13R03R04R15
 110771278.304 8  86315373.046 8  82718912.916 8  21079039.200    21079039.120
  21079038.360          50.550          49.100
 121652649.371 7  94794339.870 7                  23149707.340    23149705.400
  23149705.080          47.400          43.550
 112545315.220 8  87697711.38847                  21416638.780
  21416635.780          49.800          44.000
 123493131.781 7  96228398.62046                  23499968.480
  23499967.380          47.350          38.900
 128269402.459 7  99950196.827 7                  24408849.420    24408851.240
  24408850.560          44.100          42.000
 116301102.612 8  90624362.36547                  22131301.440
  22131298.720          49.800          42.600
 132092169.684 7 102928973.453 6  98640272.214 7  25136303.000    25136306.320
  25136306.020          42.100          41.550
 118396066.055 8  92256686.64347                  22530020.800
  22530019.440          48.800          43.550
 107605421.995 8  83848396.962 8                  20476616.440    20476614.400
  20476613.680          50.000          49.850
 104560643.741 7  81325038.836 7                  19615269.660    19615277.200
  19615276.400          43.600          42.650
 109528510.900 8  85188887.413 7                  20489559.140    20489563.000
  20489562.440          49.350          47.150
 129403678.196 6 100647387.690 6                  24224629.220    24224648.080
  24224646.980          40.900          38.500
 126545587.557 6  98424439.196 6                  23697898.820    23697905.960
  23697904.700          36.600          39.650
 121877868.784 7  94793911.354 7                  22767813.300    22767818.500
  22767817.420          44.400          42.850
 103965799.217 8  80862330.084 8                  19414868.380    19414870.340
  19414869.260          48.950          48.150
 105167501.280 7  81797094.704 7                  19680609.940    19680616.500
  19680614.460          47.250          46.800
 15  1 27 15 11 35.0000000  0 16G30G07G13G02G15G28G09G10G05R14R05R16
                                R13R03R04R15
 110780936.024 8  86322898.538 8  82726124.854 8  21080877.040    21080876.920
  21080876.160          50.450          48.450
 121667629.549 7  94806012.731 7                  23152558.000    23152556.040
  23152555.680          47.450          42.350
 112536422.100 8  87690781.68447                  21414946.440
  21414943.480          49.800          43.050
 123507941.199 7  96239938.38746                  23502786.660
  23502785.540          47.550          37.750
 128255055.902 7  99939017.717 6                  24406119.380    24406121.180
  24406120.520          43.800          41.050
 116291801.964 8  90617115.11046                  22129531.520
  22129528.860          49.850          41.350
 132106137.016 7 102939857.068 6  98650702.345 7  25138960.940    25138964.220
  25138964.060          43.100          39.700
 118412097.881 8  92269178.95547                  22533071.500
  22533070.240          48.950          42.350
 107603913.537 8  83847221.541 8                  20476329.400    20476327.360
  20476326.620          50.100          49.300
 104569836.201 7  81332188.512 6                  19616994.140    19617001.680
  19617000.920          43.400          40.700
 109514559.601 8  85178036.404 7                  20486949.260    20486953.120
  20486952.540          49.150          45.550
 129382433.311 6 100630864.075 6                  24220651.980    24220670.880
  24220669.780          41.000          36.300
 126566551.177 6  98440744.244 6                  23701824.640    23701831.820
  23701830.500          36.750          37.300
 121895220.573 7  94807407.156 6                  22771054.740    22771060.020
  22771058.900          44.100          40.700
 103969500.958 8  80865209.213 7                  19415559.680    19415561.600
  19415560.560          49.050          46.400
 105157072.898 7  81788983.753 7                  19678658.400    19678664.960
  19678662.880          47.350          45.100
 15  1 27 15 11 40.0000000  0 16G30G07G13G02G15G28G09G10G05R14R05R16
                                R13R03R04R15
 110790603.581 8  86330431.698 8  82733344.128 8  21082716.740    21082716.580
  21082715.820          50.400          48.800
 121682613.147 7  94817688.252 7                  23155409.280    23155407.280
  23155406.980          47.500          42.650
 112527534.038 8  87683855.92647                  21413255.100
  21413252.140          49.750          43.200
 123522753.675 7  96251480.52946                  23505605.400
  23505604.320          47.250          37.250
 128240710.191 7  99927839.269 6                  24403389.460    24403391.280
  24403390.600          43.700          41.300
 116282512.827 8  90609876.83046                  22127763.800
  22127761.180          49.900          41.850
 132120105.589 7 102950741.689 6  98661133.424 7  25141619.120    25141622.360
  25141622.280          42.700          39.850
 118428136.748 8  92281676.76547                  22536123.520
  22536122.360          48.800          42.800
 107602419.799 8  83846057.584 8                  20476045.180    20476043.120
  20476042.380          50.000          49.450
 104579045.907 7  81339351.606 6                  19618721.840    19618729.400
  19618728.660          43.300          39.550
 109500616.978 8  85167192.142 7                  20484341.000    20484344.860
  20484344.280          49.300          44.600
 129361191.399 6 100614342.787 5                  24216675.280    24216694.200
  24216693.120          39.950          34.650
 126587516.588 6  98457050.671 6                  23705750.840    23705758.020
  23705756.620          36.900          36.400
 121912580.333 7  94820909.163 6                  22774297.680    22774302.940
  22774301.880          43.850          39.850
 103973218.839 8  80868100.898 7                  19416253.960    19416255.900
  19416254.880          49.200          45.350
 105146663.120 7  81780887.257 7                  19676710.320    19676716.900
  19676714.800          47.400          44.250
 15  1 27 15 11 45.0000000  0 16G30G07G13G02G15G28G09G10G05R14R05R16
                                R13R03R04R15
 110800279.977 8  86337971.749 8  82740570.006 8  21084558.120    21084557.920
  21084557.200          50.250          48.850
 121697599.121 7  94829365.634 7                  23158261.040    23158259.040
  23158258.740          47.100          42.450
 112518650.064 8  87676933.35347                  21411564.520
  21411561.560          49.700          43.500
 123537568.188 7  96263024.27746                  23508424.540
  23508423.500          47.300          38.050
 128226364.354 7  99916660.711 6                  24400659.540    24400661.320
  24400660.620          43.300          41.100
 116273234.205 8  90602646.74946                  22125998.060
  22125995.500          49.850          41.850
 132134074.393 6 102961626.483 6  98671564.696 7  25144277.200    25144280.460
  25144280.440          41.900          39.350
 118444181.662 8  92294179.28747                  22539176.700
  22539175.620          48.700          42.550
 107600939.742 8  83844904.299 8                  20475763.540    20475761.480
  20475760.720          50.000          49.450
 104588271.701 7  81346527.230 6                  19620452.560    19620460.080
  19620459.400          43.700          40.300
 109486681.890 8  85156353.756 7                  20481734.140    20481737.980
  20481737.440          49.300          45.050
 129339951.677 6 100597823.238 5                  24212698.980    24212717.960
  24212716.880          40.100          34.850
 126608482.731 6  98473357.683 6                  23709677.120    23709684.260
  23709682.900          37.100          37.050
 121929946.814 7  94834416.398 6                  22777541.880    22777547.180
  22777546.120          43.950          40.050
 103976951.743 8  80871004.268 7                  19416951.080    19416953.040
  19416952.000          49.300          46.150
 105136270.856 7  81772804.397 7                  19674765.520    19674772.120
  19674770.000          47.450          45.050
