     2.11           OBSERVATION DATA    M (MIXED)           RINEX VERSION / TYPE
teqc  2011Oct11     IGN-E (SPG)         20150127 09:00:55UTCPGM / RUN BY / DATE
Linux 2.4.21-27.ELsmp|Opteron|gcc -static|Linux x86_64|=+   COMMENT
BIT 2 OF LLI FLAGS DATA COLLECTED UNDER A/S CONDITION       COMMENT
VALE                                                        MARKER NAME
13439M001                                                   MARKER NUMBER
Programas GeodesicosInstituto Geografico Nacional           OBSERVER / AGENCY
1700071             LEICA GR10          3.03/6.214          REC # / TYPE / VERS
10190012            LEIAR25.R3      LEIT                    ANT # / TYPE
  4929534.0457   -29050.6755  4033709.9250                  APPROX POSITION XYZ
        3.0390        0.0000        0.0000                  ANTENNA: DELTA H/E/N
     1     1                                                WAVELENGTH FACT L1/2
     8    L1    L2    L5    C1    C2    P2    S1    S2      # / TYPES OF OBSERV
     5.0000                                                 INTERVAL
Forced Modulo Decimation to 5 seconds                       COMMENT
DefaultJobName                                              COMMENT
DefaultUserDiscription                                      COMMENT
Project creator:                                            COMMENT
 SNR is mapped to RINEX snr flag value [0-9]                COMMENT
  L1 & L2: min(max(int(snr_dBHz/6), 0), 9)                  COMMENT
  2015     1    27     8     0    0.0000000     GPS         TIME OF FIRST OBS
    15                                                      LEAP SECONDS
                                                            END OF HEADER
 15  1 27  8  0  0.0000000  0 19G11G14G28G04G17G03G23G31G27G19G20G32
                                G01R24R17R02R08R23R01
 106582991.301 8  83051669.35747                  20282065.380
  20282060.280          49.100          47.550
 126401781.490 7  98494876.09846                  24053463.800
  24053460.760          44.600          36.900
 123833736.369 7  96493785.53246                  23564778.420
  23564774.760          46.300          39.450
 109904947.973 8  85640228.27047                  20914208.260
  20914205.020          49.950          46.250
 124564967.944 7  97063568.483 7                  23703928.980    23703925.500
  23703925.060          47.000          42.700
 108402619.928 8  84469575.348 8  80950013.403 8  20628329.480    20628328.700
  20628328.040          49.900          49.800
 125507033.761 8  97797651.53446                  23883192.560
  23883188.340          48.250          38.550
 133262649.042 7 103841016.430 6                  25359039.240    25359040.460
  25359039.520          42.900          38.750
 135299680.191 6 105428304.824 6 101035447.388 7  25746689.180    25746693.380
  25746692.900          41.750          36.650
 122965022.399 8  95816871.27447                  23399467.220
  23399462.560          49.400          42.800
 126166031.137 7  98311152.50245                  24008601.940
  24008599.040          45.050          35.150
 108416773.438 8  84480624.01147                  20631011.600
  20631007.920          50.200          47.150
 107285251.902 8  83598916.080 8  80115617.517 8  20415700.040    20415698.920
  20415698.800          50.600          49.850
 103311176.440 7  80353154.864 7                  19319709.240    19319710.960
  19319708.840          47.700          42.200
 121426483.409 7  94442820.981 7                  22691446.200    22691448.040
  22691447.020          47.100          42.400
 116448072.119 7  90570737.597 7                  21822322.120    21822326.780
  21822325.880          47.750          43.750
 113777446.017 8  88493585.528 7                  21247126.400    21247127.640
  21247126.880          48.350          45.750
 110324160.123 8  85807697.225 7                  20623937.460    20623941.700
  20623940.820          49.650          47.550
 102791365.380 8  79948850.806 7                  19229245.780    19229249.360
  19229249.000          49.050          43.100
 15  1 27  8  0  5.0000000  0 19G11G14G28G04G17G03G23G31G27G19G20G32
                                G01R24R17R02R08R23R01
 106588163.930 8  83055699.96947                  20283049.700
  20283044.600          49.000          47.650
 126413851.566 7  98504281.33946                  24055760.660
  24055757.600          44.650          37.050
 123839285.978 7  96498109.88946                  23565834.460
  23565830.860          46.700          37.400
 109912782.303 8  85646332.93747                  20915699.080
  20915695.880          50.000          46.150
 124549351.323 7  97051399.688 7                  23700957.220    23700953.780
  23700953.300          47.250          42.400
 108396934.090 8  84465144.824 8  80945767.481 8  20627247.480    20627246.720
  20627246.080          49.800          49.800
 125489703.125 7  97784147.13146                  23879894.680
  23879890.420          47.900          38.200
 133251923.627 7 103832658.982 6                  25356998.320    25356999.500
  25356998.620          43.050          38.550
 135318484.894 7 105442957.806 6 101049489.831 7  25750267.700    25750271.780
  25750271.200          42.950          37.750
 122982185.607 8  95830245.18647                  23402733.320
  23402728.600          49.450          42.900
 126150470.609 7  98299027.40946                  24005640.880
  24005637.980          44.650          36.600
 108425210.747 8  84487198.53847                  20632617.160
  20632613.500          50.400          46.800
 107283741.883 8  83597739.442 8  80114489.900 8  20415412.700    20415411.580
  20415411.460          50.650          49.900
 103305635.889 7  80348845.542 7                  19318673.120    19318674.820
  19318672.700          47.750          42.450
 121406766.327 7  94427485.464 7                  22687761.660    22687763.460
  22687762.440          47.350          42.600
 116431251.253 7  90557654.701 7                  21819169.920    21819174.580
  21819173.680          47.650          43.850
 113794171.320 8  88506594.079 7                  21250249.740    21250250.980
  21250250.240          48.700          45.600
 110337324.393 8  85817936.096 7                  20626398.420    20626402.660
  20626401.780          49.650          47.500
 102790809.278 8  79948418.277 7                  19229141.740    19229145.360
  19229144.980          49.200          43.150
 15  1 27  8  0 10.0000000  0 19G11G14G28G04G17G03G23G31G27G19G20G32
                                G01R24R17R02R08R23R01
 106593350.077 8  83059741.11647                  20284036.580
  20284031.500          48.950          47.150
 126425933.672 7  98513695.95545                  24058059.800
  24058056.780          44.650          35.950
 123844848.822 7  96502444.55446                  23566893.040
  23566889.400          46.750          38.800
 109920626.132 8  85652445.00747                  20917191.700
  20917188.520          50.000          46.150
 124533742.247 7  97039236.765 7                  23697986.920    23697983.460
  23697982.940          47.250          42.550
 108391260.170 8  84460723.584 8  80941530.465 8  20626167.740    20626167.000
  20626166.380          49.800          49.700
 125472376.185 8  97770645.60846                  23876597.480
  23876593.180          48.050          38.650
 133241204.679 7 103824306.574 6                  25354958.680    25354959.680
  25354958.840          42.800          37.550
 135337290.496 7 105457611.501 6 101063532.954 7  25753846.400    25753850.380
  25753849.720          42.750          37.950
 122999355.579 8  95843624.37347                  23406000.740
  23405995.900          49.300          42.650
 126134915.597 7  98286906.63646                  24002680.840
  24002677.960          44.900          36.900
 108433659.205 8  84493781.75547                  20634224.840
  20634221.220          50.100          47.050
 107282241.276 8  83596570.134 8  80113369.315 8  20415127.140    20415126.020
  20415125.900          50.550          49.850
 103300114.235 8  80344550.925 7                  19317640.520    19317642.240
  19317640.120          48.050          42.700
 121387053.278 7  94412153.084 7                  22684077.840    22684079.660
  22684078.660          47.150          42.950
 116414442.100 7  90544580.901 7                  21816019.920    21816024.500
  21816023.680          47.700          43.750
 113810905.144 8  88519609.270 7                  21253374.680    21253375.900
  21253375.140          49.050          45.350
 110350505.081 8  85828187.744 7                  20628862.440    20628866.680
  20628865.800          49.600          47.450
 102790272.491 8  79948000.779 7                  19229041.280    19229044.940
  19229044.580          49.150          43.200
 15  1 27  8  0 15.0000000  0 19G11G14G28G04G17G03G23G31G27G19G20G32
                                G01R24R17R02R08R23R01
 106598547.126 8  83063790.75947                  20285025.540
  20285020.460          48.750          47.550
 126438025.175 7  98523117.90646                  24060360.720
  24060357.640          44.150          36.550
 123850422.260 7  96506787.48246                  23567953.660
  23567949.980          46.700          38.200
 109928476.824 8  85658562.41947                  20918685.620
  20918682.440          50.000          45.950
 124518138.165 7  97027077.734 7                  23695017.600    23695014.080
  23695013.560          47.100          42.450
 108385595.597 8  84456309.627 8  80937300.424 8  20625089.780    20625089.080
  20625088.440          49.800          49.750
 125455050.399 7  97757144.98146                  23873300.520
  23873296.180          47.850          38.000
 133230489.573 7 103815957.117 6                  25352919.680    25352920.620
  25352919.680          42.200          37.600
 135356094.450 7 105472263.866 6 101077574.801 7  25757424.740    25757428.660
  25757427.840          42.250          37.200
 123016529.726 8  95857006.80947                  23409268.920
  23409264.000          49.250          42.250
 126119363.545 7  98274788.17745                  23999721.420
  23999718.560          45.300          35.200
 108442116.238 8  84500371.64347                  20635834.160
  20635830.540          50.150          46.900
 107280747.501 8  83595406.151 8  80112253.833 8  20414842.880    20414841.760
  20414841.660          50.550          49.750
 103294608.710 8  80340268.847 7                  19316610.960    19316612.660
  19316610.540          48.250          42.750
 121367341.916 7  94396822.025 7                  22680394.340    22680396.220
  22680395.220          47.450          42.900
 116397641.936 8  90531514.098 7                  21812871.580    21812876.180
  21812875.360          48.100          43.600
 113827644.710 8  88532628.931 7                  21256500.720    21256501.880
  21256501.100          49.400          45.600
 110363699.522 8  85838450.074 7                  20631329.020    20631333.260
  20631332.380          49.750          47.650
 102789752.351 8  79947596.225 7                  19228943.980    19228947.620
  19228947.280          49.100          43.350
 15  1 27  8  0 20.0000000  0 19G11G14G28G04G17G03G23G31G27G19G20G32
                                G01R24R17R02R08R23R01
 106603756.576 8  83067850.06747                  20286016.860
  20286011.800          48.850          47.650
 126450127.598 7  98532548.33245                  24062663.740
  24062660.720          44.150          35.850
 123856007.793 7  96511139.83346                  23569016.580
  23569012.900          46.650          38.250
 109936335.827 8  85664686.31147                  20920181.140
  20920177.960          49.900          46.450
 124502540.526 7  97014923.730 7                  23692049.480    23692045.960
  23692045.400          47.550          42.400
 108379941.830 8  84451904.098 8  80933078.456 8  20624013.880    20624013.200
  20624012.560          49.850          49.800
 125437727.261 7  97743646.43046                  23870004.080
  23869999.700          47.600          39.400
 133219779.834 6 103807611.836 6                  25350881.700    25350882.520
  25350881.560          40.750          37.950
 135374898.086 6 105486916.044 5 101091616.469 7  25761003.020    25761006.900
  25761006.000          40.400          35.950
 123033709.433 8  95870393.57947                  23412538.180
  23412533.160          49.100          43.150
 126103815.958 7  98262673.15445                  23996762.880
  23996759.800          45.300          34.050
 108450583.356 8  84506969.39647                  20637445.380
  20637441.820          50.050          47.100
 107279262.063 8  83594248.661 8  80111144.573 8  20414560.220    20414559.080
  20414558.980          50.450          49.850
 103289121.056 8  80336000.668 7                  19315584.720    19315586.480
  19315584.340          48.100          42.850
 121347633.616 7  94381493.322 7                  22676711.440    22676713.260
  22676712.300          47.000          42.800
 116380852.506 7  90518455.644 7                  21809725.260    21809729.820
  21809729.020          47.750          43.550
 113844391.613 8  88545654.302 7                  21259628.100    21259629.240
  21259628.460          49.450          45.300
 110376909.222 8  85848724.264 7                  20633798.420    20633802.680
  20633801.800          49.700          47.300
 102789250.284 8  79947205.727 7                  19228850.060    19228853.720
  19228853.380          49.150          43.250
 15  1 27  8  0 25.0000000  0 19G11G14G28G04G17G03G23G31G27G19G20G32
                                G01R24R17R02R08R23R01
 106608978.153 8  83071918.82247                  20287010.520
  20287005.420          48.800          47.550
 126462240.623 7  98541987.04746                  24064968.760
  24064965.700          44.200          38.100
 123861605.104 7  96515501.36046                  23570081.760
  23570078.040          46.300          39.400
 109944202.917 8  85670816.50347                  20921678.220
  20921675.040          50.050          46.200
 124486949.070 7  97002774.535 7                  23689082.560    23689078.980
  23689078.400          47.350          42.550
 108374298.595 8  84447506.778 8  80928864.349 8  20622939.960    20622939.340
  20622938.700          49.900          49.750
 125420406.422 7  97730149.66046                  23866708.040
  23866703.640          47.450          39.250
 133209075.232 6 103799270.620 6                  25348844.740    25348845.520
  25348844.500          40.400          37.250
 135393701.262 6 105501567.814 6 101105657.708 7  25764581.180    25764585.060
  25764584.040          41.550          37.350
 123050894.463 8  95883784.49947                  23415808.480
  23415803.340          48.950          42.900
 126088272.517 7  98250561.37946                  23993805.100
  23993801.980          44.950          36.350
 108459060.159 8  84513574.69147                  20639058.460
  20639054.920          50.000          47.050
 107277784.644 8  83593097.425 8  80110041.290 8  20414279.080    20414277.940
  20414277.840          50.550          49.800
 103283650.751 8  80331745.982 7                  19314561.740    19314563.500
  19314561.380          48.150          42.800
 121327928.015 7  94366166.744 7                  22673029.020    22673030.760
  22673029.900          46.900          43.250
 116364073.326 7  90505405.173 7                  21806580.860    21806585.460
  21806584.620          47.800          43.550
 113861145.542 8  88558685.138 7                  21262756.760    21262757.940
  21262757.120          49.350          45.650
 110390133.718 8  85859009.981 7                  20636270.600    20636274.860
  20636273.960          49.450          47.400
 102788766.061 8  79946829.107 7                  19228759.480    19228763.080
  19228762.800          49.250          43.050
 15  1 27  8  0 30.0000000  0 19G11G14G28G04G17G03G23G31G27G19G20G32
                                G01R24R17R02R08R23R01
 106614211.748 8  83075996.94548                  20288006.420
  20288001.360          48.300          48.050
 126474364.156 7  98551433.93746                  24067275.760
  24067272.660          43.250          37.000
 123867214.103 7  96519872.00146                  23571149.140
  23571145.400          45.650          39.600
 109952077.953 8  85676952.89147                  20923176.800
  20923173.640          49.550          46.600
 124471363.715 7  96990630.098 7                  23686116.780    23686113.180
  23686112.580          46.700          42.550
 108368665.803 8  84443117.588 8  80924658.044 8  20621868.040    20621867.460
  20621866.820          49.400          49.700
 125403087.896 7  97716654.69046                  23863412.420
  23863408.080          46.800          39.850
 133198375.573 6 103790933.270 6                  25346808.660    25346809.360
  25346808.420          39.800          36.500
 135412503.753 6 105516219.056 6 101119698.468 7  25768159.220    25768163.080
  25768162.020          40.900          38.300
 123068084.735 8  95897179.50047                  23419079.700
  23419074.540          48.400          43.250
 126072733.159 7  98238452.82545                  23990848.020
  23990845.060          44.600          34.450
 108467546.613 8  84520187.50647                  20640673.380
  20640669.860          49.400          47.550
 107276315.181 8  83591952.379 8  80108943.958 8  20413999.460    20413998.300
  20413998.200          50.200          49.850
 103278197.949 7  80327504.914 7                  19313542.080    19313543.840
  19313541.700          47.550          42.900
 121308225.133 7  94350842.282 7                  22669347.100    22669348.840
  22669348.060          46.400          43.050
 116347304.376 7  90492362.644 7                  21803438.360    21803442.920
  21803442.120          47.900          43.850
 113877906.255 8  88571721.240 7                  21265886.660    21265887.940
  21265887.080          49.050          45.850
 110403373.176 8  85869307.323 7                  20638745.560    20638749.860
  20638748.940          48.800          47.250
 102788299.577 8  79946466.286 7                  19228672.220    19228675.840
  19228675.520          48.800          43.050
 15  1 27  8  0 35.0000000  0 19G11G14G28G04G17G03G23G31G27G19G20G32
                                G01R24R17R02R08R23R01
 106619458.727 8  83080085.49147                  20289004.880
  20288999.840          48.400          47.900
 126486499.491 7  98560890.02646                  24069585.000
  24069581.840          43.400          36.800
 123872836.098 7  96524252.76846                  23572218.980
  23572215.220          46.200          39.800
 109959962.372 8  85683096.58747                  20924677.200
  20924674.000          49.600          46.850
 124455785.724 7  96978491.396 7                  23683152.400    23683148.780
  23683148.180          46.800          42.800
 108363044.792 8  84438737.575 8  80920460.545 8  20620798.380    20620797.820
  20620797.180          49.550          49.700
 125385773.051 7  97703162.59146                  23860117.520
  23860113.220          46.900          39.850
 133187682.259 6 103782600.830 6                  25344773.680    25344774.400
  25344773.420          38.150          37.150
 135431306.948 6 105530870.864 6 101133739.758 7  25771737.320    25771741.140
  25771740.140          40.400          37.400
 123085281.565 8  95910579.61547                  23422352.200
  23422346.960          48.500          43.350
 126057199.258 7  98226348.49146                  23987892.040
  23987889.100          44.750          37.600
 108476044.035 8  84526808.86147                  20642290.380
  20642286.880          49.650          47.550
 107274854.993 8  83590814.568 8  80107853.568 8  20413721.620    20413720.440
  20413720.320          50.200          49.750
 103272763.887 7  80323278.411 7                  19312525.880    19312527.640
  19312525.520          47.250          42.700
 121288526.492 7  94335521.112 7                  22665665.920    22665667.740
  22665666.940          46.250          42.650
 116330547.048 7  90479329.156 7                  21800298.060    21800302.580
  21800301.780          47.550          43.750
 113894675.288 8  88584763.810 7                  21269018.120    21269019.480
  21269018.600          48.500          45.800
 110416628.813 8  85879617.248 7                  20641223.520    20641227.860
  20641226.920          48.450          47.250
 102787852.216 8  79946118.337 7                  19228588.540    19228592.180
  19228591.820          48.500          43.150
 15  1 27  8  0 40.0000000  0 19G11G14G28G04G17G03G23G31G27G19G20G32
                                G01R24R17R02R08R23R01
 106624717.783 8  83084183.45647                  20290005.660
  20290000.600          48.450          47.700
 126498645.297 7  98570354.28046                  24071896.220
  24071893.080          43.800          36.800
 123878469.801 7  96528642.65646                  23573291.060
  23573287.280          46.350          39.350
 109967854.762 8  85689246.49447                  20926179.100
  20926175.880          49.750          47.000
 124440213.945 7  96966357.547 7                  23680189.180    23680185.540
  23680184.960          46.900          42.800
 108357434.256 8  84434365.731 8  80916270.853 8  20619730.700    20619730.160
  20619729.540          49.400          49.750
 125368460.476 7  97689672.25646                  23856823.060
  23856818.740          46.650          40.350
 133176993.950 6 103774272.278 6                  25342739.720    25342740.320
  25342739.320          37.950          36.300
 135450109.473 6 105545522.088 6 101147780.528 7  25775315.260    25775319.160
  25775318.160          41.050          37.950
 123102483.638 8  95923983.81147                  23425625.660
  23425620.420          48.350          42.950
 126041669.433 7  98214247.33945                  23984936.820
  23984933.920          44.500          35.000
 108484551.094 8  84533437.73847                  20643909.200
  20643905.700          49.750          47.250
 107273402.811 8  83589682.994 8  80106769.140 8  20413445.280    20413444.100
  20413443.980          50.300          49.750
 103267347.327 7  80319065.537 7                  19311512.960    19311514.740
  19311512.600          47.050          42.900
 121268830.507 7  94320202.007 7                  22661985.240    22661987.080
  22661986.300          46.200          42.800
 116313799.944 7  90466303.631 7                  21797159.660    21797164.160
  21797163.340          47.600          43.650
 113911451.260 8  88597811.774 7                  21272150.860    21272152.260
  21272151.420          48.100          45.850
 110429899.302 8  85889938.732 7                  20643704.300    20643708.660
  20643707.720          48.600          47.400
 102787422.611 8  79945784.195 7                  19228508.180    19228511.780
  19228511.460          48.650          43.250
 15  1 27  8  0 45.0000000  0 19G11G14G28G04G17G03G23G31G27G19G20G32
                                G01R24R17R02R08R23R01
 106629988.762 8  83088290.70848                  20291008.680
  20291003.640          48.400          48.100
 126510801.442 7  98579826.58446                  24074209.440
  24074206.320          44.050          36.950
 123884115.051 7  96533041.54246                  23574365.320
  23574361.540          46.050          39.200
 109975755.041 8  85695402.55147                  20927682.520
  20927679.280          49.850          46.800
 124424648.260 7  96954228.437 7                  23677227.140    23677223.500
  23677222.920          46.850          42.800
 108351834.038 8  84430001.929 8  80912088.869 8  20618664.980    20618664.500
  20618663.840          49.550          49.800
 125351150.092 7  97676183.65846                  23853528.960
  23853524.720          46.650          39.700
 133166310.573 6 103765947.571 6                  25340706.620    25340707.200
  25340706.020          38.500          36.450
 135468911.275 6 105560172.806 6 101161820.796 6  25778893.200    25778897.080
  25778896.100          40.700          36.950
 123119690.789 8  95937391.96847                  23428900.060
  23428894.840          48.600          42.700
 126026143.612 7  98202149.32745                  23981982.340
  23981979.480          44.850          35.650
 108493067.633 8  84540074.00447                  20645529.840
  20645526.320          49.800          47.150
 107271958.478 8  83588557.539 8  80105690.564 8  20413170.440    20413169.260
  20413169.140          50.250          49.800
 103261947.909 7  80314865.992 7                  19310503.220    19310505.040
  19310502.880          47.300          42.750
 121249137.230 7  94304885.016 7                  22658305.080    22658306.940
  22658306.180          45.900          42.900
 116297063.009 8  90453286.015 7                  21794023.180    21794027.680
  21794026.840          48.000          43.650
 113928233.899 8  88610864.923 7                  21275284.880    21275286.300
  21275285.460          48.250          45.650
 110443184.626 8  85900271.746 7                  20646187.800    20646192.200
  20646191.260          48.900          47.250
 102787010.615 8  79945463.758 7                  19228431.100    19228434.720
  19228434.400          48.900          43.300
 15  1 27  8  0 50.0000000  0 19G11G14G28G04G17G03G23G31G27G19G20G32
                                G01R24R17R02R08R23R01
 106635270.477 8  83092406.32347                  20292013.760
  20292008.720          48.350          47.950
 126522966.791 7  98589306.07146                  24076524.420
  24076521.200          43.950          36.450
 123889770.678 7  96537448.50846                  23575441.560
  23575437.720          46.350          38.750
 109983662.064 8  85701563.85647                  20929187.220
  20929183.960          50.050          46.450
 124409087.453 7  96942103.123 7                  23674266.020    23674262.360
  23674261.800          46.800          42.900
 108346243.009 8  84425645.283 8  80907913.761 8  20617601.020    20617600.560
  20617599.900          49.650          49.850
 125333840.786 7  97662695.86846                  23850235.080
  23850230.880          46.400          40.100
 133155630.925 6 103757625.769 6                  25338674.320    25338674.900
  25338673.560          41.150          37.000
 135487711.112 7 105574821.962 6 101175859.611 6  25782470.780    25782474.620
  25782473.800          42.900          37.700
 123136901.868 8  95950803.19347                  23432175.220
  23432170.040          48.300          42.600
 126010620.571 7  98190053.44746                  23979028.420
  23979025.600          44.950          37.050
 108501592.538 8  84546716.78747                  20647152.060
  20647148.560          49.850          47.000
 107270520.826 8  83587437.289 8  80104617.009 8  20412896.860    20412895.680
  20412895.560          50.250          49.750
 103256564.730 7  80310679.071 7                  19309496.560    19309498.300
  19309496.200          47.550          42.800
 121229445.420 7  94289569.180 7                  22654625.180    22654627.040
  22654626.360          46.050          42.650
 116280335.065 7  90440275.385 7                  21790888.380    21790892.880
  21790892.000          47.800          43.650
 113945022.108 8  88623922.404 7                  21278419.940    21278421.360
  21278420.500          48.500          45.700
 110456483.384 8  85910615.206 7                  20648673.840    20648678.280
  20648677.320          48.950          47.200
 102786615.029 8  79945156.082 7                  19228357.120    19228360.720
  19228360.420          48.850          43.150
 15  1 27  8  0 55.0000000  0 19G11G14G28G04G17G03G23G31G27G19G20G32
                                G01R24R17R02R08R23R01
 106640565.364 8  83096532.20447                  20293021.340
  20293016.340          48.400          47.950
 126535143.762 7  98598794.61646                  24078841.600
  24078838.460          44.100          36.450
 123895439.106 7  96541865.45846                  23576520.260
  23576516.380          46.550          39.400
 109991578.165 8  85707732.24447                  20930693.660
  20930690.360          50.200          46.500
 124393533.944 7  96929983.515 7                  23671306.280    23671302.620
  23671302.080          46.700          43.150
 108340663.532 8  84421297.647 8  80903747.275 8  20616539.260    20616538.800
  20616538.160          49.700          49.950
 125316534.924 7  97649210.77546                  23846941.840
  23846937.720          46.000          40.800
 133144957.501 6 103749308.826 6                  25336643.180    25336643.760
  25336642.540          40.900          38.500
 135506511.490 6 105589471.605 6 101189898.808 7  25786048.420    25786052.260
  25786051.480          41.700          38.000
 123154119.296 8  95964219.34847                  23435451.580
  23435446.400          48.450          42.600
 125995102.803 7  98177961.71146                  23976075.520
  23976072.740          44.600          36.250
 108510128.168 8  84553367.92847                  20648776.340
  20648772.840          49.950          47.150
 107269092.292 8  83586324.150 8  80103550.239 8  20412625.020    20412623.840
  20412623.720          50.350          49.850
 103251200.215 7  80306506.672 7                  19308493.340    19308495.100
  19308493.000          47.700          42.700
 121209757.638 7  94274256.459 7                  22650946.020    22650947.860
  22650947.260          45.850          42.900
 116263618.567 7  90427273.679 7                  21787755.740    21787760.240
  21787759.300          47.950          43.900
 113961818.198 8  88636986.022 7                  21281556.520    21281557.920
  21281557.060          48.850          45.700
 110469798.144 8  85920971.125 7                  20651162.900    20651167.360
  20651166.400          48.950          47.500
 102786238.302 8  79944863.068 7                  19228286.620    19228290.220
  19228289.940          48.700          43.200
 15  1 27  8  1  0.0000000  0 19G11G14G28G04G17G03G23G31G27G19G20G32
                                G01R24R17R02R08R23R01
 106645873.121 8  83100668.11148                  20294031.340
  20294026.380          48.400          48.150
 126547332.070 7  98608291.96246                  24081160.960
  24081157.760          44.100          37.600
 123901120.015 7  96546292.13446                  23577601.300
  23577597.460          46.650          38.700
 109999503.045 8  85713907.46747                  20932201.740
  20932198.440          50.050          46.700
 124377987.447 7  96917869.358 7                  23668347.880    23668344.280
  23668343.680          46.700          42.950
 108335095.328 8  84416958.785 8  80899589.201 8  20615479.640    20615479.220
  20615478.560          49.650          49.800
 125299232.257 7  97635728.17546                  23843649.220
  23843645.120          46.400          40.000
 133134289.982 6 103740996.489 6                  25334613.120    25334613.820
  25334612.700          40.700          38.700
 135525311.947 7 105604121.283 6 101203938.071 6  25789626.080    25789629.940
  25789629.040          42.600          36.850
 123171342.711 8  95977640.17947                  23438729.060
  23438723.940          48.400          43.200
 125979590.004 7  98165873.82046                  23973123.540
  23973120.720          44.300          36.250
 108518674.220 8  84560027.18347                  20650402.600
  20650399.100          49.950          47.250
 107267672.550 8  83585217.851 8  80102490.043 8  20412354.820    20412353.680
  20412353.540          50.300          49.750
 103245853.947 8  80302348.453 7                  19307493.560    19307495.320
  19307493.200          48.000          42.550
 121190073.456 7  94258946.539 7                  22647267.560    22647269.420
  22647268.840          46.250          42.750
 116246913.202 8  90414280.620 7                  21784625.160    21784629.660
  21784628.720          48.300          43.600
 113978622.083 8  88650055.712 7                  21284694.540    21284695.940
  21284695.040          49.150          45.650
 110483128.493 8  85931339.159 7                  20653654.860    20653659.340
  20653658.360          49.300          47.500
 102785880.047 8  79944584.423 7                  19228219.620    19228223.180
  19228222.900          48.700          43.150
 15  1 27  8  1  5.0000000  0 19G11G14G28G04G17G03G23G31G27G19G20G32
                                G01R24R17R02R08R23R01
 106651192.476 8  83104813.06047                  20295043.560
  20295038.640          48.750          47.650
 126559530.327 7  98617797.09746                  24083482.180
  24083479.020          43.900          37.800
 123906812.080 7  96550727.50046                  23578684.480
  23578680.640          46.750          39.250
 110007435.490 8  85720088.58947                  20933711.280
  20933707.940          50.050          46.450
 124362446.662 7  96905759.651 7                  23665390.560    23665386.980
  23665386.380          46.800          43.150
 108329537.122 8  84412627.715 8  80895438.596 8  20614421.920    20614421.520
  20614420.860          49.700          49.850
 125281931.511 7  97622247.06446                  23840356.960
  23840352.940          46.800          40.100
 133123627.128 6 103732687.795 6                  25332584.020    25332584.860
  25332583.740          41.250          38.800
 135544111.300 6 105618770.089 5 101217976.563 6  25793203.460    25793207.380
  25793206.540          41.750          35.650
 123188570.830 8  95991064.66847                  23442007.440
  23442002.340          48.500          42.950
 125964080.878 7  98153788.77845                  23970172.260
  23970169.420          44.950          35.600
 108527229.386 8  84566693.54247                  20652030.580
  20652027.100          49.850          47.300
 107266260.353 8  83584117.436 8  80101435.479 8  20412086.100    20412084.920
  20412084.800          50.350          49.800
 103240524.797 7  80298203.554 7                  19306496.980    19306498.720
  19306496.620          47.750          42.650
 121170391.633 7  94243638.447 7                  22643589.520    22643591.400
  22643590.760          45.950          42.350
 116230217.558 8  90401295.115 7                  21781496.420    21781500.880
  21781499.940          48.100          43.650
 113995432.250 8  88663130.278 7                  21287833.740    21287835.100
  21287834.200          48.950          45.400
 110496473.257 8  85941718.412 7                  20656149.540    20656154.000
  20656153.060          49.200          47.300
 102785539.163 8  79944319.285 7                  19228155.860    19228159.380
  19228159.100          48.900          43.150
 15  1 27  8  1 10.0000000  0 19G11G14G28G04G17G03G23G31G27G19G20G32
                                G01R24R17R02R08R23R01
 106656523.656 8  83108967.22147                  20296058.060
  20296053.140          48.800          47.700
 126571738.686 7  98627310.09046                  24085805.300
  24085802.180          43.950          37.700
 123912515.565 7  96555171.75746                  23579769.820
  23579766.020          46.900          38.300
 110015375.665 8  85726275.73447                  20935222.260
  20935218.940          50.100          46.550
 124346911.868 7  96893654.617 7                  23662434.380    23662430.840
  23662430.200          46.950          43.050
 108323989.110 8  84408304.593 8  80891295.598 8  20613366.160    20613365.780
  20613365.120          49.850          49.850
 125264632.906 7  97608767.62246                  23837065.140
  23837061.160          47.400          39.750
 133112969.144 6 103724382.858 6                  25330555.880    25330556.720
  25330555.620          41.200          38.500
 135562909.844 6 105633418.321 6 101232014.380 7  25796780.680    25796784.780
  25796783.940          41.650          37.300
 123205803.894 8  96004493.02247                  23445286.740
  23445281.740          48.450          43.150
 125948575.547 7  98141706.71245                  23967221.700
  23967218.800          45.550          35.550
 108535793.859 8  84573367.15147                  20653660.320
  20653656.880          49.900          47.100
 107264855.874 8  83583023.039 8  80100386.670 8  20411818.820    20411817.660
  20411817.540          50.400          49.800
 103235212.849 7  80294072.039 7                  19305503.600    19305505.380
  19305503.260          47.400          42.600
 121150712.460 7  94228332.421 7                  22639911.960    22639913.880
  22639913.200          45.900          42.250
 116213532.013 8  90388317.487 7                  21778369.560    21778374.040
  21778373.080          48.400          43.650
 114012248.802 8  88676209.810 7                  21290974.100    21290975.460
  21290974.520          49.050          45.300
 110509832.508 8  85952108.932 7                  20658646.900    20658651.360
  20658650.440          48.850          47.100
 102785215.723 8  79944067.727 7                  19228095.340    19228098.860
  19228098.580          48.800          43.100
 15  1 27  8  1 15.0000000  0 19G11G14G28G04G17G03G23G31G27G19G20G32
                                G01R24R17R02R08R23R01
 106661868.540 8  83113132.05947                  20297075.140
  20297070.240          48.800          47.800
 126583959.084 7  98636832.46046                  24088130.740
  24088127.680          43.750          37.400
 123918232.281 7  96559626.32746                  23580857.640
  23580853.880          46.750          37.900
 110023325.469 8  85732470.38447                  20936735.080
  20936731.760          50.000          46.350
 124331384.922 7  96881555.702 7                  23659479.700    23659476.140
  23659475.520          46.900          43.000
 108318453.183 8  84403990.885 8  80887161.624 8  20612312.700    20612312.320
  20612311.660          49.800          49.850
 125247338.322 7  97595291.30046                  23833774.100
  23833770.120          47.600          38.800
 133102317.878 6 103716083.180 6                  25328528.980    25328529.940
  25328528.740          41.100          37.850
 135581709.311 7 105648067.178 6 101246052.875 7  25800358.060    25800362.140
  25800361.480          45.300          39.850
 123223043.757 8  96017926.65947                  23448567.360
  23448562.440          48.100          43.200
 125933075.996 7  98129629.13846                  23964272.260
  23964269.180          45.300          36.050
 108544369.546 8  84580049.50347                  20655292.200
  20655288.780          49.700          47.350
 107263461.033 8  83581936.147 8  80099345.075 8  20411553.380    20411552.240
  20411552.100          50.350          49.750
 103229920.066 7  80289955.427 7                  19304513.840    19304515.620
  19304513.460          47.250          42.600
 121131037.818 7  94213029.924 6                  22636235.220    22636237.140
  22636236.480          46.150          41.950
 116196858.567 8  90375349.258 7                  21775244.980    21775249.440
  21775248.460          48.500          43.350
 114029073.957 8  88689296.040 7                  21294116.100    21294117.420
  21294116.480          48.900          45.050
 110523208.369 8  85962512.369 7                  20661147.400    20661151.840
  20661150.920          48.950          46.900
 102784911.697 8  79943831.264 7                  19228038.480    19228042.020
  19228041.700          48.650          42.950
 15  1 27  8  1 20.0000000  0 19G11G14G28G04G17G03G23G31G27G19G20G32
                                G01R24R17R02R08R23R01
 106667223.508 8  83117304.75547                  20298094.140
  20298089.280          48.750          47.350
 126596187.875 7  98646361.39046                  24090457.780
  24090454.780          44.050          37.400
 123923958.636 7  96564088.40946                  23581947.300
  23581943.560          46.050          38.400
 110031281.251 8  85738669.68947                  20938249.020
  20938245.700          49.900          46.550
 124315862.278 7  96869460.131 7                  23656525.840    23656522.260
  23656521.660          46.950          42.950
 108312925.721 8  84399683.772 8  80883033.984 8  20611260.860    20611260.480
  20611259.820          49.650          49.800
 125230044.153 7  97581815.31146                  23830483.160
  23830479.160          47.400          39.000
 133091669.781 7 103707785.984 6                  25326502.800    25326503.720
  25326502.560          42.450          36.800
 135600506.092 7 105662713.984 6 101260089.397 7  25803934.980    25803939.040
  25803938.400          46.650          39.700
 123240286.766 8  96031362.74747                  23451848.540
  23451843.720          48.050          43.050
 125917578.591 7  98117553.24646                  23961323.200
  23961320.080          45.250          36.350
 108552952.808 8  84586737.75147                  20656925.540
  20656922.120          49.700          46.750
 107262072.224 8  83580853.957 8  80098307.972 8  20411289.080    20411287.940
  20411287.820          50.300          49.800
 103224642.858 7  80285850.932 7                  19303526.960    19303528.740
  19303526.620          47.400          42.700
 121111363.985 7  94197728.043 6                  22632558.620    22632560.540
  22632559.880          45.550          41.850
 116180193.382 8  90362387.441 7                  21772121.920    21772126.440
  21772125.380          48.300          43.050
 114045903.813 8  88702385.930 7                  21297258.960    21297260.320
  21297259.340          48.400          45.350
 110536597.017 8  85972925.754 7                  20663650.280    20663654.720
  20663653.760          49.100          47.050
 102784623.252 8  79943606.908 7                  19227984.500    19227988.020
  19227987.760          48.600          42.900
 15  1 27  8  1 25.0000000  0 19G11G14G28G04G17G03G23G31G27G19G20G32
                                G01R24R17R02R08R23R01
 106672593.255 8  83121488.96447                  20299115.940
  20299111.120          48.650          47.850
 126608429.690 7  98655900.44646                  24092787.320
  24092784.380          44.300          37.600
 123929699.252 7  96568561.60246                  23583039.680
  23583035.940          46.050          39.250
 110039247.785 8  85744877.37047                  20939765.020
  20939761.700          49.900          46.950
 124300348.544 7  96857371.501 7                  23653573.660    23653570.080
  23653569.480          47.400          43.250
 108307411.360 8  84395386.862 8  80878916.108 8  20610211.520    20610211.140
  20610210.460          49.850          49.900
 125212755.028 8  97568343.25646                  23827193.180
  23827189.120          48.000          39.650
 133081029.490 7 103699494.834 6                  25324478.080    25324479.140
  25324477.860          43.550          36.700
 135619304.736 6 105677362.308 6 101274127.336 7  25807512.240    25807516.360
  25807515.680          41.400          38.000
 123257537.569 7  96044804.91547                  23455131.200
  23455126.480          47.850          43.250
 125902087.995 7  98105482.65845                  23958375.440
  23958372.320          45.800          34.650
 108561548.265 8  84593435.50547                  20658561.180
  20658557.780          49.700          47.200
 107260694.049 8  83579780.050 8  80097278.810 8  20411026.800    20411025.700
  20411025.540          50.300          50.000
 103219385.909 7  80281762.191 7                  19302543.840    19302545.640
  19302543.580          47.700          42.850
 121091695.805 7  94182430.564 7                  22628883.100    22628885.040
  22628884.360          46.150          42.000
 116163541.212 8  90349435.761 7                  21769001.320    21769005.820
  21769004.740          48.150          43.300
 114062743.119 7  88715483.149 7                  21300403.560    21300404.980
  21300404.000          47.900          45.700
 110550002.978 8  85983352.600 7                  20666156.420    20666160.840
  20666159.860          49.350          47.200
 102784355.230 8  79943398.438 7                  19227934.380    19227937.840
  19227937.600          48.650          43.050
 15  1 27  8  1 30.0000000  0 19G11G14G28G04G17G03G23G31G27G19G20G32
                                G01R24R17R02R08R23R01
 106677973.432 8  83125681.30347                  20300139.740
  20300134.960          48.650          47.800
 126620680.261 7  98665446.32246                  24095118.540
  24095115.540          44.400          36.950
 123935449.853 7  96573042.58246                  23584133.960
  23584130.240          46.200          38.250
 110047220.586 8  85751089.93747                  20941282.200
  20941278.900          50.100          46.450
 124284839.460 7  96845286.501 7                  23650622.380    23650618.800
  23650618.220          47.600          43.100
 108301905.836 8  84391096.840 8  80874804.839 8  20609163.860    20609163.460
  20609162.800          49.950          49.850
 125195466.744 8  97554871.84146                  23823903.400
  23823899.260          48.450          39.300
 133070392.810 7 103691206.481 6                  25322454.060    25322455.100
  25322453.800          43.550          36.600
 135638101.015 7 105692008.752 6 101288163.463 7  25811089.060    25811093.100
  25811092.600          44.400          37.600
 123274791.881 8  96058249.81147                  23458414.520
  23458409.900          48.100          43.400
 125886599.871 7  98093414.00245                  23955428.140
  23955424.920          45.650          34.250
 108570151.696 8  84600139.47347                  20660198.340
  20660194.960          50.000          47.050
 107259322.267 8  83578711.131 8  80096254.427 8  20410765.740    20410764.640
  20410764.500          50.450          49.950
 103214144.802 7  80277685.768 7                  19301563.740    19301565.540
  19301563.480          47.700          42.800
 121072028.864 7  94167134.040 6                  22625207.800    22625209.740
  22625209.060          45.750          41.850
 116146897.753 8  90336490.849 7                  21765882.360    21765886.780
  21765885.720          48.250          43.900
 114079587.490 7  88728584.306 7                  21303549.060    21303550.560
  21303549.600          47.550          45.750
 110563422.174 8  85993789.744 7                  20668665.040    20668669.380
  20668668.440          49.350          47.300
 102784103.280 8  79943202.485 7                  19227887.220    19227890.700
  19227890.440          48.750          43.000
 15  1 27  8  1 35.0000000  0 19G11G14G28G04G17G03G23G31G27G19G20G32
                                G01R24R17R02R08R23R01
 106683365.913 8  83129883.23447                  20301165.900
  20301161.120          48.850          47.700
 126632941.477 7  98675000.52546                  24097451.780
  24097448.740          44.850          36.850
 123941212.349 7  96577532.83846                  23585230.540
  23585226.820          45.950          39.050
 110055201.673 8  85757308.96747                  20942800.940
  20942797.660          50.150          46.450
 124269336.927 7  96833206.605 7                  23647672.320    23647668.800
  23647668.120          47.600          43.150
 108296411.060 8  84386815.205 8  80870701.608 8  20608118.260    20608117.820
  20608117.180          50.050          49.850
 125178181.217 8  97541402.59146                  23820614.140
  23820609.920          48.650          38.900
 133059761.592 7 103682922.397 6                  25320431.060    25320432.000
  25320430.820          43.650          37.350
 135656896.789 7 105706654.755 6 101302199.259 7  25814665.820    25814669.880
  25814669.300          45.050          38.500
 123292051.640 8  96071698.96847                  23461698.920
  23461694.380          48.150          43.650
 125871116.214 7  98081348.82545                  23952481.700
  23952478.500          45.400          34.900
 108578764.894 8  84606851.06047                  20661837.340
  20661833.980          50.000          47.050
 107257958.814 8  83577648.700 8  80095236.270 8  20410506.280    20410505.180
  20410505.040          50.400          50.050
 103208921.649 7  80273623.318 7                  19300586.940    19300588.760
  19300586.700          47.550          42.350
 121052365.137 7  94151840.038 6                  22621533.120    22621535.120
  22621534.380          45.850          41.800
 116130264.985 7  90323554.268 7                  21762765.360    21762769.820
  21762768.700          47.900          43.700
 114096438.868 7  88741690.916 7                  21306695.960    21306697.460
  21306696.500          47.450          45.250
 110576856.344 8  86004238.535 7                  20671176.460    20671180.780
  20671179.820          49.300          47.200
 102783869.283 8  79943020.496 7                  19227843.420    19227846.940
  19227846.620          48.550          42.850
 15  1 27  8  1 40.0000000  0 19G11G14G28G04G17G03G23G31G27G19G20G32
                                G01R24R17R02R08R23R01
 106688769.849 8  83134094.08647                  20302194.220
  20302189.480          48.850          47.750
 126645212.495 7  98684562.33746                  24099786.920
  24099783.800          44.850          36.750
 123946985.839 7  96582031.64146                  23586329.220
  23586325.480          46.300          39.250
 110063190.192 8  85763533.77847                  20944321.080
  20944317.840          49.950          46.600
 124253840.142 7  96821131.180 7                  23644723.380    23644719.920
  23644719.180          47.750          43.100
 108290926.130 8  84382541.230 8  80866605.718 8  20607074.520    20607074.060
  20607073.420          50.150          49.850
 125160897.573 8  97527934.80746                  23817325.220
  23817320.940          48.750          38.850
 133049135.038 7 103674641.959 6                  25318408.940    25318409.820
  25318408.660          44.100          37.100
 135675691.190 6 105721299.795 5 101316234.074 6  25818242.300    25818246.440
  25818245.720          37.250          33.650
 123309315.948 8  96085151.64647                  23464984.180
  23464979.740          48.150          43.350
 125855636.148 7  98069286.43645                  23949535.980
  23949532.720          45.600          35.050
 108587387.082 8  84613569.64247                  20663478.060
  20663474.700          50.000          46.800
 107256602.789 8  83576592.051 8  80094223.645 8  20410248.220    20410247.160
  20410247.020          50.350          50.050
 103203715.412 7  80269574.018 7                  19299613.300    19299615.180
  19299613.100          47.450          42.450
 121032703.782 7  94136547.855 7                  22617858.940    22617860.960
  22617860.160          45.950          42.300
 116113641.996 8  90310625.268 7                  21759650.180    21759654.640
  21759653.520          48.050          43.900
 114113296.318 7  88754802.256 7                  21309843.980    21309845.500
  21309844.500          47.650          45.400
 110590304.755 8  86014698.404 7                  20673690.540    20673694.860
  20673693.880          49.250          47.200
 102783652.440 8  79942851.838 7                  19227802.840    19227806.360
  19227806.040          48.400          42.850
 15  1 27  8  1 45.0000000  0 18G11G14G28G04G17G03G23G31G19G20G32G01
                                R24R17R02R08R23R01
 106694186.530 8  83138314.87347                  20303224.980
  20303220.240          49.000          47.750
 126657494.614 7  98694132.81746                  24102124.160
  24102120.940          45.050          36.550
 123952771.656 7  96586540.06846                  23587430.240
  23587426.540          46.250          38.300
 110071187.512 8  85769765.45247                  20945842.940
  20945839.680          50.050          46.650
 124238350.374 7  96809061.228 7                  23641775.760    23641772.300
  23641771.560          47.700          43.550
 108285452.383 8  84378275.978 8  80862518.181 8  20606032.920    20606032.440
  20606031.800          50.100          49.900
 125143617.125 8  97514469.51046                  23814036.900
  23814032.620          48.900          38.650
 133038514.401 7 103666366.142 6                  25316387.960    25316388.780
  25316387.760          44.250          37.350
 123326586.073 8  96098608.86847                  23468270.540
  23468266.160          48.350          43.550
 125840160.973 7  98057227.86446                  23946591.140
  23946587.920          44.950          37.450
 108596019.485 8  84620296.19447                  20665120.740
  20665117.380          49.950          47.050
 107255255.518 8  83575542.232 8  80093217.565 8  20409991.840    20409990.780
  20409990.640          50.550          50.050
 103198527.482 7  80265538.966 7                  19298643.120    19298645.020
  19298642.920          47.350          42.400
 121013046.123 7  94121258.574 7                  22614185.420    22614187.520
  22614186.680          45.550          42.250
 116097030.026 7  90297704.855 7                  21756537.080    21756541.600
  21756540.440          47.800          44.150
 114130161.239 7  88767919.413 7                  21312993.400    21312994.880
  21312993.880          47.800          45.250
 110603768.633 8  86025170.311 7                  20676207.520    20676211.760
  20676210.800          49.250          47.350
 102783453.978 8  79942697.478 7                  19227765.700    19227769.220
  19227768.920          48.650          43.200
 15  1 27  8  1 50.0000000  0 18G11G14G28G04G17G03G23G31G19G20G32G01
                                R24R17R02R08R23R01
 106699615.181 8  83142544.98147                  20304258.020
  20304253.300          49.050          47.700
 126669787.001 7  98703711.27446                  24104463.360
  24104460.140          45.300          36.650
 123958568.967 7  96591057.44346                  23588533.440
  23588529.760          46.250          38.950
 110079192.742 8  85776003.28347                  20947366.280
  20947363.020          50.000          46.600
 124222866.842 7  96796996.129 7                  23638829.340    23638825.900
  23638825.160          47.750          43.700
 108279989.030 8  84374018.818 8  80858438.397 8  20604993.280    20604992.800
  20604992.180          50.100          49.950
 125126339.110 8  97501006.10946                  23810749.000
  23810744.720          48.800          37.950
 133027898.909 7 103658094.330 5                  25314367.940    25314368.740
  25314367.780          44.200          35.900
 123343861.256 8  96112070.03147                  23471557.860
  23471553.520          48.350          43.150
 125824689.875 7  98045172.47346                  23943647.100
  23943643.940          45.250          37.750
 108604661.354 8  84627030.11147                  20666765.220
  20666761.880          49.950          47.200
 107253916.202 8  83574498.606 8  80092217.418 8  20409736.960    20409735.920
  20409735.780          50.400          50.050
 103193357.034 7  80261517.500 7                  19297676.200    19297678.080
  19297676.020          47.300          42.700
 120993391.375 7  94105971.544 7                  22610512.440    22610514.520
  22610513.680          46.100          42.050
 116080428.360 7  90284792.461 7                  21753425.900    21753430.440
  21753429.280          47.150          44.550
 114147032.795 8  88781041.723 7                  21316144.100    21316145.500
  21316144.500          48.050          45.800
 110617247.161 8  86035653.598 7                  20678727.220    20678731.420
  20678730.480          49.350          47.400
 102783273.123 8  79942556.810 7                  19227731.860    19227735.400
  19227735.100          48.650          43.050
 15  1 27  8  1 55.0000000  0 18G11G14G28G04G17G03G23G31G19G20G32G01
                                R24R17R02R08R23R01
 106705057.212 8  83146785.52047                  20305293.620
  20305288.880          48.950          47.900
 126682091.075 7  98713298.87346                  24106804.780
  24106801.480          45.250          36.350
 123964379.218 7  96595584.89146                  23589639.100
  23589635.440          46.400          39.100
 110087207.280 8  85782248.37247                  20948891.380
  20948888.140          50.100          46.750
 124207390.986 7  96784937.018 7                  23635884.380    23635880.980
  23635880.240          47.650          43.750
 108274537.458 8  84369770.842 8  80854367.428 8  20603955.900    20603955.400
  20603954.760          50.100          49.900
 125109064.910 8  97487545.69346                  23807461.840
  23807457.640          48.750          38.800
 133017290.072 7 103649827.688 5                  25312349.200    25312349.920
  25312348.840          44.350          35.100
 123361142.858 8  96125536.20847                  23474846.400
  23474842.120          48.250          43.350
 125809224.287 7  98033121.37046                  23940704.100
  23940701.020          44.650          37.650
 108613314.024 8  84633772.45447                  20668411.740
  20668408.440          49.800          47.300
 107252586.268 8  83573462.294 8  80091224.292 8  20409483.880    20409482.840
  20409482.720          50.300          50.000
 103188205.667 7  80257510.884 7                  19296712.780    19296714.660
  19296712.700          47.300          42.800
 120973741.063 7  94090687.964 7                  22606840.260    22606842.360
  22606841.560          45.900          42.350
 116063838.602 7  90271889.341 7                  21750316.980    21750321.540
  21750320.380          47.250          44.850
 114163912.302 8  88794170.221 7                  21319296.260    21319297.640
  21319296.660          48.450          45.850
 110630741.902 8  86046149.499 7                  20681249.940    20681254.140
  20681253.200          49.250          47.350
 102783111.214 8  79942430.882 7                  19227701.540    19227705.100
  19227704.820          48.600          43.050
 15  1 27  8  2  0.0000000  0 18G11G14G28G04G17G03G23G31G19G20G32G01
                                R24R17R02R08R23R01
 106710509.408 8  83151033.98547                  20306331.140
  20306326.420          49.000          47.800
 126694403.589 7  98722893.02145                  24109147.780
  24109144.460          44.900          35.900
 123970199.130 7  96600119.87346                  23590746.580
  23590743.000          46.650          38.100
 110095227.928 8  85788498.22547                  20950417.680
  20950414.420          50.200          46.300
 124191919.621 7  96772881.417 7                  23632940.280    23632936.900
  23632936.160          47.850          43.750
 108269094.448 8  84365529.537 8  80850302.841 8  20602920.140    20602919.620
  20602918.980          50.150          49.900
 125091791.329 8  97474085.75346                  23804174.760
  23804170.620          48.850          39.200
 133006684.625 7 103641563.649 5                  25310331.060    25310331.680
  25310330.600          44.200          35.200
 123378427.660 8  96139004.85747                  23478135.600
  23478131.300          48.900          42.900
 125793760.967 7  98021072.03846                  23937761.520
  23937758.480          44.250          38.500
 108621974.333 8  84640520.74147                  20670059.720
  20670056.420          49.850          47.150
 107251262.456 8  83572430.755 8  80090235.729 8  20409231.960    20409230.940
  20409230.780          50.350          49.950
 103183070.054 7  80253516.524 7                  19295752.360    19295754.280
  19295752.340          47.400          43.000
 120954091.757 7  94075405.185 7                  22603168.260    22603170.460
  22603169.680          46.350          42.650
 116047257.317 7  90258992.780 7                  21747209.660    21747214.220
  21747213.080          47.550          44.800
 114180796.517 8  88807302.384 7                  21322449.320    21322450.600
  21322449.660          48.850          45.750
 110644249.466 8  86056655.378 7                  20683775.080    20683779.260
  20683778.340          49.450          47.400
 102782965.117 8  79942317.259 7                  19227674.200    19227677.800
  19227677.480          48.600          43.100
 15  1 27  8  2  5.0000000  0 18G11G14G28G04G17G03G23G31G19G20G32G01
                                R24R17R02R08R23R01
 106715975.234 8  83155293.06647                  20307371.260
  20307366.540          49.000          47.550
 126706728.008 7  98732496.44846                  24111493.040
  24111489.680          45.000          36.050
 123976032.114 7  96604665.03746                  23591856.560
  23591853.040          46.550          38.200
 110103258.108 8  85794755.50547                  20951945.780
  20951942.540          50.250          46.350
 124176456.198 7  96760831.990 7                  23629997.700    23629994.320
  23629993.600          47.850          43.700
 108263663.466 8  84361297.603 8  80846247.245 8  20601886.680    20601886.140
  20601885.500          50.250          49.900
 125074521.838 8  97460628.99646                  23800888.480
  23800884.360          48.950          37.900
 132996086.035 7 103633304.955 5                  25308314.260    25308314.620
  25308313.580          44.550          34.100
 123395719.091 8  96152478.69346                  23481426.080
  23481421.760          49.100          41.950
 125778303.404 7  98009027.19646                  23934820.020
  23934817.000          44.800          37.050
 108630645.667 8  84647277.61847                  20671709.840
  20671706.520          50.100          46.750
 107249948.285 8  83571406.719 8  80089254.373 8  20408981.900    20408980.860
  20408980.700          50.450          49.900
 103177953.593 7  80249537.057 7                  19294795.500    19294797.540
  19294795.560          47.650          43.050
 120934447.061 7  94060125.979 7                  22599497.160    22599499.420
  22599498.640          46.550          42.400
 116030688.077 7  90246105.579 7                  21744104.600    21744109.180
  21744108.040          47.550          44.700
 114197688.997 8  88820440.984 7                  21325603.860    21325605.140
  21325604.180          48.950          45.650
 110657773.337 8  86067173.928 7                  20686303.240    20686307.420
  20686306.520          49.450          47.650
 102782838.264 8  79942218.598 7                  19227650.440    19227654.040
  19227653.700          48.550          43.100
 15  1 27  8  2 10.0000000  0 18G11G14G28G04G17G03G23G31G19G20G32G01
                                R24R17R02R08R23R01
 106721452.321 8  83159560.92047                  20308413.520
  20308408.820          49.050          47.300
 126719061.903 7  98742107.25045                  24113840.080
  24113836.720          45.250          35.250
 123981875.803 7  96609218.55546                  23592968.600
  23592965.160          46.350          38.200
 110111295.509 8  85801018.40647                  20953475.260
  20953472.000          50.200          46.350
 124160998.356 7  96748786.915 7                  23627056.180    23627052.800
  23627052.100          47.700          43.550
 108258242.135 8  84357073.196 8  80842198.843 8  20600855.040    20600854.460
  20600853.860          50.150          49.850
 125057254.114 8  97447173.61446                  23797602.520
  23797598.460          48.800          38.550
 132985491.913 7 103625049.793 5                  25306298.300    25306298.540
  25306297.440          43.550          34.500
 123413014.832 8  96165955.88247                  23484717.360
  23484713.040          49.000          42.450
 125762849.222 7  97996984.96446                  23931879.200
  23931876.180          44.850          37.300
 108639325.680 8  84654041.26347                  20673361.580
  20673358.260          49.900          46.950
 107248641.360 8  83570388.330 8  80088278.407 8  20408733.180    20408732.140
  20408732.000          50.250          49.800
 103172854.137 7  80245570.807 7                  19293841.820    19293843.900
  19293841.980          47.400          43.100
 120914804.623 7  94044848.525 7                  22595826.500    22595828.780
  22595827.980          46.400          42.300
 116014128.492 7  90233225.902 7                  21741001.320    21741005.960
  21741004.800          47.550          44.550
 114214587.274 8  88833584.084 7                  21328759.460    21328760.760
  21328759.780          48.400          45.600
 110671311.025 8  86077703.228 7                  20688833.980    20688838.160
  20688837.280          49.500          47.800
 102782728.337 8  79942133.095 7                  19227629.860    19227633.500
  19227633.120          48.550          43.050
 15  1 27  8  2 15.0000000  0 18G11G14G28G04G17G03G23G31G19G20G32G01
                                R24R17R02R08R23R01
 106726942.327 8  83163838.84147                  20309458.240
  20309453.540          48.950          47.350
 126731407.016 7  98751726.81145                  24116189.260
  24116185.960          45.100          35.250
 123987731.938 7  96613781.75946                  23594082.980
  23594079.500          46.600          38.200
 110119341.859 8  85807288.28347                  20955006.440
  20955003.180          50.200          46.150
 124145547.814 7  96736747.527 7                  23624116.060    23624112.620
  23624112.000          47.550          43.800
 108252832.141 8  84352857.619 8  80838158.922 8  20599825.580    20599824.960
  20599824.360          50.050          49.850
 125039989.828 8  97433720.92446                  23794317.200
  23794313.220          48.850          38.800
 132974903.962 7 103616799.423 5                  25304283.500    25304283.580
  25304282.600          42.200          34.900
 123430316.524 8  96179437.70147                  23488009.760
  23488005.480          48.900          42.550
 125747400.195 7  97984946.75546                  23928939.340
  23928936.300          44.350          37.100
 108648016.066 8  84660812.98847                  20675015.300
  20675011.980          49.950          46.750
 107247343.403 8  83569376.937 8  80087309.157 8  20408486.200    20408485.120
  20408485.000          50.200          49.850
 103167773.068 7  80241618.854 7                  19292891.620    19292893.720
  19292891.820          47.250          42.800
 120895166.255 7  94029574.233 7                  22592156.620    22592158.860
  22592158.120          46.100          42.350
 115997580.191 7  90220355.017 7                  21737900.180    21737904.840
  21737903.700          47.650          44.700
 114231493.061 8  88846733.004 7                  21331916.460    21331917.780
  21331916.780          48.350          45.400
 110684864.537 8  86088244.836 7                  20691367.660    20691371.880
  20691371.000          49.300          47.700
 102782636.875 8  79942061.956 7                  19227612.700    19227616.400
  19227616.000          48.450          43.250
 15  1 27  8  2 20.0000000  0 18G11G14G28G04G17G03G23G31G19G20G32G01
                                R24R17R02R08R23R01
 106732444.523 8  83168126.25847                  20310505.280
  20310500.600          48.950          47.350
 126743762.529 7  98761354.47346                  24118540.420
  24118537.160          45.400          36.000
 123993599.701 7  96618354.03046                  23595199.600
  23595196.120          46.400          38.850
 110127396.291 8  85813564.45447                  20956539.160
  20956535.880          50.050          46.550
 124130103.771 7  96724713.206 7                  23621177.200    23621173.720
  23621173.080          47.650          44.050
 108247432.755 8  84348650.301 8  80834126.907 8  20598798.120    20598797.500
  20598796.880          50.000          49.900
 125022728.263 8  97420270.34846                  23791032.440
  23791028.500          49.000          38.500
 132964321.522 6 103608553.359 5                  25302269.680    25302269.800
  25302268.700          41.600          34.250
 123447623.395 8  96192923.55447                  23491303.180
  23491298.880          48.950          42.850
 125731955.407 7  97972911.87246                  23926000.280
  23925997.280          45.100          36.100
 108656716.061 8  84667592.20947                  20676670.860
  20676667.520          50.000          46.950
 107246053.617 8  83568371.905 8  80086346.002 8  20408240.760    20408239.700
  20408239.560          50.200          49.950
 103162709.897 7  80237680.826 7                  19291944.780    19291946.920
  19291944.960          47.450          42.400
 120875530.988 7  94014302.362 7                  22588487.260    22588489.480
  22588488.760          45.900          42.000
 115981042.461 7  90207492.361 7                  21734801.000    21734805.700
  21734804.560          47.750          44.150
 114248405.582 8  88859887.179 7                  21335074.720    21335076.060
  21335075.060          48.150          45.250
 110698432.815 8  86098797.927 7                  20693904.120    20693908.320
  20693907.480          49.350          47.650
 102782563.207 8  79942004.659 7                  19227598.900    19227602.580
  19227602.240          48.550          43.150
 15  1 27  8  2 25.0000000  0 18G11G14G28G04G17G03G23G31G19G20G32G01
                                R24R17R02R08R23R01
 106737958.818 8  83172423.09948                  20311554.620
  20311549.960          48.950          48.050
 126756128.337 7  98770990.15745                  24120893.540
  24120890.340          45.400          34.850
 123999479.039 7  96622935.33146                  23596318.420
  23596314.920          46.650          38.900
 110135458.717 8  85819846.85947                  20958073.420
  20958070.100          50.250          45.950
 124114666.151 7  96712683.894 7                  23618239.540    23618236.060
  23618235.440          47.300          43.850
 108242043.814 8  84344451.123 8  80830102.704 8  20597772.660    20597772.000
  20597771.380          50.050          49.800
 125005469.311 8  97406821.80146                  23787748.180
  23787744.260          48.950          39.800
 132953744.425 6 103600311.450 5                  25300256.820    25300256.840
  25300255.800          41.750          33.450
 123464935.308 8  96206413.34047                  23494597.560
  23494593.240          48.900          42.200
 125716514.865 7  97960880.28646                  23923062.060
  23923058.980          45.400          36.900
 108665425.502 8  84674378.78047                  20678328.200
  20678324.880          49.850          47.300
 107244771.925 8  83567373.182 8  80085388.892 8  20407996.860    20407995.800
  20407995.660          50.200          50.050
 103157664.453 7  80233756.591 7                  19291001.240    19291003.380
  19291001.420          47.200          42.650
 120855898.774 7  93999032.852 7                  22584818.480    22584820.760
  22584819.980          45.950          42.650
 115964515.291 7  90194637.895 7                  21731703.780    21731708.500
  21731707.360          47.000          43.900
 114265324.671 8  88873046.451 7                  21338234.220    21338235.600
  21338234.560          48.150          45.100
 110712015.788 8  86109362.453 7                  20696443.300    20696447.520
  20696446.720          49.250          47.350
 102782507.138 8  79941961.047 7                  19227588.420    19227592.100
  19227591.760          48.700          43.050
 15  1 27  8  2 30.0000000  0 18G11G14G28G04G17G03G23G31G19G20G32G01
                                R24R17R02R08R23R01
 106743484.078 8  83176728.49247                  20312606.040
  20312601.400          48.950          47.600
 126768503.362 7  98780633.01245                  24123248.440
  24123245.220          45.350          35.650
 124005368.836 7  96627524.76946                  23597439.220
  23597435.680          46.800          39.050
 110143528.036 8  85826134.64147                  20959608.980
  20959605.640          50.250          46.350
 124099233.862 7  96700658.737 7                  23615302.920    23615299.380
  23615298.800          47.300          43.800
 108236664.252 8  84340259.257 8  80826085.491 8  20596748.960    20596748.300
  20596747.680          50.150          49.800
 124988211.848 8  97393374.43146                  23784464.220
  23784460.360          49.000          39.350
 132943171.601 6 103592072.826 5                  25298244.900    25298245.000
  25298243.540          40.950          33.000
 123482251.172 8  96219906.20747                  23497892.700
  23497888.340          49.000          42.400
 125701077.441 7  97948851.10946                  23920124.400
  23920121.180          45.050          36.650
 108674143.296 8  84681171.86247                  20679987.140
  20679983.820          50.000          47.100
 107243497.187 8  83566379.890 8  80084436.976 8  20407754.300    20407753.240
  20407753.080          50.200          49.900
 103152635.581 7  80229845.250 7                  19290060.760    19290062.960
  19290060.960          47.150          42.650
 120836268.662 7  93983764.998 7                  22581150.120    22581152.440
  22581151.600          46.100          42.300
 115947997.382 7  90181790.629 7                  21728608.340    21728613.040
  21728611.920          47.100          43.750
 114282249.243 8  88886210.005 7                  21341394.760    21341396.180
  21341395.100          48.400          45.250
 110725612.440 8  86119937.626 7                  20698985.020    20698989.320
  20698988.500          49.250          47.450
 102782467.532 8  79941930.247 7                  19227580.960    19227584.720
  19227584.340          48.750          43.050
 15  1 27  8  2 35.0000000  0 18G11G14G28G04G17G03G23G31G19G20G32G01
                                R24R17R02R08R23R01
 106749023.143 8  83181044.64247                  20313660.080
  20313655.440          49.000          47.300
 126780890.422 7  98790285.25345                  24125605.640
  24125602.340          45.250          33.800
 124011271.859 7  96632124.52746                  23598562.560
  23598558.960          47.200          37.700
 110151607.086 8  85832429.99847                  20961146.380
  20961143.020          50.300          46.150
 124083809.752 7  96688639.950 7                  23612367.860    23612364.260
  23612363.720          47.800          43.700
 108231296.890 8  84336076.899 8  80822077.400 8  20595727.600    20595726.940
  20595726.300          50.250          49.650
 124970958.765 8  97379930.45846                  23781181.100
  23781177.240          49.100          38.750
 132932605.890 6 103583839.768 5                  25296234.260    25296234.400
  25296232.980          39.650          33.900
 123499573.821 8  96233404.36147                  23501189.120
  23501184.760          48.850          42.800
 125685645.959 7  97936826.60445                  23917187.840
  23917184.640          44.700          35.950
 108682872.272 8  84687973.65847                  20681648.200
  20681644.900          49.900          47.000
 107242232.279 8  83565394.245 8  80083492.403 8  20407513.600    20407512.520
  20407512.380          50.250          49.850
 103147626.205 7  80225949.061 7                  19289123.960    19289126.200
  19289124.180          47.150          42.650
 120816643.490 7  93968500.967 7                  22577482.680    22577485.000
  22577484.120          45.950          42.300
 115931491.789 7  90168952.937 7                  21725515.180    21725519.900
  21725518.780          47.300          44.100
 114299182.132 8  88899380.021 7                  21344556.840    21344558.280
  21344557.200          48.300          44.950
 110739225.599 8  86130525.625 7                  20701529.820    20701534.160
  20701533.340          49.300          47.300
 102782447.444 8  79941914.622 7                  19227577.200    19227580.940
  19227580.580          48.650          43.150
 15  1 27  8  2 40.0000000  0 18G11G14G28G04G17G03G23G31G19G20G32G01
                                R24R17R02R08R23R01
 106754573.963 8  83185369.94547                  20314716.380
  20314711.740          49.000          47.300
 126793287.395 7  98799945.22245                  24127964.700
  24127961.420          44.950          35.750
 124017186.050 7  96636732.96946                  23599688.000
  23599684.400          47.400          36.250
 110159693.834 8  85838731.35047                  20962685.260
  20962681.880          50.300          45.800
 124068391.730 7  96676625.897 7                  23609433.920    23609430.300
  23609429.780          47.850          43.600
 108225939.623 8  84331902.408 8  80818076.847 8  20594708.180    20594707.480
  20594706.820          50.350          49.600
 124953707.952 8  97366488.25446                  23777898.420
  23777894.540          49.000          39.000
 132922045.258 6 103575610.656 5                  25294224.600    25294224.760
  25294223.280          40.550          33.950
 123516901.187 8  96246906.17947                  23504486.420
  23504482.080          48.750          42.100
 125670218.354 7  97924805.07146                  23914252.080
  23914248.860          45.750          36.350
 108691610.361 8  84694782.54647                  20683311.020
  20683307.720          50.000          46.550
 107240975.112 8  83564414.626 8  80082553.602 8  20407274.360    20407273.300
  20407273.160          50.350          49.750
 103142634.225 7  80222066.405 7                  19288190.420    19288192.700
  19288190.660          47.050          42.750
 120797021.074 7  93953239.073 7                  22573815.780    22573818.040
  22573817.120          46.300          42.350
 115914996.326 7  90156123.129 7                  21722423.900    21722428.660
  21722427.540          47.450          44.050
 114316121.144 8  88912554.796 7                  21347720.100    21347721.560
  21347720.400          48.100          44.950
 110752853.003 8  86141124.698 7                  20704077.280    20704081.640
  20704080.860          49.400          47.350
 102782444.621 8  79941912.423 7                  19227576.680    19227580.440
  19227580.040          48.600          43.150
 15  1 27  8  2 45.0000000  0 18G11G14G28G04G17G03G23G31G19G20G32G01
                                R24R17R02R08R23R01
 106760135.893 8  83189703.91247                  20315774.780
  20315770.140          49.000          47.150
 126805693.695 7  98809612.45545                  24130325.560
  24130322.240          45.000          35.000
 124023110.768 7  96641349.62146                  23600815.440
  23600811.780          47.150          36.700
 110167787.658 8  85845038.22147                  20964225.480
  20964222.080          50.300          46.000
 124052979.244 8  96664616.170 7                  23606501.040    23606497.400
  23606496.900          48.250          43.400
 108220591.889 8  84327735.346 8  80814083.409 8  20593690.560    20593689.840
  20593689.180          50.450          49.600
 124936458.813 8  97353047.36746                  23774616.020
  23774612.160          49.050          38.800
 132911489.124 6 103567385.110 5                  25292215.860    25292216.120
  25292214.640          41.550          34.350
 123534232.627 8  96260411.18247                  23507784.500
  23507780.180          48.950          42.300
 125654794.047 7  97912786.12546                  23911316.980
  23911313.680          45.800          36.650
 108700356.913 8  84701598.04547                  20684975.440
  20684972.160          50.150          46.600
 107239725.089 8  83563440.582 8  80081620.149 8  20407036.480    20407035.440
  20407035.300          50.350          49.700
 103137659.017 7  80218196.801 7                  19287260.000    19287262.280
  19287260.300          46.900          42.750
 120777400.908 7  93937978.948 7                  22570149.260    22570151.540
  22570150.620          47.150          42.650
 115898510.411 7  90143300.760 7                  21719334.400    21719339.200
  21719338.100          47.650          44.150
 114333065.754 8  88925733.923 7                  21350884.420    21350885.880
  21350884.680          48.400          45.200
 110766494.169 8  86151734.485 7                  20706627.340    20706631.760
  20706630.960          49.400          47.300
 102782458.346 8  79941923.102 7                  19227579.280    19227583.000
  19227582.640          48.700          43.300
 15  1 27  8  2 50.0000000  0 18G11G14G28G04G17G03G23G31G19G20G32G01
                                R24R17R02R08R23R01
 106765710.666 8  83194047.89347                  20316835.620
  20316830.980          49.150          47.500
 126818111.050 7  98819288.32045                  24132688.480
  24132685.160          44.900          35.100
 124029047.737 7  96645975.83446                  23601945.200
  23601941.520          46.850          37.550
 110175890.303 8  85851351.97547                  20965767.380
  20965763.960          50.400          46.100
 124037573.995 8  96652612.078 7                  23603569.540    23603565.900
  23603565.380          48.150          43.450
 108215255.369 8  84323577.025 8  80810098.353 8  20592675.060    20592674.340
  20592673.660          50.450          49.700
 124919213.106 8  97339609.15746                  23771334.280
  23771330.440          49.100          38.750
 132900939.194 6 103559164.360 5                  25290208.320    25290208.600
  25290207.240          41.750          35.950
 123551569.786 8  96273920.65646                  23511083.660
  23511079.380          48.800          41.850
 125639374.691 7  97900771.05046                  23908382.760
  23908379.480          45.000          37.250
 108709113.636 8  84708421.47447                  20686641.800
  20686638.520          50.400          46.350
 107238483.925 8  83562473.448 8  80080693.310 8  20406800.280    20406799.240
  20406799.120          50.500          49.850
 103132702.396 7  80214341.665 7                  19286333.120    19286335.380
  19286333.420          47.050          42.850
 120757784.715 7  93922721.907 7                  22566483.520    22566485.800
  22566484.820          47.100          42.600
 115882035.770 7  90130487.172 7                  21716247.060    21716251.840
  21716250.800          47.850          44.150
 114350017.639 8  88938918.725 7                  21354050.140    21354051.560
  21354050.360          48.250          45.250
 110780150.848 8  86162356.345 7                  20709180.300    20709184.720
  20709183.940          49.300          47.300
 102782490.526 8  79941948.129 7                  19227585.280    19227588.980
  19227588.680          48.750          43.350
 15  1 27  8  2 55.0000000  0 18G11G14G28G04G17G03G23G31G19G20G32G01
                                R24R17R02R08R23R01
 106771297.691 8  83198401.40647                  20317898.820
  20317894.160          49.100          47.500
 126830538.793 7  98828972.25545                  24135053.380
  24135050.200          44.750          34.800
 124034996.392 7  96650611.12946                  23603077.200
  23603073.500          46.750          37.800
 110184001.163 8  85857672.11847                  20967310.840
  20967307.420          50.450          46.000
 124022175.341 8  96640613.118 7                  23600639.280    23600635.660
  23600635.140          48.350          43.650
 108209929.504 8  84319426.994 8  80806121.242 8  20591661.620    20591660.860
  20591660.160          50.350          49.700
 124901970.255 8  97326173.16546                  23768053.080
  23768049.220          49.200          38.350
 132890394.855 7 103550947.998 6                  25288201.840    25288202.080
  25288200.880          42.550          36.650
 123568912.146 8  96287434.16147                  23514383.820
  23514379.540          48.400          42.400
 125623959.746 7  97888759.40046                  23905449.400
  23905446.120          45.700          37.450
 108717879.937 8  84715252.35747                  20688309.980
  20688306.700          50.200          46.700
 107237251.039 8  83561512.749 8  80079772.640 8  20406565.680    20406564.640
  20406564.520          50.300          49.850
 103127763.837 7  80210500.561 7                  19285409.560    19285411.800
  19285409.900          47.100          42.700
 120738171.872 7  93907467.469 7                  22562818.420    22562820.620
  22562819.680          47.150          42.450
 115865571.914 8  90117681.944 7                  21713161.740    21713166.520
  21713165.520          48.150          44.100
 114366976.256 7  88952108.747 7                  21357217.060    21357218.440
  21357217.280          47.950          45.250
 110793822.363 8  86172989.731 7                  20711736.040    20711740.480
  20711739.680          49.550          47.150
 102782540.547 8  79941987.030 7                  19227594.640    19227598.380
  19227598.040          48.750          43.300
 15  1 27  8  3  0.0000000  0 18G11G14G28G04G17G03G23G31G19G20G32G01
                                R24R17R02R08R23R01
 106776898.056 8  83202765.31747                  20318964.540
  20318959.860          49.100          47.450
 126842978.056 7  98838665.17945                  24137420.420
  24137417.340          44.550          33.950
 124040957.767 7  96655256.35346                  23604211.620
  23604207.880          46.900          37.850
 110192121.278 8  85863999.47247                  20968856.080
  20968852.620          50.600          46.100
 124006784.563 8  96628620.298 7                  23597710.540    23597706.920
  23597706.380          48.250          43.350
 108204615.367 8  84315286.102 8  80802152.890 8  20590650.400    20590649.620
  20590648.900          50.250          49.650
 124884731.334 8  97312740.23046                  23764772.620
  23764768.720          49.050          37.800
 132879857.268 7 103542736.876 6                  25286196.740    25286196.940
  25286195.720          42.850          37.300
 123586260.802 8  96300952.57047                  23517685.180
  23517680.880          48.650          42.250
 125608550.361 7  97876752.07546                  23902517.100
  23902513.780          45.900          36.100
 108726656.923 8  84722091.56647                  20689980.200
  20689976.900          50.200          46.550
 107236027.533 8  83560559.359 8  80078858.979 8  20406332.840    20406331.820
  20406331.700          50.400          49.850
 103122844.242 7  80206674.203 7                  19284489.600    19284491.860
  19284489.920          47.550          42.850
 120718563.516 7  93892216.520 7                  22559154.160    22559156.280
  22559155.380          47.200          42.700
 115849119.827 8  90104885.887 7                  21710078.620    21710083.460
  21710082.460          48.000          43.900
 114383942.562 7  88965304.742 7                  21360385.400    21360386.760
  21360385.620          47.850          45.050
 110807509.889 8  86183635.569 7                  20714294.780    20714299.240
  20714298.420          49.400          47.450
 102782609.465 8  79942040.627 7                  19227607.540    19227611.240
  19227610.940          49.000          43.550
 15  1 27  8  3  5.0000000  0 18G11G14G28G04G17G03G23G31G19G20G32G01
                                R24R17R02R08R23R01
 106782509.219 8  83207137.65047                  20320032.320
  20320027.620          48.950          47.300
 126855426.268 7  98848365.06845                  24139789.200
  24139786.140          43.950          34.800
 124046929.319 7  96659909.50846                  23605347.960
  23605344.280          46.850          36.950
 110200248.146 8  85870332.10047                  20970402.580
  20970399.120          50.400          45.700
 123991399.070 7  96616631.600 7                  23594782.780    23594779.180
  23594778.600          47.900          43.150
 108199310.443 8  84311152.401 8  80798191.428 8  20589640.920    20589640.100
  20589639.380          50.300          49.400
 124867493.846 8  97299308.42546                  23761492.440
  23761488.480          48.900          37.750
 132869323.923 6 103534529.058 6                  25284192.380    25284192.600
  25284191.380          41.950          37.650
 123603613.169 8  96314473.88646                  23520987.240
  23520982.960          48.300          41.950
 125593143.939 7  97864747.06146                  23899585.340
  23899582.120          45.750          37.300
 108735442.068 8  84728937.13147                  20691651.960
  20691648.640          50.000          46.600
 107234810.895 8  83559611.336 8  80077950.447 8  20406101.340    20406100.320
  20406100.200          50.300          49.700
 103117941.302 7  80202860.807 7                  19283572.720    19283574.980
  19283573.040          47.550          42.600
 120698957.161 7  93876967.139 7                  22555490.260    22555492.320
  22555491.420          47.300          42.000
 115832677.140 7  90092097.157 7                  21706997.260    21707002.160
  21707001.140          47.800          43.600
 114400914.121 8  88978504.834 7                  21363554.700    21363556.020
  21363554.900          48.100          44.650
 110821210.766 8  86194291.793 7                  20716856.000    20716860.440
  20716859.680          49.450          47.100
 102782694.631 8  79942106.873 7                  19227623.460    19227627.180
  19227626.900          49.000          43.300
 15  1 27  8  3 10.0000000  0 18G11G14G28G04G17G03G23G31G19G20G32G01
                                R24R17R02R08R23R01
 106788132.160 8  83211519.15447                  20321102.340
  20321097.640          49.000          47.300
 126867884.431 7  98858072.72745                  24142159.880
  24142156.840          44.000          34.500
 124052912.088 7  96664571.39346                  23606486.460
  23606482.800          46.850          38.350
 110208382.775 8  85876670.76847                  20971950.580
  20971947.100          50.350          45.750
 123976019.810 8  96604647.751 7                  23591856.220    23591852.620
  23591852.040          48.150          43.050
 108194015.690 8  84307026.622 8  80794237.556 8  20588633.380    20588632.540
  20588631.820          50.450          49.450
 124850258.766 8  97285878.48546                  23758212.700
  23758208.760          49.100          37.800
 132858795.780 7 103526325.314 6                  25282188.980    25282189.260
  25282188.060          42.050          38.500
 123620970.246 8  96327998.86147                  23524290.180
  23524285.900          48.300          42.400
 125577741.486 7  97852745.15345                  23896654.340
  23896651.200          46.100          35.850
 108744236.296 8  84735789.77247                  20693325.460
  20693322.120          49.850          46.600
 107233602.071 8  83558669.395 8  80077047.758 8  20405871.300    20405870.300
  20405870.160          50.400          49.700
 103113055.782 7  80199060.956 7                  19282659.080    19282661.400
  19282659.420          47.600          42.250
 120679353.667 7  93861719.966 7                  22551826.960    22551828.980
  22551828.000          47.350          42.250
 115816244.666 7  90079316.354 7                  21703917.840    21703922.760
  21703921.740          47.950          43.600
 114417891.799 8  88991709.690 7                  21366725.080    21366726.460
  21366725.320          48.200          44.650
 110834926.140 8  86204959.296 7                  20719419.980    20719424.400
  20719423.620          49.450          47.200
 102782797.180 8  79942186.636 7                  19227642.680    19227646.360
  19227646.100          49.000          43.250
 15  1 27  8  3 15.0000000  0 18G11G14G28G04G17G03G23G31G19G20G32G01
                                R24R17R02R08R23R01
 106793767.571 8  83215910.38147                  20322174.740
  20322170.020          49.100          46.950
 126880353.193 7  98867788.61945                  24144532.560
  24144529.640          44.550          33.450
 124058906.672 7  96669242.49246                  23607627.220
  23607623.600          46.850          37.850
 110216525.752 8  85883015.93747                  20973500.140
  20973496.640          50.450          45.600
 123960647.499 8  96592669.327 7                  23588930.980    23588927.360
  23588926.780          48.300          43.300
 108188731.813 8  84302909.321 8  80790291.803 8  20587627.920    20587627.040
  20587626.320          50.450          49.650
 124833026.809 8  97272450.98846                  23754933.540
  23754929.620          49.150          37.900
 132848273.522 6 103518126.134 6                  25280186.660    25280187.020
  25280185.980          41.300          38.600
 123638332.710 8  96341528.04347                  23527594.140
  23527589.900          48.600          42.700
 125562343.706 7  97840746.88546                  23893724.240
  23893721.160          45.800          37.750
 108753040.304 8  84742650.03247                  20695000.800
  20694997.480          49.850          46.800
 107232401.784 8  83557734.105 8  80076151.436 8  20405642.900    20405641.880
  20405641.760          50.650          49.800
 103108188.621 7  80195275.376 7                  19281748.920    19281751.260
  19281749.200          47.250          42.300
 120659753.996 7  93846475.794 7                  22548164.320    22548166.300
  22548165.340          47.300          42.300
 115799823.152 7  90066544.070 7                  21700840.480    21700845.440
  21700844.400          47.750          43.700
 114434876.290 8  89004919.848 7                  21369896.740    21369898.160
  21369897.040          48.350          44.900
 110848656.329 8  86215638.323 7                  20721986.720    20721991.120
  20721990.360          49.450          47.350
 102782917.648 8  79942280.337 7                  19227665.240    19227668.940
  19227668.660          48.650          43.200
 15  1 27  8  3 20.0000000  0 18G11G14G28G04G17G03G23G31G19G20G32G01
                                R24R17R02R08R23R01
 106799415.000 8  83220310.96947                  20323249.420
  20323244.700          48.600          47.750
 126892832.118 7  98877512.44546                  24146907.180
  24146904.320          43.750          36.250
 124064912.660 7  96673922.46246                  23608770.140
  23608766.560          46.250          38.250
 110224676.704 8  85889367.32647                  20975051.200
  20975047.700          50.000          45.800
 123945281.751 7  96580696.013 7                  23586006.980    23586003.360
  23586002.780          47.350          43.450
 108183458.340 8  84298800.117 8  80786353.819 8  20586624.420    20586623.540
  20586622.800          49.900          49.650
 124815797.542 8  97259025.58146                  23751654.940
  23751651.000          48.550          38.900
 132837756.772 6 103509931.241 6                  25278185.300    25278185.800
  25278184.840          39.700          37.950
 123655700.090 7  96355061.05247                  23530899.040
  23530894.860          47.750          43.000
 125546950.152 7  97828751.91446                  23890794.920
  23890791.960          44.550          37.500
 108761853.632 8  84749517.55447                  20696677.920
  20696674.620          49.600          47.200
 107231209.561 8  83556805.092 8  80075261.133 8  20405416.040    20405415.020
  20405414.880          50.100          49.900
 103103339.134 7  80191503.547 7                  19280842.040    19280844.340
  19280842.260          47.700          42.550
 120640157.504 8  93831234.078 7                  22544502.280    22544504.220
  22544503.200          48.100          42.000
 115783412.095 8  90053779.933 7                  21697765.060    21697770.020
  21697769.000          48.400          43.400
 114451867.269 8  89018135.043 7                  21373069.640    21373071.100
  21373070.020          48.750          45.050
 110862401.277 8  86226328.830 7                  20724556.240    20724560.620
  20724559.840          49.850          47.350
 102783055.797 8  79942387.782 7                  19227691.120    19227694.820
  19227694.540          49.100          43.400
 15  1 27  8  3 25.0000000  0 18G11G14G28G04G17G03G23G31G19G20G32G01
                                R24R17R02R08R23R01
 106805076.691 8  83224722.67047                  20324326.820
  20324322.100          49.500          47.150
 126905323.408 7  98887245.90345                  24149284.200
  24149281.300          45.100          34.300
 124070932.256 7  96678613.04446                  23609915.680
  23609912.080          47.150          38.150
 110232837.813 8  85895726.63047                  20976604.220
  20976600.700          50.600          45.250
 123929924.788 8  96568729.540 7                  23583084.680    23583081.040
  23583080.420          48.450          43.400
 108178197.524 8  84294700.782 8  80782425.285 8  20585623.360    20585622.440
  20585621.700          50.750          49.750
 124798573.241 8  97245604.04946                  23748377.260
  23748373.300          49.700          38.250
 132827247.708 7 103501742.345 6                  25276185.380    25276186.060
  25276184.980          42.250          37.250
 123673074.640 8  96368599.63246                  23534205.300
  23534201.120          48.850          41.850
 125531563.032 7  97816761.95145                  23887866.760
  23887863.940          45.800          35.900
 108770678.544 8  84756394.10347                  20698357.260
  20698353.940          50.600          46.100
 107230027.662 8  83555884.131 8  80074378.540 8  20405191.140    20405190.100
  20405189.980          50.800          49.850
 103098509.877 7  80187747.456 7                  19279938.980    19279941.240
  19279939.140          47.250          42.300
 120620566.577 7  93815996.674 7                  22540841.320    22540843.160
  22540842.140          47.150          42.050
 115767013.930 7  90041025.805 7                  21694692.040    21694697.020
  21694695.960          47.750          43.350
 114468866.808 8  89031356.890 7                  21376244.200    21376245.640
  21376244.580          48.100          45.350
 110876163.118 8  86237032.466 7                  20727128.920    20727133.280
  20727132.500          49.300          47.350
 102783213.729 8  79942510.616 7                  19227720.680    19227724.380
  19227724.140          48.450          43.550
 15  1 27  8  3 30.0000000  0 18G11G14G28G04G17G03G23G31G19G20G32G01
                                R24R17R02R08R23R01
 106810747.849 8  83229141.75048                  20325406.020
  20325401.300          48.550          48.050
 126917822.239 7  98896985.26945                  24151662.640
  24151659.780          43.600          35.650
 124076960.649 7  96683310.50146                  23611062.880
  23611059.280          46.150          38.300
 110241004.362 8  85902090.17247                  20978158.260
  20978154.760          49.700          46.550
 123914571.784 7  96556766.164 7                  23580163.100    23580159.460
  23580158.840          47.000          43.600
 108172944.519 8  84290607.540 8  80778502.595 8  20584623.760    20584622.820
  20584622.080          49.900          49.800
 124781349.061 8  97232182.60846                  23745099.640
  23745095.600          48.700          39.400
 132816741.544 7 103493555.706 6                  25274186.120    25274186.860
  25274185.800          42.300          36.200
 123690451.481 7  96382140.01347                  23537512.000
  23537507.860          47.750          43.050
 125516177.573 7  97804773.29246                  23884938.980
  23884936.160          44.100          37.550
 108779510.149 8  84763275.88147                  20700037.880
  20700034.560          50.000          46.750
 107228851.251 8  83554967.449 8  80073500.054 8  20404967.280    20404966.240
  20404966.120          50.050          49.850
 103093695.603 7  80184003.025 7                  19279038.700    19279040.960
  19279038.820          47.450          42.300
 120600976.262 7  93800759.773 6                  22537180.440    22537182.200
  22537181.200          47.400          41.600
 115750623.572 7  90028277.757 7                  21691620.480    21691625.420
  21691624.380          47.750          43.500
 114485870.066 8  89044581.646 7                  21379419.460    21379420.920
  21379419.840          48.350          45.300
 110889936.838 8  86247745.354 7                  20729703.820    20729708.180
  20729707.360          49.350          47.300
 102783386.498 8  79942645.002 7                  19227753.040    19227756.740
  19227756.500          48.700          43.550
 15  1 27  8  3 35.0000000  0 18G11G14G28G04G17G03G23G31G19G20G32G01
                                R24R17R02R08R23R01
 106816432.457 8  83233571.30148                  20326487.760
  20326483.060          48.400          48.150
 126930332.595 7  98906733.56945                  24154043.280
  24154040.360          43.650          35.800
 124083001.824 7  96688017.87846                  23612212.520
  23612208.880          46.300          38.500
 110249180.298 8  85908461.02747                  20979714.080
  20979710.580          49.600          46.550
 123899226.755 7  96544808.990 7                  23577243.040    23577239.400
  23577238.780          47.250          43.850
 108167703.347 8  84286523.503 8  80774588.734 8  20583626.420    20583625.460
  20583624.720          50.000          49.750
 124764129.014 8  97218764.37546                  23741822.820
  23741818.760          48.400          39.000
 132806242.327 6 103485374.457 5                  25272188.160    25272188.960
  25272187.980          41.850          35.800
 123707834.605 8  96395685.27247                  23540819.940
  23540815.820          48.300          42.950
 125500797.776 7  97792789.01246                  23882012.260
  23882009.400          44.250          37.200
 108788352.456 8  84770165.98247                  20701720.520
  20701717.180          50.000          47.000
 107227684.336 8  83554058.161 8  80072628.656 8  20404745.220    20404744.200
  20404744.060          49.950          49.850
 103088900.823 7  80180273.749 7                  19278142.060    19278144.380
  19278142.160          47.600          42.600
 120581390.694 7  93785526.522 6                  22533520.500    22533522.120
  22533521.100          47.450          41.850
 115734245.218 7  90015539.039 7                  21688551.160    21688556.140
  21688555.100          47.550          44.000
 114502881.169 8  89057812.494 7                  21382596.200    21382597.620
  21382596.560          48.100          45.050
 110903726.645 8  86258470.739 7                  20732281.720    20732286.040
  20732285.220          49.350          47.100
 102783578.198 8  79942794.098 7                  19227788.920    19227792.620
  19227792.380          48.700          43.100
 15  1 27  8  3 40.0000000  0 18G11G14G28G04G17G03G23G31G19G20G32G01
                                R24R17R02R08R23R01
 106822127.878 8  83238009.28348                  20327571.560
  20327566.880          48.600          48.300
 126942851.805 7  98916488.80046                  24156425.640
  24156422.640          43.900          36.550
 124089053.132 7  96692733.17046                  23613364.100
  23613360.400          46.600          39.000
 110257362.959 8  85914837.11647                  20981271.160
  20981267.700          49.650          46.800
 123883887.083 7  96532856.007 7                  23574324.000    23574320.320
  23574319.740          47.200          43.800
 108162471.370 8  84282446.645 8  80770681.741 8  20582630.820    20582629.840
  20582629.120          50.050          49.900
 124746910.498 8  97205347.35546                  23738546.260
  23738542.200          48.350          39.750
 132795747.420 7 103477196.595 5                  25270191.020    25270191.920
  25270190.840          42.450          35.150
 123725221.384 8  96409233.40347                  23544128.560
  23544124.460          48.450          42.900
 125485420.949 7  97780807.08146                  23879086.100
  23879083.280          44.150          38.200
 108797202.816 8  84777062.36647                  20703404.700
  20703401.340          50.050          47.050
 107226524.303 8  83553154.239 8  80071762.396 8  20404524.460    20404523.460
  20404523.340          50.050          50.000
 103084122.498 7  80176557.268 7                  19277248.500    19277250.800
  19277248.600          47.550          42.550
 120561807.152 7  93770294.870 7                  22529860.880    22529862.500
  22529861.420          47.200          42.200
 115717876.317 7  90002807.688 7                  21685483.600    21685488.620
  21685487.540          47.500          43.850
 114519897.217 7  89071047.196 7                  21385773.820    21385775.300
  21385774.220          47.800          45.300
 110917529.831 8  86269206.544 7                  20734862.120    20734866.400
  20734865.560          49.350          47.250
 102783786.210 8  79942955.885 7                  19227827.860    19227831.540
  19227831.300          48.700          43.000
 15  1 27  8  3 45.0000000  0 18G11G14G28G04G17G03G23G31G19G20G32G01
                                R24R17R02R08R23R01
 106827836.856 8  83242457.83347                  20328657.960
  20328653.280          48.600          47.750
 126955382.682 7  98926253.10946                  24158810.200
  24158807.200          44.100          37.300
 124095117.343 7  96697458.52146                  23614518.100
  23614514.460          46.350          38.400
 110265555.068 8  85921220.57247                  20982830.020
  20982826.620          49.650          46.600
 123868555.546 7  96520909.359 7                  23571406.520    23571402.800
  23571402.260          47.350          43.750
 108157251.360 8  84278379.108 8  80766783.687 8  20581637.520    20581636.520
  20581635.800          50.000          49.850
 124729696.282 8  97191933.68146                  23735270.540
  23735266.440          48.150          39.400
 132785259.625 7 103469024.279 5                  25268195.280    25268196.180
  25268194.820          43.350          35.350
 123742614.611 8  96422786.54847                  23547438.400
  23547434.300          48.600          42.650
 125470049.925 7  97768829.64846                  23876161.100
  23876158.160          44.450          36.200
 108806064.004 8  84783967.18447                  20705090.940
  20705087.560          49.800          47.100
 107225373.920 8  83552257.839 8  80070903.348 8  20404305.560    20404304.560
  20404304.440          50.100          49.900
 103079363.741 7  80172856.017 7                  19276358.620    19276360.840
  19276358.720          47.400          42.400
 120542228.495 7  93755067.030 7                  22526202.200    22526203.700
  22526202.680          47.300          42.100
 115701519.494 7  89990085.713 7                  21682418.300    21682423.380
  21682422.280          47.400          44.050
 114536921.261 7  89084288.108 7                  21388952.880    21388954.460
  21388953.340          47.650          45.250
 110931349.047 8  86279954.815 7                  20737445.480    20737449.740
  20737448.920          49.100          47.250
 102784013.191 8  79943132.430 7                  19227870.340    19227874.020
  19227873.740          48.650          43.300
 15  1 27  8  3 50.0000000  0 18G11G14G28G04G17G03G23G31G19G20G32G01
                                R24R17R02R08R23R01
 106833557.782 8  83246915.69447                  20329746.640
  20329741.960          48.750          47.950
 126967923.577 7  98936025.21945                  24161196.700
  24161193.640          44.150          35.600
 124101192.829 7  96702192.64946                  23615674.260
  23615670.600          46.150          38.500
 110273755.088 8  85927610.19047                  20984390.400
  20984387.040          49.800          46.350
 123853230.488 7  96508967.750 7                  23568490.240    23568486.520
  23568486.020          47.700          43.900
 108152041.665 8  84274319.607 8  80762893.330 8  20580646.160    20580645.140
  20580644.420          50.100          49.750
 124712484.724 7  97178522.07646                  23731995.300
  23731991.220          47.750          38.950
 132774777.356 7 103460856.238 5                  25266200.600    25266201.480
  25266199.980          43.400          35.550
 123760012.591 8  96436343.39847                  23550749.160
  23550745.020          48.600          42.700
 125454683.053 7  97756855.44546                  23873236.840
  23873233.840          44.300          36.750
 108814934.380 8  84790879.16247                  20706778.940
  20706775.500          49.900          46.850
 107224231.560 8  83551367.684 8  80070050.274 8  20404088.180    20404087.200
  20404087.060          50.200          49.900
 103074622.671 7  80169168.511 7                  19275472.040    19275474.240
  19275472.140          47.600          42.600
 120522653.052 7  93739841.679 7                  22522544.080    22522545.560
  22522544.520          47.250          42.250
 115685173.197 7  89977371.924 7                  21679355.020    21679360.100
  21679359.000          47.050          44.050
 114553951.433 7  89097533.785 7                  21392133.140    21392134.720
  21392133.600          47.900          45.350
 110945182.783 8  86290714.383 7                  20740031.540    20740035.820
  20740034.960          49.050          47.250
 102784257.837 8  79943322.721 7                  19227916.140    19227919.800
  19227919.540          48.700          43.400
 15  1 27  8  3 55.0000000  0 18G11G14G28G04G17G03G23G31G19G20G32G01
                                R24R17R02R08R23R01
 106839290.416 8  83251382.67547                  20330837.540
  20330832.860          49.000          47.350
 126980474.257 7  98945804.95546                  24163585.060
  24163582.020          44.400          36.800
 124107279.342 7  96706935.37546                  23616832.500
  23616828.860          46.550          38.600
 110281962.841 8  85934005.83547                  20985952.240
  20985948.960          49.900          46.100
 123837911.689 7  96497031.015 7                  23565575.180    23565571.480
  23565570.980          47.850          43.750
 108146842.086 8  84270267.983 8  80759010.527 8  20579656.740    20579655.700
  20579654.980          50.400          49.750
 124695275.616 7  97165112.38146                  23728720.520
  23728716.400          47.700          38.800
 132764300.336 7 103452692.294 5                  25264206.900    25264207.580
  25264206.300          43.600          35.000
 123777415.177 8  96449903.84047                  23554060.820
  23554056.640          48.650          42.550
 125439320.083 7  97744884.29046                  23870313.320
  23870310.300          44.750          37.850
 108823813.701 8  84797798.11147                  20708468.620
  20708465.160          50.050          46.650
 107223096.966 8  83550483.577 8  80069203.017 8  20403872.280    20403871.300
  20403871.160          50.300          50.000
 103069899.189 7  80165494.690 7                  19274588.760    19274590.880
  19274588.820          46.300          42.550
 120503080.651 7  93724618.706 7                  22518886.520    22518888.040
  22518886.960          45.950          42.000
 115668837.148 7  89964666.131 7                  21676293.640    21676298.720
  21676297.660          46.050          43.900
 114570987.586 7  89110784.112 7                  21395314.540    21395316.100
  21395314.960          47.050          44.900
 110959030.670 7  86301484.952 7                  20742620.260    20742624.560
  20742623.660          47.650          47.050
 102784519.422 7  79943526.174 7                  19227965.080    19227968.700
  19227968.500          47.400          43.250
 15  1 27  8  4  0.0000000  0 18G11G14G28G04G17G03G23G31G19G20G32G01
                                R24R17R02R08R23R01
 106845034.438 8  83255858.53447                  20331930.620
  20331925.920          48.900          47.350
 126993034.362 7  98955592.03945                  24165975.180
  24165972.180          44.500          34.950
 124113376.549 7  96711686.43746                  23617992.780
  23617989.160          46.450          37.200
 110290177.865 8  85940407.14647                  20987515.480
  20987512.220          49.750          46.050
 123822598.931 7  96485098.996 7                  23562661.240    23562657.580
  23562657.080          47.600          43.800
 108141652.276 8  84266223.977 8  80755135.016 8  20578669.180    20578668.120
  20578667.400          50.300          49.650
 124678068.698 7  97151704.38946                  23725446.140
  23725442.060          47.000          39.000
 132753828.233 7 103444532.173 5                  25262214.100    25262214.780
  25262213.380          43.750          34.950
 123794822.001 8  96463467.57647                  23557373.240
  23557369.080          48.650          42.700
 125423960.766 7  97732915.98445                  23867390.500
  23867387.500          45.100          34.950
 108832701.644 8  84804723.77947                  20710159.960
  20710156.480          50.050          46.450
 107221969.866 8  83549605.319 8  80068361.351 8  20403657.800    20403656.820
  20403656.700          50.250          49.800
 103065192.960 7  80161834.290 7                  19273708.720    19273710.800
  19273708.720          46.700          42.400
 120483510.898 7  93709397.790 6                  22515229.480    22515230.940
  22515229.880          45.950          41.850
 115652511.102 7  89951968.093 7                  21673234.140    21673239.180
  21673238.180          46.950          43.950
 114588029.290 7  89124038.777 7                  21398496.960    21398498.480
  21398497.360          47.300          45.050
 110972892.672 7  86312266.501 7                  20745211.580    20745215.900
  20745214.980          47.950          46.850
 102784797.946 7  79943742.801 7                  19228017.200    19228020.800
  19228020.600          47.750          43.250
 15  1 27  8  4  5.0000000  0 18G11G14G28G04G17G03G23G31G19G20G32G01
                                R24R17R02R08R23R01
 106850792.643 8  83260345.43747                  20333026.380
  20333021.680          49.050          47.550
 127005606.679 7  98965388.64045                  24168367.640
  24168364.600          44.900          35.900
 124119487.236 7  96716447.99946                  23619155.640
  23619151.960          46.850          38.150
 110298403.004 8  85946816.33247                  20989080.600
  20989077.400          49.850          46.050
 123807294.956 7  96473173.823 7                  23559748.960    23559745.320
  23559744.860          47.750          43.800
 108136475.038 8  84262189.764 8  80751268.901 8  20577684.000    20577682.920
  20577682.200          50.350          49.650
 124660866.723 7  97138300.26146                  23722172.680
  23722168.620          46.850          39.650
 132743363.915 7 103436378.146 5                  25260222.820    25260223.400
  25260222.100          44.000          34.300
 123812235.801 8  96477036.75347                  23560687.020
  23560682.800          48.850          42.200
 125408607.883 7  97720952.67646                  23864468.940
  23864465.840          44.950          36.200
 108841600.992 8  84811658.33347                  20711853.480
  20711849.980          50.200          46.550
 107220853.048 8  83548735.067 8  80067527.359 8  20403445.280    20403444.300
  20403444.200          50.550          49.800
 103060506.888 7  80158189.555 7                  19272832.420    19272834.480
  19272832.380          46.900          42.600
 120463946.858 7  93694181.312 7                  22511573.460    22511574.960
  22511573.860          46.450          42.300
 115636197.793 7  89939279.962 7                  21670177.040    21670182.060
  21670181.100          47.350          44.700
 114605079.468 7  89137300.018 7                  21401680.960    21401682.480
  21401681.360          47.700          45.350
 110986771.252 8  86323060.935 7                  20747806.000    20747810.340
  20747809.420          48.500          46.850
 102785096.191 8  79943974.764 7                  19228073.000    19228076.540
  19228076.380          48.050          43.150
 15  1 27  8  4 10.0000000  0 18G11G14G28G04G17G03G23G31G19G20G32G01
                                R24R17R02R08R23R01
 106856560.234 8  83264839.65947                  20334123.940
  20334119.220          49.000          47.300
 127018186.370 7  98975190.99045                  24170761.540
  24170758.480          44.800          34.750
 124125606.559 7  96721216.28646                  23620320.140
  23620316.380          47.150          37.900
 110306633.499 8  85953229.69847                  20990646.780
  20990643.600          49.850          46.150
 123791995.010 7  96461251.793 7                  23556837.460    23556833.840
  23556833.380          47.700          43.650
 108131305.547 8  84258161.596 8  80747408.575 8  20576700.320    20576699.220
  20576698.480          50.150          49.750
 124643664.872 7  97124896.24046                  23718899.240
  23718895.220          46.800          41.200
 132732902.529 7 103428226.387 5                  25258232.160    25258232.600
  25258231.400          43.650          34.650
 123829651.767 8  96490607.62147                  23564001.200
  23563996.940          48.500          42.850
 125393256.558 7  97708990.60645                  23861547.640
  23861544.540          44.750          35.500
 108850506.879 8  84818597.98647                  20713548.220
  20713544.720          50.000          46.750
 107219741.665 8  83547869.059 8  80066697.437 8  20403233.800    20403232.800
  20403232.700          50.350          49.800
 103055835.998 7  80154556.640 7                  19271958.980    19271961.020
  19271958.880          47.850          42.450
 120444383.377 7  93678965.280 7                  22507917.580    22507919.060
  22507918.000          47.600          42.100
 115619892.444 8  89926598.044 7                  21667121.440    21667126.460
  21667125.540          48.900          44.800
 114622133.261 8  89150564.079 7                  21404865.620    21404867.180
  21404866.080          48.900          45.400
 111000661.725 8  86333864.624 7                  20750402.640    20750407.000
  20750406.080          49.450          47.100
 102785409.108 8  79944218.145 7                  19228131.540    19228135.040
  19228134.900          49.100          43.000
 15  1 27  8  4 15.0000000  0 18G11G14G28G04G17G03G23G31G19G20G32G01
                                R24R17R02R08R23R01
 106862341.874 8  83269344.82347                  20335224.180
  20335219.420          49.400          47.100
 127030778.168 7  98985002.76545                  24173157.740
  24173154.740          45.300          35.500
 124131739.217 7  96725994.97146                  23621487.200
  23621483.340          47.650          36.950
 110314874.028 8  85959650.88547                  20992214.860
  20992211.700          50.250          45.400
 123776703.742 8  96449336.509 7                  23553927.640    23553924.040
  23553923.520          48.250          43.500
 108126148.513 8  84254143.127 8  80743557.533 8  20575718.980    20575717.860
  20575717.140          50.650          49.750
 124626467.894 7  97111496.00846                  23715626.720
  23715622.720          47.350          40.150
 132722448.840 7 103420080.624 5                  25256242.980    25256243.220
  25256242.180          44.350          35.700
 123847074.592 8  96504183.81846                  23567316.680
  23567312.420          49.100          41.900
 125377911.610 7  97697033.50645                  23858627.580
  23858624.540          45.850          34.800
 108859424.070 8  84825546.43847                  20715245.140
  20715241.600          50.450          46.200
 107218640.473 8  83547010.982 8  80065875.110 8  20403024.240    20403023.260
  20403023.160          50.800          49.800
 103051185.081 7  80150939.256 7                  19271089.260    19271091.280
  19271089.140          46.150          42.550
 120424825.515 7  93663753.603 6                  22504262.720    22504264.220
  22504263.180          45.600          41.900
 115603599.823 7  89913926.019 7                  21664068.220    21664073.260
  21664072.360          47.100          44.500
 114639195.225 7  89163834.485 7                  21408051.800    21408053.380
  21408052.340          46.900          45.550
 111014568.825 8  86344681.238 7                  20753002.400    20753006.760
  20753005.860          48.000          46.900
 102785741.578 7  79944476.738 7                  19228193.740    19228197.240
  19228197.080          47.750          43.050
 15  1 27  8  4 20.0000000  0 18G11G14G28G04G17G03G23G31G19G20G32G01
                                R24R17R02R08R23R01
 106868135.529 8  83273859.35847                  20336326.700
  20336321.920          49.200          46.950
 127043379.995 7  98994822.37445                  24175555.860
  24175552.740          44.800          34.400
 124137883.160 7  96730782.45346                  23622656.420
  23622652.520          47.450          37.750
 110323122.473 8  85966078.24547                  20993784.460
  20993781.320          50.050          45.750
 123761419.162 8  96437426.448 7                  23551019.080    23551015.460
  23551014.960          48.000          43.600
 108121001.894 8  84250132.773 8  80739714.282 8  20574739.640    20574738.520
  20574737.780          50.500          49.700
 124609273.778 7  97098097.99946                  23712354.780
  23712350.800          47.500          39.800
 132712000.804 7 103411939.269 5                  25254254.820    25254255.020
  25254254.040          44.650          35.650
 123864502.226 8  96517763.78046                  23570633.080
  23570628.800          49.150          41.250
 125362570.884 7  97685079.69646                  23855708.280
  23855705.300          44.900          36.950
 108868350.447 8  84832502.05247                  20716943.780
  20716940.220          50.200          46.100
 107217547.394 8  83546159.235 8  80065058.860 8  20402816.240    20402815.280
  20402815.160          50.700          49.700
 103046552.171 7  80147335.882 7                  19270222.920    19270224.920
  19270222.760          45.750          42.450
 120405271.097 7  93648544.605 7                  22500608.540    22500610.000
  22500608.960          45.300          42.000
 115587317.750 7  89901262.184 7                  21661016.960    21661022.000
  21661021.160          46.800          44.250
 114656263.417 7  89177109.735 7                  21411239.120    21411240.740
  21411239.780          46.400          45.700
 111028490.330 7  86355509.067 7                  20755604.840    20755609.240
  20755608.320          47.750          46.850
 102786091.593 7  79944748.975 7                  19228259.220    19228262.700
  19228262.560          47.350          43.300
 15  1 27  8  4 25.0000000  0 18G11G14G28G04G17G03G23G31G19G20G32G01
                                R24R17R02R08R23R01
 106873941.432 8  83278383.43647                  20337431.540
  20337426.740          48.600          47.700
 127055992.017 7  99004649.91045                  24177955.900
  24177952.820          43.950          35.050
 124144038.583 7  96735578.87046                  23623827.820
  23623823.900          46.550          37.550
 110331379.056 8  85972511.94847                  20995355.600
  20995352.480          49.300          46.100
 123746141.478 7  96425521.756 7                  23548111.820    23548108.220
  23548107.700          47.250          43.050
 108115865.893 8  84246130.696 8  80735878.957 8  20573762.300    20573761.180
  20573760.440          49.900          49.600
 124592082.697 7  97084702.36446                  23709083.420
  23709079.400          46.950          38.750
 132701558.597 7 103403802.451 5                  25252267.800    25252267.940
  25252267.040          43.800          35.100
 123881934.858 7  96531347.64147                  23573950.440
  23573946.120          47.950          42.600
 125347234.604 7  97673129.36946                  23852789.800
  23852786.940          44.000          36.300
 108877286.243 8  84839465.00847                  20718644.240
  20718640.660          49.650          46.800
 107216462.668 8  83545313.996 8  80064248.829 8  20402609.840    20402608.860
  20402608.760          50.050          49.550
 103041937.418 7  80143746.632 7                  19269359.960    19269361.840
  19269359.800          46.450          42.400
 120385720.223 7  93633338.372 7                  22496955.000    22496956.460
  22496955.400          46.000          42.000
 115571046.576 7  89888606.826 7                  21657967.700    21657972.800
  21657971.980          47.400          44.600
 114673338.041 7  89190389.984 7                  21414427.640    21414429.320
  21414428.420          46.900          45.550
 111042426.663 8  86366348.435 7                  20758210.020    20758214.540
  20758213.580          48.150          47.100
 102786459.179 7  79945034.869 7                  19228327.980    19228331.480
  19228331.320          47.800          43.200
 15  1 27  8  4 30.0000000  0 18G11G14G28G04G17G03G23G31G19G20G32G01
                                R24R17R02R08R23R01
 106879758.194 8  83282915.97347                  20338538.460
  20338533.660          48.750          47.650
 127068612.899 7  99014484.34746                  24180357.600
  24180354.420          44.100          37.650
 124150204.132 7  96740383.17346                  23625001.120
  23624997.100          46.850          37.800
 110339642.468 8  85978950.96847                  20996928.060
  20996924.940          49.250          46.450
 123730869.333 7  96413621.377 7                  23545205.620    23545202.040
  23545201.500          46.950          43.050
 108110739.135 8  84242135.824 8  80732050.530 8  20572786.720    20572785.580
  20572784.860          49.850          49.650
 124574893.321 7  97071308.05746                  23705812.400
  23705808.400          47.350          40.050
 132691120.930 7 103395669.188 5                  25250281.640    25250281.780
  25250280.860          43.200          34.750
 123899371.110 8  96544934.30647                  23577268.480
  23577264.100          48.450          42.600
 125331901.491 7  97661181.48246                  23849872.020
  23849869.220          44.050          39.100
 108886230.103 8  84846434.24847                  20720346.200
  20720342.620          49.650          47.000
 107215384.918 8  83544474.190 8  80063444.004 8  20402404.740    20402403.780
  20402403.660          49.950          49.550
 103037339.505 8  80140170.485 7                  19268500.140    19268501.980
  19268500.000          48.100          42.700
 120366171.699 7  93618133.960 6                  22493301.920    22493303.340
  22493302.260          47.300          41.950
 115554784.844 8  89875958.823 7                  21654920.260    21654925.360
  21654924.560          49.000          44.750
 114690417.639 8  89203674.103 7                  21417617.120    21417618.840
  21417617.960          48.450          45.300
 111056376.242 8  86377198.095 7                  20760817.760    20760822.260
  20760821.320          49.600          47.300
 102786843.039 8  79945333.427 7                  19228399.760    19228403.340
  19228403.140          49.000          43.100
 15  1 27  8  4 35.0000000  0 18G11G14G28G04G17G03G23G31G19G20G32G01
                                R24R17R02R08R23R01
 106885588.498 8  83287459.06247                  20339647.960
  20339643.120          48.900          47.750
 127081245.327 7  99024327.77446                  24182761.460
  24182758.300          44.000          36.600
 124156382.472 7  96745197.45846                  23626176.880
  23626172.780          46.950          37.950
 110347915.378 8  85985397.38847                  20998502.320
  20998499.220          49.300          46.550
 123715605.431 7  96401727.419 7                  23542300.960    23542297.440
  23542296.860          46.900          43.350
 108105624.309 8  84238150.244 8  80728231.029 8  20571813.420    20571812.260
  20571811.540          50.000          49.750
 124557708.370 7  97057917.18846                  23702542.240
  23702538.180          47.900          40.700
 132680690.520 7 103387541.557 5                  25248296.820    25248296.980
  25248296.060          42.300          34.900
 123916813.653 8  96558525.88647                  23580587.720
  23580583.280          48.450          42.250
 125316574.229 7  97649238.14946                  23846955.380
  23846952.600          44.400          38.350
 108895184.684 8  84853411.83747                  20722050.240
  20722046.580          49.850          47.050
 107214316.816 8  83543641.901 8  80062646.405 8  20402201.500    20402200.520
  20402200.400          50.000          49.700
 103032761.086 8  80136609.490 7                  19267643.960    19267645.840
  19267643.840          48.100          42.750
 120346628.200 7  93602933.448 7                  22489649.780    22489651.200
  22489650.080          47.150          42.450
 115538535.401 8  89863320.374 7                  21651875.120    21651880.260
  21651879.420          49.200          44.600
 114707504.940 8  89216964.218 7                  21420808.060    21420809.820
  21420808.900          48.150          45.100
 111070341.908 8  86388060.270 7                  20763428.480    20763433.020
  20763432.080          49.750          47.500
 102787245.897 8  79945646.755 7                  19228475.120    19228478.680
  19228478.480          49.050          43.200
 15  1 27  8  4 40.0000000  0 18G11G14G28G04G17G03G23G31G19G20G32G01
                                R24R17R02R08R23R01
 106891430.171 8  83292011.00347                  20340759.620
  20340754.740          49.150          47.100
 127093887.079 7  99034178.48046                  24185167.120
  24185163.880          44.050          36.800
 124162571.430 7  96750020.01246                  23627354.660
  23627350.500          46.750          37.900
 110356195.585 8  85991849.48747                  21000077.980
  21000074.900          49.600          46.250
 123700347.588 7  96389838.187 7                  23539397.480    23539393.980
  23539393.360          47.100          43.150
 108100519.221 8  84234172.251 8  80724418.784 8  20570841.940    20570840.800
  20570840.080          50.150          49.700
 124540525.583 8  97044527.99846                  23699272.480
  23699268.380          48.300          39.950
 132670265.139 7 103379417.855 5                  25246312.920    25246313.200
  25246312.200          42.750          35.750
 123934260.313 8  96572120.66747                  23583907.720
  23583903.260          48.350          42.350
 125301250.593 7  97637297.64746                  23844039.400
  23844036.760          44.750          37.600
 108904147.740 8  84860396.03347                  20723755.880
  20723752.200          50.000          46.450
 107213256.208 8  83542815.447 8  80061854.377 8  20401999.680    20401998.700
  20401998.540          50.100          49.650
 103028199.936 8  80133061.917 7                  19266791.020    19266792.860
  19266790.900          48.050          42.750
 120327087.502 7  93587735.127 7                  22485998.180    22485999.540
  22485998.440          46.750          42.200
 115522295.948 8  89850689.688 7                  21648831.860    21648836.980
  21648836.120          49.600          44.400
 114724597.768 8  89230258.625 7                  21424000.060    21424001.820
  21424000.880          48.350          44.950
 111084321.408 8  86398933.204 7                  20766041.820    20766046.340
  20766045.420          49.650          47.500
 102787665.624 8  79945973.211 7                  19228553.640    19228557.160
  19228556.960          49.100          43.250
 15  1 27  8  4 45.0000000  0 18G11G14G28G04G17G03G23G31G19G20G32G01
                                R24R17R02R08R23R01
 106897284.102 8  83296572.50347                  20341873.620
  20341868.700          49.350          47.200
 127106539.032 7  99044037.12845                  24187574.680
  24187571.400          44.200          35.250
 124168771.891 7  96754851.51846                  23628534.600
  23628530.440          46.850          38.150
 110364484.040 8  85998308.01547                  21001655.240
  21001652.160          49.700          46.400
 123685096.745 7  96377954.417 7                  23536495.300    23536491.880
  23536491.220          47.400          43.350
 108095424.803 8  84230202.579 8  80720614.515 8  20569872.500    20569871.380
  20569870.660          50.150          49.600
 124523345.934 8  97031141.27146                  23696003.320
  23695999.180          48.600          39.700
 132659845.760 7 103371298.849 5                  25244330.140    25244330.540
  25244329.480          43.050          35.200
 123951711.994 8  96585719.35947                  23587228.660
  23587224.220          48.400          42.300
 125285931.510 7  97625360.70546                  23841124.260
  23841121.700          45.000          37.050
 108913120.235 8  84867387.58747                  20725463.320
  20725459.600          50.100          46.800
 107212203.971 8  83541995.519 8  80061068.624 8  20401799.440    20401798.440
  20401798.300          50.100          49.650
 103023657.163 8  80129528.641 7                  19265941.540    19265943.340
  19265941.380          48.050          42.800
 120307550.467 7  93572539.645 7                  22482347.240    22482348.540
  22482347.440          47.150          42.450
 115506067.386 8  89838067.479 7                  21645790.640    21645795.740
  21645794.860          49.450          44.250
 114741696.952 8  89243557.982 7                  21427193.260    21427195.020
  21427194.060          48.450          44.750
 111098315.541 8  86409817.506 7                  20768657.880    20768662.400
  20768661.480          49.700          47.250
 102788102.950 8  79946313.360 7                  19228635.440    19228638.960
  19228638.760          48.900          43.100
 15  1 27  8  4 50.0000000  0 18G11G14G28G04G17G03G23G31G19G20G32G01
                                R24R17R02R08R23R01
 106903150.624 8  83301143.82347                  20342990.020
  20342985.040          49.450          47.050
 127119201.541 7  99053904.01345                  24189984.280
  24189981.000          44.550          35.950
 124174984.126 7  96759692.22646                  23629716.800
  23629712.580          46.850          36.700
 110372780.937 8  86004773.13447                  21003234.100
  21003231.040          49.750          46.300
 123669853.195 7  96366076.322 7                  23533594.540    23533591.100
  23533590.500          47.200          43.350
 108090341.316 8  84226241.424 8  80716818.408 8  20568905.140    20568904.020
  20568903.300          50.150          49.650
 124506169.746 8  97017757.24446                  23692734.820
  23692730.680          48.650          39.250
 132649432.657 7 103363184.750 5                  25242348.540    25242349.120
  25242348.060          43.200          35.650
 123969169.022 8  96599322.21846                  23590550.600
  23590546.160          48.500          41.450
 125270617.265 7  97613427.52145                  23838210.040
  23838207.440          45.300          35.500
 108922102.418 8  84874386.69147                  20727172.600
  20727168.840          50.250          46.450
 107211160.453 8  83541182.389 8  80060289.371 8  20401600.880    20401599.860
  20401599.720          50.350          49.750
 103019132.806 7  80126009.699 7                  19265095.480    19265097.280
  19265095.340          47.750          42.850
 120288017.611 7  93557347.420 7                  22478697.080    22478698.340
  22478697.260          46.950          43.000
 115489850.054 8  89825454.018 7                  21642751.560    21642756.680
  21642755.700          49.000          43.750
 114758802.776 8  89256862.508 7                  21430387.680    21430389.440
  21430388.460          48.600          44.850
 111112324.842 8  86420713.619 7                  20771276.820    20771281.320
  20771280.380          49.650          47.400
 102788558.318 8  79946667.538 7                  19228720.600    19228724.100
  19228723.940          48.650          43.550
 15  1 27  8  4 55.0000000  0 18G11G14G28G04G17G03G23G31G19G20G32G01
                                R24R17R02R08R23R01
 106909028.702 8  83305724.13347                  20344108.620
  20344103.620          49.400          47.400
 127131873.489 7  99063778.24445                  24192395.660
  24192392.440          44.750          34.100
 124181207.139 7  96764541.30746                  23630901.020
  23630896.760          47.150          37.850
 110381085.296 8  86011244.06347                  21004814.360
  21004811.340          49.800          46.300
 123654615.931 7  96354203.137 7                  23530694.980    23530691.580
  23530690.940          47.000          43.650
 108085267.766 8  84222288.008 8  80713029.716 8  20567939.640    20567938.540
  20567937.860          50.250          49.750
 124488995.983 8  97004375.10146                  23689466.780
  23689462.600          48.600          40.100
 132639024.826 7 103355074.745 5                  25240368.000    25240368.680
  25240367.600          43.100          35.900
 123986630.275 8  96612928.37947                  23593873.360
  23593868.920          48.250          42.100
 125255306.834 7  97601497.33645                  23835296.560
  23835293.940          46.200          35.350
 108931093.308 8  84881392.58147                  20728883.540
  20728879.740          50.100          46.850
 107210124.604 8  83540375.232 8  80059515.845 8  20401403.760    20401402.740
  20401402.600          50.350          49.800
 103014626.133 7  80122504.511 7                  19264252.720    19264254.500
  19264252.600          47.850          42.650
 120268487.800 7  93542157.579 7                  22475047.420    22475048.740
  22475047.720          47.000          42.900
 115473643.037 8  89812848.566 7                  21639714.400    21639719.440
  21639718.440          48.800          43.750
 114775914.212 8  89270171.409 7                  21433583.100    21433584.920
  21433583.920          48.600          44.550
 111126348.110 8  86431620.601 7                  20773898.340    20773902.840
  20773901.880          49.750          47.300
 102789030.557 8  79947034.824 7                  19228808.920    19228812.480
  19228812.260          48.950          43.350
 15  1 27  8  5  0.0000000  0 18G11G14G28G04G17G03G23G31G19G20G32G01
                                R24R17R02R08R23R01
 106914919.318 8  83310314.21947                  20345229.620
  20345224.560          49.250          47.650
 127144555.845 7  99073660.59645                  24194809.060
  24194805.860          45.050          35.300
 124187441.902 7  96769399.54846                  23632087.480
  23632083.200          47.550          37.400
 110389398.137 8  86017721.59547                  21006396.260
  21006393.240          50.000          46.200
 123639385.924 7  96342335.607 7                  23527796.780    23527793.400
  23527792.760          47.400          43.650
 108080205.141 8  84218343.109 8  80709249.190 8  20566976.260    20566975.180
  20566974.500          50.300          49.850
 124471825.682 8  96990995.66246                  23686199.380
  23686195.260          48.800          39.850
 132628623.311 7 103346969.654 6                  25238388.680    25238389.460
  25238388.480          43.100          36.100
 124004096.815 8  96626538.64746                  23597197.120
  23597192.680          48.500          41.800
 125240001.252 7  97589570.90845                  23832384.040
  23832381.340          46.600          35.500
 108940093.815 8  84888405.95747                  20730596.300
  20730592.460          50.150          46.900
 107209097.433 8  83539574.840 8  80058748.801 8  20401208.300    20401207.280
  20401207.120          50.600          49.800
 103010137.952 7  80119013.699 7                  19263413.400    19263415.180
  19263413.280          47.800          42.650
 120248962.069 7  93526970.908 7                  22471398.540    22471399.900
  22471398.900          47.300          42.250
 115457447.314 8  89800251.901 7                  21636679.340    21636684.320
  21636683.320          49.050          43.900
 114793032.238 8  89283485.420 7                  21436779.720    21436781.600
  21436780.600          48.650          44.700
 111140386.353 8  86442539.228 7                  20776522.700    20776527.200
  20776526.220          49.750          47.350
 102789520.754 8  79947416.086 7                  19228900.580    19228904.200
  19228903.960          49.000          43.200
 15  1 27  8  5  5.0000000  0 18G11G14G28G04G17G03G23G31G19G20G32G01
                                R24R17R02R08R23R01
 106920822.751 8  83314914.29947                  20346353.040
  20346347.940          49.150          47.800
 127157248.968 7  99083551.33345                  24197224.500
  24197221.300          44.950          35.150
 124193688.673 7  96774267.15346                  23633276.240
  23633271.960          47.350          37.250
 110397719.791 8  86024205.99447                  21007979.820
  21007976.820          49.800          46.650
 123624163.526 7  96330473.995 7                  23524900.040    23524896.640
  23524896.060          47.250          43.900
 108075153.709 8  84214406.937 8  80705477.021 8  20566014.980    20566013.920
  20566013.260          50.250          49.900
 124454659.137 8  96977619.14646                  23682932.680
  23682928.620          48.650          39.300
 132618228.304 7 103338869.637 6                  25236410.540    25236411.260
  25236410.280          42.950          36.000
 124021568.870 8  96640153.22146                  23600521.940
  23600517.480          48.300          41.850
 125224700.727 7  97577648.42046                  23829472.460
  23829469.700          46.400          36.800
 108949104.272 8  84895427.08847                  20732310.940
  20732307.100          50.050          47.100
 107208079.207 8  83538781.419 8  80057988.437 8  20401014.540    20401013.520
  20401013.360          50.600          49.800
 103005668.632 7  80115537.559 7                  19262577.620    19262579.360
  19262577.480          47.900          42.650
 120229440.745 7  93511787.637 7                  22467750.460    22467751.900
  22467750.900          46.750          42.600
 115441262.960 8  89787664.070 7                  21633646.400    21633651.340
  21633650.280          48.950          43.800
 114810157.230 8  89296804.844 7                  21439977.660    21439979.580
  21439978.560          48.650          44.600
 111154439.837 8  86453469.697 7                  20779149.880    20779154.380
  20779153.380          49.550          47.300
 102790029.209 8  79947811.559 7                  19228995.680    19228999.320
  19228999.060          48.750          42.900
 15  1 27  8  5 10.0000000  0 18G11G14G28G04G17G03G23G31G19G20G32G01
                                R24R17R02R08R23R01
 106926737.785 8  83319523.40847                  20347478.660
  20347473.540          49.300          47.450
 127169951.508 7  99093449.40045                  24199641.740
  24199638.600          45.000          35.300
 124199946.193 7  96779143.12546                  23634467.040
  23634462.740          46.850          37.600
 110406048.919 8  86030696.21447                  21009564.780
  21009561.800          49.850          46.100
 123608947.461 7  96318617.324 7                  23522004.540    23522001.120
  23522000.560          47.650          43.900
 108070112.233 8  84210478.516 8  80701712.288 8  20565055.580    20565054.560
  20565053.900          50.250          49.950
 124437495.040 8  96964244.54846                  23679666.440
  23679662.420          48.600          40.100
 132607838.663 7 103330773.812 6                  25234433.460    25234434.300
  25234433.320          43.550          36.650
 124039045.210 8  96653771.13047                  23603847.580
  23603843.140          48.050          42.050
 125209404.081 7  97565728.96345                  23826561.580
  23826558.760          46.250          33.850
 108958123.392 8  84902454.97047                  20734027.260
  20734023.400          50.150          46.900
 107207068.719 8  83537994.023 8  80057233.859 8  20400822.260    20400821.200
  20400821.060          50.600          49.750
 103001216.944 7  80112075.127 7                  19261745.120    19261746.880
  19261745.000          47.750          42.650
 120209922.474 7  93496606.779 7                  22464103.000    22464104.540
  22464103.460          46.950          42.550
 115425088.918 8  89775084.257 7                  21630615.380    21630620.320
  21630619.200          48.250          43.700
 114827287.775 8  89310128.595 7                  21443176.640    21443178.600
  21443177.600          48.400          44.750
 111168507.365 8  86464411.096 7                  20781779.700    20781784.200
  20781783.180          49.450          47.250
 102790554.518 8  79948220.135 7                  19229093.900    19229097.560
  19229097.300          48.650          42.950
 15  1 27  8  5 15.0000000  0 18G11G14G28G04G17G03G23G31G19G20G32G01
                                R24R17R02R08R23R01
 106932663.734 8  83324141.03347                  20348606.340
  20348601.200          49.350          47.300
 127182662.871 7  99103354.36345                  24202060.660
  24202057.420          44.850          35.850
 124206213.798 7  96784026.97246                  23635659.720
  23635655.420          46.600          38.700
 110414384.948 8  86037191.81747                  21011151.100
  21011148.120          49.900          46.250
 123593737.094 7  96306765.089 7                  23519110.100    23519106.660
  23519106.160          47.600          43.800
 108065080.027 8  84206557.321 8  80697954.478 8  20564097.980    20564096.980
  20564096.320          50.000          50.000
 124420332.791 8  96950871.38446                  23676400.560
  23676396.560          48.550          39.800
 132597453.714 7 103322681.632 6                  25232457.280    25232458.160
  25232457.240          43.350          37.000
 124056525.137 8  96667391.82847                  23607173.900
  23607169.480          48.100          42.350
 125194110.669 7  97553812.01745                  23823651.360
  23823648.480          46.050          34.300
 108967150.492 8  84909489.07847                  20735745.080
  20735741.200          49.950          47.300
 107206065.267 8  83537212.113 8  80056484.525 8  20400631.320    20400630.260
  20400630.100          50.450          49.800
 102996782.160 7  80108625.850 7                  19260915.780    19260917.560
  19260915.660          47.750          42.800
 120190406.726 7  93481427.857 7                  22460456.020    22460457.580
  22460456.480          47.000          42.650
 115408924.502 8  89762511.940 7                  21627586.160    21627591.040
  21627589.900          48.100          43.300
 114844423.228 8  89323456.163 7                  21446376.520    21446378.540
  21446377.540          48.400          44.800
 111182588.251 8  86475362.895 7                  20784412.000    20784416.500
  20784415.480          49.650          47.250
 102791096.097 8  79948641.361 7                  19229195.160    19229198.880
  19229198.580          48.850          43.000
 15  1 27  8  5 20.0000000  0 18G11G14G28G04G17G03G23G31G19G20G32G01
                                R24R17R02R08R23R01
 106938604.365 8  83328770.09247                  20349736.840
  20349731.680          49.350          47.350
 127195386.873 7  99113269.15345                  24204482.000
  24204478.700          44.400          34.650
 124212495.234 7  96788921.57746                  23636855.020
  23636850.740          46.900          37.650
 110422731.513 8  86043695.63647                  21012739.400
  21012736.420          49.950          46.150
 123578536.184 7  96294920.228 7                  23516217.460    23516214.040
  23516213.500          47.550          43.650
 108060060.895 8  84202646.311 8  80694206.431 8  20563142.840    20563141.860
  20563141.220          50.000          49.950
 124403176.190 8  96937502.62146                  23673135.720
  23673131.740          48.450          39.400
 132587077.271 7 103314596.080 6                  25230482.740    25230483.620
  25230482.820          42.650          36.850
 124074012.450 7  96681018.29747                  23610501.640
  23610497.260          47.850          42.800
 125178824.215 7  97541900.48045                  23820742.440
  23820739.460          45.050          35.900
 108976189.350 8  84916532.33647                  20737465.160
  20737461.240          49.850          47.350
 107205072.657 8  83536438.652 8  80055743.292 8  20400442.460    20400441.380
  20400441.200          50.350          49.650
 102992368.183 7  80105192.759 7                  19260090.340    19260092.140
  19260090.220          47.800          42.800
 120170897.287 7  93466253.853 7                  22456810.160    22456811.760
  22456810.700          47.050          43.000
 115392773.557 8  89749950.088 7                  21624559.480    21624564.300
  21624563.140          48.300          43.600
 114861567.439 8  89336790.552 7                  21449578.060    21449580.140
  21449579.160          48.300          45.200
 111196686.113 8  86486327.889 7                  20787047.500    20787051.960
  20787050.980          49.600          47.400
 102791657.783 8  79949078.228 7                  19229300.240    19229304.000
  19229303.620          49.050          43.250
 15  1 27  8  5 25.0000000  0 18G11G14G28G04G17G03G23G31G19G20G32G01
                                R24R17R02R08R23R01
 106944554.715 8  83333406.72647                  20350869.180
  20350864.000          49.350          47.450
 127208118.486 7  99123189.88245                  24206904.780
  24206901.460          44.150          35.750
 124218785.514 7  96793823.09046                  23638052.020
  23638047.700          47.000          37.550
 110431083.727 8  86050203.85247                  21014328.780
  21014325.820          49.950          46.450
 123563339.796 7  96283078.878 7                  23513325.700    23513322.260
  23513321.700          47.700          43.850
 108055049.859 8  84198741.605 8  80690464.415 8  20562189.240    20562188.300
  20562187.660          50.100          49.950
 124386020.281 8  96924134.39946                  23669871.040
  23669867.080          48.500          40.300
 132576704.333 7 103306513.267 6                  25228508.860    25228509.700
  25228508.940          43.200          36.800
 124091502.138 7  96694646.60547                  23613829.800
  23613825.400          47.900          42.300
 125163539.727 7  97529990.49746                  23817833.860
  23817830.940          44.900          36.750
 108985235.048 8  84923580.92547                  20739186.520
  20739182.580          49.950          47.350
 107204085.922 8  83535669.763 8  80055006.440 8  20400254.680    20400253.600
  20400253.440          50.150          49.800
 102987969.964 7  80101771.925 7                  19259267.860    19259269.660
  19259267.760          47.650          42.900
 120151389.111 7  93451080.829 7                  22453164.620    22453166.200
  22453165.120          47.500          42.800
 115376630.946 8  89737394.721 7                  21621534.360    21621539.160
  21621538.000          48.300          43.850
 114878715.238 7  89350127.720 7                  21452780.260    21452782.380
  21452781.440          47.950          45.100
 111210796.187 8  86497302.384 7                  20789685.260    20789689.720
  20789688.760          49.600          47.500
 102792234.514 8  79949526.801 7                  19229408.100    19229411.880
  19229411.500          48.800          43.150
 15  1 27  8  5 30.0000000  0 18G11G14G28G04G17G03G23G31G19G20G32G01
                                R24R17R02R08R23R01
 106950518.455 8  83338053.78447                  20352004.040
  20351998.860          49.350          47.550
 127220861.340 7  99133119.36545                  24209329.700
  24209326.400          44.200          34.900
 124225088.314 7  96798734.34746                  23639251.380
  23639247.060          47.000          37.600
 110439445.256 8  86056719.32147                  21015919.940
  21015916.980          49.950          46.300
 123548151.627 7  96271243.929 7                  23510435.460    23510432.020
  23510431.440          47.550          43.650
 108050050.549 8  84194846.035 8  80686731.169 8  20561237.900    20561236.960
  20561236.320          50.300          50.000
 124368868.717 8  96910769.56046                  23666607.220
  23666603.220          48.650          40.100
 132566338.633 7 103298436.109 6                  25226536.380    25226537.300
  25226536.360          44.450          37.150
 124108997.886 7  96708279.63347                  23617159.120
  23617154.720          47.750          42.300
 125148260.982 7  97518084.97746                  23814926.380
  23814923.460          45.250          38.050
 108994291.174 8  84930637.63747                  20740909.860
  20740905.900          50.050          46.900
 107203108.716 8  83534908.299 8  80054276.703 8  20400068.720    20400067.660
  20400067.480          50.050          49.800
 102983591.227 7  80098366.234 7                  19258449.040    19258450.840
  19258448.900          47.300          42.750
 120131886.042 7  93435911.753 7                  22449520.040    22449521.600
  22449520.480          47.200          42.800
 115360500.439 7  89724848.778 7                  21618511.520    21618516.300
  21618515.140          47.850          43.650
 114895870.430 7  89363470.633 7                  21455983.860    21455986.060
  21455985.100          47.400          45.000
 111224921.924 8  86508289.040 7                  20792325.920    20792330.380
  20792329.440          49.400          47.350
 102792829.974 8  79949989.930 7                  19229519.480    19229523.240
  19229522.880          48.500          43.000
 15  1 27  8  5 35.0000000  0 18G11G14G28G04G17G03G23G31G19G20G32G01
                                R24R17R02R08R23R01
 106956493.895 8  83342709.97647                  20353141.120
  20353135.940          49.300          47.500
 127233613.793 7  99143056.33945                  24211756.420
  24211753.080          43.850          33.250
 124231401.987 7  96803654.09246                  23640452.800
  23640448.480          46.600          37.550
 110447814.464 8  86063240.77847                  21017512.580
  21017509.600          50.100          46.050
 123532970.021 7  96259414.116 7                  23507546.500    23507543.020
  23507542.460          47.600          43.800
 108045061.347 8  84190958.356 8  80683005.468 8  20560288.440    20560287.560
  20560286.920          50.350          50.000
 124351719.913 8  96897406.87646                  23663343.900
  23663339.920          48.800          39.750
 132555978.520 7 103290363.305 6                  25224564.980    25224565.840
  25224564.940          44.800          38.050
 124126497.982 8  96721916.05747                  23620489.260
  23620484.860          48.000          42.750
 125132986.267 7  97506182.58846                  23812019.700
  23812016.860          44.600          38.350
 109003356.052 8  84937701.18447                  20742634.860
  20742630.900          50.150          46.800
 107202139.393 8  83534152.982 8  80053552.858 8  20399884.280    20399883.180
  20399883.000          50.150          49.850
 102979230.387 7  80094974.478 7                  19257633.560    19257635.360
  19257633.400          47.250          42.650
 120112386.276 7  93420745.270 7                  22445876.100    22445877.600
  22445876.500          47.400          42.950
 115344380.492 7  89712311.062 7                  21615490.640    21615495.440
  21615494.260          47.800          43.700
 114913031.254 7  89376817.926 7                  21459188.520    21459190.760
  21459189.820          47.250          45.350
 111239061.834 8  86519286.750 7                  20794969.220    20794973.720
  20794972.760          49.250          47.300
 102793442.456 8  79950466.316 7                  19229634.040    19229637.800
  19229637.440          48.600          43.000
 15  1 27  8  5 40.0000000  0 18G11G14G28G04G17G03G23G31G19G20G32G01
                                R24R17R02R08R23R01
 106962481.554 8  83347375.67147                  20354280.540
  20354275.360          49.200          47.650
 127246376.321 7  99153001.13645                  24214185.060
  24214181.700          43.650          35.800
 124237726.961 7  96808582.62446                  23641656.340
  23641652.020          46.600          37.550
 110456191.853 8  86069768.60747                  21019106.780
  21019103.760          50.150          46.650
 123517795.494 7  96247589.799 7                  23504658.900    23504655.440
  23504654.820          47.450          43.800
 108040082.748 8  84187078.921 8  80679287.669 8  20559341.020    20559340.160
  20559339.540          50.200          50.050
 124334574.345 8  96884046.70646                  23660081.220
  23660077.180          48.950          39.450
 132545624.453 7 103282295.217 6                  25222594.680    25222595.560
  25222594.640          44.700          38.100
 124144002.951 7  96735556.26847                  23623820.360
  23623815.960          47.950          42.800
 125117716.067 7  97494283.73746                  23809113.880
  23809111.020          44.700          38.800
 109012430.169 8  84944771.91247                  20744361.640
  20744357.640          50.300          46.850
 107201178.465 8  83533404.199 8  80052835.264 8  20399701.420    20399700.320
  20399700.140          50.150          49.900
 102974887.836 7  80091596.927 7                  19256821.500    19256823.300
  19256821.280          47.300          42.700
 120092890.418 7  93405581.819 7                  22442232.880    22442234.400
  22442233.240          47.400          42.700
 115328271.520 7  89699781.866 7                  21612471.840    21612476.580
  21612475.460          47.900          43.550
 114930198.288 7  89390170.037 7                  21462394.300    21462396.640
  21462395.700          47.300          45.300
 111253216.292 8  86530295.760 7                  20797615.220    20797619.780
  20797618.800          49.000          47.350
 102794072.606 8  79950956.417 7                  19229751.940    19229755.700
  19229755.280          48.750          43.100
 15  1 27  8  5 45.0000000  0 18G11G14G28G04G17G03G23G31G19G20G32G01
                                R24R17R02R08R23R01
 106968481.002 8  83352050.56247                  20355422.180
  20355417.020          49.200          47.500
 127259148.496 7  99162953.46346                  24216615.500
  24216612.160          43.800          36.150
 124244062.894 7  96813519.69746                  23642861.960
  23642857.700          46.550          37.150
 110464576.977 8  86076302.46447                  21020702.440
  21020699.420          50.200          45.900
 123502627.659 7  96235770.711 7                  23501772.540    23501769.080
  23501768.460          47.550          43.700
 108035114.311 8  84183207.411 8  80675577.485 8  20558395.520    20558394.700
  20558394.080          50.150          50.000
 124317431.603 8  96870688.74546                  23656819.080
  23656815.000          49.050          39.000
 132535276.090 7 103274231.572 6                  25220625.460    25220626.340
  25220625.480          44.150          37.900
 124161512.349 8  96749199.93647                  23627152.280
  23627147.940          48.050          42.000
 125102450.034 7  97482388.12446                  23806208.880
  23806206.020          45.900          38.550
 109021513.182 8  84951849.58147                  20746090.100
  20746086.080          50.350          46.950
 107200225.507 8  83532661.634 8  80052123.645 8  20399520.100    20399518.980
  20399518.800          50.250          49.900
 102970563.249 7  80088233.350 7                  19256012.840    19256014.660
  19256012.560          47.350          42.850
 120073397.921 7  93390420.978 7                  22438590.300    22438591.800
  22438590.580          47.100          42.750
 115312173.057 7  89687260.841 7                  21609455.020    21609459.700
  21609458.580          47.800          43.600
 114947371.065 7  89403526.633 7                  21465601.220    21465603.600
  21465602.640          47.250          45.200
 111267385.016 8  86541315.866 7                  20800263.920    20800268.480
  20800267.540          48.650          47.250
 102794719.797 8  79951459.792 7                  19229873.020    19229876.820
  19229876.340          48.350          43.000
 15  1 27  8  5 50.0000000  0 18G11G14G28G04G17G03G23G31G19G20G32G01
                                R24R17R02R08R23R01
 106974492.289 8  83356734.68447                  20356566.060
  20356560.920          48.700          47.450
 127271930.377 7  99172913.37645                  24219047.800
  24219044.500          42.800          35.850
 124250409.808 7  96818465.33146                  23644069.680
  23644065.540          45.750          37.400
 110472969.965 8  86082842.45247                  21022299.620
  21022296.560          49.900          46.000
 123487466.574 7  96223956.877 7                  23498887.480    23498884.000
  23498883.400          46.850          43.600
 108030156.151 8  84179343.915 8  80671874.961 8  20557451.980    20557451.200
  20557450.580          49.650          49.900
 124300291.758 8  96857333.03846                  23653557.480
  23653553.360          48.850          39.600
 132524933.513 7 103266172.421 6                  25218657.300    25218658.240
  25218657.360          43.350          37.800
 124179026.236 7  96762847.10947                  23630485.060
  23630480.780          47.750          42.450
 125087188.215 7  97470495.79046                  23803304.680
  23803301.840          44.900          36.900
 109030605.103 8  84958934.19747                  20747820.240
  20747816.220          49.900          46.450
 107199280.594 8  83531925.344 8  80051418.034 8  20399340.280    20399339.160
  20399339.000          50.000          49.850
 102966256.659 7  80084883.782 7                  19255207.480    19255209.320
  19255207.220          46.650          42.800
 120053909.073 7  93375262.998 7                  22434948.360    22434949.840
  22434948.620          46.100          42.550
 115296085.261 7  89674748.121 7                  21606440.180    21606444.840
  21606443.700          47.250          43.800
 114964549.605 7  89416887.717 7                  21468809.200    21468811.580
  21468810.620          46.750          45.000
 111281567.777 8  86552346.890 7                  20802915.200    20802919.840
  20802918.880          48.000          47.250
 102795384.209 7  79951976.561 7                  19229997.300    19230001.140
  19230000.640          47.400          43.000
 15  1 27  8  5 55.0000000  0 18G11G14G28G04G17G03G23G31G19G20G32G01
                                R24R17R02R08R23R01
 106980516.851 8  83361429.14847                  20357712.500
  20357707.380          48.750          47.600
 127284723.361 7  99182881.92546                  24221482.200
  24221478.900          42.850          38.400
 124256769.086 7  96823420.59946                  23645279.740
  23645275.620          45.750          36.950
 110481372.123 8  86089389.59147                  21023898.540
  21023895.440          49.900          46.000
 123472313.614 7  96212149.382 7                  23496003.980    23496000.460
  23495999.840          46.950          43.400
 108025209.607 8  84175489.468 8  80668181.125 8  20556510.660    20556509.880
  20556509.280          49.850          49.850
 124283156.191 8  96843980.67146                  23650296.700
  23650292.520          48.850          40.350
 132514598.096 7 103258118.839 6                  25216690.500    25216691.420
  25216690.560          43.250          37.400
 124196546.038 7  96776498.88247                  23633818.960
  23633814.720          47.650          42.200
 125071931.967 7  97458607.81346                  23800401.520
  23800398.760          45.550          38.150
 109039707.292 8  84966026.80847                  20749552.340
  20749548.340          49.950          47.150
 107198345.139 8  83531196.423 8  80050719.484 8  20399162.260    20399161.140
  20399160.980          50.300          49.900
 102961969.419 7  80081549.266 7                  19254405.800    19254407.600
  19254405.520          47.400          42.950
 120034425.194 7  93360108.867 7                  22431307.340    22431308.860
  22431307.600          46.950          42.550
 115280009.525 7  89662244.779 7                  21603427.600    21603432.260
  21603431.100          47.600          44.350
 114981735.402 7  89430254.448 7                  21472018.500    21472020.880
  21472019.920          47.250          44.800
 111295766.337 8  86563390.202 7                  20805569.400    20805574.100
  20805573.180          48.600          47.100
 102796067.223 8  79952507.791 7                  19230125.040    19230128.920
  19230128.400          48.050          42.950
 15  1 27  8  6  0.0000000  0 18G11G14G28G04G17G03G23G31G19G20G32G01
                                R24R17R02R08R23R01
 106986552.872 8  83366132.54247                  20358861.100
  20358856.000          48.200          47.800
 127297525.615 7  99192857.68745                  24223918.400
  24223915.140          42.400          35.750
 124263138.985 7  96828384.16946                  23646491.840
  23646487.780          45.100          37.250
 110489781.701 8  86095942.50247                  21025498.860
  21025495.740          49.600          46.400
 123457167.062 7  96200346.880 7                  23493121.680    23493118.180
  23493117.540          46.450          43.600
 108020272.956 8  84171642.732 8  80664494.664 8  20555571.220    20555570.480
  20555569.880          49.550          49.900
 124266023.204 8  96830630.31446                  23647036.380
  23647032.220          48.400          39.800
 132504268.130 7 103250069.526 6                  25214724.820    25214725.600
  25214724.840          42.450          37.150
 124214069.974 7  96790153.87047                  23637153.660
  23637149.420          47.700          42.350
 125056679.552 7  97446722.82246                  23797499.100
  23797496.340          45.350          38.500
 109048818.008 8  84973126.06447                  20751286.060
  20751282.080          49.750          47.000
 107197417.376 8  83530473.494 8  80050026.674 8  20398985.700    20398984.580
  20398984.440          49.950          49.750
 102957699.858 7  80078228.496 7                  19253607.420    19253609.140
  19253607.120          46.900          43.150
 120014944.521 7  93344957.228 7                  22427666.940    22427668.420
  22427667.220          46.300          43.150
 115263944.061 7  89649749.431 7                  21600416.900    21600421.540
  21600420.420          47.100          44.600
 114998926.533 7  89443625.317 7                  21475228.800    21475231.160
  21475230.180          47.000          44.900
 111309978.749 7  86574444.290 7                  20808226.200    20808230.980
  20808230.060          47.850          47.400
 102796767.066 7  79953052.117 7                  19230255.940    19230259.840
  19230259.340          47.800          43.150
 15  1 27  8  6  5.0000000  0 18G11G14G28G04G17G03G23G31G19G20G32G01
                                R24R17R02R08R23R01
 106992600.608 8  83370845.05847                  20360011.940
  20360006.840          49.800          46.950
 127310337.494 7  99202840.96145                  24226356.440
  24226353.200          44.700          33.650
 124269519.752 7  96833356.18145                  23647706.040
  23647702.040          46.900          35.350
 110498199.054 8  86102501.47547                  21027100.660
  21027097.500          50.850          45.050
 123442027.234 8  96188549.613 7                  23490240.660    23490237.200
  23490236.500          48.300          43.450
 108015346.465 8  84167803.913 8  80660815.791 8  20554633.700    20554633.020
  20554632.400          50.800          49.950
 124248893.084 8  96817282.19346                  23643776.620
  23643772.480          50.000          38.350
 132493943.857 7 103242024.662 6                  25212760.180    25212761.020
  25212760.160          44.850          37.400
 124231598.310 8  96803812.30646                  23640489.240
  23640485.000          49.400          40.650
 125041431.237 7  97434841.02046                  23794597.480
  23794594.760          46.450          36.450
 109057937.502 8  84980232.16547                  20753021.460
  20753017.480          50.850          46.100
 107196497.603 8  83529756.786 8  80049339.821 8  20398810.680    20398809.540
  20398809.420          51.100          49.700
 102953448.197 8  80074921.649 7                  19252812.340    19252814.080
  19252812.100          48.000          43.050
 119995467.416 7  93329808.371 7                  22424027.140    22424028.640
  22424027.460          47.250          42.550
 115247889.224 8  89637262.321 7                  21597408.240    21597412.860
  21597411.740          48.350          44.700
 115016123.344 8  89457000.616 7                  21478440.160    21478442.500
  21478441.500          48.300          45.050
 111324205.200 8  86585509.287 7                  20810885.620    20810890.460
  20810889.560          48.800          47.350
 102797484.060 8  79953609.783 7                  19230390.060    19230393.960
  19230393.440          49.050          43.050
 15  1 27  8  6 10.0000000  0 18G11G14G28G04G17G03G23G31G19G20G32G01
                                R24R17R02R08R23R01
 106998660.718 8  83375567.21147                  20361165.140
  20361160.040          50.050          46.850
 127323159.513 7  99212832.12645                  24228796.440
  24228793.040          45.050          34.950
 124275911.961 7  96838337.10146                  23648922.360
  23648918.400          46.950          36.550
 110506624.654 8  86109066.86347                  21028704.040
  21028700.860          50.950          45.700
 123426894.652 8  96176757.985 7                  23487361.020    23487357.580
  23487356.880          48.750          43.700
 108010430.666 8  84163973.418 8  80657144.904 8  20553698.240    20553697.560
  20553696.960          51.000          50.000
 124231766.353 8  96803936.70746                  23640517.480
  23640513.360          50.000          38.050
 132483625.878 7 103233984.670 6                  25210796.760    25210797.620
  25210796.740          44.750          37.550
 124249131.573 8  96817474.57247                  23643825.760
  23643821.500          49.650          42.000
 125026187.601 7  97422962.88345                  23791696.700
  23791693.980          46.800          35.650
 109067066.342 8  84987345.53347                  20754758.640
  20754754.640          51.100          46.050
 107195586.325 8  83529046.695 8  80048659.325 8  20398637.280    20398636.140
  20398636.000          51.050          49.700
 102949215.180 8  80071629.296 7                  19252020.760    19252022.460
  19252020.520          48.600          42.950
 119975994.408 7  93314662.690 7                  22420388.160    22420389.600
  22420388.440          47.800          42.850
 115231845.481 8  89624783.844 7                  21594401.660    21594406.180
  21594405.160          49.000          44.800
 115033326.352 8  89470380.736 7                  21481652.640    21481655.020
  21481653.980          48.450          44.900
 111338446.386 8  86596585.757 7                  20813547.840    20813552.700
  20813551.800          49.600          47.300
 102798218.640 8  79954181.119 7                  19230527.500    19230531.360
  19230530.860          49.200          43.100
 15  1 27  8  6 15.0000000  0 18G11G14G28G04G17G03G23G31G19G20G32G01
                                R24R17R02R08R23R01
 107004733.003 8  83380298.86047                  20362320.640
  20362315.580          49.900          46.800
 127335991.437 7  99222831.02645                  24231238.320
  24231234.880          44.800          33.550
 124282315.406 7  96843326.78746                  23650140.840
  23650136.960          46.950          36.450
 110515058.290 8  86115638.52847                  21030308.940
  21030305.740          50.900          45.650
 123411769.194 8  96164971.912 7                  23484482.740    23484479.340
  23484478.600          48.450          43.800
 108005525.419 8  84160151.145 8  80653481.893 8  20552764.800    20552764.120
  20552763.500          50.850          49.950
 124214642.883 8  96790593.77846                  23637258.960
  23637254.860          49.850          38.200
 132473313.996 7 103225949.472 6                  25208834.460    25208835.340
  25208834.460          44.500          37.750
 124266669.607 8  96831140.55546                  23647163.180
  23647158.920          49.000          41.650
 125010948.518 7  97411088.26945                  23788796.840
  23788793.960          46.750          35.650
 109076204.304 8  84994466.02347                  20756497.540
  20756493.540          50.900          46.350
 107194683.447 8  83528343.149 8  80047985.090 8  20398465.460    20398464.320
  20398464.180          50.800          49.650
 102945000.385 8  80068351.122 7                  19251232.620    19251234.260
  19251232.340          48.550          42.850
 119956525.280 7  93299520.035 7                  22416749.880    22416751.260
  22416750.160          47.750          42.800
 115215812.738 8  89612313.935 7                  21591397.100    21591401.680
  21591400.660          48.950          45.000
 115050535.331 8  89483765.487 7                  21484866.240    21484868.660
  21484867.620          48.100          45.300
 111352702.144 8  86607673.564 7                  20816212.740    20816217.660
  20816216.760          49.650          47.250
 102798970.618 8  79954765.991 7                  19230668.140    19230672.040
  19230671.540          49.050          43.300
 15  1 27  8  6 20.0000000  0 18G11G14G28G04G17G03G23G31G19G20G32G01
                                R24R17R02R08R23R01
 107010817.446 8  83385039.97847                  20363478.480
  20363473.420          49.800          47.050
 127348833.325 7  99232837.68446                  24233682.060
  24233678.640          44.550          36.700
 124288730.015 7  96848325.18446                  23651361.480
  23651357.600          46.800          36.850
 110523499.976 8  86122216.46347                  21031915.380
  21031912.140          50.650          45.650
 123396650.835 8  96153191.376 7                  23481605.820    23481602.420
  23481601.680          48.500          43.700
 108000630.679 8  84156337.060 8  80649826.734 8  20551833.340    20551832.660
  20551832.060          50.700          49.850
 124197522.652 8  96777253.35746                  23634001.060
  23633997.000          49.700          38.500
 132463008.217 7 103217919.015 6                  25206873.340    25206874.280
  25206873.440          44.650          37.050
 124284212.361 8  96844810.20046                  23650501.480
  23650497.220          49.100          41.600
 124995713.876 7  97399217.11745                  23785897.740
  23785894.840          45.950          35.600
 109085351.387 8  85001593.61247                  20758238.180
  20758234.160          50.850          46.150
 107193788.895 8  83527646.092 8  80047317.088 8  20398295.240    20398294.100
  20398293.940          50.550          49.600
 102940803.961 8  80065087.236 7                  19250447.880    19250449.520
  19250447.580          48.500          42.900
 119937060.117 7  93284380.451 7                  22413112.340    22413113.700
  22413112.640          47.700          43.250
 115199790.972 8  89599852.563 7                  21588394.640    21588399.180
  21588398.200          48.800          45.100
 115067750.281 7  89497154.883 7                  21488080.980    21488083.440
  21488082.400          47.900          45.450
 111366972.332 8  86618772.582 7                  20818880.400    20818885.300
  20818884.420          49.550          47.300
 102799740.063 8  79955364.443 7                  19230812.060    19230815.960
  19230815.500          49.050          43.250
 15  1 27  8  6 25.0000000  0 18G11G14G28G04G17G03G23G31G19G20G32G01
                                R24R17R02R08R23R01
 107016912.980 8  83389789.74347                  20364638.400
  20364633.360          49.650          47.200
 127361684.049 7  99242851.23545                  24236127.480
  24236123.960          44.350          35.900
 124295154.769 7  96853331.48846                  23652584.020
  23652580.240          46.700          37.150
 110531948.820 8  86128799.96747                  21033523.140
  21033519.900          50.450          45.800
 123381538.538 8  96141415.554 7                  23478730.080    23478726.640
  23478725.920          48.650          43.650
 107995745.388 8  84152530.338 8  80646178.625 8  20550903.700    20550903.000
  20550902.400          50.500          49.750
 124180404.614 8  96763914.65246                  23630743.560
  23630739.500          49.350          39.000
 132452707.562 7 103209892.533 6                  25204913.160    25204914.100
  25204913.320          45.100          37.150
 124301758.761 8  96858482.69746                  23653840.460
  23653836.220          48.600          41.400
 124980482.699 7  97387348.68646                  23782999.360
  23782996.340          45.850          36.800
 109094506.505 8  85008727.46647                  20759980.340
  20759976.300          50.600          46.200
 107192901.640 8  83526954.714 8  80046654.512 8  20398126.400    20398125.240
  20398125.080          50.550          49.650
 102936624.769 8  80061836.752 7                  19249666.400    19249668.040
  19249666.060          48.350          43.000
 119917597.897 7  93269243.160 7                  22409475.380    22409476.720
  22409475.680          47.750          43.400
 115183779.132 8  89587398.928 7                  21585394.020    21585398.620
  21585397.620          48.450          44.950
 115084970.129 8  89510548.074 7                  21491296.660    21491299.180
  21491298.140          48.250          45.900
 111381255.860 8  86629881.975 7                  20821550.540    20821555.460
  20821554.580          49.400          47.350
 102800525.862 8  79955975.619 7                  19230959.080    19230963.000
  19230962.520          49.150          43.350
 15  1 27  8  6 30.0000000  0 18G11G14G28G04G17G03G23G31G19G20G32G01
                                R24R17R02R08R23R01
 107023022.395 8  83394550.32047                  20365800.980
  20365795.940          49.600          47.000
 127374546.397 7  99252873.83046                  24238575.120
  24238571.640          44.250          36.400
 124301592.453 7  96858347.83245                  23653809.060
  23653805.300          46.800          35.600
 110540407.491 8  86135391.13547                  21035132.780
  21035129.540          50.350          45.950
 123366435.052 8  96129646.593 7                  23475856.000    23475852.520
  23475851.820          48.450          43.850
 107990872.331 8  84148733.152 8  80642539.660 8  20549976.380    20549975.700
  20549975.080          50.450          49.800
 124163291.583 8  96750579.84546                  23627487.040
  23627482.980          49.200          38.950
 132442414.768 7 103201872.176 6                  25202954.580    25202955.500
  25202954.700          45.350          36.350
 124319311.602 8  96872160.21347                  23657180.660
  23657176.420          48.650          42.100
 124965257.750 7  97375485.07746                  23780102.140
  23780099.100          45.800          36.900
 109103672.488 8  85015869.77647                  20761724.580
  20761720.500          50.550          46.350
 107192024.464 8  83526271.199 8  80045999.470 8  20397959.480    20397958.280
  20397958.140          50.600          49.600
 102932465.835 8  80058602.021 7                  19248888.680    19248890.320
  19248888.320          48.050          43.050
 119898141.309 7  93254110.250 7                  22405839.480    22405840.820
  22405839.780          47.800          43.150
 115167779.991 7  89574955.161 7                  21582395.800    21582400.400
  21582399.440          47.850          44.500
 115102197.735 8  89523947.309 7                  21494513.800    21494516.360
  21494515.340          48.650          45.700
 111395555.555 8  86641003.949 7                  20824223.740    20824228.620
  20824227.780          49.550          47.100
 102801330.793 8  79956601.678 7                  19231109.660    19231113.580
  19231113.120          49.000          43.050
 15  1 27  8  6 35.0000000  0 18G11G14G28G04G17G03G23G31G19G20G32G01
                                R24R17R02R08R23R01
 107029142.803 8  83399319.46547                  20366965.660
  20366960.620          49.400          47.300
 127387417.472 7  99262903.21846                  24241024.440
  24241020.940          44.500          37.000
 124308040.103 7  96863371.95846                  23655036.000
  23655032.320          46.750          37.250
 110548872.980 8  86141987.61647                  21036743.720
  21036740.460          50.250          45.950
 123351337.574 8  96117882.321 7                  23472983.060    23472979.560
  23472978.880          48.500          44.150
 107986008.648 8  84144943.272 8  80638907.695 8  20549050.860    20549050.160
  20549049.540          50.400          49.800
 124146180.706 8  96737246.71646                  23624230.920
  23624226.860          49.200          39.100
 132432126.977 7 103193855.720 6                  25200996.940    25200997.760
  25200996.900          44.850          36.250
 124336867.945 8  96885840.46446                  23660521.560
  23660517.300          48.750          41.500
 124950036.183 7  97363624.10946                  23777205.580
  23777202.540          45.350          37.050
 109112846.374 8  85023018.25747                  20763470.320
  20763466.220          50.400          46.450
 107191154.504 8  83525593.305 8  80045349.828 8  20397793.940    20397792.740
  20397792.580          50.700          49.550
 102928324.043 8  80055380.621 7                  19248114.140    19248115.780
  19248113.820          48.000          43.100
 119878687.539 7  93238979.540 7                  22402204.080    22402205.440
  22402204.420          47.700          43.200
 115151790.709 7  89562519.063 7                  21579399.420    21579404.040
  21579403.100          47.400          44.200
 115119430.033 8  89537350.205 7                  21497731.820    21497734.400
  21497733.380          48.650          45.700
 111409868.438 8  86652136.183 7                  20826899.400    20826904.260
  20826903.440          49.400          47.250
 102802152.009 8  79957240.402 7                  19231263.300    19231267.240
  19231266.780          48.850          43.350
 15  1 27  8  6 40.0000000  0 18G11G14G28G04G17G03G23G31G19G20G32G01
                                R24R17R02R08R23R01
 107035275.367 8  83404098.08847                  20368132.660
  20368127.620          49.250          47.300
 127400298.402 7  99272940.31545                  24243475.580
  24243472.220          43.900          34.850
 124314498.922 7  96868404.80946                  23656265.060
  23656261.420          46.400          37.500
 110557346.582 8  86148590.41947                  21038356.200
  21038352.940          50.150          45.950
 123336247.238 8  96106123.617 7                  23470111.460    23470107.960
  23470107.300          48.350          44.150
 107981155.473 8  84141161.585 8  80635283.559 8  20548127.340    20548126.640
  20548126.020          50.350          49.800
 124129073.070 8  96723916.12246                  23620975.420
  23620971.380          49.000          39.350
 132421845.335 7 103185844.071 6                  25199040.460    25199041.220
  25199040.320          45.050          37.450
 124354428.994 8  96899524.38246                  23663863.340
  23663859.060          48.550          41.550
 124934819.103 7  97351766.67146                  23774309.880
  23774306.860          45.700          37.200
 109122029.367 8  85030173.83847                  20765217.780
  20765213.700          50.100          46.950
 107190292.878 8  83524921.914 8  80044706.396 8  20397629.980    20397628.760
  20397628.600          50.750          49.450
 102924200.563 8  80052173.473 7                  19247343.040    19247344.740
  19247342.760          48.300          43.050
 119859237.838 7  93223852.001 7                  22398569.440    22398570.840
  22398569.820          47.550          43.350
 115135812.497 7  89550091.552 7                  21576405.160    21576409.720
  21576408.800          47.200          44.100
 115136668.301 8  89550757.745 7                  21500950.980    21500953.520
  21500952.540          48.600          45.500
 111424196.027 8  86663279.857 7                  20829577.860    20829582.660
  20829581.860          49.450          47.150
 102802990.601 8  79957892.644 7                  19231420.180    19231424.180
  19231423.660          48.850          43.150
 15  1 27  8  6 45.0000000  0 18G11G14G28G04G17G03G23G31G19G20G32G01
                                R24R17R02R08R23R01
 107041420.989 8  83408886.87647                  20369302.140
  20369297.100          49.150          47.450
 127413190.086 7  99282985.76046                  24245928.760
  24245925.420          43.750          37.750
 124320969.836 7  96873447.05746                  23657496.440
  23657492.780          46.350          37.850
 110565829.192 8  86155200.23547                  21039970.400
  21039967.140          50.200          45.900
 123321164.981 8  96094371.203 7                  23467241.380    23467237.880
  23467237.240          48.100          44.050
 107976313.696 8  84137388.772 8  80631667.962 8  20547205.980    20547205.260
  20547204.660          50.300          49.850
 124111969.656 8  96710588.80746                  23617720.720
  23617716.700          49.150          39.150
 132411570.771 7 103177837.936 6                  25197085.280    25197086.200
  25197085.180          44.550          38.050
 124371995.605 8  96913212.62846                  23667206.160
  23667201.900          48.600          41.350
 124919607.454 7  97339913.40846                  23771415.240
  23771412.120          45.600          36.400
 109131222.329 8  85037337.17147                  20766967.140
  20766963.080          50.300          46.700
 107189440.534 8  83524257.747 8  80044069.914 8  20397467.800    20397466.580
  20397466.400          50.750          49.550
 102920096.519 8  80048981.430 7                  19246575.600    19246577.280
  19246575.300          48.150          42.900
 119839793.017 7  93208728.250 7                  22394935.680    22394937.180
  22394936.140          47.250          43.400
 115119846.148 7  89537673.276 7                  21573413.020    21573417.620
  21573416.720          47.050          44.400
 115153913.322 8  89564170.533 7                  21504171.380    21504173.880
  21504172.940          48.000          45.350
 111438538.748 8  86674435.290 7                  20832259.120    20832263.900
  20832263.080          49.300          47.000
 102803847.574 8  79958559.173 7                  19231580.500    19231584.480
  19231583.980          49.050          43.250
 15  1 27  8  6 50.0000000  0 18G11G14G28G04G17G03G23G31G19G20G32G01
                                R24R17R02R08R23R01
 107047578.180 8  83413684.68147                  20370473.820
  20370468.760          49.300          47.650
 127426091.080 7  99293038.47145                  24248383.740
  24248380.360          43.300          35.900
 124327451.308 7  96878497.53846                  23658729.860
  23658726.240          46.600          37.250
 110574319.338 8  86161815.92747                  21041586.020
  21041582.780          50.300          46.150
 123306089.319 8  96082623.937 7                  23464372.580    23464369.040
  23464368.500          48.100          44.300
 107971481.867 8  84133623.714 8  80628059.782 8  20546286.560    20546285.800
  20546285.180          50.400          49.850
 124094868.998 8  96697263.63646                  23614466.580
  23614462.540          49.000          39.700
 132401301.877 7 103169836.217 6                  25195131.140    25195132.160
  25195131.340          43.750          37.500
 124389566.355 8  96926904.10146                  23670549.780
  23670545.540          48.600          41.350
 124904399.749 7  97328063.24646                  23768521.340
  23768518.140          45.300          39.550
 109140423.836 8  85044507.17247                  20768718.140
  20768714.080          50.200          46.800
 107188595.990 8  83523599.658 8  80043439.246 8  20397307.080    20397305.860
  20397305.660          50.450          49.550
 102916010.378 8  80045803.320 7                  19245811.500    19245813.160
  19245811.180          48.000          42.700
 119820351.686 7  93193607.216 7                  22391302.560    22391304.120
  22391303.120          47.150          43.150
 115103890.228 7  89525263.125 7                  21570422.860    21570427.480
  21570426.560          46.750          44.200
 115171163.692 8  89577587.464 7                  21507392.760    21507395.280
  21507394.320          48.050          45.150
 111452895.416 8  86685601.583 7                  20834943.000    20834947.720
  20834946.940          49.300          47.000
 102804721.284 8  79959238.731 7                  19231743.960    19231747.900
  19231747.420          49.000          43.150
 15  1 27  8  6 55.0000000  0 18G11G14G28G04G17G03G23G31G19G20G32G01
                                R24R17R02R08R23R01
 107053748.411 8  83418492.65047                  20371647.980
  20371642.920          49.300          47.150
 127439002.815 7  99303099.54546                  24250840.760
  24250837.360          43.400          37.000
 124333944.826 7  96883557.40446                  23659965.560
  23659961.920          46.700          38.000
 110582818.357 8  86168438.53347                  21043203.340
  21043200.120          50.400          46.050
 123291021.698 7  96070882.931 7                  23461505.300    23461501.800
  23461501.240          47.950          44.350
 107966661.444 8  84129867.541 8  80624460.111 8  20545369.280    20545368.500
  20545367.900          50.450          50.000
 124077772.528 8  96683941.73446                  23611213.220
  23611209.160          48.800          40.300
 132391040.052 7 103161840.018 6                  25193178.320    25193179.440
  25193178.660          43.500          36.750
 124407142.636 8  96940599.88346                  23673894.460
  23673890.240          48.600          41.900
 124889197.431 7  97316217.30446                  23765628.460
  23765625.260          46.150          37.850
 109149635.238 8  85051684.87547                  20770471.000
  20770466.980          50.600          46.550
 107187760.723 8  83522948.795 8  80042815.492 8  20397148.140    20397146.920
  20397146.700          50.350          49.600
 102911943.592 8  80042640.262 7                  19245051.000    19245052.700
  19245050.660          48.100          42.650
 119800915.288 7  93178490.018 7                  22387670.360    22387671.980
  22387671.000          47.500          43.250
 115087946.240 7  89512862.257 7                  21567434.920    21567439.600
  21567438.640          47.300          43.950
 115188420.898 8  89591009.729 7                  21510615.420    21510617.940
  21510616.960          48.350          44.900
 111467267.323 8  86696779.719 7                  20837629.780    20837634.420
  20837633.620          49.650          47.150
 102805613.241 8  79959932.477 7                  19231910.840    19231914.720
  19231914.300          48.850          43.100
 15  1 27  8  7  0.0000000  0 18G11G14G28G04G17G03G23G31G19G20G32G01
                                R24R17R02R08R23R01
 107059929.011 8  83423308.69547                  20372824.120
  20372819.040          49.300          47.600
 127451922.575 7  99313166.88145                  24253299.320
  24253295.980          43.500          34.650
 124340447.709 7  96888624.58046                  23661203.060
  23661199.400          46.700          37.900
 110591323.689 8  86175066.06347                  21044821.880
  21044818.640          50.450          46.250
 123275959.503 7  96059146.157 7                  23458639.080    23458635.560
  23458635.020          47.750          44.550
 107961849.737 8  84126118.152 8  80620866.945 8  20544453.660    20544452.880
  20544452.260          50.550          50.050
 124060677.614 8  96670621.04446                  23607960.160
  23607956.100          48.750          40.650
 132380782.672 7 103153847.285 5                  25191226.360    25191227.500
  25191226.820          43.750          35.800
 124424721.799 8  96954297.91047                  23677239.700
  23677235.480          48.350          42.300
 124873997.872 7  97304373.46746                  23762736.140
  23762732.900          45.800          37.200
 109158853.942 8  85058868.28547                  20772225.280
  20772221.240          50.400          46.600
 107186932.035 8  83522303.056 8  80042196.659 8  20396990.460    20396989.240
  20396989.000          50.150          49.700
 102907893.375 8  80039490.093 7                  19244293.620    19244295.320
  19244293.240          48.050          42.400
 119781481.119 7  93163374.541 7                  22384038.580    22384040.260
  22384039.300          47.350          42.850
 115072011.518 7  89500468.581 7                  21564448.720    21564453.420
  21564452.480          47.550          43.600
 115205682.166 8  89604435.154 7                  21513838.820    21513841.340
  21513840.340          48.250          44.650
 111481651.807 8  86707967.642 7                  20840318.860    20840323.440
  20840322.680          49.700          47.050
 102806520.903 8  79960638.435 7                  19232080.640    19232084.540
  19232084.100          48.750          43.100
 15  1 27  8  7  5.0000000  0 18G11G14G28G04G17G03G23G31G19G20G32G01
                                R24R17R02R08R23R01
 107066124.017 8  83428135.97347                  20374003.020
  20373997.920          49.200          47.400
 127464854.466 7  99323243.66945                  24255760.200
  24255756.800          43.600          35.900
 124346963.961 7  96893702.15646                  23662443.100
  23662439.440          46.800          37.950
 110599839.435 8  86181701.70447                  21046442.400
  21046439.160          50.400          46.050
 123260906.782 7  96047416.769 7                  23455774.660    23455771.120
  23455770.620          47.800          44.400
 107957050.825 8  84122378.743 8  80617283.354 8  20543540.500    20543539.680
  20543539.060          50.550          49.950
 124043588.344 8  96657304.75246                  23604708.180
  23604704.100          48.550          40.000
 132370533.844 7 103145861.179 5                  25189276.020    25189277.240
  25189276.480          43.250          35.300
 124442307.867 8  96968001.32547                  23680586.240
  23680582.060          48.450          42.400
 124858805.052 7  97292534.91846                  23759845.060
  23759841.860          45.100          38.200
 109168083.957 8  85066060.49847                  20773981.700
  20773977.660          50.450          46.700
 107186114.044 8  83521665.658 8  80041585.823 8  20396834.800    20396833.580
  20396833.320          50.050          49.650
 102903863.938 8  80036356.078 7                  19243540.100    19243541.760
  19243539.680          48.200          42.700
 119762053.462 7  93148264.133 7                  22380408.000    22380409.740
  22380408.800          47.200          43.000
 115056090.160 7  89488085.288 7                  21561465.020    21561469.780
  21561468.820          47.400          43.700
 115222951.447 8  89617866.815 7                  21517063.720    21517066.280
  21517065.220          48.200          44.700
 111496053.051 8  86719168.599 7                  20843011.080    20843015.620
  20843014.860          49.650          47.050
 102807448.077 8  79961359.568 7                  19232254.080    19232258.000
  19232257.580          48.850          43.250
 15  1 27  8  7 10.0000000  0 18G11G14G28G04G17G03G23G31G19G20G32G01
                                R24R17R02R08R23R01
 107072328.511 8  83432970.63747                  20375183.700
  20375178.600          49.350          47.500
 127477793.511 7  99333326.04045                  24258222.400
  24258219.080          43.950          34.800
 124353488.671 7  96898786.33546                  23663684.800
  23663681.100          47.050          37.250
 110608360.630 8  86188341.59747                  21048063.940
  21048060.700          50.350          46.000
 123245858.586 7  96035690.902 7                  23452911.100    23452907.600
  23452907.020          47.950          44.250
 107952259.765 8  84118645.455 8  80613705.614 8  20542628.840    20542627.960
  20542627.360          50.600          49.900
 124026499.801 8  96643989.02346                  23601456.340
  23601452.260          48.500          39.950
 132360288.643 7 103137877.906 5                  25187326.360    25187327.520
  25187326.860          43.400          34.350
 124459895.935 8  96981706.29747                  23683933.160
  23683928.920          48.150          42.050
 124843614.152 7  97280697.84446                  23756954.360
  23756951.160          45.700          38.000
 109177320.365 8  85073257.70147                  20775739.340
  20775735.280          50.550          46.700
 107185301.766 8  83521032.708 8  80040979.248 8  20396680.220    20396678.980
  20396678.740          50.250          49.550
 102899850.260 8  80033234.321 7                  19242789.560    19242791.240
  19242789.100          48.250          42.850
 119742627.002 7  93133154.653 7                  22376777.660    22376779.480
  22376778.540          47.150          42.950
 115040177.127 7  89475708.505 7                  21558482.900    21558487.700
  21558486.760          47.750          44.300
 115240223.947 8  89631300.971 7                  21520289.240    21520291.800
  21520290.700          48.050          44.850
 111510465.966 8  86730378.630 7                  20845705.480    20845710.000
  20845709.220          49.700          46.950
 102808390.068 8  79962092.224 7                  19232430.320    19232434.220
  19232433.840          49.000          43.250
 15  1 27  8  7 15.0000000  0 18G11G14G28G04G17G03G23G31G19G20G32G01
                                R24R17R02R08R23R01
 107078546.861 8  83437816.09847                  20376367.040
  20376361.900          49.450          47.350
 127490744.097 7  99343417.37946                  24260686.840
  24260683.440          43.700          37.000
 124360026.258 7  96903880.54346                  23664928.920
  23664925.220          47.250          38.300
 110616891.634 8  86194989.12247                  21049687.340
  21049684.100          50.400          45.900
 123230819.402 7  96023972.055 7                  23450049.280    23450045.760
  23450045.180          47.950          44.300
 107947480.988 8  84114921.737 8  80610137.049 8  20541719.500    20541718.600
  20541718.000          50.550          49.950
 124009416.396 8  96630677.29946                  23598205.440
  23598201.400          48.400          40.600
 132350051.453 7 103129900.887 5                  25185378.240    25185379.280
  25185378.640          42.800          35.100
 124477490.385 8  96995416.23146                  23687281.300
  23687277.040          48.500          41.200
 124828429.586 7  97268865.71046                  23754064.880
  23754061.700          45.750          37.700
 109186567.532 8  85080463.28747                  20777499.020
  20777494.960          50.300          46.750
 107184499.658 8  83520407.691 8  80040380.265 8  20396527.580    20396526.360
  20396526.100          50.400          49.650
 102895856.801 8  80030128.299 7                  19242042.800    19242044.440
  19242042.300          48.300          42.950
 119723206.649 7  93118049.928 7                  22373148.460    22373150.300
  22373149.400          46.750          42.950
 115024277.035 8  89463341.779 7                  21555503.240    21555508.040
  21555507.100          48.250          44.550
 115257504.123 8  89644741.100 7                  21523516.220    21523518.780
  21523517.640          48.000          44.800
 111524895.096 8  86741601.274 7                  20848402.880    20848407.380
  20848406.600          49.650          46.900
 102809351.192 8  79962839.766 7                  19232610.100    19232614.020
  19232613.640          49.000          43.350
 15  1 27  8  7 20.0000000  0 18G11G14G28G04G17G03G23G31G19G20G32G01
                                R24R17R02R08R23R01
 107084774.863 8  83442669.07947                  20377552.180
  20377547.040          49.400          47.450
 127503702.011 7  99353514.44746                  24263152.620
  24263149.260          43.650          36.800
 124366572.472 7  96908981.46846                  23666174.700
  23666170.980          47.250          38.800
 110625428.226 8  86201640.99947                  21051311.820
  21051308.560          50.300          46.300
 123215785.003 8  96012256.935 7                  23447188.340    23447184.820
  23447184.240          48.050          44.650
 107942710.217 8  84111204.249 8  80606574.459 8  20540811.700    20540810.740
  20540810.160          50.650          50.050
 123992333.946 8  96617366.32846                  23594954.760
  23594950.700          48.600          39.800
 132339818.041 7 103121926.808 5                  25183430.840    25183431.840
  25183431.120          43.300          35.450
 124495086.955 8  97009127.82847                  23690629.840
  23690625.560          48.400          42.100
 124813247.118 7  97257035.21746                  23751175.800
  23751172.620          46.350          36.850
 109195821.245 8  85087673.96047                  20779259.940
  20779255.860          50.150          47.050
 107183703.441 8  83519787.254 8  80039785.684 8  20396376.060    20396374.860
  20396374.600          50.650          49.800
 102891879.323 8  80027034.698 7                  19241299.020    19241300.640
  19241298.520          48.400          42.850
 119703787.809 7  93102946.384 7                  22369519.520    22369521.460
  22369520.520          46.800          42.850
 115008385.434 8  89450981.646 7                  21552525.140    21552529.960
  21552529.040          48.250          44.000
 115274787.520 8  89658183.731 7                  21526743.840    21526746.340
  21526745.200          48.350          45.100
 111539336.071 8  86752833.131 7                  20851102.500    20851107.000
  20851106.180          49.550          46.850
 102810327.050 8  79963598.769 7                  19232792.660    19232796.600
  19232796.200          49.000          43.300
 15  1 27  8  7 25.0000000  0 18G11G14G28G04G17G03G23G31G19G20G32G01
                                R24R17R02R08R23R01
 107091016.989 8  83447533.06947                  20378740.020
  20378734.900          49.300          47.600
 127516671.664 7  99363620.64846                  24265620.700
  24265617.400          43.600          36.300
 124373131.736 7  96914092.57346                  23667422.940
  23667419.220          47.050          37.950
 110633974.840 8  86208300.69047                  21052938.200
  21052934.920          50.450          45.750
 123200759.827 8  96000549.005 7                  23444329.160    23444325.620
  23444325.060          48.150          44.300
 107937951.927 8  84107496.486 8  80603021.188 8  20539906.260    20539905.280
  20539904.680          50.600          50.000
 123975256.907 8  96604059.56346                  23591705.060
  23591701.020          48.600          40.750
 132329592.943 7 103113959.211 5                  25181485.020    25181486.120
  25181485.400          43.850          35.050
 124512690.107 8  97022844.54346                  23693979.620
  23693975.340          48.250          41.650
 124798071.170 7  97245209.78746                  23748287.960
  23748284.740          46.350          36.900
 109205085.939 8  85094893.19547                  20781022.960
  20781018.880          50.150          47.000
 107182917.622 8  83519174.923 8  80039198.873 8  20396226.540    20396225.320
  20396225.060          50.650          49.800
 102887922.363 8  80023957.061 7                  19240559.020    19240560.640
  19240558.560          48.300          43.150
 119684375.133 7  93087847.634 7                  22365891.760    22365893.740
  22365892.820          46.750          43.150
 114992506.911 8  89438631.676 7                  21549549.500    21549554.300
  21549553.420          48.300          43.900
 115292078.660 8  89671632.392 7                  21529972.900    21529975.380
  21529974.200          48.400          45.450
 111553793.349 8  86764077.663 7                  20853805.140    20853809.620
  20853808.780          49.750          47.050
 102811322.278 8  79964372.836 7                  19232978.840    19232982.800
  19232982.400          48.950          43.500
 15  1 27  8  7 30.0000000  0 18G11G14G28G04G17G03G23G31G19G20G32G01
                                R24R17R02R08R23R01
 107097271.348 8  83452406.59447                  20379930.180
  20379925.060          49.450          47.250
 127529651.226 7  99373734.57846                  24268090.600
  24268087.400          43.250          37.400
 124379702.212 7  96919212.40646                  23668673.320
  23668669.540          47.250          38.400
 110642529.643 8  86214966.77547                  21054566.120
  21054562.840          50.350          45.900
 123185742.073 8  95988846.858 7                  23441471.360    23441467.820
  23441467.300          48.150          44.300
 107933204.255 8  84103797.001 8  80599475.846 8  20539002.840    20539001.860
  20539001.240          50.600          50.050
 123958183.368 8  96590755.53146                  23588456.060
  23588452.060          48.700          40.700
 132319374.292 7 103105996.610 5                  25179540.460    25179541.460
  25179540.780          44.900          35.150
 124530297.973 8  97036564.93846                  23697330.280
  23697326.000          48.450          41.550
 124782899.919 7  97233388.04546                  23745401.020
  23745397.800          46.050          37.550
 109214359.705 8  85102119.50247                  20782787.700
  20782783.620          49.950          46.950
 107182140.281 8  83518569.205 8  80038618.391 8  20396078.600    20396077.400
  20396077.140          50.500          49.800
 102883984.006 8  80020893.903 7                  19239822.560    19239824.180
  19239822.100          48.350          42.650
 119664966.770 7  93072752.253 7                  22362264.780    22362266.840
  22362265.920          46.900          43.050
 114976639.630 8  89426290.464 7                  21546575.920    21546580.740
  21546579.900          48.150          43.950
 115309375.753 8  89685085.676 7                  21533203.040    21533205.500
  21533204.340          48.450          45.350
 111568265.195 8  86775333.529 7                  20856510.500    20856515.000
  20856514.120          49.500          46.750
 102812335.067 8  79965160.554 7                  19233168.300    19233172.240
  19233171.880          49.100          43.250
 15  1 27  8  7 35.0000000  0 18G11G14G28G04G17G03G23G31G19G20G32G01
                                R24R17R02R08R23R01
 107103537.205 8  83457289.07847                  20381122.500
  20381117.420          49.450          47.250
 127542639.882 7  99383855.60245                  24270562.260
  24270559.080          43.350          34.400
 124386283.111 7  96924340.36346                  23669925.700
  23669921.780          47.250          38.050
 110651091.872 8  86221638.63847                  21056195.460
  21056192.180          50.150          46.200
 123170731.012 8  95977149.925 7                  23438614.840    23438611.360
  23438610.820          48.300          44.250
 107928466.433 8  84100105.192 8  80595937.865 8  20538101.300    20538100.280
  20538099.660          50.650          50.000
 123941112.624 8  96577453.67146                  23585207.580
  23585203.580          48.500          40.150
 132309161.362 7 103098038.497 5                  25177597.080    25177598.080
  25177597.260          45.050          35.100
 124547909.770 8  97050288.40246                  23700681.700
  23700677.440          48.550          41.500
 124767732.539 7  97221569.31345                  23742514.760
  23742511.520          45.900          35.900
 109223641.823 8  85109352.31647                  20784554.000
  20784549.940          50.050          46.800
 107181370.739 8  83517969.560 8  80038043.727 8  20395932.160    20395930.960
  20395930.700          50.400          49.650
 102880063.561 8  80017844.664 7                  19239089.420    19239091.020
  19239088.940          48.400          42.850
 119645561.846 7  93057659.527 7                  22358638.480    22358640.520
  22358639.640          46.550          43.050
 114960782.731 7  89413957.331 7                  21543604.300    21543609.180
  21543608.300          47.800          44.100
 115326677.919 8  89698542.910 7                  21536434.120    21536436.580
  21536435.440          48.200          45.450
 111582750.714 8  86786600.036 7                  20859218.380    20859222.920
  20859222.040          49.000          46.900
 102813364.341 8  79965961.104 7                  19233360.880    19233364.800
  19233364.460          49.000          43.250
 15  1 27  8  7 40.0000000  0 18G11G14G28G04G17G03G23G31G19G20G32G01
                                R24R17R02R08R23R01
 107109815.793 8  83462181.48047                  20382317.260
  20382312.220          49.300          47.400
 127555638.850 7  99393984.65446                  24273035.900
  24273032.720          43.550          36.750
 124392875.656 7  96929477.40446                  23671180.240
  23671176.320          47.000          37.500
 110659662.809 8  86228317.28547                  21057826.460
  21057823.180          50.200          46.100
 123155727.770 8  95965459.093 7                  23435759.820    23435756.360
  23435755.800          48.550          44.250
 107923739.694 8  84096422.029 8  80592408.165 8  20537201.860    20537200.820
  20537200.180          50.750          50.000
 123924045.890 8  96564154.94246                  23581959.860
  23581955.880          48.600          39.800
 132298955.374 7 103090085.793 5                  25175655.040    25175655.800
  25175655.060          44.750          35.400
 124565526.704 8  97064015.87047                  23704034.100
  23704029.860          48.250          42.250
 124752570.266 7  97209754.57246                  23739629.500
  23739626.200          46.100          37.150
 109232933.493 8  85116592.57847                  20786322.140
  20786318.100          50.150          46.450
 107180610.178 8  83517376.915 8  80037475.772 8  20395787.420    20395786.220
  20395785.980          50.300          49.750
 102876162.254 8  80014810.308 7                  19238359.860    19238361.500
  19238359.360          48.450          42.850
 119626161.764 7  93042570.583 7                  22355013.060    22355015.120
  22355014.280          46.450          43.000
 114944937.580 7  89401633.329 7                  21540634.880    21540639.820
  21540638.920          47.750          44.600
 115343986.498 8  89712005.129 7                  21539666.400    21539668.820
  21539667.720          48.250          45.350
 111597251.054 8  86797878.070 7                  20861929.040    20861933.620
  20861932.720          48.750          47.000
 102814411.629 8  79966775.662 7                  19233556.780    19233560.700
  19233560.420          48.950          43.200
 15  1 27  8  7 45.0000000  0 18G11G14G28G04G17G03G23G31G19G20G32G01
                                R24R17R02R08R23R01
 107116106.549 8  83467083.36347                  20383514.320
  20383509.320          49.250          47.450
 127568647.625 7  99404121.33546                  24275511.420
  24275508.220          43.600          36.550
 124399479.275 7  96934623.06546                  23672436.920
  23672433.000          46.950          37.300
 110668241.870 8  86235002.26247                  21059458.980
  21059455.720          50.050          46.250
 123140731.822 8  95953773.935 7                  23432906.180    23432902.780
  23432902.200          48.550          44.500
 107919023.473 8  84092747.056 8  80588886.314 8  20536304.440    20536303.340
  20536302.740          50.700          50.000
 123906982.622 8  96550858.91746                  23578712.820
  23578708.820          48.700          40.300
 132288755.750 7 103082138.073 6                  25173714.140    25173714.860
  25173714.080          44.600          36.450
 124583148.230 8  97077746.89746                  23707387.360
  23707383.140          48.550          41.650
 124737412.616 7  97197943.40646                  23736745.120
  23736741.800          45.750          37.500
 109242234.160 8  85123839.84347                  20788092.000
  20788087.960          50.400          46.700
 107179858.064 8  83516790.844 8  80036914.122 8  20395644.300    20395643.100
  20395642.860          50.200          49.850
 102872279.490 8  80011790.380 7                  19237633.780    19237635.400
  19237633.260          48.150          43.050
 119606765.888 7  93027484.900 7                  22351388.420    22351390.520
  22351389.700          46.400          43.050
 114929103.538 7  89389317.969 7                  21537667.580    21537672.520
  21537671.620          47.550          44.550
 115361300.707 8  89725471.720 7                  21542899.720    21542902.120
  21542901.040          48.050          45.250
 111611765.858 8  86809167.347 7                  20864642.380    20864647.040
  20864646.120          48.450          47.050
 102815476.216 8  79967603.676 7                  19233755.960    19233759.840
  19233759.560          48.650          43.250
 15  1 27  8  7 50.0000000  0 18G11G14G28G04G17G03G23G31G19G20G32G01
                                R24R17R02R08R23R01
 107122408.140 8  83471993.68847                  20384713.440
  20384708.480          49.150          47.200
 127581664.784 7  99414264.57245                  24277988.520
  24277985.420          43.700          34.950
 124406092.601 7  96939776.28146                  23673695.460
  23673691.540          46.850          38.700
 110676827.654 8  86241692.47147                  21061092.800
  21061089.540          50.150          46.150
 123125741.904 8  95942093.471 7                  23430053.700    23430050.300
  23430049.700          48.600          44.250
 107914316.443 8  84089079.238 8  80585371.324 8  20535408.740    20535407.620
  20535407.020          50.650          50.000
 123889921.513 8  96537564.54946                  23575466.160
  23575462.160          48.250          39.950
 132278561.180 7 103074194.263 6                  25171774.160    25171774.820
  25171774.100          44.750          38.050
 124600772.954 8  97091480.43446                  23710741.260
  23710737.040          48.600          41.100
 124722258.218 7  97186134.78246                  23733861.340
  23733858.000          46.000          36.750
 109251542.441 8  85131093.04947                  20789863.280
  20789859.280          50.300          46.700
 107179113.037 8  83516210.297 8  80036357.763 8  20395502.520    20395501.320
  20395501.100          50.350          49.750
 102868413.907 7  80008783.807 7                  19236910.880    19236912.540
  19236910.400          47.900          43.050
 119587372.987 7  93012401.527 7                  22347764.380    22347766.520
  22347765.660          46.250          42.750
 114913279.238 7  89377010.178 7                  21534702.140    21534707.020
  21534706.140          47.650          44.400
 115378619.375 7  89738941.789 7                  21546133.880    21546136.260
  21546135.220          47.850          45.300
 111626293.757 8  86820466.810 7                  20867358.180    20867362.860
  20867361.940          48.650          46.600
 102816556.813 8  79968444.140 7                  19233958.080    19233961.920
  19233961.680          48.600          43.300
 15  1 27  8  7 55.0000000  0 18G11G14G28G04G17G03G23G31G19G20G32G01
                                R24R17R02R08R23R01
 107128723.203 8  83476914.50847                  20385915.140
  20385910.220          49.050          47.400
 127594693.050 7  99424416.43845                  24280467.720
  24280464.600          43.200          35.850
 124412718.297 7  96944939.15346                  23674956.340
  23674952.440          46.650          39.100
 110685422.890 8  86248390.06247                  21062728.400
  21062725.180          50.150          46.150
 123110760.678 8  95930419.785 7                  23427202.900    23427199.480
  23427198.900          48.350          44.300
 107909621.266 8  84085420.659 8  80581865.189 8  20534515.320    20534514.180
  20534513.560          50.600          49.950
 123872865.208 7  96524273.94846                  23572220.420
  23572216.380          47.850          40.550
 132268374.397 7 103066256.538 6                  25169835.660    25169836.380
  25169835.720          44.150          39.250
 124618403.598 8  97105218.59446                  23714096.260
  23714092.080          48.250          41.650
 124707109.793 7  97174330.80446                  23730978.740
  23730975.400          45.000          36.900
 109260861.075 8  85138354.31847                  20791636.560
  20791632.560          50.250          46.750
 107178377.805 8  83515637.391 8  80035808.732 8  20395362.600    20395361.400
  20395361.200          50.250          49.750
 102864568.367 7  80005792.829 7                  19236191.760    19236193.420
  19236191.280          47.750          43.050
 119567985.682 7  92997322.515 7                  22344141.360    22344143.520
  22344142.660          45.950          42.900
 114897467.553 7  89364712.199 7                  21531739.080    21531743.880
  21531743.000          47.700          44.450
 115395945.108 7  89752417.344 7                  21549369.340    21549371.720
  21549370.700          47.150          45.400
 111640837.114 8  86831778.297 7                  20870076.900    20870081.600
  20870080.640          48.850          46.800
 102817656.015 8  79969299.080 7                  19234163.740    19234167.600
  19234167.320          48.550          43.450
 15  1 27  8  8  0.0000000  0 18G11G14G28G04G17G03G23G31G19G20G32G01
                                R24R17R02R08R23R01
 107135048.345 8  83481843.19047                  20387118.740
  20387113.880          49.250          47.700
 127607729.024 7  99434574.35546                  24282948.400
  24282945.340          42.800          36.900
 124419352.989 7  96950109.02346                  23676218.900
  23676215.020          46.700          38.250
 110694024.125 8  86255092.32647                  21064365.100
  21064361.960          50.050          46.050
 123095784.807 7  95918750.275 7                  23424353.100    23424349.680
  23424349.100          47.950          44.750
 107904934.563 8  84081768.688 8  80578365.386 8  20533623.480    20533622.320
  20533621.720          50.600          50.050
 123855810.366 7  96510984.48746                  23568974.940
  23568970.940          47.850          40.550
 132258191.953 7 103058322.201 6                  25167897.940    25167898.760
  25167898.240          43.650          39.400
 124636036.825 7  97118958.74447                  23717451.740
  23717447.620          47.900          42.000
 124691963.945 7  97162528.86146                  23728096.580
  23728093.200          45.050          38.050
 109270186.619 8  85145620.97747                  20793411.140
  20793407.160          50.300          46.850
 107177648.978 8  83515069.474 8  80035264.476 8  20395223.920    20395222.700
  20395222.500          50.350          49.850
 102860739.299 7  80002814.665 7                  19235475.720    19235477.380
  19235475.260          47.650          43.050
 119548600.506 7  92982245.177 7                  22340518.720    22340520.940
  22340520.080          46.050          42.700
 114881664.944 7  89352421.281 7                  21528777.700    21528782.480
  21528781.580          47.850          44.600
 115413274.493 7  89765895.743 7                  21552605.500    21552607.840
  21552606.820          46.650          44.800
 111655392.977 8  86843099.515 7                  20872797.940    20872802.680
  20872801.680          48.700          46.850
 102818770.551 8  79970165.941 7                  19234372.240    19234376.080
  19234375.820          48.650          43.350
 15  1 27  8  8  5.0000000  0 18G11G14G28G04G17G03G23G31G19G20G32G01
                                R24R17R02R08R23R01
 107141387.699 8  83486782.93647                  20388325.060
  20388320.220          49.300          47.150
 127620776.789 7  99444741.40146                  24285431.320
  24285428.260          43.250          37.100
 124426000.759 7  96955289.08346                  23677483.940
  23677480.080          46.700          38.500
 110702635.543 8  86261802.51747                  21066003.760
  21066000.660          49.950          46.150
 123080818.385 8  95907088.129 7                  23421505.080    23421501.660
  23421501.080          48.000          44.650
 107900260.448 8  84078126.523 8  80574874.975 8  20532734.040    20532732.880
  20532732.280          50.600          50.100
 123838761.110 8  96497699.36746                  23565730.540
  23565726.520          48.000          39.950
 132248018.058 7 103050394.505 6                  25165961.860    25165962.760
  25165962.240          43.950          40.150
 124653676.671 7  97132704.05847                  23720808.480
  23720804.420          47.950          42.050
 124676824.771 7  97150732.08646                  23725215.720
  23725212.300          45.550          38.550
 109279523.159 8  85152896.19547                  20795187.840
  20795183.840          50.350          46.800
 107176930.652 8  83514509.737 8  80034728.060 8  20395087.220    20395086.020
  20395085.820          50.400          49.850
 102856930.939 7  79999852.608 7                  19234763.520    19234765.220
  19234763.080          47.750          42.950
 119529221.775 7  92967172.833 7                  22336897.280    22336899.580
  22336898.680          46.650          42.550
 114865875.634 7  89340140.712 7                  21525818.840    21525823.520
  21525822.680          47.900          44.650
 115430611.713 7  89779380.228 7                  21555843.100    21555845.420
  21555844.380          47.200          44.550
 111669964.949 8  86854433.251 7                  20875522.000    20875526.800
  20875525.740          49.150          46.800
 102819904.460 8  79971047.865 7                  19234584.400    19234588.220
  19234587.940          48.950          43.300
 15  1 27  8  8 10.0000000  0 18G11G14G28G04G17G03G23G31G19G20G32G01
                                R24R17R02R08R23R01
 107147739.095 8  83491732.07047                  20389533.680
  20389528.840          49.350          47.350
 127633834.112 7  99454915.93545                  24287916.060
  24287913.000          43.600          35.500
 124432659.446 7  96960477.64946                  23678751.060
  23678747.260          46.850          38.900
 110711254.923 8  86268518.90247                  21067643.940
  21067640.860          50.100          46.000
 123065859.243 7  95895431.647 7                  23418658.420    23418655.040
  23418654.480          47.900          44.400
 107895596.711 8  84074492.443 8  80571392.313 8  20531846.580    20531845.400
  20531844.800          50.600          50.000
 123821715.278 7  96484416.90946                  23562486.800
  23562482.760          47.900          40.200
 132237850.489 7 103042471.746 6                  25164027.020    25164028.020
  25164027.480          44.300          40.350
 124671320.962 7  97146452.83247                  23724166.080
  23724162.080          47.700          42.000
 124661690.053 7  97138938.78946                  23722335.700
  23722332.340          45.750          38.600
 109288868.540 8  85160178.30647                  20796966.200
  20796962.200          50.450          46.450
 107176220.673 8  83513956.503 8  80034197.873 8  20394952.100    20394950.900
  20394950.700          50.600          49.700
 102853140.971 7  79996904.853 7                  19234054.780    19234056.500
  19234054.320          47.800          43.000
 119509847.176 7  92952103.694 7                  22333276.640    22333279.000
  22333278.060          46.650          42.650
 114850097.342 7  89327868.702 7                  21522862.000    21522866.720
  21522865.820          47.750          44.500
 115447954.387 7  89792868.960 7                  21559081.800    21559084.040
  21559082.980          47.800          44.650
 111684551.140 8  86865778.047 7                  20878248.720    20878253.520
  20878252.460          49.050          46.950
 102821055.482 8  79971943.099 7                  19234799.740    19234803.520
  19234803.280          48.800          43.300
 15  1 27  8  8 15.0000000  0 18G11G14G28G04G17G03G23G31G19G20G32G01
                                R24R17R02R08R23R01
 107154102.528 8  83496690.58547                  20390744.600
  20390739.760          49.400          47.200
 127646901.047 7  99465097.94545                  24290402.600
  24290399.520          43.800          35.350
 124439329.034 7  96965674.71746                  23680020.260
  23680016.520          47.050          38.150
 110719882.320 8  86275241.53747                  21069285.660
  21069282.600          50.300          45.600
 123050907.409 7  95883780.873 7                  23415813.160    23415809.800
  23415809.240          47.800          44.200
 107890943.399 8  84070866.485 8  80567917.435 8  20530961.080    20530959.900
  20530959.300          50.550          49.950
 123804672.899 7  96471137.15746                  23559243.700
  23559239.680          47.950          39.200
 132227689.268 7 103034553.924 6                  25162093.360    25162094.500
  25162094.020          44.200          40.050
 124688969.694 7  97160205.05846                  23727524.500
  23727520.580          47.600          41.400
 124646559.866 7  97127149.02846                  23719456.560
  23719453.300          46.200          36.600
 109298222.737 8  85167467.29347                  20798746.220
  20798742.260          50.200          46.550
 107175519.052 8  83513409.779 8  80033673.931 8  20394818.600    20394817.360
  20394817.180          50.650          49.600
 102849369.672 7  79993971.616 7                  19233349.540    19233351.180
  19233349.060          47.850          42.900
 119490476.873 7  92937037.895 7                  22329656.820    22329659.200
  22329658.220          47.050          42.700
 114834330.190 7  89315605.351 7                  21519907.240    21519912.000
  21519911.060          47.900          44.650
 115465302.716 7  89806362.100 7                  21562321.560    21562323.720
  21562322.640          47.950          44.400
 111699151.565 8  86877133.921 7                  20880978.140    20880982.940
  20880981.860          49.150          46.850
 102822223.789 8  79972851.778 7                  19235018.320    19235022.040
  19235021.840          49.050          42.900
 15  1 27  8  8 20.0000000  0 18G11G14G28G04G17G03G23G31G19G20G32G01
                                R24R17R02R08R23R01
 107160477.480 8  83501658.08247                  20391957.720
  20391952.880          49.350          47.250
 127659977.028 7  99475287.03045                  24292890.880
  24292887.780          43.200          33.950
 124446008.988 7  96970879.86446                  23681291.400
  23681287.660          46.600          38.400
 110728517.134 8  86281969.96647                  21070928.760
  21070925.740          50.350          45.700
 123035962.380 7  95872135.406 7                  23412969.200    23412965.860
  23412965.320          47.600          44.300
 107886299.963 8  84067248.229 8  80564449.938 8  20530077.460    20530076.280
  20530075.700          50.500          50.000
 123787633.451 7  96457859.68446                  23556001.180
  23555997.160          47.800          40.050
 132217533.891 7 103026640.672 6                  25160160.820    25160162.020
  25160161.640          44.000          39.300
 124706622.307 7  97173960.32246                  23730883.640
  23730879.780          47.400          41.600
 124631433.651 7  97115362.35546                  23716578.200
  23716574.940          46.550          36.350
 109307585.227 8  85174762.73747                  20800527.840
  20800523.900          50.150          46.600
 107174825.267 8  83512869.171 8  80033155.835 8  20394686.580    20394685.360
  20394685.160          50.400          49.600
 102845616.260 7  79991052.300 7                  19232647.620    19232649.340
  19232647.140          47.850          43.100
 119471110.199 7  92921974.936 7                  22326037.740    22326040.060
  22326039.060          46.950          42.750
 114818573.598 7  89303350.234 7                  21516954.480    21516959.180
  21516958.260          47.750          44.950
 115482656.016 8  89819859.110 7                  21565562.240    21565564.360
  21565563.240          48.150          44.400
 111713765.589 8  86888500.384 7                  20883710.120    20883714.840
  20883713.780          49.200          46.850
 102823408.729 8  79973773.406 7                  19235239.980    19235243.720
  19235243.460          48.900          42.850
 15  1 27  8  8 25.0000000  0 18G11G14G28G04G17G03G23G31G19G20G32G01
                                R24R17R02R08R23R01
 107166864.434 8  83506634.91747                  20393173.120
  20393168.280          49.450          47.200
 127673062.579 7  99485483.52245                  24295380.980
  24295377.840          43.800          35.650
 124452699.805 7  96976093.46046                  23682564.580
  23682560.940          46.250          37.200
 110737159.928 8  86288704.60847                  21072573.420
  21072570.380          50.250          45.400
 123021024.647 7  95860495.617 7                  23410126.620    23410123.300
  23410122.760          47.850          44.300
 107881666.889 8  84063638.038 8  80560990.179 8  20529195.820    20529194.640
  20529194.060          50.650          50.000
 123770597.417 7  96444584.87146                  23552759.300
  23552755.240          47.950          40.800
 132207384.833 7 103018732.336 6                  25158229.460    25158230.720
  25158230.340          44.050          39.050
 124724279.270 7  97187718.97046                  23734243.640
  23734239.820          47.850          41.350
 124616311.897 7  97103579.17046                  23713700.660
  23713697.420          46.150          37.800
 109316956.497 8  85182065.02047                  20802311.100
  20802307.200          49.950          46.700
 107174139.771 8  83512335.011 8  80032643.945 8  20394556.140    20394554.920
  20394554.700          50.500          49.550
 102841881.342 7  79988147.355 7                  19231949.160    19231950.880
  19231948.680          47.650          43.200
 119451747.715 7  92906915.222 7                  22322419.420    22322421.700
  22322420.660          46.850          42.300
 114802827.937 7  89291103.609 7                  21514003.780    21514008.440
  21514007.520          47.800          44.850
 115500014.800 8  89833360.388 7                  21568803.960    21568806.000
  21568804.860          48.050          44.400
 111728393.809 8  86899877.874 7                  20886444.740    20886449.460
  20886448.360          49.150          46.850
 102824610.750 8  79974708.305 7                  19235464.880    19235468.600
  19235468.280          48.750          42.950
 15  1 27  8  8 30.0000000  0 18G11G14G28G04G17G03G23G31G19G20G32G01
                                R24R17R02R08R23R01
 107173262.918 8  83511620.74747                  20394390.740
  20394385.860          49.350          47.150
 127686157.194 7  99495687.12245                  24297872.800
  24297869.720          43.650          35.300
 124459401.000 7  96981315.15846                  23683839.740
  23683836.120          46.100          38.150
 110745810.221 8  86295445.10047                  21074219.480
  21074216.460          49.950          45.700
 123006093.754 7  95848861.152 7                  23407285.360    23407282.040
  23407281.480          47.900          44.050
 107877043.701 8  84060035.560 8  80557537.800 8  20528316.040    20528314.900
  20528314.300          50.550          49.950
 123753564.358 8  96431312.37946                  23549518.000
  23549513.920          48.250          40.000
 132197241.703 7 103010828.629 6                  25156299.300    25156300.580
  25156300.200          44.200          39.250
 124741940.139 7  97201480.67646                  23737604.360
  23737600.600          47.300          41.900
 124601194.156 7  97091799.12146                  23710823.860
  23710820.620          46.550          37.300
 109326336.084 8  85189373.77747                  20804095.960
  20804092.100          49.950          46.800
 107173462.152 8  83511806.992 8  80032137.921 8  20394427.220    20394425.960
  20394425.760          50.450          49.550
 102838164.453 7  79985256.443 7                  19231254.080    19231255.780
  19231253.640          47.650          43.050
 119432389.078 7  92891858.490 7                  22318801.800    22318804.040
  22318802.960          47.050          42.450
 114787092.818 7  89278865.185 7                  21511055.040    21511059.680
  21511058.720          47.950          44.500
 115517378.583 7  89846865.549 7                  21572046.580    21572048.600
  21572047.440          47.950          44.800
 111743035.671 8  86911265.970 7                  20889181.900    20889186.600
  20889185.500          49.100          46.950
 102825829.381 8  79975656.135 7                  19235692.880    19235696.540
  19235696.240          48.750          43.100
 15  1 27  8  8 35.0000000  0 18G11G14G28G04G17G03G23G31G19G20G32G01
                                R24R17R02R08R23R01
 107179675.026 8  83516617.19247                  20395610.920
  20395606.060          49.250          47.500
 127699262.945 7  99505899.38246                  24300366.760
  24300363.720          43.850          37.250
 124466114.610 7  96986546.52646                  23685117.280
  23685113.640          46.050          38.100
 110754470.078 8  86302193.03347                  21075867.360
  21075864.360          49.750          45.850
 122991171.789 7  95837233.643 7                  23404445.800    23404442.480
  23404441.900          47.850          44.150
 107872432.491 8  84056442.411 8  80554094.374 8  20527438.520    20527437.420
  20527436.820          50.450          49.900
 123736536.358 8  96418043.81546                  23546277.680
  23546273.560          48.250          40.300
 132187106.547 7 103002931.123 6                  25154370.600    25154372.000
  25154371.520          43.400          39.650
 124759606.993 7  97215247.02147                  23740966.260
  23740962.520          47.400          42.150
 124586082.513 7  97080023.80246                  23707948.240
  23707944.960          46.350          38.100
 109335726.031 8  85196690.60847                  20805882.760
  20805878.960          49.950          46.750
 107172794.484 8  83511286.725 8  80031639.340 8  20394300.180    20394298.900
  20394298.680          50.400          49.650
 102834467.798 7  79982381.272 7                  19230562.760    19230564.500
  19230562.360          47.750          42.950
 119413036.303 7  92876806.334 7                  22315185.280    22315187.500
  22315186.380          47.200          42.400
 114771370.485 8  89266636.689 7                  21508108.720    21508113.380
  21508112.360          48.050          44.050
 115534749.371 8  89860376.155 7                  21575290.460    21575292.540
  21575291.340          48.050          45.000
 111757693.356 8  86922666.379 7                  20891922.020    20891926.720
  20891925.580          49.050          46.800
 102827066.814 8  79976618.577 7                  19235924.380    19235928.020
  19235927.740          48.800          43.350
 15  1 27  8  8 40.0000000  0 18G11G14G28G04G17G03G23G31G19G20G32G01
                                R24R17R02R08R23R01
 107186098.069 8  83521622.15347                  20396833.200
  20396828.340          49.250          47.200
 127712377.146 7  99516118.22746                  24302862.340
  24302859.300          44.100          36.050
 124472837.976 7  96991785.50546                  23686396.640
  23686393.040          45.850          38.500
 110763136.780 8  86308946.29447                  21077516.560
  21077513.560          50.000          45.800
 122976256.078 7  95825611.013 7                  23401607.440    23401604.080
  23401603.520          47.950          44.000
 107867830.599 8  84052856.525 8  80550657.886 8  20526562.780    20526561.720
  20526561.140          50.250          49.850
 123719510.803 8  96404777.16746                  23543037.820
  23543033.680          48.150          40.200
 132176976.744 7 102995037.801 6                  25152442.940    25152444.320
  25152443.840          43.250          39.550
 124777277.112 7  97229015.92946                  23744328.780
  23744325.080          47.700          41.850
 124570974.289 7  97068251.15446                  23705073.240
  23705069.980          45.700          37.500
 109345123.656 8  85204013.42647                  20807671.080
  20807667.300          49.950          46.750
 107172134.095 8  83510772.132 8  80031146.182 8  20394174.520    20394173.220
  20394173.000          50.350          49.600
 102830788.526 7  79979519.614 7                  19229874.680    19229876.460
  19229874.320          47.700          42.900
 119393686.707 7  92861756.646 7                  22311569.340    22311571.580
  22311570.400          47.100          42.400
 114755658.191 8  89254416.010 7                  21505164.260    21505168.900
  21505167.860          48.350          43.950
 115552124.581 8  89873890.203 7                  21578535.160    21578537.300
  21578536.080          48.050          44.850
 111772363.975 8  86934076.858 7                  20894664.580    20894669.260
  20894668.100          49.050          46.600
 102828320.265 8  79977593.480 7                  19236158.880    19236162.520
  19236162.220          48.750          43.200
 15  1 27  8  8 45.0000000  0 18G11G14G28G04G17G03G23G31G19G20G32G01
                                R24R17R02R08R23R01
 107192532.505 8  83526635.99947                  20398057.640
  20398052.800          49.250          47.150
 127725500.231 7  99526344.00245                  24305359.580
  24305356.640          44.300          35.850
 124479571.578 7  96997032.44746                  23687677.960
  23687674.440          45.700          37.350
 110771810.836 8  86315705.29147                  21079167.160
  21079164.160          50.150          45.600
 122961347.137 8  95813993.653 7                  23398770.360    23398767.000
  23398766.420          48.150          43.800
 107863238.457 8  84049278.233 8  80547228.698 8  20525688.900    20525687.860
  20525687.260          50.200          49.750
 123702488.109 8  96391512.75446                  23539798.500
  23539794.340          48.300          40.400
 132166852.700 7 102987148.958 6                  25150516.360    25150517.800
  25150517.240          43.550          39.600
 124794950.963 7  97242787.74247                  23747692.020
  23747688.340          47.300          42.000
 124555869.977 7  97056481.56046                  23702198.960
  23702195.760          45.650          37.350
 109354529.386 8  85211342.55947                  20809460.940
  20809457.180          50.350          46.600
 107171481.422 8  83510263.551 8  80030658.796 8  20394050.340    20394049.020
  20394048.800          50.600          49.450
 102827127.248 7  79976671.951 7                  19229189.980    19229191.740
  19229189.600          47.600          42.550
 119374340.761 7  92846709.801 7                  22307954.100    22307956.260
  22307955.140          47.050          42.450
 114739956.413 8  89242203.516 7                  21502221.780    21502226.400
  21502225.320          48.350          44.250
 115569504.673 7  89887408.048 7                  21581780.720    21581782.960
  21581781.740          47.700          44.850
 111787048.139 8  86945497.869 7                  20897409.680    20897414.280
  20897413.140          49.100          46.500
 102829590.237 8  79978581.233 7                  19236396.460    19236400.080
  19236399.800          48.700          43.150
 15  1 27  8  8 50.0000000  0 18G11G14G28G04G17G03G23G31G19G20G32G01
                                R24R17R02R08R23R01
 107198981.325 8  83531661.05147                  20399284.800
  20399280.000          49.150          47.400
 127738635.166 7  99536579.00445                  24307859.140
  24307856.140          44.750          34.000
 124486318.327 7  97002289.62546                  23688961.760
  23688958.260          45.900          37.800
 110780495.150 8  86322472.28147                  21080819.720
  21080816.720          50.200          45.950
 122946447.908 8  95802383.860 7                  23395935.140    23395931.740
  23395931.180          48.250          43.900
 107858659.025 8  84045709.846 8  80543808.992 8  20524817.400    20524816.420
  20524815.840          50.150          49.850
 123685471.248 8  96378252.87746                  23536560.300
  23536556.120          48.400          40.750
 132156737.448 7 102979266.972 6                  25148591.520    25148592.940
  25148592.360          43.550          39.700
 124812631.491 7  97256564.74446                  23751056.500
  23751052.840          47.350          41.800
 124540772.502 7  97044717.28746                  23699326.020
  23699322.840          45.600          36.450
 109363946.189 8  85218680.32947                  20811252.900
  20811249.160          50.400          46.350
 107170839.454 8  83509763.312 8  80030179.397 8  20393928.200    20393926.880
  20393926.660          50.700          49.450
 102823486.867 7  79973840.529 7                  19228509.200    19228510.920
  19228508.840          47.650          42.650
 119355001.477 7  92831668.132 7                  22304340.140    22304342.220
  22304341.100          46.750          42.650
 114724268.028 8  89230001.451 7                  21499281.780    21499286.440
  21499285.340          48.450          44.600
 115586892.505 7  89900931.907 7                  21585027.700    21585030.040
  21585028.840          47.200          45.000
 111801748.840 8  86956931.739 7                  20900157.860    20900162.420
  20900161.260          49.400          46.650
 102830879.667 8  79979584.127 7                  19236637.700    19236641.260
  19236641.020          48.800          43.050
 15  1 27  8  8 55.0000000  0 18G11G14G28G04G17G03G23G31G19G20G32G01
                                R24R17R02R08R23R01
 107205440.446 8  83536694.12947                  20400513.920
  20400509.140          49.000          47.550
 127751777.915 7  99546820.08245                  24310360.180
  24310357.120          44.500          35.250
 124493074.134 7  97007553.89146                  23690247.280
  23690243.840          45.950          37.850
 110789185.744 8  86329244.17847                  21082473.480
  21082470.480          50.150          45.650
 122931554.302 8  95790778.453 7                  23393101.000    23393097.580
  23393096.960          48.100          43.450
 107854088.240 8  84042148.200 8  80540395.755 8  20523947.560    20523946.620
  20523946.040          50.150          49.900
 123668456.171 8  96364994.39446                  23533322.440
  23533318.220          48.250          39.900
 132146626.978 7 102971388.708 6                  25146667.560    25146669.020
  25146668.460          43.250          39.850
 124830314.612 7  97270343.78046                  23754421.500
  23754417.820          47.550          41.650
 124525677.804 7  97032955.16746                  23696453.580
  23696450.340          45.300          37.250
 109373370.007 8  85226023.56947                  20813046.200
  20813042.460          50.550          46.550
 107170204.112 8  83509268.247 8  80029704.961 8  20393807.320    20393805.980
  20393805.740          50.650          49.600
 102819863.326 7  79971022.221 7                  19227831.560    19227833.300
  19227831.200          47.750          42.750
 119335664.769 7  92816628.479 7                  22300726.600    22300728.660
  22300727.580          46.650          42.650
 114708589.035 8  89217806.702 7                  21496343.540    21496348.220
  21496347.100          48.100          44.150
 115604284.101 7  89914458.679 7                  21588275.380    21588277.800
  21588276.640          47.250          45.050
 111816461.968 8  86968375.272 7                  20902908.340    20902912.900
  20902911.720          49.300          46.750
 102832184.340 8  79980598.879 7                  19236881.760    19236885.340
  19236885.060          48.800          43.000
 15  1 27  8  9  0.0000000  0 18G11G14G28G04G17G03G23G31G19G20G32G01
                                R24R17R02R08R23R01
 107211911.944 8  83541736.84648                  20401745.400
  20401740.620          49.000          48.050
 127764930.452 7  99557068.81445                  24312863.080
  24312860.080          44.600          35.400
 124499841.149 7  97012826.88346                  23691534.940
  23691531.560          45.850          37.300
 110797884.611 8  86336022.51247                  21084128.820
  21084125.800          50.000          46.150
 122916668.476 8  95779179.097 7                  23390268.320    23390264.840
  23390264.260          48.150          43.850
 107849528.217 8  84038594.937 8  80536990.537 8  20523079.760    20523078.880
  20523078.300          50.050          50.150
 123651445.011 8  96351738.96746                  23530085.320
  23530081.100          48.350          40.100
 132136523.308 7 102963515.728 6                  25144744.920    25144746.300
  25144745.780          43.750          39.550
 124848002.420 7  97284126.47247                  23757787.380
  23757783.680          47.300          42.950
 124510587.996 7  97021196.87146                  23693582.040
  23693578.860          45.100          38.500
 109382802.909 8  85233373.88647                  20814841.240
  20814837.480          50.400          47.100
 107169577.541 8  83508780.002 8  80029237.055 8  20393688.100    20393686.760
  20393686.500          50.600          49.750
 102816258.725 7  79968218.643 7                  19227157.460    19227159.240
  19227157.120          47.800          42.750
 119316332.822 7  92801592.519 7                  22297113.980    22297116.020
  22297114.940          47.000          42.950
 114692921.534 7  89205620.871 7                  21493407.460    21493412.200
  21493411.040          47.950          43.900
 115621681.404 7  89927989.896 7                  21591524.180    21591526.600
  21591525.500          47.550          44.850
 111831189.341 8  86979829.888 7                  20905661.500    20905666.000
  20905664.860          49.350          46.850
 102833506.602 8  79981627.305 7                  19237129.100    19237132.700
  19237132.440          48.850          43.100
 15  1 27  8  9  5.0000000  0 18G11G14G28G04G17G03G23G31G19G20G32G01
                                R24R17R02R08R23R01
 107218394.855 8  83546788.46347                  20402979.040
  20402974.280          48.900          47.950
 127778091.888 7  99567324.47645                  24315367.680
  24315364.640          44.500          34.950
 124506618.342 7  97018107.79046                  23692824.560
  23692821.180          45.950          38.350
 110806590.960 8  86342806.67047                  21085785.620
  21085782.560          50.250          45.900
 122901789.414 8  95767585.022 7                  23387436.960    23387433.440
  23387432.820          48.200          43.650
 107844977.958 8  84035049.289 8  80533592.620 8  20522213.820    20522213.000
  20522212.400          50.100          50.050
 123634436.763 8  96338485.80946                  23526848.760
  23526844.480          48.600          40.350
 132126425.505 7 102955647.325 6                  25142823.360    25142824.760
  25142824.260          44.150          38.750
 124865693.975 7  97297912.07947                  23761154.000
  23761150.240          47.150          42.900
 124495502.116 7  97009441.64446                  23690711.280
  23690708.080          45.550          36.300
 109392243.937 8  85240730.52947                  20816637.820
  20816634.060          50.400          46.850
 107168958.721 8  83508297.802 8  80028774.948 8  20393570.360    20393569.000
  20393568.760          50.700          49.750
 102812672.105 7  79965429.050 7                  19226486.720    19226488.500
  19226486.420          47.800          42.950
 119297004.606 7  92786559.461 7                  22293502.040    22293504.080
  22293503.020          47.150          42.650
 114677264.577 8  89193443.223 7                  21490473.340    21490478.100
  21490476.960          48.250          44.400
 115639083.512 7  89941524.859 7                  21594773.940    21594776.260
  21594775.200          47.750          44.550
 111845930.504 8  86991295.227 7                  20908417.240    20908421.720
  20908420.560          49.400          46.750
 102834845.336 8  79982668.541 7                  19237379.540    19237383.140
  19237382.920          48.800          43.250
 15  1 27  8  9 10.0000000  0 18G11G14G28G04G17G03G23G31G19G20G32G01
                                R24R17R02R08R23R01
 107224890.975 8  83551850.36847                  20404215.200
  20404210.440          48.900          47.900
 127791263.971 7  99577588.42745                  24317874.280
  24317871.180          44.050          35.700
 124513407.514 7  97023398.04646                  23694116.440
  23694113.120          45.950          37.600
 110815306.433 8  86349597.94847                  21087444.160
  21087441.060          50.350          46.200
 122886918.974 8  95755997.661 7                  23384607.240    23384603.700
  23384603.060          48.000          43.550
 107840439.244 8  84031512.637 8  80530203.331 8  20521350.080    20521349.280
  20521348.720          50.200          50.100
 123617433.250 8  96325236.33146                  23523613.080
  23523608.800          48.350          39.850
 132116335.364 7 102947784.879 6                  25140903.300    25140904.600
  25140904.200          43.750          37.700
 124883391.003 7  97311701.95047                  23764521.680
  23764517.840          47.400          43.000
 124480421.964 7  96997690.85746                  23687841.620
  23687838.380          45.700          36.900
 109401694.851 8  85248094.87347                  20818436.280
  20818432.540          50.300          46.850
 107168349.471 8  83507823.060 8  80028319.978 8  20393454.420    20393453.080
  20393452.820          50.550          49.700
 102809105.325 7  79962654.887 7                  19225819.700    19225821.500
  19225819.400          47.750          42.900
 119277682.064 7  92771530.812 7                  22289891.180    22289893.220
  22289892.180          46.900          42.950
 114661619.938 8  89181275.167 7                  21487541.540    21487546.360
  21487545.180          48.300          45.250
 115656492.199 7  89955064.953 7                  21598024.940    21598027.160
  21598026.120          47.700          44.250
 111860686.724 8  87002772.280 7                  20911175.740    20911180.260
  20911179.100          49.350          47.050
 102836202.310 8  79983723.965 7                  19237633.400    19237637.000
  19237636.780          49.000          43.350
 15  1 27  8  9 15.0000000  0 18G11G14G28G04G17G03G23G31G19G20G32G01
                                R24R17R02R08R23R01
 107231398.230 8  83556920.95347                  20405453.480
  20405448.760          49.050          47.750
 127804444.629 7  99587859.04345                  24320382.480
  24320379.460          44.250          33.550
 124520206.560 7  97028695.98646                  23695410.220
  23695406.920          45.800          37.850
 110824028.925 8  86356394.68547                  21089104.040
  21089100.900          50.550          45.750
 122872055.091 7  95744415.406 7                  23381778.760    23381775.220
  23381774.560          47.900          43.300
 107835910.048 8  84027983.385 8  80526821.125 8  20520488.140    20520487.400
  20520486.820          50.100          50.000
 123600432.374 8  96311988.92046                  23520377.900
  23520373.660          48.450          39.350
 132106250.772 7 102939926.781 6                  25138984.280    25138985.500
  25138985.060          43.100          36.850
 124901091.418 7  97325494.45947                  23767890.000
  23767886.120          47.650          42.250
 124465345.446 7  96985942.90746                  23684972.640
  23684969.400          46.100          37.300
 109411153.594 8  85255465.31647                  20820236.220
  20820232.460          50.100          46.900
 107167747.693 8  83507354.130 8  80027870.593 8  20393339.940    20393338.580
  20393338.320          50.600          49.750
 102805556.351 7  79959894.563 7                  19225156.040    19225157.840
  19225155.740          47.700          42.950
 119258362.873 7  92756504.773 7                  22286280.940    22286282.960
  22286281.940          46.850          42.950
 114645985.593 8  89169115.131 7                  21484611.680    21484616.500
  21484615.360          48.150          45.250
 115673905.306 7  89968608.466 7                  21601276.740    21601278.880
  21601277.880          47.700          44.000
 111875456.148 8  87014259.587 7                  20913936.760    20913941.260
  20913940.120          49.450          46.900
 102837575.476 8  79984791.983 7                  19237890.280    19237893.900
  19237893.660          48.950          43.300
 15  1 27  8  9 20.0000000  0 18G11G14G28G04G17G03G23G31G19G20G32G01
                                R24R17R02R08R23R01
 107237917.929 8  83562001.23647                  20406694.140
  20406689.420          49.150          47.650
 127817635.147 7  99598137.36545                  24322892.540
  24322889.560          43.900          35.700
 124527016.811 7  97034002.65046                  23696706.140
  23696702.840          45.850          37.000
 110832759.799 8  86363197.96347                  21090765.540
  21090762.320          50.450          45.800
 122857199.074 7  95732839.283 7                  23378951.800    23378948.180
  23378947.560          47.850          43.400
 107831391.639 8  84024462.543 8  80523446.992 8  20519628.260    20519627.560
  20519626.980          50.050          49.950
 123583435.522 8  96298744.63246                  23517143.480
  23517139.200          48.750          39.700
 132096173.185 7 102932074.103 5                  25137066.500    25137067.640
  25137067.300          42.700          35.900
 124918796.589 7  97339290.67447                  23771259.220
  23771255.340          47.700          43.000
 124450273.907 7  96974198.84946                  23682104.600
  23682101.380          45.800          36.700
 109420621.455 8  85262842.85847                  20822037.900
  20822034.160          50.100          47.050
 107167154.751 8  83506892.095 8  80027427.802 8  20393227.100    20393225.740
  20393225.500          50.600          49.800
 102802026.449 7  79957149.082 7                  19224495.920    19224497.720
  19224495.620          47.600          42.900
 119239048.686 7  92741482.630 7                  22282671.660    22282673.620
  22282672.660          47.100          43.250
 114630362.844 8  89156964.114 7                  21481684.000    21481688.840
  21481687.700          48.200          44.550
 115691324.302 7  89982156.563 7                  21604529.620    21604531.760
  21604530.740          47.800          44.300
 111890240.082 8  87025758.190 7                  20916700.460    20916704.960
  20916703.860          49.250          46.800
 102838966.193 8  79985873.646 7                  19238150.440    19238154.080
  19238153.820          48.800          43.200
 15  1 27  8  9 25.0000000  0 18G11G14G28G04G17G03G23G31G19G20G32G01
                                R24R17R02R08R23R01
 107244450.309 8  83567091.40247                  20407937.200
  20407932.480          49.250          47.350
 127830835.806 7  99608423.58145                  24325404.540
  24325401.620          44.350          32.750
 124533838.498 7  97039318.24046                  23698004.240
  23698001.000          46.100          38.500
 110841499.296 8  86370007.96547                  21092428.660
  21092425.380          50.300          46.050
 122842351.132 7  95721269.466 7                  23376126.380    23376122.720
  23376122.080          47.800          43.550
 107826884.253 8  84020950.300 8  80520081.093 8  20518770.500    20518769.840
  20518769.240          50.100          49.950
 123566442.942 8  96285503.67246                  23513909.880
  23513905.560          48.600          40.200
 132086102.798 7 102924227.056 6                  25135150.060    25135151.260
  25135151.000          42.950          36.400
 124936506.702 7  97353090.74346                  23774629.380
  23774625.500          47.950          41.900
 124435207.557 7  96962458.84246                  23679237.540
  23679234.380          45.650          36.550
 109430098.654 8  85270227.68847                  20823841.360
  20823837.620          50.100          46.800
 107166570.833 8  83506437.094 8  80026991.761 8  20393116.000    20393114.640
  20393114.400          50.600          49.850
 102798515.741 7  79954418.527 7                  19223839.420    19223841.180
  19223839.080          47.750          43.050
 119219739.529 7  92726464.397 7                  22279063.300    22279065.220
  22279064.340          46.800          43.500
 114614751.948 8  89144822.295 7                  21478758.540    21478763.420
  21478762.280          48.100          44.150
 115708749.260 8  89995709.308 7                  21607783.640    21607785.760
  21607784.740          48.150          44.200
 111905038.775 8  87037268.270 7                  20919466.940    20919471.440
  20919470.360          48.950          47.100
 102840374.543 8  79986969.029 7                  19238413.900    19238417.600
  19238417.280          48.650          43.250
 15  1 27  8  9 30.0000000  0 18G11G14G28G04G17G03G23G31G19G20G32G01
                                R24R17R02R08R23R01
 107250995.784 8  83572191.77047                  20409182.780
  20409178.040          49.200          47.350
 127844046.966 7  99618717.97245                  24327918.560
  24327915.600          43.950          33.850
 124540672.057 7  97044643.08346                  23699304.600
  23699301.420          45.950          38.400
 110850247.900 8  86376825.05047                  21094093.520
  21094090.180          50.400          45.900
 122827511.773 7  95709706.325 7                  23373302.600    23373298.880
  23373298.260          47.800          43.650
 107822388.360 8  84017447.009 8  80516723.773 8  20517914.940    20517914.300
  20517913.680          50.150          49.900
 123549455.078 8  96272266.40746                  23510677.220
  23510672.840          48.350          39.900
 132076040.064 7 102916385.961 5                  25133235.100    25133236.240
  25133235.900          42.750          35.000
 124954222.186 7  97366895.00647                  23778000.620
  23777996.640          47.900          42.200
 124420146.873 7  96950723.24646                  23676371.500
  23676368.460          45.450          36.700
 109439585.630 8  85277620.13347                  20825646.680
  20825642.920          50.050          46.900
 107165996.426 8  83505989.502 8  80026562.821 8  20393006.700    20393005.340
  20393005.120          50.700          49.750
 102795024.886 7  79951703.422 7                  19223186.600    19223188.380
  19223186.260          47.900          42.850
 119200435.911 7  92711450.482 7                  22275456.000    22275457.860
  22275457.040          46.900          43.400
 114599153.361 8  89132690.062 7                  21475835.360    21475840.240
  21475839.140          48.400          44.500
 115726180.633 8  90009267.043 7                  21611038.840    21611041.000
  21611039.940          48.400          44.700
 111919852.641 8  87048790.151 7                  20922236.240    20922240.800
  20922239.700          48.900          47.100
 102841801.044 8  79988078.528 7                  19238680.760    19238684.480
  19238684.160          48.900          43.400
 15  1 27  8  9 35.0000000  0 18G11G14G28G04G17G03G23G31G19G20G32G01
                                R24R17R02R08R23R01
 107257550.377 8  83577299.23947                  20410430.080
  20410425.340          49.250          47.600
 127857264.617 7  99629017.42445                  24330433.820
  24330430.860          44.200          34.550
 124547513.448 7  97049974.03346                  23700606.440
  23700603.380          45.750          38.700
 110859001.565 8  86383646.08447                  21095759.340
  21095755.920          50.450          45.850
 122812677.031 7  95698146.784 7                  23370479.680    23370475.900
  23370475.300          47.850          43.650
 107817899.937 8  84013949.539 8  80513372.032 8  20517060.800    20517060.180
  20517059.540          50.200          49.900
 123532467.950 8  96259029.70046                  23507444.680
  23507440.240          48.650          40.300
 132065981.115 7 102908547.827 5                  25131320.820    25131321.920
  25131321.460          42.100          35.800
 124971939.079 7  97380700.35047                  23781372.100
  23781368.000          47.750          42.250
 124405087.864 7  96938988.94546                  23673505.780
  23673502.860          44.800          37.000
 109449078.363 8  85285017.06147                  20827453.080
  20827449.360          49.900          46.950
 107165427.524 8  83505546.195 8  80026137.987 8  20392898.440    20392897.080
  20392896.860          50.550          49.750
 102791549.811 8  79949000.582 7                  19222536.740    19222538.560
  19222536.400          48.050          42.800
 119181134.002 7  92696437.884 7                  22271848.980    22271850.840
  22271850.040          46.700          43.000
 114583563.066 8  89120564.279 7                  21472913.740    21472918.620
  21472917.560          48.700          44.800
 115743614.402 8  90022826.629 7                  21614294.460    21614296.620
  21614295.620          48.050          44.550
 111934677.623 8  87060320.689 7                  20925007.580    20925012.200
  20925011.140          49.100          47.150
 102843241.722 8  79989199.055 7                  19238950.260    19238954.040
  19238953.700          49.150          43.250
 15  1 27  8  9 40.0000000  0 18G11G14G28G04G17G03G23G31G19G20G32G01
                                R24R17R02R08R23R01
 107264118.283 8  83582417.07947                  20411679.940
  20411675.180          49.300          47.450
 127870492.992 7  99639325.24145                  24332951.100
  24332948.140          43.850          35.200
 124554366.855 7  97055314.33646                  23701910.600
  23701907.620          46.050          38.600
 110867764.462 8  86390474.31247                  21097426.940
  21097423.440          50.500          45.750
 122797851.079 7  95686594.092 7                  23367658.400    23367654.600
  23367653.980          47.950          43.550
 107813423.183 8  84010461.157 8  80510028.999 8  20516208.880    20516208.280
  20516207.620          50.250          49.850
 123515485.753 8  96245796.82446                  23504213.080
  23504208.620          48.650          40.100
 132055930.045 7 102900715.849 5                  25129408.120    25129409.100
  25129408.520          42.700          35.850
 124989661.504 8  97394510.01446                  23784744.640
  23784740.420          48.100          41.800
 124390034.734 7  96927259.24546                  23670641.220
  23670638.320          44.950          38.050
 109458581.069 8  85292421.76847                  20829261.400
  20829257.660          50.050          46.700
 107164868.317 8  83505110.446 8  80025720.392 8  20392792.020    20392790.660
  20392790.460          50.700          49.700
 102788094.712 8  79946313.278 7                  19221890.600    19221892.420
  19221890.280          48.000          42.900
 119161837.680 7  92681429.636 7                  22268242.980    22268244.860
  22268244.060          46.850          42.800
 114567985.250 8  89108448.206 7                  21469994.480    21469999.360
  21469998.300          48.600          44.900
 115761054.796 7  90036391.369 7                  21617551.300    21617553.540
  21617552.520          47.850          44.700
 111949517.928 8  87071863.129 7                  20927781.800    20927786.480
  20927785.440          49.300          47.150
 102844700.673 8  79990333.793 7                  19239223.160    19239226.980
  19239226.640          49.050          43.250
 15  1 27  8  9 45.0000000  0 18G11G14G28G04G17G03G23G31G19G20G32G01
                                R24R17R02R08R23R01
 107270699.537 8  83587545.32347                  20412932.300
  20412927.540          49.250          47.250
 127883732.055 7  99649641.37845                  24335470.440
  24335467.420          44.000          34.550
 124561232.336 7  97060664.05546                  23703217.080
  23703214.140          46.250          38.850
 110876536.667 8  86397309.79447                  21099096.280
  21099092.720          50.350          45.950
 122783033.989 7  95675048.301 7                  23364838.820    23364835.000
  23364834.380          47.950          43.600
 107808958.140 8  84006981.902 8  80506694.706 8  20515359.200    20515358.620
  20515357.920          50.200          49.750
 123498508.544 8  96232567.85846                  23500982.440
  23500977.920          48.750          40.100
 132045886.878 7 102892890.001 6                  25127496.940    25127497.800
  25127497.320          42.300          36.950
 125007389.522 8  97408324.03946                  23788118.220
  23788113.960          48.100          41.500
 124374987.499 7  96915534.11546                  23667777.820
  23667774.940          44.750          38.150
 109468093.758 8  85299834.25147                  20831071.600
  20831067.860          50.200          46.650
 107164318.853 8  83504682.294 8  80025310.070 8  20392687.460    20392686.100
  20392685.900          50.550          49.650
 102784659.633 7  79943641.549 7                  19221248.220    19221250.060
  19221247.940          47.750          42.950
 119142547.271 7  92666425.990 7                  22264638.060    22264639.960
  22264639.180          47.050          42.850
 114552419.998 8  89096341.910 7                  21467077.540    21467082.400
  21467081.380          48.050          44.800
 115778501.806 7  90049961.245 7                  21620809.360    21620811.660
  21620810.680          47.850          44.800
 111964373.709 8  87083417.605 7                  20930558.880    20930563.620
  20930562.620          49.150          47.000
 102846178.010 8  79991482.835 7                  19239499.520    19239503.380
  19239503.000          48.750          43.300
 15  1 27  8  9 50.0000000  0 18G11G14G28G04G17G03G23G31G19G20G32G01
                                R24R17R02R08R23R01
 107277291.311 8  83592681.76747                  20414186.680
  20414181.920          49.250          47.700
 127896979.025 7  99659963.65945                  24337991.280
  24337988.240          44.000          34.750
 124568107.034 7  97066020.93846                  23704525.280
  23704522.380          46.050          38.600
 110885315.356 8  86404150.32947                  21100766.860
  21100763.240          50.300          46.300
 122768222.881 7  95663507.178 7                  23362020.360    23362016.520
  23362015.920          47.950          43.700
 107804501.946 8  84003509.547 8  80503367.040 8  20514511.180    20514510.620
  20514509.920          50.200          49.850
 123481533.479 8  96219340.55146                  23497752.200
  23497747.680          48.700          40.550
 132035848.786 7 102885068.117 5                  25125586.800    25125587.560
  25125587.080          43.300          35.950
 125025120.274 8  97422140.18846                  23791492.340
  23791488.020          48.000          41.650
 124359943.213 7  96903811.27046                  23664914.940
  23664912.120          44.950          37.750
 109477613.528 8  85307252.25647                  20832883.160
  20832879.400          50.250          46.550
 107163776.308 8  83504259.521 8  80024904.920 8  20392584.200    20392582.880
  20392582.660          50.450          49.700
 102781241.822 7  79940983.247 7                  19220609.060    19220610.880
  19220608.820          47.600          43.400
 119123259.768 7  92651424.589 7                  22261033.700    22261035.560
  22261034.800          47.100          42.650
 114536864.421 8  89084243.115 7                  21464162.440    21464167.300
  21464166.260          48.600          45.100
 115795952.585 7  90063534.067 7                  21624068.160    21624070.480
  21624069.540          47.600          45.100
 111979241.938 8  87094981.768 7                  20933338.280    20933343.080
  20933342.100          49.000          47.100
 102847670.951 8  79992644.011 7                  19239778.780    19239782.700
  19239782.260          48.750          43.400
 15  1 27  8  9 55.0000000  0 18G11G14G28G04G17G03G23G31G19G20G32G01
                                R24R17R02R08R23R01
 107283895.556 8  83597827.92747                  20415443.440
  20415438.660          49.150          47.800
 127910235.803 7  99670293.62245                  24340514.000
  24340511.100          43.850          35.700
 124574992.857 7  97071386.50846                  23705835.620
  23705832.760          46.450          38.800
 110894102.453 8  86410997.41347                  21102439.040
  21102435.360          50.250          46.100
 122753419.770 8  95651972.286 7                  23359203.440    23359199.580
  23359198.980          48.050          43.650
 107800056.591 8  84000045.636 8  80500047.465 8  20513665.260    20513664.700
  20513663.980          50.300          49.950
 123464562.534 8  96206116.45446                  23494522.740
  23494518.200          48.650          40.950
 132025817.793 7 102877251.752 6                  25123678.100    25123678.620
  25123678.180          44.000          37.300
 125042855.727 8  97435960.00147                  23794867.320
  23794862.980          48.100          42.250
 124344903.987 7  96892092.38546                  23662053.060
  23662050.200          44.900          37.550
 109487142.432 8  85314677.37147                  20834696.440
  20834692.700          50.200          46.800
 107163242.640 8  83503843.672 8  80024506.397 8  20392482.660    20392481.300
  20392481.120          50.300          49.750
 102777843.050 7  79938339.755 7                  19219973.480    19219975.320
  19219973.280          47.850          43.200
 119103977.319 7  92636427.112 7                  22257430.340    22257432.140
  22257431.360          47.050          42.600
 114521320.487 8  89072153.372 7                  21461249.520    21461254.340
  21461253.320          48.950          45.300
 115813409.105 8  90077111.344 7                  21627328.060    21627330.400
  21627329.460          48.000          45.100
 111994124.607 8  87106557.174 7                  20936120.440    20936125.200
  20936124.240          49.450          46.800
 102849181.356 8  79993818.766 7                  19240061.280    19240065.180
  19240064.820          49.000          43.350
 15  1 27  8 10  0.0000000  0 18G11G14G28G04G17G03G23G31G19G20G32G01
                                R24R17R02R08R23R01
 107290512.345 8  83602983.86747                  20416702.560
  20416697.780          49.050          47.500
 127923502.492 7  99680631.27945                  24343038.600
  24343035.640          43.950          35.850
 124581889.917 7  97076760.82446                  23707148.100
  23707145.260          46.600          38.000
 110902898.032 8  86417851.10547                  21104112.840
  21104109.100          50.300          45.950
 122738624.777 7  95640443.708 7                  23356388.040    23356384.180
  23356383.580          47.950          43.550
 107795622.155 8  83996590.226 8  80496736.022 8  20512821.400    20512820.840
  20512820.120          50.300          49.850
 123447595.819 8  96192895.65846                  23491294.060
  23491289.560          48.750          40.100
 132015793.997 7 102869441.008 6                  25121770.780    25121771.200
  25121770.760          43.850          38.000
 125060595.954 8  97449783.53246                  23798243.200
  23798238.840          48.100          41.100
 124329869.885 7  96880377.49045                  23659192.140
  23659189.280          45.100          35.750
 109496680.481 8  85322109.60947                  20836511.460
  20836507.720          50.350          46.550
 107162717.925 8  83503434.799 8  80024114.556 8  20392382.800    20392381.460
  20392381.260          50.350          49.700
 102774463.633 7  79935711.320 7                  19219341.500    19219343.420
  19219341.320          47.850          43.050
 119084699.956 7  92621433.607 7                  22253827.900    22253829.600
  22253828.880          46.850          42.900
 114505788.386 8  89060072.838 7                  21458338.820    21458343.580
  21458342.580          48.650          45.250
 115830871.363 7  90090693.083 7                  21630589.020    21630591.360
  21630590.480          47.700          44.950
 112009021.915 8  87118143.966 7                  20938905.300    20938910.100
  20938909.120          49.150          47.000
 102850709.282 8  79995007.149 7                  19240347.080    19240351.080
  19240350.640          48.700          43.600
 15  1 27  8 10  5.0000000  0 18G11G14G28G04G17G03G23G31G19G20G32G01
                                R24R17R02R08R23R01
 107297140.137 8  83608148.37447                  20417963.780
  20417959.000          49.050          47.600
 127936777.498 7  99690975.42346                  24345564.760
  24345561.780          43.800          36.000
 124588796.616 7  97082142.66546                  23708462.400
  23708459.600          46.650          38.550
 110911700.569 8  86424710.22247                  21105787.960
  21105784.180          50.450          45.800
 122723836.316 7  95628920.232 7                  23353573.860    23353570.020
  23353569.400          47.950          43.650
 107791197.055 8  83993142.088 8  80493431.564 8  20511979.320    20511978.780
  20511978.040          50.150          49.850
 123430631.745 8  96179676.91746                  23488065.900
  23488061.400          48.350          40.050
 132005775.876 7 102861634.703 6                  25119864.480    25119864.820
  25119864.440          44.350          37.900
 125078339.387 7  97463609.55946                  23801619.700
  23801615.340          47.750          41.950
 124314839.380 7  96868665.39446                  23656331.900
  23656328.940          45.750          37.650
 109506226.130 8  85329547.77547                  20838327.940
  20838324.200          50.000          46.750
 107162200.604 8  83503031.687 8  80023728.242 8  20392284.360    20392283.020
  20392282.820          50.300          49.550
 102771101.860 7  79933096.601 7                  19218712.820    19218714.840
  19218712.660          47.850          42.850
 119065426.077 7  92606442.814 7                  22250226.100    22250227.840
  22250227.060          46.950          42.950
 114490266.498 8  89048000.255 7                  21455430.040    21455434.780
  21455433.780          48.450          44.800
 115848337.860 7  90104278.119 7                  21633850.820    21633853.160
  21633852.240          47.850          44.550
 112023932.117 8  87129740.770 7                  20941692.580    20941697.400
  20941696.440          49.000          46.950
 102852253.185 8  79996207.958 7                  19240635.880    19240639.900
  19240639.480          48.650          43.300
 15  1 27  8 10 10.0000000  0 18G11G14G28G04G17G03G23G31G19G20G32G01
                                R24R17R02R08R23R01
 107303780.413 8  83613322.61947                  20419227.360
  20419222.620          49.050          47.050
 127950062.372 7  99701327.25845                  24348092.780
  24348089.960          43.650          35.700
 124595714.476 7  97087533.19546                  23709778.840
  23709775.980          46.600          37.800
 110920511.555 8  86431575.92847                  21107464.680
  21107460.880          50.400          45.450
 122709055.919 7  95617403.042 7                  23350761.220    23350757.360
  23350756.800          47.700          43.500
 107786782.786 8  83989702.402 8  80490135.196 8  20511139.320    20511138.780
  20511138.040          50.050          49.850
 123413671.848 8  96166461.44846                  23484838.500
  23484834.040          48.250          40.450
 131995764.889 7 102853833.946 6                  25117959.500    25117959.760
  25117959.440          43.650          38.600
 125096087.507 8  97477439.24346                  23804997.080
  23804992.680          48.000          41.650
 124299813.957 7  96856957.25546                  23653472.660
  23653469.660          46.050          37.200
 109515780.835 8  85336992.99247                  20840146.140
  20840142.420          50.100          46.400
 107161692.210 8  83502635.541 8  80023348.592 8  20392187.600    20392186.280
  20392186.080          50.400          49.550
 102767759.418 7  79930496.932 7                  19218087.760    19218089.720
  19218087.580          47.700          42.700
 119046157.319 7  92591456.013 7                  22246625.280    22246627.100
  22246626.220          46.900          43.000
 114474756.326 8  89035936.790 7                  21452523.460    21452528.120
  21452527.180          48.350          44.900
 115865810.054 8  90117867.604 7                  21637113.680    21637116.000
  21637115.060          48.050          44.550
 112038856.937 8  87141348.946 7                  20944482.620    20944487.420
  20944486.480          49.000          46.600
 102853814.549 8  79997422.361 7                  19240927.960    19240932.000
  19240931.580          48.450          43.200
 15  1 27  8 10 15.0000000  0 18G11G14G28G04G17G03G23G31G19G20G32G01
                                R24R17R02R08R23R01
 107310433.427 8  83618506.77847                  20420493.400
  20420488.640          49.050          47.400
 127963357.359 7  99711686.97146                  24350622.740
  24350619.940          43.800          36.650
 124602643.744 7  97092932.60546                  23711097.480
  23711094.560          46.750          38.100
 110929331.205 8  86438448.37447                  21109143.040
  21109139.220          50.350          45.850
 122694283.883 7  95605892.356 7                  23347950.160    23347946.320
  23347945.760          47.650          43.650
 107782379.658 8  83986271.393 8  80486847.148 8  20510301.400    20510300.900
  20510300.140          50.400          49.900
 123396716.424 8  96153249.44346                  23481611.960
  23481607.520          48.100          40.650
 131985761.348 7 102846038.983 6                  25116055.880    25116056.160
  25116055.900          44.200          38.700
 125113840.573 8  97491272.77746                  23808375.420
  23808371.000          48.050          41.300
 124284793.888 7  96845253.29846                  23650614.420
  23650611.420          46.000          37.250
 109525344.921 8  85344445.52447                  20841966.120
  20841962.400          50.100          46.800
 107161192.982 8  83502246.524 8  80022975.792 8  20392092.620    20392091.280
  20392091.080          50.600          49.700
 102764436.454 7  79927912.401 7                  19217466.360    19217468.280
  19217466.180          47.650          42.750
 119026893.998 7  92576473.424 7                  22243025.480    22243027.360
  22243026.400          47.200          43.250
 114459258.145 8  89023882.647 7                  21449619.100    21449623.780
  21449622.840          48.300          44.950
 115883288.170 8  90131461.686 7                  21640377.660    21640379.940
  21640378.980          48.300          44.250
 112053796.341 8  87152968.476 7                  20947275.400    20947280.160
  20947279.220          49.150          46.350
 102855393.711 8  79998650.594 7                  19241223.360    19241227.420
  19241226.980          48.900          43.150
 15  1 27  8 10 20.0000000  0 18G11G14G28G04G17G03G23G31G19G20G32G01
                                R24R17R02R08R23R01
 107317098.079 8  83623700.01147                  20421761.620
  20421756.880          49.300          47.200
 127976661.257 7  99722053.64045                  24353154.380
  24353151.720          43.950          35.450
 124609583.287 7  97098340.03046                  23712418.080
  23712415.140          46.950          37.700
 110938158.471 8  86445326.75547                  21110822.840
  21110819.020          50.400          45.700
 122679519.031 7  95594387.279 7                  23345140.480    23345136.680
  23345136.100          47.450          43.500
 107777986.487 8  83982848.139 8  80483566.530 8  20509465.400    20509464.900
  20509464.160          50.400          49.950
 123379764.347 8  96140040.05146                  23478386.060
  23478381.660          48.000          40.550
 131975764.066 7 102838248.896 6                  25114153.500    25114153.800
  25114153.540          44.650          39.300
 125131597.432 7  97505109.27547                  23811754.480
  23811750.080          47.400          42.700
 124269778.026 7  96833552.64346                  23647756.960
  23647753.980          45.800          36.850
 109534917.183 8  85351904.42247                  20843787.660
  20843783.960          50.350          46.350
 107160701.825 8  83501863.798 8  80022609.009 8  20391999.140    20391997.800
  20391997.600          50.550          49.700
 102761131.893 7  79925342.185 7                  19216848.360    19216850.320
  19216848.220          47.600          42.800
 119007634.867 7  92561494.108 7                  22239426.480    22239428.380
  22239427.380          47.450          43.350
 114443770.836 8  89011836.975 7                  21446716.820    21446721.500
  21446720.540          48.750          44.700
 115900771.040 8  90145059.469 7                  21643642.520    21643644.760
  21643643.760          48.350          44.150
 112068749.327 8  87164598.568 7                  20950070.740    20950075.440
  20950074.480          49.200          46.450
 102856989.477 8  79999891.743 7                  19241521.860    19241525.900
  19241525.500          48.750          43.250
 15  1 27  8 10 25.0000000  0 18G11G14G28G04G17G03G23G31G19G20G32G01
                                R24R17R02R08R23R01
 107323773.566 8  83628901.67747                  20423031.940
  20423027.200          49.600          47.100
 127989973.294 7  99732426.63345                  24355687.580
  24355684.920          44.000          35.750
 124616532.272 7  97103754.80646                  23713740.500
  23713737.480          47.000          38.200
 110946992.462 8  86452210.37447                  21112503.900
  21112500.080          50.500          45.800
 122664760.542 7  95582887.158 7                  23342331.980    23342328.280
  23342327.660          47.800          43.400
 107773602.516 8  83979432.055 8  80480292.793 8  20508631.140    20508630.660
  20508629.920          50.400          50.000
 123362814.823 8  96126832.64546                  23475160.660
  23475156.200          48.200          40.300
 131965772.320 7 102830463.132 6                  25112252.180    25112252.460
  25112252.060          44.150          38.700
 125149357.282 7  97518948.08046                  23815134.060
  23815129.740          47.750          41.700
 124254765.617 7  96821854.63546                  23644900.160
  23644897.240          45.550          37.500
 109544496.882 8  85359369.12447                  20845610.620
  20845606.920          50.350          46.350
 107160217.913 8  83501486.713 8  80022247.644 8  20391907.060    20391905.720
  20391905.520          50.650          49.800
 102757844.816 7  79922785.559 7                  19216233.620    19216235.660
  19216233.520          47.650          43.000
 118988379.048 7  92546517.349 7                  22235828.100    22235830.020
  22235828.980          47.050          42.950
 114428293.741 8  88999799.225 7                  21443816.440    21443821.100
  21443820.140          48.700          44.850
 115918257.949 7  90158660.394 7                  21646908.120    21646910.320
  21646909.300          47.850          44.300
 112083715.061 8  87176238.564 7                  20952868.440    20952873.100
  20952872.120          49.350          46.350
 102858600.959 8  80001145.110 7                  19241823.300    19241827.380
  19241826.980          48.700          43.550
 15  1 27  8 10 30.0000000  0 18G11G14G28G04G17G03G23G31G19G20G32G01
                                R24R17R02R08R23R01
 107330463.006 8  83634114.22347                  20424304.920
  20424300.180          49.550          47.150
 128003296.606 7  99742808.41945                  24358222.920
  24358220.280          44.300          34.700
 124623493.860 7  97109179.41946                  23715065.320
  23715062.200          46.800          38.850
 110955836.390 8  86459101.74447                  21114186.840
  21114183.040          50.550          45.550
 122650011.633 7  95571394.497 7                  23339525.320    23339521.660
  23339521.040          47.700          43.250
 107769230.839 8  83976025.560 8  80477028.223 8  20507799.240    20507798.760
  20507798.020          50.250          50.000
 123345871.013 8  96113629.69846                  23471936.320
  23471931.840          48.150          40.300
 131955789.261 7 102822684.158 6                  25110352.480    25110352.800
  25110352.300          43.900          38.850
 125167123.277 7  97532791.70446                  23818514.840
  23818510.580          47.550          41.950
 124239759.727 7  96810161.74946                  23642044.600
  23642041.620          45.700          37.200
 109554087.064 8  85366841.99547                  20847435.580
  20847431.880          50.300          46.350
 107159744.429 8  83501117.761 8  80021894.061 8  20391816.980    20391815.600
  20391815.440          50.600          49.750
 102754578.583 7  79920245.154 7                  19215622.800    19215624.880
  19215622.720          47.800          42.950
 118969129.929 7  92531545.808 7                  22232230.980    22232232.860
  22232231.780          46.850          43.050
 114412829.823 8  88987771.732 7                  21440918.540    21440923.180
  21440922.220          48.650          45.050
 115935751.940 7  90172266.826 7                  21650175.000    21650177.200
  21650176.140          47.600          44.350
 112098696.861 8  87187891.068 7                  20955669.180    20955673.760
  20955672.800          49.400          46.450
 102860231.364 8  80002413.207 7                  19242128.320    19242132.380
  19242132.000          48.850          43.550
 15  1 27  8 10 35.0000000  0 18G11G14G28G04G17G03G23G31G19G20G32G01
                                R24R17R02R08R23R01
 107337163.996 8  83639335.77047                  20425580.100
  20425575.340          49.450          47.150
 128016628.757 7  99753197.08945                  24360759.980
  24360757.340          44.800          34.000
 124630465.610 7  97114611.94046                  23716392.100
  23716388.840          46.700          38.000
 110964687.780 8  86465998.92547                  21115871.200
  21115867.420          50.550          45.600
 122635269.914 7  95559907.441 7                  23336720.040    23336716.440
  23336715.780          47.950          43.500
 107764869.073 8  83972626.781 8  80473771.064 8  20506969.220    20506968.740
  20506968.020          50.350          50.050
 123328930.484 8  96100429.29646                  23468712.620
  23468708.100          48.250          40.100
 131945812.463 7 102814910.025 6                  25108453.920    25108454.260
  25108453.820          44.150          39.250
 125184892.948 7  97546638.17346                  23821896.320
  23821892.100          47.900          41.950
 124224757.988 7  96798472.07546                  23639189.840
  23639186.900          46.100          37.500
 109563685.347 8  85374321.16847                  20849262.060
  20849258.380          50.350          46.600
 107159278.898 8  83500755.003 8  80021546.416 8  20391728.380    20391727.020
  20391726.840          50.600          49.750
 102751330.735 7  79917719.045 7                  19215015.440    19215017.460
  19215015.380          47.450          43.000
 118949884.981 7  92516577.530 7                  22228634.620    22228636.480
  22228635.400          46.650          42.800
 114397376.652 8  88975752.584 7                  21438022.620    21438027.260
  21438026.320          48.300          45.250
 115953250.623 7  90185876.895 7                  21653442.720    21653444.940
  21653443.880          47.250          44.550
 112113692.160 8  87199554.061 7                  20958472.420    20958476.980
  20958475.980          49.150          46.700
 102861878.186 8  80003694.068 7                  19242436.420    19242440.480
  19242440.100          49.000          43.400
 15  1 27  8 10 40.0000000  0 18G11G14G28G04G17G03G23G31G19G20G32G01
                                R24R17R02R08R23R01
 107343876.933 8  83644566.62647                  20426857.540
  20426852.780          49.400          47.350
 128029970.142 7  99763592.97746                  24363298.800
  24363296.180          44.650          36.400
 124637447.963 7  97120052.71646                  23717720.880
  23717717.560          46.800          37.700
 110973547.120 8  86472902.30247                  21117557.060
  21117553.300          50.400          45.350
 122620535.806 7  95548426.314 7                  23333916.200    23333912.640
  23333911.980          47.850          43.600
 107760517.614 8  83969236.026 8  80470521.590 8  20506141.160    20506140.680
  20506139.980          50.300          49.950
 123311993.664 7  96087231.77246                  23465489.660
  23465485.060          47.900          40.100
 131935842.384 7 102807141.138 6                  25106556.700    25106557.000
  25106556.580          43.700          39.100
 125202666.711 7  97560487.83546                  23825278.580
  23825274.360          47.850          41.400
 124209760.871 7  96786786.00146                  23636335.960
  23636333.040          46.150          37.250
 109573292.169 8  85381807.00247                  20851090.140
  20851086.500          50.100          46.350
 107158821.789 8  83500398.810 8  80021205.063 8  20391641.400    20391640.040
  20391639.840          50.600          49.700
 102748101.600 7  79915207.498 7                  19214411.580    19214413.600
  19214411.520          47.550          42.800
 118930644.750 7  92501612.910 7                  22225039.100    22225040.980
  22225039.860          46.450          42.050
 114381934.743 8  88963742.219 7                  21435128.820    21435133.460
  21435132.500          48.350          44.800
 115970754.465 7  90199490.978 7                  21656711.420    21656713.620
  21656712.580          47.600          44.300
 112128701.125 8  87211227.694 7                  20961278.240    20961282.740
  20961281.760          49.200          46.650
 102863541.995 8  80004988.140 7                  19242747.660    19242751.720
  19242751.360          48.950          43.200
 15  1 27  8 10 45.0000000  0 18G11G14G28G04G17G03G23G31G19G20G32G01
                                R24R17R02R08R23R01
 107350601.150 8  83649806.27647                  20428137.160
  20428132.340          49.400          47.450
 128043320.076 7  99773995.51346                  24365839.280
  24365836.560          45.100          36.150
 124644440.200 7  97125501.19446                  23719051.520
  23719048.140          46.750          38.850
 110982413.726 8  86479811.34547                  21119244.300
  21119240.580          50.350          46.000
 122605808.653 7  95536950.610 7                  23331113.680    23331110.140
  23331109.520          47.950          43.950
 107756175.786 8  83965852.781 8  80467279.312 8  20505314.940    20505314.460
  20505313.780          50.350          50.050
 123295059.920 7  96074036.65946                  23462267.260
  23462262.600          47.850          40.650
 131925878.335 7 102799376.979 6                  25104660.540    25104660.940
  25104660.380          42.450          39.100
 125220443.881 7  97574340.16147                  23828661.480
  23828657.280          47.700          42.350
 124194767.587 7  96775102.92546                  23633482.820
  23633479.940          46.300          36.750
 109582906.766 8  85389298.88347                  20852919.700
  20852916.100          50.250          46.600
 107158372.389 8  83500048.624 8  80020869.466 8  20391555.880    20391554.540
  20391554.320          50.600          49.800
 102744890.492 7  79912709.967 7                  19213811.080    19213813.100
  19213811.040          47.450          42.900
 118911408.450 7  92486651.341 7                  22221444.300    22221446.200
  22221445.060          46.600          42.250
 114366503.430 7  88951740.080 7                  21432236.960    21432241.640
  21432240.660          47.900          44.650
 115988262.679 7  90213108.472 7                  21659980.960    21659983.180
  21659982.120          47.850          44.700
 112143723.342 8  87222911.634 7                  20964086.540    20964091.000
  20964090.020          49.250          46.600
 102865221.927 8  80006294.758 7                  19243061.940    19243066.020
  19243065.600          48.850          43.250
