     2.11           OBSERVATION DATA    M (MIXED)           RINEX VERSION / TYPE
teqc  2011Oct11     IGN-E (SPG)         20150127 04:00:51UTCPGM / RUN BY / DATE
Linux 2.4.21-27.ELsmp|Opteron|gcc -static|Linux x86_64|=+   COMMENT
BIT 2 OF LLI FLAGS DATA COLLECTED UNDER A/S CONDITION       COMMENT
VALE                                                        MARKER NAME
13439M001                                                   MARKER NUMBER
Programas GeodesicosInstituto Geografico Nacional           OBSERVER / AGENCY
1700071             LEICA GR10          3.03/6.214          REC # / TYPE / VERS
10190012            LEIAR25.R3      LEIT                    ANT # / TYPE
  4929534.0457   -29050.6755  4033709.9250                  APPROX POSITION XYZ
        3.0390        0.0000        0.0000                  ANTENNA: DELTA H/E/N
     1     1                                                WAVELENGTH FACT L1/2
     8    L1    L2    L5    C1    C2    P2    S1    S2      # / TYPES OF OBSERV
     5.0000                                                 INTERVAL
Forced Modulo Decimation to 5 seconds                       COMMENT
DefaultJobName                                              COMMENT
DefaultUserDiscription                                      COMMENT
Project creator:                                            COMMENT
 SNR is mapped to RINEX snr flag value [0-9]                COMMENT
  L1 & L2: min(max(int(snr_dBHz/6), 0), 9)                  COMMENT
  2015     1    27     3     0    0.0000000     GPS         TIME OF FIRST OBS
    15                                                      LEAP SECONDS
                                                            END OF HEADER
 15  1 27  3  0  0.0000000  0 24G31G08G21G07G04G16G18G22G27G19R11R05
                                R21R10R07R22R12R06R13R20E12E19E18E11
 131976970.520 7 102839200.183 6                  25114382.960    25114380.120
  25114379.360          43.150          37.150
 118904864.998 7  92653119.52446                  22626843.480
  22626840.020          47.900          41.100
 116814012.164 8  91023963.37947                  22228936.740
  22228931.160          49.250          43.250
 130710867.585 7 101852590.099 6                  24873450.900    24873446.980
  24873446.600          43.750          38.600
 134255282.056 7 104614506.87045                  25547927.960
  25547927.740          42.000          32.100
 107504022.478 8  83769369.32648                  20457332.920
  20457327.560          49.300          48.600
 116594934.242 8  90853189.74747                  22187269.960
  22187264.280          50.100          43.350
 119398569.621 8  93037854.18347                  22720779.540
  22720772.440          49.800          42.650
 112134855.693 8  87377819.931 8  83737072.213 8  21338548.860    21338546.360
  21338545.820          50.250          49.400
 122097487.220 7  95140876.54747                  23234375.160
  23234369.060          46.650          42.250
 110948694.448 7  86293441.193 6                  20762535.180    20762539.400
  20762537.520          46.800          41.750
 121036375.450 7  94139423.265 7                  22642354.320    22642356.980
  22642356.580          47.550          42.050
 108294445.618 8  84229063.969 7                  20237385.920    20237387.500
  20237386.680          48.300          46.550
 129408231.404 6 100650870.176 5                  24276657.900    24276666.060
  24276664.640          40.250          33.800
 128276391.582 7  99770553.459 6                  23963103.400    23963105.920
  23963105.040          44.000          36.750
 109651466.952 8  85284504.874 7                  20541406.560    20541409.100
  20541407.980          49.050          46.550
 109856530.922 7  85443983.379 7                  20565371.640    20565375.100
  20565374.500          44.150          43.550
 116967087.255 8  90974389.426 6                  21919579.240    21919581.520
  21919581.100          48.250          41.650
 129640227.904 6 100831292.612 6                  24277447.880    24277450.460
  24277448.540          39.650          37.150
 124840615.338 6  97098273.354 6                  23345824.020    23345828.820
  23345826.880          40.200          40.850
 144933807.367 7                 108229919.333 7  27579937.220
                        46.050
 147101068.863 7                 109848210.453 6  27992401.060
                        44.800
 136548988.689 8                 101968436.514 8  25984404.700
                        50.800
 126396553.949 8                  94387145.711 8  24052410.760
                        51.300
 15  1 27  3  0  5.0000000  0 24G31G08G21G07G04G16G18G22G27G19R11R05
                                R21R10R07R22R12R06R13R20E12E19E18E11
 131993603.451 7 102852160.836 6                  25117548.180    25117545.320
  25117544.580          43.500          37.550
 118920745.631 7  92665494.05246                  22629865.420
  22629862.040          47.450          40.850
 116824347.820 8  91032017.14547                  22230903.580
  22230898.000          48.900          43.600
 130700097.325 7 101844197.694 6                  24871401.400    24871397.500
  24871397.120          43.650          38.350
 134236892.191 7 104600177.17645                  25544428.420
  25544428.540          42.800          33.850
 107500895.086 8  83766932.39548                  20456737.800
  20456732.420          49.300          48.750
 116590159.306 8  90849469.01847                  22186361.320
  22186355.660          50.150          43.250
 119384602.186 8  93026970.46347                  22718121.600
  22718114.520          49.550          42.800
 112126711.970 8  87371474.177 8  83730990.865 8  21336999.160    21336996.660
  21336996.120          50.300          49.550
 122084636.094 7  95130862.68947                  23231929.640
  23231923.600          46.350          42.400
 110964540.361 7  86305765.792 6                  20765500.540    20765504.740
  20765502.860          47.100          41.750
 121041287.416 7  94143243.680 6                  22643273.220    22643275.900
  22643275.440          47.350          41.800
 108301201.976 8  84234318.916 7                  20238648.500    20238650.100
  20238649.300          48.500          46.550
 129431355.531 6 100668855.488 5                  24280996.060    24281004.020
  24281002.800          39.850          33.300
 128255983.169 7  99754680.222 6                  23959290.900    23959293.340
  23959292.480          43.100          37.350
 109644779.170 8  85279303.270 7                  20540153.700    20540156.280
  20540155.160          49.150          46.550
 109851163.183 7  85439808.467 7                  20564366.780    20564370.280
  20564369.640          44.150          43.350
 116954300.801 7  90964444.398 6                  21917183.040    21917185.360
  21917184.920          47.850          41.700
 129620809.846 6 100816189.657 6                  24273811.500    24273814.160
  24273812.160          39.450          37.100
 124855082.667 6  97109525.700 6                  23348529.440    23348534.360
  23348532.360          40.600          40.900
 144944574.031 7                 108237959.355 7  27581986.040
                        46.050
 147105196.580 7                 109851292.848 6  27993186.580
                        44.700
 136572863.440 8                 101986265.061 8  25988947.960
                        50.400
 126402458.047 8                  94391554.614 8  24053534.300
                        51.200
 15  1 27  3  0 10.0000000  0 24G31G08G21G07G04G16G18G22G27G19R11R05
                                R21R10R07R22R12R06R13R20E12E19E18E11
 132010232.493 7 102865118.470 6                  25120712.620    25120709.720
  25120708.960          44.200          37.250
 118936633.345 7  92677874.07746                  22632888.700
  22632885.380          47.150          41.600
 116834688.742 8  91040075.00447                  22232871.360
  22232865.760          48.250          43.850
 130689338.585 7 101835814.259 6                  24869354.060    24869350.200
  24869349.820          44.400          37.250
 134218503.371 6 104585848.32044                  25540929.100
  25540929.040          41.850          28.550
 107497780.642 8  83764505.55148                  20456145.160
  20456139.760          49.250          48.150
 116585396.360 8  90845757.62847                  22185454.960
  22185449.340          50.050          43.400
 119370640.487 8  93016091.21947                  22715464.720
  22715457.700          49.300          43.000
 112118572.739 8  87365131.918 8  83724912.873 8  21335450.300    21335447.820
  21335447.260          50.200          49.400
 122071787.774 7  95120851.02147                  23229484.640
  23229478.640          46.450          42.250
 110980401.060 7  86318101.893 7                  20768468.660    20768472.860
  20768470.960          47.550          42.200
 121046219.389 7  94147079.652 6                  22644195.880    22644198.520
  22644198.060          46.900          41.650
 108307963.378 8  84239577.780 7                  20239912.000    20239913.640
  20239912.860          48.750          46.450
 129454477.002 6 100686838.751 5                  24285333.720    24285341.820
  24285340.480          39.300          33.200
 128235572.671 7  99738805.403 6                  23955478.040    23955480.500
  23955479.500          43.100          38.500
 109638097.825 8  85274106.673 7                  20538902.000    20538904.680
  20538903.540          49.050          46.400
 109845817.636 7  85435650.826 7                  20563366.040    20563369.560
  20563368.960          44.600          43.200
 116941528.522 8  90954510.414 7                  21914789.480    21914791.920
  21914791.420          48.150          42.000
 129601399.883 6 100801093.036 6                  24270176.560    24270179.360
  24270177.300          39.750          36.600
 124869548.828 6  97120777.165 6                  23351234.720    23351239.580
  23351237.620          41.000          41.100
 144955339.494 7                 108245998.486 7  27584034.620
                        46.050
 147109334.621 7                 109854382.949 6  27993974.060
                        44.900
 136596731.290 8                 102004088.456 8  25993489.860
                        50.400
 126408364.103 8                  94395964.986 8  24054658.200
                        51.150
 15  1 27  3  0 15.0000000  0 24G31G08G21G07G04G16G18G22G27G19R11R05
                                R21R10R07R22R12R06R13R20E12E19E18E11
 132026858.976 7 102878074.144 6                  25123876.580    25123873.580
  25123872.920          43.350          37.250
 118952529.457 7  92690260.65346                  22635913.560
  22635910.340          47.100          41.250
 116845036.256 7  91048137.99847                  22234840.360
  22234834.800          47.600          44.400
 130678592.779 7 101827440.901 6                  24867309.220    24867305.340
  24867304.860          44.150          36.700
 134200116.943 7 104571521.32144                  25537430.240
  25537429.960          42.500          27.700
 107494680.602 8  83762089.93748                  20455555.240
  20455549.840          49.050          48.350
 116580646.767 8  90842056.66147                  22184551.120
  22184545.540          49.950          42.850
 119356685.887 8  93005217.51147                  22712809.180
  22712802.240          48.800          43.250
 112110439.403 8  87358794.253 8  83718839.275 8  21333902.560    21333900.080
  21333899.540          50.200          49.300
 122058943.613 7  95110842.58447                  23227040.440
  23227034.480          46.350          42.700
 110996277.797 7  86330450.460 6                  20771439.780    20771443.980
  20771442.080          47.550          41.750
 121051172.744 7  94150932.266 6                  22645122.560    22645125.120
  22645124.700          46.600          41.400
 108314731.177 8  84244841.630 7                  20241176.740    20241178.360
  20241177.620          48.650          46.100
 129477597.337 6 100704821.115 5                  24289671.140    24289679.200
  24289677.960          38.150          32.750
 128215161.316 7  99722929.920 6                  23951665.060    23951667.500
  23951666.400          43.700          38.750
 109631424.514 8  85268916.324 7                  20537651.860    20537654.560
  20537653.420          49.100          46.300
 109840495.508 7  85431511.385 7                  20562369.680    20562373.200
  20562372.640          44.500          43.300
 116928771.817 8  90944588.540 6                  21912398.860    21912401.200
  21912400.840          48.050          41.900
 129581999.596 6 100786003.934 5                  24266543.420    24266546.380
  24266544.260          39.250          35.200
 124884015.074 6  97132028.681 6                  23353939.960    23353944.840
  23353942.880          40.600          40.400
 144966105.135 7                 108254037.762 7  27586083.200
                        45.800
 147113484.349 7                 109857481.772 6  27994763.800
                        44.700
 136620593.600 8                 102021907.692 8  25998030.700
                        50.100
 126414273.474 8                  94400377.820 8  24055782.720
                        51.050
 15  1 27  3  0 20.0000000  0 24G31G08G21G07G04G16G18G22G27G19R11R05
                                R21R10R07R22R12R06R13R20E12E19E18E11
 132043483.149 7 102891028.021 6                  25127040.100    25127037.000
  25127036.360          44.000          37.900
 118968434.169 7  92702653.93746                  22638940.080
  22638936.920          47.150          41.750
 116855390.539 7  91056206.26047                  22236810.600
  22236805.100          47.250          44.400
 130667860.112 7 101819077.783 6                  24865266.940    24865262.920
  24865262.420          44.350          36.850
 134181733.134 7 104557196.37844                  25533931.900
  25533931.320          43.100          27.950
 107491595.134 8  83759685.67548                  20454968.100
  20454962.680          48.950          48.500
 116575910.763 8  90838366.27447                  22183649.860
  22183644.320          50.000          42.700
 119342738.610 8  92994349.51647                  22710155.020
  22710148.160          48.750          43.100
 112102312.125 8  87352461.309 8  83712770.210 8  21332356.000    21332353.540
  21332352.960          50.350          49.300
 122046103.832 7  95100837.56346                  23224597.100
  23224591.140          46.850          41.800
 111012170.793 7  86342811.681 6                  20774413.980    20774418.180
  20774416.280          47.700          41.950
 121056147.762 7  94154801.710 6                  22646053.260    22646055.760
  22646055.400          46.800          41.800
 108321505.561 8  84250110.599 7                  20242442.680    20242444.320
  20242443.600          48.750          46.250
 129500716.766 6 100722802.771 5                  24294008.320    24294016.540
  24294015.240          38.300          34.000
 128194749.416 7  99707054.001 6                  23947851.960    23947854.480
  23947853.320          43.400          38.950
 109624759.235 8  85263732.218 7                  20536403.220    20536405.960
  20536404.800          49.200          46.400
 109835197.213 7  85427390.488 7                  20561377.760    20561381.380
  20561380.820          44.200          43.650
 116916030.868 8  90934678.917 7                  21910011.200    21910013.600
  21910013.220          48.600          42.100
 129562609.268 6 100770922.570 5                  24262912.180    24262915.280
  24262913.040          39.700          35.750
 124898481.690 6  97143280.491 6                  23356645.320    23356650.200
  23356648.180          40.000          40.100
 144976871.198 7                 108262077.367 7  27588131.900
                        46.150
 147117645.951 7                 109860589.473 6  27995555.740
                        44.700
 136644450.549 8                 102039722.956 8  26002570.540
                        50.200
 126420186.366 8                  94404793.299 8  24056907.900
                        51.100
 15  1 27  3  0 25.0000000  0 24G31G08G21G07G04G16G18G22G27G19R11R05
                                R21R10R07R22R12R06R13R20E12E19E18E11
 132060101.726 7 102903977.492 6                  25130202.520    25130199.500
  25130198.860          44.050          38.100
 118984344.169 7  92715051.33646                  22641967.620
  22641964.500          47.450          40.850
 116865748.340 7  91064277.25647                  22238781.480
  22238776.080          47.400          44.350
 130657137.310 7 101810722.342 6                  24863226.580    24863222.440
  24863221.960          44.550          37.200
 134163348.610 7 104542870.84945                  25530433.440
  25530432.740          43.200          32.200
 107488520.938 8  83757290.19848                  20454383.120
  20454377.660          48.900          48.450
 116571185.084 8  90834683.92847                  22182750.560
  22182745.040          49.900          42.900
 119328795.404 8  92983484.69447                  22707501.640
  22707494.860          49.100          43.200
 112094187.646 8  87346130.544 8  83706703.229 8  21330809.960    21330807.480
  21330806.920          50.300          49.250
 122033265.142 7  95090833.38846                  23222153.980
  23222148.000          46.950          41.200
 111028076.724 7  86355182.952 7                  20777390.600    20777394.780
  20777392.900          47.600          42.050
 121061141.038 7  94158685.373 7                  22646987.360    22646989.880
  22646989.520          47.500          42.250
 108328283.182 8  84255382.080 7                  20243709.220    20243710.880
  20243710.180          48.750          46.250
 129523831.853 6 100740781.018 5                  24298344.660    24298352.860
  24298351.760          38.700          33.450
 128174333.760 7  99691175.170 6                  23944038.200    23944040.780
  23944039.500          43.050          38.400
 109618098.791 8  85258551.877 7                  20535155.500    20535158.220
  20535157.100          49.200          46.550
 109829919.270 7  85423285.428 7                  20560389.740    20560393.320
  20560392.780          44.550          43.450
 116903302.378 8  90924778.989 7                  21907625.840    21907628.280
  21907627.960          48.800          42.100
 129543225.449 6 100755846.261 6                  24259282.200    24259285.480
  24259283.120          39.000          36.200
 124912945.211 6  97154529.899 6                  23359350.080    23359354.980
  23359352.940          39.550          40.750
 144987634.362 7                 108270114.787 7  27590180.120
                        46.300
 147121816.174 7                 109863703.632 6  27996349.340
                        44.950
 136668298.875 8                 102057531.763 8  26007108.740
                        50.400
 126426099.498 8                  94409208.944 8  24058033.120
                        51.100
 15  1 27  3  0 30.0000000  0 24G31G08G21G07G04G16G18G22G27G19R11R05
                                R21R10R07R22R12R06R13R20E12E19E18E11
 132076718.329 7 102916925.431 6                  25133364.580    25133361.540
  25133360.880          43.900          37.750
 119000263.099 7  92727455.69146                  22644996.860
  22644993.740          47.450          41.400
 116876113.270 8  91072353.81647                  22240753.800
  22240748.420          48.100          43.750
 130646428.062 7 101802377.470 6                  24861188.740    24861184.500
  24861184.060          44.500          36.800
 134144967.127 7 104528547.69745                  25526935.520
  25526934.680          43.600          31.400
 107485461.709 8  83754906.38448                  20453800.940
  20453795.500          48.850          48.600
 116566473.377 8  90831012.47747                  22181853.900
  22181848.400          49.800          42.950
 119314859.925 8  92972625.87747                  22704849.720
  22704843.020          49.200          42.600
 112086069.604 8  87339804.808 8  83700641.059 8  21329265.140    21329262.680
  21329262.100          50.200          49.250
 122020431.169 7  95080832.89647                  23219711.720
  23219705.820          46.800          42.650
 111043999.147 7  86367567.062 7                  20780370.300    20780374.460
  20780372.580          47.350          42.100
 121066156.314 7  94162586.145 7                  22647925.540    22647928.080
  22647927.740          47.050          42.100
 108335067.818 8  84260659.020 7                  20244977.080    20244978.740
  20244978.040          48.600          46.250
 129546946.204 6 100758758.723 5                  24302680.920    24302689.080
  24302688.060          39.200          34.000
 128153917.957 7  99675296.227 6                  23940224.440    23940226.880
  23940225.620          44.100          38.050
 109611446.768 8  85253378.086 7                  20533909.340    20533912.060
  20533911.000          49.050          46.750
 109824665.523 7  85419199.178 7                  20559406.200    20559409.840
  20559409.260          44.250          43.450
 116890590.158 8  90914891.711 7                  21905243.580    21905245.940
  21905245.700          48.900          42.100
 129523851.865 6 100740777.905 6                  24255654.120    24255657.480
  24255655.060          38.600          36.700
 124927409.557 6  97165779.912 6                  23362054.900    23362059.920
  23362057.840          40.600          40.650
 144998398.269 7                 108278152.756 7  27592228.500
                        46.250
 147125998.638 7                 109866826.881 6  27997145.260
                        45.300
 136692142.208 8                 102075336.847 8  26011645.980
                        50.600
 126432016.497 8                  94413627.480 8  24059159.080
                        51.100
 15  1 27  3  0 35.0000000  0 24G31G08G21G07G04G16G18G22G27G19R11R05
                                R21R10R07R22R12R06R13R20E12E19E18E11
 132093332.497 7 102929871.489 6                  25136526.200    25136523.100
  25136522.340          44.200          37.350
 119016190.491 7  92739866.63746                  22648027.740
  22648024.600          47.600          41.050
 116886484.876 8  91080435.58547                  22242727.460
  22242722.040          48.850          43.650
 130635731.879 7 101794042.781 6                  24859153.360    24859149.140
  24859148.460          44.600          36.850
 134126588.187 7 104514226.52745                  25523438.060
  25523437.280          43.900          30.700
 107482417.007 8  83752533.88548                  20453221.540
  20453216.080          48.800          48.450
 116561775.230 8  90827351.57747                  22180959.840
  22180954.380          49.800          43.150
 119300931.700 8  92961772.71147                  22702199.200
  22702192.580          49.100          42.850
 112077957.564 8  87333483.735 8  83694583.366 8  21327721.440    21327719.000
  21327718.420          50.150          49.250
 122007601.467 7  95070835.72646                  23217270.340
  23217264.400          46.950          41.650
 111059937.591 7  86379963.619 7                  20783352.980    20783357.140
  20783355.260          47.650          42.250
 121071193.161 7  94166503.691 7                  22648867.760    22648870.320
  22648869.980          47.150          42.800
 108341858.916 8  84265940.981 7                  20246246.140    20246247.840
  20246247.120          48.550          46.300
 129570059.407 6 100776735.534 5                  24307016.980    24307025.300
  24307024.140          39.100          33.900
 128133501.587 7  99659416.822 6                  23936410.520    23936412.960
  23936411.640          44.300          38.400
 109604802.828 8  85248210.568 7                  20532664.680    20532667.440
  20532666.400          48.950          46.700
 109819435.386 7  85415131.306 7                  20558427.060    20558430.780
  20558430.180          44.950          43.650
 116877893.677 8  90905016.662 7                  21902864.220    21902866.580
  21902866.400          48.650          42.250
 129504488.215 6 100725717.266 6                  24252027.820    24252031.360
  24252028.900          39.050          36.600
 124941874.100 6  97177030.116 6                  23364759.840    23364764.880
  23364762.760          40.200          39.650
 145009162.489 7                 108286190.961 7  27594276.900
                        46.050
 147130192.874 7                 109869958.934 6  27997943.360
                        45.450
 136715980.095 8                 102093137.867 8  26016182.180
                        50.550
 126437936.938 8                  94418048.587 8  24060285.720
                        51.100
 15  1 27  3  0 40.0000000  0 24G31G08G21G07G04G16G18G22G27G19R11R05
                                R21R10R07R22R12R06R13R20E12E19E18E11
 132109943.112 7 102942814.790 6                  25139687.140    25139684.060
  25139683.280          44.550          37.250
 119032125.238 7  92752283.31746                  22651060.020
  22651056.840          47.650          41.450
 116896862.049 8  91088521.70047                  22244702.220
  22244696.740          49.200          42.900
 130625047.635 7 101785717.390 6                  24857120.240    24857115.940
  24857115.300          44.350          36.950
 134108210.737 7 104499906.48745                  25519940.900
  25519940.100          44.600          33.300
 107479385.711 8  83750171.83648                  20452644.700
  20452639.240          48.950          48.400
 116557089.473 8  90823700.33047                  22180068.120
  22180062.680          49.800          43.100
 119287009.663 8  92950924.36647                  22699549.880
  22699543.280          49.000          42.850
 112069850.405 8  87327166.466 8  83688529.311 8  21326178.660    21326176.260
  21326175.660          50.150          49.100
 121994774.929 7  95060841.01946                  23214829.540
  23214823.580          46.900          41.100
 111075891.105 7  86392371.899 6                  20786338.500    20786342.680
  20786340.760          47.450          41.900
 121076250.327 7  94170437.044 7                  22649813.800    22649816.360
  22649816.060          47.300          42.450
 108348655.376 8  84271227.112 7                  20247516.200    20247517.920
  20247517.160          48.750          46.300
 129593170.451 6 100794710.672 5                  24311352.580    24311360.880
  24311359.860          38.150          33.950
 128113083.571 7  99643536.140 6                  23932596.320    23932598.640
  23932597.320          44.050          38.050
 109598165.778 8  85243048.414 7                  20531421.300    20531424.080
  20531423.080          49.050          46.600
 109814227.849 7  85411080.987 7                  20557452.240    20557455.920
  20557455.340          44.950          43.600
 116865211.874 8  90895153.051 6                  21900487.620    21900490.000
  21900489.860          48.600          41.950
 129485133.280 6 100710663.413 6                  24248403.320    24248406.700
  24248404.340          39.750          36.550
 124956337.763 6  97188279.630 6                  23367464.600    23367469.660
  23367467.540          39.150          40.550
 145019925.895 7                 108294228.565 7  27596325.120
                        46.300
 147134397.819 7                 109873098.973 6  27998743.520
                        44.950
 136739811.444 8                 102110933.987 8  26020717.100
                        50.250
 126443859.694 8                  94422471.418 8  24061412.780
                        51.100
 15  1 27  3  0 45.0000000  0 24G31G08G21G07G04G16G18G22G27G19R11R05
                                R21R10R07R22R12R06R13R20E12E19E18E11
 132126550.627 7 102955755.654 6                  25142847.480    25142844.440
  25142843.600          44.600          37.250
 119048067.817 7  92764706.10646                  22654093.800
  22654090.620          47.650          41.550
 116907245.272 8  91096612.53347                  22246678.180
  22246672.580          49.300          43.250
 130614375.857 7 101777401.715 6                  24855089.440    24855085.040
  24855084.320          44.050          36.300
 134089835.236 7 104485587.98045                  25516444.100
  25516443.360          44.550          31.900
 107476368.346 8  83747820.64348                  20452070.500
  20452065.040          48.950          48.300
 116552416.640 8  90820059.17647                  22179178.860
  22179173.460          49.750          43.000
 119273094.322 8  92940081.25147                  22696901.820
  22696895.260          48.800          42.850
 112061748.659 8  87320853.417 8  83682479.304 8  21324636.920    21324634.560
  21324633.940          50.150          49.150
 121981952.075 7  95050849.18047                  23212389.440
  23212383.440          46.800          42.100
 111091860.157 7  86404792.261 6                  20789326.900    20789331.040
  20789329.160          47.850          41.650
 121081328.448 8  94174386.700 7                  22650763.740    22650766.300
  22650766.020          48.000          42.750
 108355457.720 8  84276517.824 7                  20248787.340    20248789.060
  20248788.300          48.750          46.200
 129616279.663 6 100812684.367 5                  24315687.820    24315696.080
  24315695.200          37.750          33.950
 128092664.452 7  99627654.597 6                  23928781.860    23928784.200
  23928782.820          43.400          39.050
 109591536.069 8  85237891.986 7                  20530179.300    20530182.120
  20530181.120          49.100          46.600
 109809043.390 7  85407048.628 7                  20556481.660    20556485.400
  20556484.820          44.900          43.600
 116852545.382 8  90885301.342 6                  21898113.880    21898116.240
  21898116.160          48.500          41.700
 129465787.455 6 100695616.641 6                  24244780.460    24244783.940
  24244781.500          41.050          36.750
 124970801.074 6  97199528.849 6                  23370169.320    23370174.280
  23370172.200          40.700          39.650
 145030689.020 7                 108302265.940 7  27598373.260
                        46.300
 147138613.926 7                 109876247.377 6  27999545.820
                        45.250
 136763636.727 8                 102128725.594 8  26025250.860
                        50.200
 126449785.264 8                  94426896.365 8  24062540.400
                        50.950
 15  1 27  3  0 50.0000000  0 25G31G08G21G07G04G16G18G22G27G19R11R05
                                R21R10R07R22R12R06R13R23R20E12E19E18
                                E11
 132143154.737 7 102968693.862 6                  25146007.180    25146004.200
  25146003.320          44.300          37.100
 119064017.896 7  92777134.74546                  22657129.000
  22657125.760          47.700          40.600
 116917634.214 8  91104707.82347                  22248655.240
  22248649.560          49.600          43.300
 130603716.225 7 101769095.496 5                  24853060.940    24853056.400
  24853055.760          43.600          35.800
 134071461.362 7 104471270.77245                  25512947.620
  25512947.000          44.100          34.350
 107473364.554 8  83745480.03048                  20451498.920
  20451493.420          48.950          48.250
 116547756.393 8  90816427.81447                  22178292.000
  22178286.620          49.800          42.600
 119259185.354 8  92929243.09947                  22694255.000
  22694248.440          49.100          42.950
 112053651.968 8  87314544.310 8  83676433.082 8  21323096.140    21323093.820
  21323093.200          50.200          49.100
 121969132.561 7  95040859.95846                  23209950.000
  23209943.920          47.000          41.600
 111107844.223 7  86417224.314 6                  20792318.100    20792322.200
  20792320.360          47.550          41.600
 121086427.117 7  94178352.348 7                  22651717.560    22651720.080
  22651719.840          47.400          42.350
 108362265.607 8  84281812.847 7                  20250059.560    20250061.260
  20250060.480          48.750          46.000
 129639386.696 6 100830656.369 5                  24320022.720    24320031.040
  24320030.140          37.600          33.500
 128072243.673 7  99611771.805 6                  23924967.060    23924969.480
  23924968.060          42.900          39.550
 109584913.515 8  85232741.117 7                  20528938.640    20528941.500
  20528940.520          49.050          46.500
 109803881.704 7  85403033.992 7                  20555515.420    20555519.140
  20555518.560          44.900          43.500
 116839893.803 8  90875461.229 6                  21895742.960    21895745.360
  21895745.260          48.250          41.900
 129446450.583 6 100680576.837 6                  24241159.340    24241162.840
  24241160.360          40.800          36.350
 132622623.521 6                                  24792400.180
                        39.400
 124985263.649 6  97210777.529 6                  23372873.860    23372878.840
  23372876.780          39.250          39.850
 145041451.498 7                 108310302.853 7  27600421.320
                        46.600
 147142840.890 7                 109879403.905 6  28000350.200
                        44.850
 136787455.627 8                 102146512.429 8  26029783.420
                        50.250
 126455713.320 8                  94431323.160 8  24063668.480
                        51.000
 15  1 27  3  0 55.0000000  0 25G31G08G21G07G04G16G18G22G27G19R11R05
                                R21R10R07R22R12R06R13R23R20E12E19E18
                                E11
 132159755.191 7 102981629.240 6                  25149166.200    25149163.200
  25149162.180          43.300          37.850
 119079975.176 7  92789568.97746                  22660165.580
  22660162.340          47.950          40.650
 116928028.601 8  91112807.36247                  22250633.320
  22250627.580          49.400          43.200
 130593068.543 7 101760798.588 6                  24851034.720    24851030.240
  24851029.420          43.750          36.600
 134053088.867 7 104456954.59445                  25509451.360
  25509450.840          44.050          32.950
 107470374.113 8  83743149.81648                  20450929.840
  20450924.340          49.000          48.250
 116543108.446 8  90812806.03747                  22177407.480
  22177402.120          49.650          43.050
 119245282.498 8  92918409.69847                  22691609.360
  22691602.820          49.100          43.400
 112045560.083 8  87308238.947 8  83670390.438 8  21321556.260    21321553.980
  21321553.360          50.100          49.150
 121956316.147 7  95030873.13846                  23207511.120
  23207505.000          46.650          41.150
 111123843.011 7  86429667.809 6                  20795312.080    20795316.160
  20795314.300          47.200          41.850
 121091546.147 7  94182333.802 7                  22652675.240    22652677.700
  22652677.460          47.550          42.250
 108369078.744 8  84287111.956 7                  20251332.740    20251334.480
  20251333.660          48.600          45.950
 129662491.418 6 100848626.578 5                  24324357.140    24324365.420
  24324364.640          38.250          33.300
 128051821.407 7  99595887.840 6                  23921151.980    23921154.420
  23921153.020          43.950          40.150
 109578297.684 8  85227595.471 7                  20527699.220    20527702.140
  20527701.160          49.050          46.550
 109798742.432 7  85399036.786 7                  20554553.400    20554557.040
  20554556.460          44.950          43.400
 116827256.863 8  90865632.500 6                  21893374.800    21893377.140
  21893377.080          48.450          41.750
 129427122.428 6 100665543.828 6                  24237539.920    24237543.520
  24237540.840          41.300          36.600
 132608355.299 6 103139848.78515                  24789731.900    24789736.980
  24789735.700          36.350          32.200
 124999725.257 6  97222025.425 6                  23375578.280    23375583.220
  23375581.140          40.350          40.100
 145052213.083 7                 108318339.088 7  27602469.240
                        47.100
 147147078.430 7                 109882568.302 6  28001156.580
                        44.650
 136811267.864 8                 102164294.292 8  26034314.780
                        50.500
 126461643.612 8                  94435751.614 8  24064796.980
                        50.950
 15  1 27  3  1  0.0000000  0 25G31G08G21G07G04G16G18G22G27G19R11R05
                                R21R10R07R22R12R06R13R23R20E12E19E18
                                E11
 132176351.298 7 102994561.205 6                  25152324.360    25152321.320
  25152320.280          44.000          38.600
 119095938.965 7  92802008.29146                  22663203.380
  22663200.120          47.950          40.650
 116938427.775 8  91120910.61447                  22252612.300
  22252606.520          49.100          43.900
 130582432.125 7 101752510.462 6                  24849010.620    24849006.180
  24849005.320          43.550          37.050
 134034717.134 7 104442639.04045                  25505955.240
  25505954.880          43.700          31.700
 107467396.374 8  83740829.49448                  20450363.180
  20450357.680          49.000          48.150
 116538472.136 8  90809193.32247                  22176525.180
  22176519.840          49.550          43.350
 119231385.137 8  92907580.58547                  22688964.760
  22688958.220          49.300          43.050
 112037472.355 8  87301936.817 8  83664350.915 8  21320017.180    21320014.920
  21320014.280          50.000          49.250
 121943502.134 7  95020888.18747                  23205072.720
  23205066.560          46.750          42.300
 111139855.981 7  86442122.337 6                  20798308.720    20798312.720
  20798310.880          46.900          41.550
 121096684.729 7  94186330.487 7                  22653636.560    22653639.000
  22653638.740          47.600          42.000
 108375896.521 8  84292414.656 7                  20252606.800    20252608.520
  20252607.680          48.600          45.900
 129685592.930 6 100866594.276 5                  24328691.000    24328699.200
  24328698.560          38.250          32.800
 128031396.667 7  99580001.934 6                  23917336.440    23917338.980
  23917337.620          44.700          40.300
 109571688.083 8  85222454.664 7                  20526461.020    20526463.920
  20526462.960          49.100          46.450
 109793625.115 7  85395056.646 7                  20553595.420    20553599.080
  20553598.480          45.550          43.450
 116814633.867 8  90855814.606 6                  21891009.240    21891011.580
  21891011.500          48.800          41.550
 129407802.328 6 100650517.079 6                  24233921.980    24233925.520
  24233922.840          41.250          36.000
 132594088.305 5 103128752.174 5                  24787065.180    24787071.260
  24787070.560          32.850          33.700
 125014185.257 6  97233272.098 6                  23378282.400    23378287.300
  23378285.160          39.950          39.750
 145062973.104 7                 108326374.173 7  27604516.900
                        46.750
 147151325.907 7                 109885740.119 6  28001964.820
                        44.600
 136835072.788 8                 102182070.697 8  26038844.740
                        50.750
 126467575.456 8                  94440181.252 8  24065925.760
                        51.000
 15  1 27  3  1  5.0000000  0 25G31G08G21G07G04G16G18G22G27G19R11R05
                                R21R10R07R22R12R06R13R23R20E12E19E18
                                E11
 132192946.305 7 103007492.311 6                  25155482.320    25155479.300
  25155478.260          44.750          39.250
 119111912.567 8  92814455.25646                  22666243.080
  22666239.820          48.050          40.900
 116948835.005 8  91129020.15247                  22254592.760
  22254586.980          48.850          43.300
 130571810.232 7 101744233.665 6                  24846989.280    24846984.920
  24846984.120          42.800          37.850
 134016349.417 7 104428326.57745                  25502459.860
  25502459.760          43.000          32.650
 107464434.588 8  83738521.61148                  20449799.580
  20449794.060          49.150          48.550
 116533850.863 8  90805592.33647                  22175645.760
  22175640.440          49.600          43.150
 119217496.535 8  92896758.30747                  22686321.860
  22686315.320          49.200          43.100
 112029392.058 8  87295640.492 8  83658316.921 8  21318479.520    21318477.280
  21318476.640          50.100          49.350
 121930693.852 7  95010907.71446                  23202635.440
  23202629.180          46.850          41.400
 111155886.353 7  86454590.417 6                  20801308.580    20801312.620
  20801310.740          46.450          41.700
 121101846.308 7  94190345.060 6                  22654602.160    22654604.560
  22654604.280          47.250          41.650
 108382722.174 8  84297723.504 7                  20253882.320    20253884.060
  20253883.180          48.250          45.900
 129708694.643 6 100884562.156 5                  24333024.900    24333033.100
  24333032.520          39.550          32.350
 128010972.995 7  99564116.855 6                  23913521.160    23913523.660
  23913522.340          45.100          39.550
 109565087.877 8  85217321.168 7                  20525224.560    20525227.480
  20525226.520          48.950          46.250
 109788532.947 7  85391096.069 7                  20552642.240    20552645.800
  20552645.200          44.950          43.550
 116802028.374 8  90846010.327 6                  21888646.980    21888649.260
  21888649.180          48.450          41.150
 129388493.613 6 100635499.190 6                  24230306.080    24230309.640
  24230306.900          40.650          36.400
 132579825.548 5 103117658.883 5                  24784399.620    24784403.720
  24784405.760          34.650          32.300
 125028646.939 6  97244520.084 6                  23380986.740    23380991.680
  23380989.580          40.000          40.000
 145073734.912 7                 108334410.560 7  27606564.820
                        46.250
 147155586.577 7                 109888921.794 6  28002775.580
                        44.650
 136858873.674 8                 102199844.081 8  26043373.920
                        50.800
 126473512.144 8                  94444614.485 8  24067055.480
                        51.150
 15  1 27  3  1 10.0000000  0 25G31G08G21G07G04G16G18G22G27G19R11R05
                                R21R10R07R22R12R06R13R23R20E12E19E18
                                E11
 132209537.480 7 103020420.445 6                  25158639.600    25158636.560
  25158635.480          44.550          38.950
 119127893.230 7  92826907.71946                  22669284.080
  22669280.820          47.950          40.750
 116959247.576 8  91137133.84647                  22256574.200
  22256568.460          48.150          44.100
 130561200.216 7 101735966.117 6                  24844970.180    24844965.960
  24844965.200          43.200          38.000
 133997983.005 7 104414015.16345                  25498964.780
  25498964.520          42.200          30.550
 107461486.061 8  83736224.05448                  20449238.480
  20449232.960          48.950          48.650
 116529241.866 8  90802000.91447                  22174768.640
  22174763.400          49.600          42.950
 119203614.019 8  92885940.77447                  22683680.120
  22683673.560          49.450          42.950
 112021316.492 8  87289347.839 8  83652286.470 8  21316942.760    21316940.540
  21316939.920          50.100          49.350
 121917888.589 7  95000929.58746                  23200198.700
  23200192.400          46.700          41.650
 111171931.371 7  86467069.865 6                  20804311.160    20804315.260
  20804313.340          46.850          41.750
 121107028.066 7  94194375.321 6                  22655571.480    22655573.920
  22655573.600          47.000          41.150
 108389553.021 7  84303036.381 7                  20255158.840    20255160.580
  20255159.680          47.950          46.200
 129731793.866 6 100902528.107 5                  24337358.360    24337366.660
  24337365.980          39.850          32.200
 127990547.559 7  99548230.391 6                  23909705.560    23909708.040
  23909706.740          44.800          39.600
 109558494.424 8  85212192.922 7                  20523989.360    20523992.320
  20523991.320          49.200          46.350
 109783463.159 7  85387152.909 7                  20551693.200    20551696.720
  20551696.140          44.950          43.650
 116789437.371 8  90836217.337 6                  21886287.420    21886289.680
  21886289.580          48.500          41.200
 129369193.632 6 100620488.081 5                  24226691.860    24226695.500
  24226692.640          39.950          35.850
 132565564.302 6 103106566.830 5                  24781733.660    24781737.440
  24781740.000          37.100          31.300
 125043107.531 6  97255767.190 6                  23383691.020    23383695.880
  23383693.800          40.700          40.950
 145084495.696 7                 108342446.230 7  27608612.540
                        46.450
 147159857.720 7                 109892111.294 7  28003588.320
                        44.600
 136882667.799 8                 102217612.426 8  26047901.860
                        50.700
 126479450.959 8                  94449049.319 8  24068185.580
                        51.100
 15  1 27  3  1 15.0000000  0 25G31G08G21G07G04G16G18G22G27G19R11R05
                                R21R10R07R22R12R06R13R23R20E12E19E18
                                E11
 132226124.694 7 103033345.478 6                  25161796.080    25161793.040
  25161792.000          44.400          38.350
 119143880.787 8  92839365.54946                  22672326.400
  22672323.140          48.050          40.650
 116969665.311 7  91145251.55547                  22258556.540
  22258550.940          47.700          44.300
 130550601.894 7 101727707.685 6                  24842953.380    24842949.140
  24842948.500          43.550          37.700
 133979617.764 7 104399704.65245                  25495469.960
  25495469.800          42.100          32.550
 107458550.641 8  83733936.70948                  20448679.880
  20448674.360          48.750          48.650
 116524644.986 8  90798418.93647                  22173893.820
  22173888.640          49.600          42.850
 119189737.444 8  92875127.86047                  22681039.520
  22681032.940          49.600          43.250
 112013245.491 8  87283058.739 8  83646259.415 8  21315406.880    21315404.680
  21315404.040          50.150          49.350
 121905086.146 7  94990953.66147                  23197762.500
  23197756.160          46.750          42.550
 111187990.767 7  86479560.504 7                  20807316.440    20807320.560
  20807318.620          47.050          42.050
 121112229.779 7  94198421.081 6                  22656544.540    22656546.980
  22656546.640          47.250          41.650
 108396388.847 7  84308353.133 7                  20256436.280    20256438.040
  20256437.100          47.950          46.150
 129754890.310 6 100920491.897 5                  24341691.300    24341699.620
  24341699.000          40.700          32.700
 127970120.220 7  99532342.477 6                  23905889.560    23905892.000
  23905890.780          43.350          38.400
 109551907.499 8  85207069.769 7                  20522755.380    20522758.380
  20522757.340          49.150          46.350
 109778415.691 7  85383227.097 7                  20550748.320    20550751.860
  20550751.220          44.900          43.400
 116776860.805 8  90826435.554 6                  21883930.560    21883932.800
  21883932.740          48.550          41.500
 129349902.074 6 100605483.503 6                  24223079.200    24223082.760
  24223079.880          39.800          36.400
 132551304.639 5 103095475.939 4                  24779068.060    24779073.060
  24779071.540          34.800          29.800
 125057566.892 6  97267013.335 6                  23386395.000    23386399.820
  23386397.780          39.650          40.450
 145095255.331 7                 108350481.015 7  27610660.060
                        46.550
 147164139.194 7                 109895308.514 6  28004403.020
                        44.450
 136906455.004 8                 102235375.590 8  26052428.460
                        50.650
 126485391.735 8                  94453485.608 8  24069316.060
                        51.100
 15  1 27  3  1 20.0000000  0 25G31G08G21G07G04G16G18G22G27G19R11R05
                                R21R10R07R22R12R06R13R23R20E12E19E18
                                E11
 132242708.522 7 103046267.910 6                  25164951.960    25164948.920
  25164947.780          44.100          38.150
 119159875.825 7  92851829.21146                  22675370.140
  22675366.920          47.950          40.600
 116980088.834 7  91153373.76947                  22260539.960
  22260534.480          47.350          44.500
 130540015.883 7 101719458.845 6                  24840938.900    24840934.700
  24840934.060          43.700          37.850
 133961254.274 7 104385395.49445                  25491975.460
  25491975.280          43.200          31.850
 107455628.972 8  83731660.08448                  20448123.900
  20448118.360          48.650          48.650
 116520060.875 8  90794846.90547                  22173021.420
  22173016.300          49.400          42.700
 119175867.482 8  92864320.08947                  22678400.200
  22678393.560          49.500          43.450
 112005179.658 8  87276773.676 8  83640236.234 8  21313871.980    21313869.800
  21313869.180          50.050          49.350
 121892287.215 7  94980980.46447                  23195327.000
  23195320.640          46.400          42.250
 111204065.382 7  86492062.981 6                  20810324.580    20810328.700
  20810326.780          47.100          41.850
 121117452.200 7  94202482.952 6                  22657521.500    22657523.880
  22657523.560          46.900          41.300
 108403230.300 8  84313674.267 7                  20257714.760    20257716.540
  20257715.600          48.100          46.050
 129777984.557 6 100938453.957 5                  24346023.800    24346032.180
  24346031.600          41.250          32.650
 127949691.626 7  99516453.563 6                  23902073.280    23902075.720
  23902074.500          42.900          39.300
 109545327.735 8  85201952.175 7                  20521522.780    20521525.740
  20521524.720          49.050          46.300
 109773391.030 7  85379319.032 7                  20549807.740    20549811.240
  20549810.560          44.950          43.600
 116764299.357 8  90816665.553 6                  21881576.580    21881578.820
  21881578.720          48.550          41.300
 129330619.648 6 100590486.056 6                  24219468.220    24219471.680
  24219468.840          40.650          36.250
 132537047.097 5 103084386.734 4                  24776403.020    24776407.160
  24776405.120          34.200          29.700
 125072025.583 6  97278258.987 6                  23389098.860    23389103.660
  23389101.640          39.550          40.100
 145106014.461 7                 108358515.421 7  27612707.480
                        46.800
 147168431.636 7                 109898513.892 7  28005219.800
                        44.250
 136930235.897 8                 102253134.053 8  26056953.840
                        50.550
 126491335.096 8                  94457923.834 8  24070447.040
                        51.150
 15  1 27  3  1 25.0000000  0 25G31G08G21G07G04G16G18G22G27G19R11R05
                                R21R10R07R22R12R06R13R23R20E12E19E18
                                E11
 132259289.139 7 103059187.820 6                  25168107.220    25168104.160
  25168103.040          43.600          38.300
 119175878.465 7  92864298.79846                  22678415.340
  22678412.140          47.750          40.850
 116990518.266 7  91161500.58347                  22262524.500
  22262519.120          47.250          44.800
 130529442.378 7 101711219.745 6                  24838926.800    24838922.660
  24838922.080          43.750          37.550
 133942892.768 7 104371087.88244                  25488481.340
  25488481.080          43.400          29.950
 107452721.185 8  83729394.27648                  20447570.580
  20447565.000          48.750          48.650
 116515489.672 8  90791284.92947                  22172151.460
  22172146.440          49.150          43.350
 119162004.238 8  92853517.56447                  22675762.140
  22675755.460          49.600          43.150
 111997119.174 8  87270492.782 8  83634217.038 8  21312338.120    21312335.960
  21312335.340          50.050          49.300
 121879491.890 7  94971010.08546                  23192892.140
  23192885.780          46.700          41.800
 111220155.186 7  86504577.273 7                  20813335.620    20813339.660
  20813337.760          47.150          42.000
 121122695.363 7  94206560.963 6                  22658502.400    22658504.700
  22658504.360          47.700          41.250
 108410077.495 8  84318999.856 7                  20258994.320    20258996.080
  20258995.140          48.300          46.150
 129801076.744 6 100956414.431 5                  24350355.840    24350364.300
  24350363.820          41.050          32.550
 127929262.093 7  99500563.955 6                  23898256.800    23898259.320
  23898258.100          44.200          39.250
 109538755.282 8  85196840.265 7                  20520291.500    20520294.500
  20520293.480          48.900          46.450
 109768389.529 7  85375428.973 7                  20548871.500    20548874.940
  20548874.260          45.200          43.650
 116751753.167 8  90806907.409 6                  21879225.440    21879227.720
  21879227.560          48.700          41.500
 129311346.459 6 100575495.777 6                  24215859.020    24215862.380
  24215859.580          40.650          36.600
 132522791.765 6 103073299.278 5                  24773737.940    24773742.000
  24773739.520          36.350          30.350
 125086483.869 6  97289504.300 6                  23391802.600    23391807.460
  23391805.480          39.750          39.600
 145116773.190 7                 108366549.513 7  27614754.860
                        46.650
 147172735.126 7                 109901727.553 7  28006038.640
                        44.150
 136954010.631 8                 102270887.901 8  26061478.020
                        50.250
 126497281.173 8                  94462364.095 8  24071578.520
                        51.250
 15  1 27  3  1 30.0000000  0 25G31G08G21G07G04G16G18G22G27G19R11R05
                                R21R10R07R22R12R06R13R23R20E12E19E18
                                E11
 132275866.501 7 103072105.186 6                  25171261.820    25171258.760
  25171257.680          43.600          38.500
 119191888.795 7  92876774.37646                  22681461.980
  22681458.840          47.600          41.550
 117000953.755 7  91169632.12347                  22264510.200
  22264504.920          47.500          44.500
 130518881.410 7 101702990.414 6                  24836917.080    24836913.080
  24836912.400          43.550          38.050
 133924533.248 7 104356781.82244                  25484987.620
  25484987.140          43.400          29.600
 107449827.350 8  83727139.33748                  20447019.900
  20447014.320          48.700          48.650
 116510931.451 8  90787733.06447                  22171283.980
  22171279.060          48.950          43.400
 119148147.805 8  92842720.32947                  22673125.400
  22673118.660          49.150          43.900
 111989064.098 8  87264216.100 8  83628201.884 8  21310805.240    21310803.140
  21310802.520          49.900          49.350
 121866700.256 7  94961042.57447                  23190457.980
  23190451.600          46.700          42.300
 111236260.180 7  86517103.377 6                  20816349.460    20816353.440
  20816351.600          46.900          41.600
 121127959.355 7  94210655.189 6                  22659487.160    22659489.420
  22659489.060          47.500          41.750
 108416930.541 8  84324330.006 7                  20260274.960    20260276.720
  20260275.800          48.050          46.150
 129824167.126 6 100974373.485 5                  24354687.660    24354696.060
  24354695.640          41.150          32.750
 127908831.502 7  99484673.478 6                  23894440.140    23894442.660
  23894441.460          43.800          38.850
 109532190.310 8  85191734.171 7                  20519061.680    20519064.720
  20519063.620          49.100          46.550
 109763411.204 7  85371556.932 7                  20547939.580    20547942.960
  20547942.280          44.600          43.500
 116739222.364 8  90797161.234 6                  21876877.180    21876879.440
  21876879.280          48.900          41.600
 129292082.795 6 100560512.925 6                  24212251.540    24212254.840
  24212252.140          40.650          37.050
 132508538.837 6 103062213.709 5                  24771073.800    24771077.720
  24771075.100          36.050          31.050
 125100941.739 6  97300749.316 6                  23394506.340    23394511.220
  23394509.240          40.350          39.350
 145127531.646 7                 108374583.420 7  27616802.180
                        46.100
 147177049.779 7                 109904949.553 7  28006859.600
                        44.100
 136977779.280 8                 102288637.219 8  26066001.020
                        50.100
 126503230.065 8                  94466806.445 8  24072710.540
                        51.150
 15  1 27  3  1 35.0000000  0 25G31G08G21G07G04G16G18G22G27G19R11R05
                                R21R10R07R22R12R06R13R23R20E12E19E18
                                E11
 132292440.633 7 103085020.028 6                  25174415.800    25174412.860
  25174411.780          43.800          39.100
 119207906.684 7  92889255.83846                  22684510.100
  22684506.980          47.700          41.350
 117011395.119 7  91177768.24047                  22266497.060
  22266491.820          47.900          44.250
 130508332.901 7 101694770.795 6                  24834909.740    24834905.820
  24834905.100          43.750          37.500
 133906175.646 7 104342477.26244                  25481494.220
  25481493.540          43.200          28.150
 107446947.373 8  83724895.19948                  20446471.900
  20446466.260          48.800          48.750
 116506386.108 8  90784191.23947                  22170418.940
  22170414.120          49.000          43.400
 119134298.062 8  92831928.33047                  22670489.920
  22670483.140          49.450          43.450
 111981014.364 8  87257943.577 8  83622190.723 8  21309273.400    21309271.300
  21309270.720          49.900          49.400
 121853912.237 7  94951077.88846                  23188024.520
  23188018.120          46.450          41.800
 111252380.374 7  86529641.310 6                  20819366.140    20819370.160
  20819368.300          46.550          41.650
 121133244.205 7  94214765.626 6                  22660475.820    22660478.100
  22660477.620          47.050          41.650
 108423789.329 8  84329664.623 7                  20261556.700    20261558.460
  20261557.540          48.050          46.150
 129847255.585 6 100992331.021 5                  24359019.060    24359027.560
  24359027.080          40.550          33.200
 127888399.905 7  99468782.226 6                  23890623.380    23890625.820
  23890624.640          43.550          38.350
 109525632.536 8  85186633.680 7                  20517833.200    20517836.200
  20517835.100          49.250          46.200
 109758455.789 7  85367702.733 7                  20547011.960    20547015.320
  20547014.600          44.800          43.350
 116726706.895 8  90787426.982 6                  21874531.820    21874534.020
  21874533.900          49.050          41.600
 129272828.374 6 100545537.260 6                  24208645.880    24208649.140
  24208646.460          40.650          36.850
 132494288.022 5 103051129.729 5                  24768409.480    24768413.640
  24768411.840          35.850          33.450
 125115399.223 6  97311994.026 6                  23397209.920    23397214.820
  23397212.780          40.200          38.800
 145138289.702 7                 108382617.035 7  27618849.360
                        46.250
 147181375.508 7                 109908179.813 7  28007682.700
                        44.600
 137001541.749 8                 102306381.920 8  26070522.820
                        50.250
 126509181.664 8                  94471250.827 8  24073843.080
                        51.050
 15  1 27  3  1 40.0000000  0 25G31G08G21G07G04G16G18G22G27G19R11R05
                                R21R10R07R22R12R06R13R23R20E12E19E18
                                E11
 132309010.848 7 103097931.827 6                  25177569.100    25177566.140
  25177565.120          43.900          39.700
 119223931.468 7  92901742.69146                  22687559.500
  22687556.460          47.750          41.700
 117021841.696 8  91185908.43247                  22268485.020
  22268479.720          48.700          43.900
 130497796.224 7 101686560.385 6                  24832904.640    24832900.720
  24832900.020          43.200          36.800
 133887819.415 7 104328173.75545                  25478001.140
  25478000.180          43.400          33.050
 107444080.580 8  83722661.33948                  20445926.380
  20445920.740          48.950          48.750
 116501852.981 8  90780658.94447                  22169556.240
  22169551.500          49.150          43.500
 119120454.449 8  92821141.09747                  22667855.600
  22667848.800          49.400          43.900
 111972969.294 8  87251674.695 8  83616183.044 8  21307742.440    21307740.380
  21307739.820          49.800          49.350
 121841127.188 7  94941115.52747                  23185591.600
  23185585.240          46.750          42.750
 111268515.057 7  86542190.512 6                  20822385.480    20822389.520
  20822387.700          46.400          41.550
 121138549.128 7  94218891.677 6                  22661468.220    22661470.440
  22661469.960          46.750          41.700
 108430653.220 8  84335003.208 7                  20262839.360    20262841.180
  20262840.220          48.100          46.050
 129870341.273 6 101010286.397 5                  24363349.860    24363358.560
  24363358.000          40.900          32.950
 127867966.600 7  99452889.651 6                  23886806.280    23886808.580
  23886807.480          43.000          37.950
 109519081.435 8  85181538.388 7                  20516605.980    20516608.980
  20516607.820          49.200          46.350
 109753522.829 7  85363865.986 7                  20546088.500    20546091.880
  20546091.120          44.650          43.250
 116714205.914 8  90777704.005 6                  21872189.160    21872191.280
  21872191.260          48.950          41.700
 129253582.817 6 100530568.488 6                  24205041.820    24205045.020
  24205042.480          40.800          36.900
 132480038.833 5 103040046.996 5                  24765745.560    24765749.600
  24765748.700          35.050          33.200
 125129855.398 6  97323237.722 6                  23399913.340    23399918.160
  23399916.100          40.050          39.050
 145149046.688 7                 108390649.840 7  27620896.360
                        46.750
 147185711.654 7                 109911417.830 7  28008507.800
                        44.300
 137025297.374 8                 102324121.509 8  26075043.300
                        50.100
 126515135.319 8                  94475696.742 8  24074976.000
                        51.000
 15  1 27  3  1 45.0000000  0 25G31G08G21G07G04G16G18G22G27G19R11R05
                                R21R10R07R22R12R06R13R23R20E12E19E18
                                E11
 132325578.206 7 103110841.379 6                  25180721.780    25180718.880
  25180717.860          43.350          40.450
 119239964.240 7  92914235.74946                  22690610.440
  22690607.400          47.700          40.950
 117032294.587 8  91194053.54647                  22270474.180
  22270468.800          49.100          43.750
 130487272.516 7 101678360.083 6                  24830902.060    24830898.100
  24830897.380          43.650          36.750
 133869465.576 7 104313872.15545                  25474508.520
  25474507.320          43.050          30.150
 107441228.173 8  83720438.68048                  20445383.600
  20445377.940          49.050          48.750
 116497333.243 8  90777137.07247                  22168696.100
  22168691.440          49.350          43.200
 119106618.048 8  92810359.49047                  22665222.640
  22665215.820          49.600          43.800
 111964930.006 8  87245410.316 8  83610179.678 8  21306212.560    21306210.560
  21306210.020          49.650          49.450
 121828346.211 7  94931156.32847                  23183159.460
  23183153.160          46.700          43.000
 111284665.392 7  86554751.875 6                  20825407.760    20825411.880
  20825410.040          46.550          41.550
 121143875.320 7  94223034.278 6                  22662464.600    22662466.780
  22662466.300          46.750          41.950
 108437523.245 8  84340346.557 7                  20264123.180    20264125.000
  20264124.060          48.450          46.000
 129893425.315 6 101028240.505 5                  24367680.440    24367689.240
  24367688.660          41.800          33.550
 127847532.701 7  99436996.635 6                  23882989.060    23882991.400
  23882990.300          42.850          38.700
 109512538.015 8  85176449.061 7                  20515380.160    20515383.180
  20515382.000          49.250          46.350
 109748613.498 7  85360047.622 7                  20545169.440    20545172.800
  20545172.040          44.850          43.100
 116701720.853 8  90767993.408 6                  21869849.540    21869851.580
  21869851.580          49.000          41.550
 129234346.998 6 100515607.289 6                  24201439.660    24201442.860
  24201440.340          41.000          37.250
 132465792.319 6 103028966.342 5                  24763082.460    24763086.400
  24763085.300          38.900          33.350
 125144311.692 6  97334481.471 6                  23402616.760    23402621.540
  23402619.460          39.800          39.400
 145159803.759 7                 108398682.706 7  27622943.380
                        46.850
 147190059.284 7                 109914664.449 7  28009335.120
                        44.600
 137049047.249 8                 102341856.804 8  26079562.680
                        49.900
 126521092.120 8                  94480145.003 8  24076109.540
                        50.900
 15  1 27  3  1 50.0000000  0 25G31G08G21G07G04G16G18G22G27G19R11R05
                                R21R10R07R22R12R06R13R23R20E12E19E18
                                E11
 132342141.387 7 103123747.684 6                  25183873.660    25183870.820
  25183869.740          43.450          40.000
 119256003.664 7  92926733.99446                  22693662.640
  22693659.640          47.750          41.200
 117042752.476 8  91202202.56047                  22272464.320
  22272458.800          49.350          43.150
 130476760.409 7 101670168.833 6                  24828901.660    24828897.700
  24828897.020          43.600          37.200
 133851112.877 7 104299571.35845                  25471016.100
  25471014.720          42.250          32.600
 107438388.822 8  83718226.19048                  20444843.320
  20444837.620          49.150          48.650
 116492825.563 8  90773624.59247                  22167838.260
  22167833.640          49.350          43.350
 119092787.570 8  92799582.49247                  22662590.800
  22662584.000          49.650          43.600
 111956895.181 8  87239149.419 8  83604179.650 8  21304683.540    21304681.600
  21304681.060          49.600          49.650
 121815567.991 7  94921199.27947                  23180727.820
  23180721.600          46.750          43.100
 111300829.862 7  86567324.236 6                  20828432.720    20828436.840
  20828435.000          46.750          41.900
 121149221.313 7  94227192.264 7                  22663464.660    22663466.860
  22663466.340          46.750          42.400
 108444398.146 8  84345693.696 7                  20265407.920    20265409.740
  20265408.820          48.550          46.050
 129916506.431 6 101046192.328 5                  24372010.500    24372019.260
  24372018.760          41.950          32.900
 127827096.980 7  99421102.210 6                  23879171.500    23879173.900
  23879172.780          42.700          38.800
 109506001.001 8  85171364.715 7                  20514155.560    20514158.620
  20514157.380          49.000          46.300
 109743726.285 7  85356246.444 7                  20544254.600    20544257.860
  20544257.120          45.050          43.150
 116689250.328 8  90758294.113 6                  21867512.600    21867514.620
  21867514.620          49.000          41.550
 129215119.706 6 100500652.710 6                  24197839.080    24197842.200
  24197839.820          41.050          37.150
 132451547.321 6 103017886.829 5                  24760419.440    24760423.240
  24760422.040          39.350          32.450
 125158766.549 6  97345724.121 6                  23405319.920    23405324.600
  23405322.460          39.350          38.950
 145170559.529 7                 108406714.605 7  27624990.180
                        47.100
 147194417.109 7                 109917918.684 7  28010164.420
                        44.650
 137072790.067 8                 102359586.819 8  26084080.720
                        49.950
 126527050.768 8                  94484594.633 8  24077243.420
                        50.950
 15  1 27  3  1 55.0000000  0 25G31G08G21G07G04G16G18G22G27G19R11R05
                                R21R10R07R22R12R06R13R23R20E12E19E18
                                E11
 132358701.696 7 103136651.780 6                  25187025.000    25187022.180
  25187021.160          43.250          40.100
 119272051.076 7  92939238.47146                  22696716.340
  22696713.380          47.900          41.550
 117053216.702 8  91210356.51547                  22274455.680
  22274450.020          49.400          43.350
 130466261.373 7 101661987.770 6                  24826903.780    24826899.820
  24826899.240          43.700          37.050
 133832762.561 7 104285272.48345                  25467524.140
  25467522.520          42.050          34.950
 107435563.886 8  83716024.94348                  20444305.760
  20444300.040          49.050          48.650
 116488331.259 8  90770122.55247                  22166982.960
  22166978.400          49.500          43.050
 119078964.325 8  92788811.13647                  22659960.340
  22659953.560          49.450          43.450
 111948866.185 8  87232893.063 8  83598183.964 8  21303155.620    21303153.720
  21303153.200          49.600          49.600
 121802793.851 7  94911245.41847                  23178296.960
  23178290.800          46.700          43.100
 111317009.782 7  86579908.614 6                  20831460.580    20831464.680
  20831462.860          46.750          41.600
 121154588.576 7  94231366.797 7                  22664468.720    22664470.920
  22664470.420          47.000          42.250
 108451279.216 8  84351045.638 7                  20266693.780    20266695.620
  20266694.720          48.250          46.050
 129939585.918 6 101064142.893 5                  24376340.280    24376349.080
  24376348.520          41.750          32.500
 127806660.736 7  99405207.369 6                  23875353.820    23875356.260
  23875355.160          43.600          38.350
 109499471.674 8  85166286.345 7                  20512932.420    20512935.440
  20512934.200          49.250          46.250
 109738862.611 7  85352463.588 7                  20543344.140    20543347.400
  20543346.620          44.600          43.250
 116676795.692 8  90748607.175 6                  21865178.680    21865180.620
  21865180.620          49.100          41.550
 129195902.358 6 100485705.879 6                  24194240.340    24194243.460
  24194241.120          41.300          37.350
 132437304.835 6 103006809.436 5                  24757757.140    24757760.500
  24757758.980          38.700          31.900
 125173221.424 6  97356966.809 6                  23408023.040    23408027.660
  23408025.480          39.400          38.950
 145181315.428 7                 108414746.611 7  27627037.020
                        47.100
 147198786.468 7                 109921181.532 6  28010995.880
                        44.350
 137096527.162 8                 102377312.571 8  26088597.680
                        50.000
 126533012.585 8                  94489046.648 8  24078377.880
                        50.800
 15  1 27  3  2  0.0000000  0 25G31G08G21G07G04G16G18G22G27G19R11R05
                                R21R10R07R22R12R06R13R23R20E12E19E18
                                E11
 132375258.092 7 103149552.798 6                  25190175.640    25190172.820
  25190171.920          42.800          40.650
 119288105.375 7  92951748.31246                  22699771.380
  22699768.400          47.950          40.600
 117063686.164 8  91218514.54447                  22276448.040
  22276442.260          49.550          43.250
 130455774.243 7 101653815.968 6                  24824908.140    24824904.200
  24824903.620          43.900          37.700
 133814413.640 7 104270974.68045                  25464032.460
  25464030.840          43.450          31.500
 107432752.279 8  83713834.07748                  20443770.760
  20443765.020          49.150          48.500
 116483849.261 8  90766630.09047                  22166130.040
  22166125.480          49.550          43.250
 119065147.261 8  92778044.60347                  22657331.020
  22657324.280          49.650          43.400
 111940841.901 8  87226640.374 8  83592191.812 8  21301628.600    21301626.780
  21301626.240          49.650          49.650
 121790022.688 7  94901293.87347                  23175866.660
  23175860.540          46.550          42.850
 111333204.234 7  86592504.294 6                  20834491.140    20834495.300
  20834493.440          46.750          41.550
 121159975.900 7  94235556.937 7                  22665476.580    22665478.700
  22665478.300          47.100          42.800
 108458165.392 7  84356401.550 7                  20267980.640    20267982.460
  20267981.580          47.950          46.250
 129962662.617 7 101082091.285 5                  24380669.500    24380678.240
  24380677.780          42.300          32.800
 127786222.833 7  99389311.214 6                  23871535.820    23871538.240
  23871537.160          43.450          38.600
 109492949.075 8  85161213.217 7                  20511710.540    20511713.560
  20511712.320          49.200          46.650
 109734021.434 7  85348698.239 7                  20542437.860    20542441.120
  20542440.340          45.100          43.450
 116664355.676 8  90738931.606 6                  21862847.460    21862849.320
  21862849.300          48.800          41.200
 129176693.740 6 100470765.833 6                  24190643.240    24190646.240
  24190644.060          41.800          37.550
 132423064.037 6 102995733.297 5                  24755094.880    24755098.200
  24755096.700          36.950          31.950
 125187675.269 6  97368208.698 6                  23410726.000    23410730.460
  23410728.320          40.150          38.550
 145192070.321 7                 108422777.844 7  27629083.620
                        47.250
 147203166.278 7                 109924452.159 7  28011829.320
                        44.700
 137120257.446 8                 102395033.230 8  26093113.320
                        49.950
 126538976.490 8                  94493500.212 8  24079512.760
                        50.900
 15  1 27  3  2  5.0000000  0 25G31G08G21G07G04G16G18G22G27G19R11R05
                                R21R10R07R22R12R06R13R23R20E12E19E18
                                E11
 132391811.464 6 103162451.464 6                  25193325.660    25193322.880
  25193322.040          41.950          40.100
 119304167.452 8  92964264.21046                  22702827.880
  22702824.860          48.250          40.400
 117074161.778 8  91226677.37447                  22278441.540
  22278435.680          49.250          43.250
 130445299.907 7 101645654.147 6                  24822914.960    24822910.980
  24822910.400          44.350          37.600
 133796067.000 7 104256678.62545                  25460541.220
  25460539.600          43.800          34.700
 107429954.887 8  83711654.29748                  20443238.460
  20443232.680          49.250          48.600
 116479380.499 8  90763147.93847                  22165279.640
  22165275.080          49.600          42.900
 119051337.290 8  92767283.57847                  22654703.060
  22654696.320          49.350          43.750
 111932823.269 8  87220392.085 8  83586203.864 8  21300102.660    21300100.880
  21300100.340          49.550          49.550
 121777255.466 7  94891345.40547                  23173437.120
  23173431.000          46.800          43.000
 111349414.136 7  86605111.986 6                  20837524.560    20837528.760
  20837526.920          46.900          41.350
 121165384.367 7  94239763.530 7                  22666488.360    22666490.520
  22666490.120          47.100          43.100
 108465057.625 8  84361762.172 7                  20269268.600    20269270.460
  20269269.560          48.300          46.250
 129985737.551 7 101100038.307 5                  24384998.380    24385007.220
  24385006.720          42.600          32.650
 127765784.515 7  99373414.755 6                  23867717.800    23867720.120
  23867719.120          43.250          38.350
 109486434.068 8  85156145.991 7                  20510490.040    20510493.060
  20510491.860          49.350          46.750
 109729203.625 7  85344951.049 7                  20541536.000    20541539.180
  20541538.440          44.900          43.650
 116651931.403 8  90729268.288 6                  21860519.180    21860521.000
  21860520.920          49.000          41.250
 129157495.036 6 100455833.497 6                  24187048.000    24187050.960
  24187048.780          41.650          37.650
 132408825.879 6 102984659.153 5                  24752433.220    24752436.640
  24752435.580          36.700          33.100
 125202128.807 6  97379450.361 6                  23413428.960    23413433.380
  23413431.140          39.450          39.000
 145202825.082 7                 108430809.001 7  27631130.180
                        47.000
 147207557.435 7                 109927731.254 6  28012664.880
                        44.650
 137143981.821 8                 102412749.477 8  26097627.860
                        50.050
 126544943.391 8                  94497956.011 8  24080648.180
                        50.900
 15  1 27  3  2 10.0000000  0 25G31G08G21G07G04G16G18G22G27G19R11R05
                                R21R10R07R22R12R06R13R23R20E12E19E18
                                E11
 132408361.303 7 103175347.377 6                  25196475.040    25196472.220
  25196471.360          42.400          39.850
 119320236.817 8  92976785.79546                  22705885.760
  22705882.720          48.000          40.000
 117084643.059 8  91234844.61047                  22280436.080
  22280430.180          48.750          43.400
 130434837.985 7 101637501.996 6                  24820924.160    24820920.180
  24820919.500          44.750          37.950
 133777722.187 7 104242384.02045                  25457050.320
  25457048.820          43.200          30.550
 107427171.279 8  83709485.25248                  20442708.800
  20442702.980          49.350          48.450
 116474924.500 8  90759675.73147                  22164431.680
  22164427.140          49.650          43.150
 119037533.978 8  92756527.76347                  22652076.360
  22652069.640          49.150          43.750
 111924809.794 8  87214147.821 8  83580219.778 8  21298577.700    21298575.980
  21298575.420          49.550          49.550
 121764491.682 7  94881399.60547                  23171008.260
  23171002.160          46.800          43.200
 111365638.759 7  86617731.135 6                  20840560.760    20840564.980
  20840563.140          46.650          41.150
 121170813.267 7  94243986.010 7                  22667503.940    22667506.080
  22667505.740          46.800          42.750
 108471955.362 8  84367127.072 7                  20270557.600    20270559.460
  20270558.560          48.350          46.000
 130008810.140 7 101117983.515 5                  24389326.880    24389335.800
  24389335.240          42.550          32.150
 127745344.993 7  99357517.354 6                  23863899.520    23863901.760
  23863900.780          43.350          38.400
 109479926.130 8  85151084.264 7                  20509270.900    20509273.880
  20509272.720          49.400          46.650
 109724408.756 7  85341221.713 7                  20540638.360    20540641.520
  20540640.820          45.050          43.350
 116639522.524 8  90719616.936 6                  21858193.800    21858195.480
  21858195.440          48.700          41.200
 129138305.533 6 100440908.313 6                  24183454.480    24183457.420
  24183455.220          41.000          36.800
 132394589.686 5 102973586.556 5                  24749771.920    24749775.740
  24749774.920          34.350          33.650
 125216581.795 6  97390691.536 6                  23416131.740    23416136.140
  23416133.880          40.100          38.800
 145213579.296 7                 108438839.740 7  27633176.640
                        46.500
 147211959.460 7                 109931018.514 6  28013502.520
                        44.550
 137167699.807 8                 102430460.963 8  26102141.180
                        49.950
 126550912.815 8                  94502413.695 8  24081784.120
                        50.850
 15  1 27  3  2 15.0000000  0 25G31G08G21G07G04G16G18G22G27G19R11R05
                                R21R10R07R22R12R06R13R23R20E12E19E18
                                E11
 132424907.893 6 103188240.769 6                  25199623.780    25199620.980
  25199620.260          41.700          39.650
 119336313.704 8  92989313.22546                  22708945.060
  22708942.040          48.300          40.600
 117095130.263 8  91243016.45147                  22282431.660
  22282425.860          48.000          44.250
 130424388.683 7 101629359.675 6                  24818935.780    24818931.780
  24818931.100          44.800          38.000
 133759379.343 7 104228090.93345                  25453559.780
  25453558.420          43.100          33.400
 107424401.686 8  83707327.12348                  20442181.780
  20442175.940          49.400          48.400
 116470481.509 8  90756213.66047                  22163586.180
  22163581.640          49.800          42.600
 119023737.610 8  92745777.33647                  22649450.960
  22649444.280          49.300          43.350
 111916801.746 8  87207907.777 8  83574239.745 8  21297053.760    21297052.080
  21297051.540          49.700          49.450
 121751731.609 7  94871456.67747                  23168580.100
  23168574.020          46.950          43.550
 111381878.430 7  86630361.978 6                  20843599.780    20843604.060
  20843602.180          46.700          40.900
 121176263.153 7  94248224.823 7                  22668523.420    22668525.600
  22668525.260          46.200          42.750
 108478858.889 8  84372496.482 7                  20271847.700    20271849.520
  20271848.640          48.450          46.000
 130031880.546 7 101135926.995 5                  24393654.920    24393664.020
  24393663.340          43.250          32.300
 127724904.625 7  99341619.282 6                  23860081.140    23860083.240
  23860082.340          43.200          38.150
 109473425.623 8  85146028.312 7                  20508053.160    20508056.100
  20508054.980          49.350          46.550
 109719637.140 7  85337510.450 7                  20539745.120    20539748.260
  20539747.520          44.950          43.100
 116627129.222 8  90709977.701 6                  21855871.300    21855872.940
  21855872.920          48.850          41.500
 129119125.633 6 100425990.601 5                  24179862.740    24179865.620
  24179863.440          40.750          35.750
 132380355.893 6 102962515.753 5                  24747111.100    24747114.820
  24747114.600          39.000          33.850
 125231034.319 6  97401932.372 6                  23418834.420    23418838.840
  23418836.600          39.450          39.300
 145224333.204 7                 108446870.227 7  27635223.020
                        46.850
 147216372.597 7                 109934314.038 6  28014342.260
                        44.300
 137191411.672 8                 102448167.868 8  26106653.340
                        50.150
 126556885.013 8                  94506873.452 8  24082920.580
                        50.950
 15  1 27  3  2 20.0000000  0 25G31G08G21G07G04G16G18G22G27G19R11R05
                                R21R10R07R22R12R06R13R23R20E12E19E18
                                E11
 132441449.376 6 103201130.156 6                  25202771.520    25202768.800
  25202768.120          41.700          40.050
 119352396.273 8  93001845.10146                  22712005.460
  22712002.380          48.300          39.950
 117105621.536 7  91251191.46347                  22284427.980
  22284422.320          47.600          44.550
 130413950.178 7 101621225.763 6                  24816949.440    24816945.380
  24816944.780          45.250          38.700
 133741036.813 7 104213798.10745                  25450069.280
  25450067.960          42.850          34.600
 107421644.298 8  83705178.51148                  20441657.080
  20441651.240          49.450          48.650
 116466049.751 8  90752760.34447                  22162742.840
  22162738.280          49.800          43.150
 119009946.319 8  92735030.87747                  22646826.520
  22646819.880          49.200          43.400
 111908797.299 8  87201670.552 8  83568262.401 8  21295530.500    21295528.880
  21295528.340          49.650          49.400
 121738973.405 7  94861515.23647                  23166152.280
  23166146.220          47.200          42.900
 111398131.479 7  86643003.242 6                  20846641.300    20846645.560
  20846643.700          46.750          40.950
 121181731.774 7  94252478.190 7                  22669546.380    22669548.560
  22669548.260          46.550          42.800
 108485766.373 8  84377868.982 7                  20273138.480    20273140.320
  20273139.480          48.450          45.900
 130054947.083 7 101153867.476 5                  24397982.280    24397991.420
  24397990.680          43.750          31.750
 127704461.706 7  99325719.240 6                  23856262.220    23856264.220
  23856263.380          44.300          38.650
 109466930.492 8  85140976.539 7                  20506836.440    20506839.340
  20506838.240          49.300          46.300
 109714886.790 7  85333815.729 7                  20538855.820    20538858.940
  20538858.220          44.950          43.300
 116614749.492 8  90700349.012 6                  21853551.340    21853553.080
  21853552.960          48.450          41.550
 129099953.479 6 100411078.901 6                  24176272.420    24176275.180
  24176273.080          40.300          36.600
 132366122.460 6 102951445.347 5                  24744450.360    24744453.940
  24744453.660          41.100          34.000
 125245484.558 6  97413171.428 6                  23421536.620    23421541.140
  23421538.900          38.950          39.850
 145235084.959 7                 108454899.137 7  27637268.980
                        46.850
 147220795.072 7                 109937616.524 6  28015183.760
                        44.000
 137215115.587 8                 102465868.832 8  26111164.020
                        50.150
 126562858.162 8                  94511333.914 8  24084057.220
                        51.000
 15  1 27  3  2 25.0000000  0 25G31G08G21G07G04G16G18G22G27G19R11R05
                                R21R10R07R22R12R06R13R23R20E12E19E18
                                E11
 132457990.089 7 103214018.937 6                  25205919.180    25205916.420
  25205915.740          42.000          40.000
 119368488.928 8  93014384.82846                  22715067.820
  22715064.640          48.250          39.450
 117116121.297 7  91259373.07647                  22286425.900
  22286420.440          47.250          44.350
 130403526.915 7 101613103.738 6                  24814965.980    24814962.000
  24814961.360          45.250          38.900
 133722699.033 7 104199508.95445                  25446579.700
  25446578.440          42.700          32.600
 107418903.550 8  83703042.86448                  20441135.540
  20441129.700          49.300          48.300
 116461633.596 8  90749319.19047                  22161902.480
  22161897.900          49.700          42.800
 118996164.578 8  92724291.86347                  22644203.900
  22644197.300          49.150          43.100
 111900800.880 8  87195439.582 8  83562291.057 8  21294008.780    21294007.220
  21294006.640          49.600          49.150
 121726221.484 7  94851578.67547                  23163725.680
  23163719.620          46.900          43.200
 111414402.156 7  86655658.212 6                  20849686.140    20849690.400
  20849688.520          46.600          40.950
 121187223.978 7  94256749.919 7                  22670573.780    22670575.960
  22670575.660          46.600          42.700
 108492682.264 8  84383248.006 7                  20274430.880    20274432.720
  20274431.880          48.450          45.950
 130078014.093 7 101171808.342 5                  24402309.720    24402318.840
  24402318.160          43.450          31.500
 127684020.682 7  99309820.660 6                  23852443.640    23852445.640
  23852444.820          43.700          39.250
 109460445.430 8  85135932.607 7                  20505621.600    20505624.420
  20505623.380          49.200          46.550
 109710162.329 7  85330141.144 7                  20537971.420    20537974.500
  20537973.780          44.900          43.700
 116602388.113 8  90690734.608 6                  21851234.840    21851236.520
  21851236.460          48.050          41.850
 129080793.621 6 100396176.772 6                  24172684.340    24172687.120
  24172685.100          40.650          36.250
 132351894.038 6 102940378.848 5                  24741790.520    24741794.120
  24741793.240          39.350          32.550
 125259936.954 6  97424412.199 6                  23424239.220    23424243.820
  23424241.580          38.700          39.900
 145245838.987 7                 108462929.749 7  27639315.380
                        46.900
 147225231.236 7                 109940929.250 6  28016027.860
                        43.950
 137238815.941 8                 102483567.144 8  26115674.040
                        50.300
 126568836.671 8                  94515798.386 8  24085194.900
                        51.050
 15  1 27  3  2 30.0000000  0 25G31G08G21G07G04G16G18G22G27G19R11R05
                                R21R10R07R22R12R06R13R23R20E12E19E18
                                E11
 132474525.092 7 103226903.283 6                  25209065.700    25209063.040
  25209062.340          42.100          39.700
 119384586.633 8  93026928.49346                  22718131.140
  22718127.900          48.350          40.300
 117126624.571 7  91267557.43347                  22288424.520
  22288419.200          47.650          44.150
 130393113.878 7 101604989.683 6                  24812984.440    24812980.500
  24812979.860          45.050          38.500
 133704360.898 7 104185219.54845                  25443090.040
  25443088.740          43.150          31.100
 107416174.410 8  83700916.26348                  20440616.220
  20440610.360          49.300          48.300
 116457228.084 8  90745886.32447                  22161064.140
  22161059.540          49.750          43.100
 118982387.357 8  92713556.37047                  22641582.120
  22641575.580          49.300          42.700
 111892807.477 8  87189210.963 8  83556321.965 8  21292487.660    21292486.100
  21292485.520          49.700          49.100
 121713470.868 7  94841643.13547                  23161299.360
  23161293.320          47.100          43.300
 111430685.306 7  86668322.878 6                  20852733.300    20852737.560
  20852735.680          46.400          40.750
 121192734.449 7  94261035.839 6                  22671604.580    22671606.780
  22671606.440          47.050          41.800
 108499601.448 8  84388629.592 7                  20275723.860    20275725.700
  20275724.900          48.600          46.150
 130101076.610 7 101189745.699 5                  24406636.260    24406645.580
  24406644.700          43.400          30.850
 127663576.374 7  99293919.540 6                  23848624.460    23848626.540
  23848625.700          44.800          39.950
 109453965.238 8  85130892.463 7                  20504407.680    20504410.520
  20504409.440          49.650          46.650
 109705458.632 7  85326482.713 7                  20537090.920    20537093.960
  20537093.240          44.600          43.400
 116590039.731 8  90681130.325 6                  21848920.780    21848922.460
  21848922.400          48.650          41.900
 129061640.981 6 100381280.277 5                  24169097.640    24169100.480
  24169098.320          40.700          35.700
 132337665.342 6 102929312.056 5                  24739130.560    24739134.440
  24739133.160          37.100          34.650
 125274386.634 6  97435650.835 6                  23426941.320    23426946.060
  23426943.800          38.500          40.950
 145256590.306 7                 108470958.331 7  27641361.260
                        46.550
 147229676.095 7                 109944248.472 6  28016873.660
                        44.450
 137262507.725 8                 102501259.061 8  26120182.480
                        50.650
 126574815.527 8                  94520263.116 8  24086332.640
                        51.150
 15  1 27  3  2 35.0000000  0 25G31G08G21G07G04G16G18G22G27G19R11R05
                                R21R10R07R22R12R06R13R23R20E12E19E18
                                E11
 132491056.895 7 103239785.120 6                  25212211.640    25212208.980
  25212208.320          42.950          40.300
 119400691.940 7  93039478.07546                  22721195.900
  22721192.580          47.950          39.800
 117137133.816 8  91275746.44247                  22290424.320
  22290419.100          48.250          43.900
 130382713.648 7 101596885.620 6                  24811005.360    24811001.420
  24811000.840          44.850          38.750
 133686024.934 7 104170931.79845                  25439600.800
  25439599.680          43.350          31.600
 107413459.396 8  83698800.66648                  20440099.600
  20440093.720          49.300          48.300
 116452835.747 8  90742463.72347                  22160228.300
  22160223.720          49.800          42.950
 118968617.220 8  92702826.39347                  22638961.700
  22638955.180          49.100          43.350
 111884819.613 8  87182986.653 8  83550356.998 8  21290967.560    21290966.040
  21290965.440          49.600          49.200
 121700724.062 7  94831710.55547                  23158873.760
  23158867.680          47.100          43.950
 111446983.670 7  86680999.385 6                  20855783.280    20855787.580
  20855785.680          46.400          40.950
 121198265.829 7  94265338.023 6                  22672639.320    22672641.560
  22672641.140          47.050          41.250
 108506526.524 8  84394015.758 7                  20277017.980    20277019.800
  20277019.020          48.450          45.900
 130124137.067 7 101207681.469 4                  24410962.420    24410971.740
  24410970.880          43.500          29.800
 127643131.405 7  99278017.891 6                  23844805.200    23844807.300
  23844806.480          43.100          40.300
 109447492.513 8  85125858.123 7                  20503195.180    20503197.940
  20503196.920          49.450          46.450
 109700778.251 7  85322842.419 7                  20536214.760    20536217.800
  20536217.080          44.700          43.350
 116577707.077 8  90671538.255 7                  21846609.640    21846611.360
  21846611.320          48.600          42.300
 129042498.013 6 100366391.268 5                  24165512.720    24165515.520
  24165513.340          40.650          35.000
 132323439.166 6 102918247.190 5                  24736471.180    24736475.160
  24736473.960          39.450          33.600
 125288835.908 6  97446889.140 6                  23429643.380    23429648.200
  23429645.960          39.100          40.700
 145267341.444 7                 108478986.757 7  27643407.040
                        46.150
 147234132.181 7                 109947576.061 6  28017721.560
                        44.100
 137286193.486 8                 102518946.468 8  26124689.780
                        50.600
 126580797.269 8                  94524729.995 8  24087470.920
                        51.150
 15  1 27  3  2 40.0000000  0 25G31G08G21G07G04G16G18G22G27G19R11R05
                                R21R10R07R22R12R06R13R23R20E12E19E18
                                E11
 132507586.909 7 103252665.584 6                  25215357.260    25215354.640
  25215353.940          42.900          40.500
 119416806.225 8  93052034.65446                  22724262.380
  22724259.000          48.050          40.100
 117147650.456 8  91283941.23047                  22292425.600
  22292420.400          48.850          43.150
 130372327.667 7 101588792.660 6                  24809028.980    24809025.000
  24809024.440          44.750          38.500
 133667692.640 7 104156646.94345                  25436112.240
  25436111.260          43.900          31.900
 107410760.008 8  83696697.24448                  20439585.940
  20439580.040          49.400          48.650
 116448457.981 8  90739052.48447                  22159395.260
  22159390.660          49.800          43.600
 118954855.627 8  92692103.08247                  22636342.920
  22636336.420          49.250          43.400
 111876838.740 8  87176767.793 8  83544397.267 8  21289448.820    21289447.300
  21289446.700          49.700          49.350
 121687982.511 7  94821782.07847                  23156449.160
  23156443.020          47.200          43.100
 111463298.620 7  86693688.778 6                  20858836.380    20858840.680
  20858838.780          46.650          40.800
 121203819.519 7  94269657.558 6                  22673678.240    22673680.480
  22673680.060          47.000          41.400
 108513458.947 8  84399407.649 7                  20278313.460    20278315.280
  20278314.500          48.350          46.050
 130147196.935 7 101225616.793 5                  24415288.560    24415298.000
  24415296.920          43.700          30.100
 127622687.388 7  99262117.014 6                  23840986.120    23840988.280
  23840987.440          42.950          39.950
 109441028.742 8  85120830.748 7                  20501984.360    20501987.060
  20501986.060          49.400          46.550
 109696122.633 7  85319221.379 7                  20535343.220    20535346.280
  20535345.540          44.650          43.550
 116565391.539 8  90661959.510 7                  21844301.700    21844303.480
  21844303.440          48.550          42.100
 129023366.261 6 100351511.004 5                  24161929.920    24161932.680
  24161930.500          40.750          35.400
 132309216.772 6 102907185.366 5                  24733812.540    24733816.640
  24733815.660          40.200          35.050
 125303286.406 6  97458128.419 6                  23432345.720    23432350.580
  23432348.260          40.100          39.900
 145278093.809 7                 108487016.096 7  27645453.080
                        46.400
 147238600.929 7                 109950913.110 6  28018571.960
                        44.150
 137309874.626 8                 102536630.455 8  26129196.200
                        50.600
 126586783.311 8                  94529200.103 8  24088610.040
                        51.150
 15  1 27  3  2 45.0000000  0 25G31G08G21G07G04G16G18G22G27G19R11R05
                                R21R10R07R22R12R06R13R23R20E12E19E18
                                E11
 132524110.742 7 103265541.217 6                  25218501.660    25218499.100
  25218498.380          42.650          40.400
 119432925.082 8  93064594.80946                  22727329.700
  22727326.340          48.250          40.650
 117158170.120 8  91292138.37347                  22294427.500
  22294422.240          49.600          43.100
 130361951.544 7 101580707.359 6                  24807054.480    24807050.480
  24807049.860          45.050          38.750
 133649359.574 7 104142361.44745                  25432623.520
  25432622.620          44.600          31.400
 107408071.816 8  83694602.54748                  20439074.400
  20439068.480          49.750          48.150
 116444090.427 8  90735649.19947                  22158564.180
  22158559.540          50.050          43.050
 118941098.212 8  92681383.02547                  22633724.960
  22633718.500          49.950          42.900
 111868860.467 8  87170550.955 8  83538439.465 8  21287930.580    21287929.060
  21287928.460          50.000          49.400
 121675241.804 7  94811854.25247                  23154024.700
  23154018.520          47.750          42.950
 111479625.521 7  86706387.471 6                  20861891.700    20861896.000
  20861894.140          46.750          41.050
 121209391.191 7  94273991.072 6                  22674720.520    22674722.740
  22674722.340          47.200          41.500
 108520394.183 8  84404801.727 7                  20279609.460    20279611.320
  20279610.520          48.450          45.800
 130170251.595 7 101243548.063 4                  24419613.680    24419623.340
  24419622.060          43.350          29.300
 127602239.727 7  99246213.286 6                  23837166.320    23837168.500
  23837167.720          43.900          40.000
 109434569.397 8  85115806.811 7                  20500774.380    20500777.020
  20500776.020          49.600          46.700
 109691487.415 7  85315616.224 7                  20534475.520    20534478.600
  20534477.820          44.900          43.300
 116553088.805 8  90652390.723 6                  21841996.160    21841997.980
  21841997.960          48.800          41.550
 129004241.451 6 100336636.134 5                  24158348.420    24158351.160
  24158348.980          41.200          35.650
 132294993.819 6 102896123.029 5                  24731153.780    24731157.940
  24731157.120          39.300          34.500
 125317733.519 6  97469365.068 6                  23435047.440    23435052.300
  23435049.960          39.750          40.050
 145288842.973 7                 108495043.062 7  27647498.600
                        47.550
 147243077.904 7                 109954256.333 6  28019423.960
                        45.000
 137333546.782 8                 102554307.701 8  26133700.900
                        50.800
 126592769.269 8                  94533670.139 8  24089749.140
                        51.450
 15  1 27  3  2 50.0000000  0 25G31G08G21G07G04G16G18G22G27G19R11R05
                                R21R10R07R22R12R06R13R23R20E12E19E18
                                E11
 132540632.269 7 103278415.042 6                  25221645.660    25221643.120
  25221642.360          42.400          39.400
 119449052.418 8  93077161.56446                  22730398.640
  22730395.280          48.250          39.850
 117168696.684 8  91300340.89647                  22296430.720
  22296425.380          49.850          42.400
 130351589.153 7 101572632.775 6                  24805082.600    24805078.540
  24805078.020          45.800          38.350
 133631029.703 7 104128078.47845                  25429135.420
  25429134.540          44.100          30.500
 107405398.726 8  83692519.62048                  20438565.740
  20438559.800          49.700          48.050
 116439737.011 8  90732256.93347                  22157735.800
  22157731.120          50.150          42.950
 118927348.838 8  92670669.22247                  22631108.540
  22631102.080          49.700          42.650
 111860888.683 8  87164339.179 8  83532486.510 8  21286413.580    21286412.100
  21286411.480          50.050          49.200
 121662505.871 7  94801930.15047                  23151601.160
  23151594.940          47.850          42.150
 111495968.542 7  86719098.709 6                  20864950.040    20864954.420
  20864952.500          47.200          41.100
 121214984.611 7  94278341.487 6                  22675766.900    22675769.120
  22675768.680          47.150          41.300
 108527336.278 8  84410201.137 7                  20280906.740    20280908.620
  20280907.800          49.100          45.950
 130193305.007 7 101261478.352 4                  24423938.580    24423948.260
  24423946.880          43.600          28.550
 127581792.501 7  99230309.884 6                  23833346.660    23833348.760
  23833348.020          44.700          39.600
 109428118.492 8  85110789.436 7                  20499565.980    20499568.540
  20499567.540          50.200          46.650
 109686876.535 7  85312029.971 7                  20533612.360    20533615.420
  20533614.660          45.600          43.600
 116540802.827 8  90642834.968 6                  21839693.780    21839695.600
  21839695.600          49.200          41.900
 128985127.372 6 100321769.611 5                  24154768.900    24154771.680
  24154769.500          41.800          35.500
 132280774.362 6 102885063.476 5                  24728495.580    24728499.660
  24728498.860          38.750          34.600
 125332181.376 6  97480602.267 6                  23437749.340    23437754.020
  23437751.820          40.450          39.400
 145299592.863 7                 108503070.601 7  27649544.280
                        47.100
 147247567.065 7                 109957608.605 6  28020278.280
                        45.200
 137357213.838 8                 102571981.148 8  26138204.620
                        50.850
 126598759.048 8                  94538143.027 8  24090888.960
                        51.500
 15  1 27  3  2 55.0000000  0 25G31G08G21G07G04G16G18G22G27G19R11R05
                                R21R10R07R22R12R06R13R23R20E12E19E18
                                E11
 132557149.684 7 103291285.687 6                  25224788.880    25224786.300
  25224785.500          42.550          38.400
 119465186.421 8  93089733.51646                  22733468.840
  22733465.500          48.000          40.800
 117179228.393 8  91308547.44147                  22298434.940
  22298429.480          49.800          42.600
 130341238.761 7 101564567.541 6                  24803112.980    24803108.980
  24803108.340          45.650          38.300
 133612701.248 7 104113796.61045                  25425647.580
  25425646.560          43.950          30.300
 107402738.987 8  83690447.09448                  20438059.640
  20438053.660          49.550          48.050
 116435395.918 8  90728874.26147                  22156909.760
  22156905.040          50.150          43.350
 118913605.732 8  92659960.31747                  22628493.320
  22628486.840          49.700          42.950
 111852921.621 8  87158131.083 8  83526537.086 8  21284897.480    21284896.020
  21284895.400          49.950          49.300
 121649772.957 7  94792008.40347                  23149178.160
  23149171.940          47.400          43.250
 111512325.812 7  86731821.036 6                  20868011.100    20868015.440
  20868013.500          47.100          41.300
 121220598.195 7  94282707.602 6                  22676817.020    22676819.320
  22676818.800          47.000          41.400
 108534283.402 8  84415604.450 7                  20282204.960    20282206.840
  20282206.000          48.800          46.150
 130216355.637 7 101279406.470 4                  24428262.980    24428272.640
  24428271.200          42.900          28.200
 127561343.857 7  99214405.373 6                  23829526.680    23829528.800
  23829528.020          45.350          39.700
 109421674.226 8  85105777.238 7                  20498358.800    20498361.340
  20498360.300          50.350          46.550
 109682288.098 7  85308461.185 7                  20532753.440    20532756.480
  20532755.720          45.400          43.950
 116528531.822 8  90633290.857 7                  21837394.180    21837396.020
  21837396.020          49.050          42.350
 128966022.282 6 100306910.070 5                  24151191.060    24151193.720
  24151191.680          41.550          34.700
 132266556.346 6 102874004.993 5                  24725837.680    24725841.500
  24725840.700          38.750          33.050
 125346627.957 6  97491838.512 6                  23440451.000    23440455.540
  23440453.360          40.650          39.400
 145310341.765 7                 108511097.384 7  27651589.660
                        46.450
 147252066.592 7                 109960968.686 6  28021134.580
                        45.050
 137380874.020 8                 102589649.462 8  26142707.020
                        50.850
 126604750.874 8                  94542617.447 8  24092029.180
                        51.450
 15  1 27  3  3  0.0000000  0 25G31G08G21G07G04G16G18G22G27G19R11R05
                                R21R10R07R22R12R06R13R23R20E12E19E18
                                E11
 132573663.937 6 103304153.879 6                  25227931.480    25227928.880
  25227928.180          41.900          37.900
 119481328.045 8  93102311.38246                  22736540.500
  22736537.180          48.050          40.400
 117189766.181 8  91316758.70547                  22300440.300
  22300434.700          49.550          42.950
 130330901.313 7 101556512.374 6                  24801145.860    24801141.800
  24801141.160          45.050          38.900
 133594375.153 7 104099516.55445                  25422160.220
  25422159.060          43.800          33.400
 107400093.547 8  83688385.71048                  20437556.240
  20437550.260          49.300          48.300
 116431068.126 8  90725501.95947                  22156086.260
  22156081.480          50.200          43.000
 118899869.887 8  92649257.05347                  22625879.500
  22625872.940          49.350          43.250
 111844960.224 8  87151927.393 8  83520591.881 8  21283382.460    21283381.020
  21283380.380          49.700          49.200
 121637043.986 7  94782089.73147                  23146755.900
  23146749.720          47.200          42.750
 111528698.172 7  86744555.086 6                  20871074.940    20871079.200
  20871077.340          47.150          41.200
 121226232.635 7  94287089.942 6                  22677871.080    22677873.280
  22677872.800          46.750          41.600
 108541236.515 8  84421012.415 7                  20283504.300    20283506.180
  20283505.360          48.700          46.100
 130239404.265 7 101297343.774 4                  24432586.960
  24432595.140          42.300          25.950
 127540894.766 7  99198500.528 6                  23825706.600    23825708.760
  23825708.080          45.000          39.600
 109415237.550 8  85100770.938 7                  20497153.040    20497155.540
  20497154.480          50.200          46.650
 109677723.136 7  85304910.661 7                  20531898.880    20531901.900
  20531901.200          45.600          44.000
 116516276.655 8  90623759.061 7                  21835097.560    21835099.380
  21835099.440          48.950          42.250
 128946927.237 6 100292058.356 5                  24147615.160    24147617.740
  24147615.740          41.600          35.100
 132252341.003 6 102862948.656 5                  24723180.220    24723184.220
  24723183.040          39.750          33.750
 125361074.495 6  97503074.706 6                  23443152.620    23443157.080
  23443154.920          40.200          40.250
 145321090.561 7                 108519124.071 7  27653635.000
                        46.400
 147256577.454 7                 109964337.193 6  28021993.020
                        44.700
 137404528.256 8                 102607313.332 8  26147208.320
                        50.800
 126610745.679 8                  94547094.079 8  24093169.980
                        51.350
 15  1 27  3  3  5.0000000  0 25G31G08G21G07G04G16G18G22G27G19R11R05
                                R21R10R07R22R12R06R13R23R20E12E19E18
                                E11
 132590175.627 6 103317020.071 6                  25231073.640    25231071.000
  25231070.320          40.750          38.900
 119497477.841 8  93114895.64546                  22739613.700
  22739610.400          48.050          40.200
 117200310.652 8  91324975.18147                  22302446.920
  22302441.180          49.150          43.000
 130320577.420 7 101548467.770 6                  24799181.320    24799177.300
  24799176.560          44.800          38.700
 133576052.050 7 104085238.86745                  25418673.400
  25418672.300          44.100          30.950
 107397463.032 8  83686335.95648                  20437055.680
  20437049.660          49.150          48.500
 116426754.233 8  90722140.47847                  22155265.420
  22155260.580          50.200          43.350
 118886141.890 8  92638559.91647                  22623267.160
  22623260.540          49.300          43.200
 111837005.117 8  87145728.608 8  83514651.376 8  21281868.660    21281867.200
  21281866.580          49.700          49.300
 121624319.562 7  94772174.59947                  23144334.520
  23144328.360          47.150          43.550
 111545086.275 7  86757301.390 6                  20874141.760    20874145.980
  20874144.100          46.900          41.150
 121231888.773 7  94291489.162 6                  22678929.180    22678931.320
  22678930.840          46.900          41.350
 108548196.190 8  84426425.497 7                  20284804.900    20284806.760
  20284805.920          48.200          46.250
 130262451.555 7                                  24436910.640
                        43.050
 127520445.946 7  99182595.905 6                  23821886.580    23821888.800
  23821888.100          44.700          38.750
 109408808.944 8  85095770.911 7                  20495948.800    20495951.260
  20495950.180          49.950          46.600
 109673182.361 7  85301378.939 7                  20531048.820    20531051.920
  20531051.180          45.100          43.900
 116504038.057 8  90614240.153 7                  21832804.040    21832805.900
  21832805.940          48.850          42.050
 128927842.688 6 100277214.823 5                  24144041.220    24144043.840
  24144041.820          41.350          35.500
 132238128.671 6 102851894.601 6                  24720523.440    24720527.480
  24720526.280          41.600          36.100
 125375521.354 6  97514311.129 6                  23445854.260    23445858.700
  23445856.640          39.600          40.550
 145331839.881 7                 108527151.133 7  27655680.520
                        46.800
 147261100.240 7                 109967714.580 6  28022853.680
                        44.350
 137428177.143 8                 102624973.209 8  26151708.600
                        50.800
 126616744.055 8                  94551573.390 8  24094311.460
                        51.250
 15  1 27  3  3 10.0000000  0 25G31G08G21G07G04G16G18G22G27G19R11R05
                                R21R10R07R22R12R06R13R23R20E12E19E18
                                E11
 132606683.278 6 103329883.059 6                  25234214.960    25234212.340
  25234211.700          41.900          38.800
 119513634.329 7  93127485.11046                  22742688.180
  22742684.880          47.850          40.250
 117210860.309 8  91333195.69947                  22304454.500
  22304448.640          48.900          43.400
 130310265.585 7 101540432.561 6                  24797219.060    24797215.000
  24797214.300          45.000          38.900
 133557730.466 7 104070962.32445                  25415186.900
  25415185.680          44.250          32.750
 107394845.935 8  83684296.66648                  20436557.680
  20436551.640          49.150          48.400
 116422452.729 8  90718788.66547                  22154446.940
  22154442.020          50.150          43.050
 118872420.298 8  92627867.77147                  22620656.060
  22620649.360          49.650          43.100
 111829054.784 8  87139533.546 8  83508714.439 8  21280355.780    21280354.300
  21280353.680          49.750          49.300
 121611598.188 7  94762261.84447                  23141913.720
  23141907.560          47.300          43.200
 111561488.514 7  86770058.688 6                  20877211.220    20877215.420
  20877213.540          47.350          41.150
 121237564.887 7  94295903.938 7                  22679991.040    22679993.080
  22679992.620          47.050          42.300
 108555160.899 8  84431842.490 7                  20286106.420    20286108.320
  20286107.440          48.100          46.400
 130285495.839 7 101333231.510 4                  24441233.860
  24441243.040          42.700          26.900
 127499995.744 7  99166690.180 6                  23818066.280    23818068.540
  23818067.820          44.150          38.550
 109402387.048 8  85090776.106 7                  20494745.780    20494748.200
  20494747.140          49.800          46.800
 109668664.185 7  85297864.808 7                  20530203.000    20530206.100
  20530205.380          45.650          43.950
 116491814.547 8  90604732.983 7                  21830513.360    21830515.240
  21830515.220          48.700          42.200
 128908767.296 6 100262378.395 6                  24140468.980    24140471.620
  24140469.540          41.250          36.300
 132223918.027 6 102840841.849 6                  24717866.900    24717870.940
  24717870.080          41.650          36.850
 125389967.138 6  97525546.727 6                  23448555.760    23448560.200
  23448558.160          40.700          39.400
 145342588.192 7                 108535177.478 7  27657725.860
                        46.400
 147265633.449 7                 109971099.785 6  28023716.260
                        44.400
 137451819.187 8                 102642627.984 8  26156207.580
                        50.800
 126622744.525 8                  94556054.256 8  24095453.300
                        51.150
 15  1 27  3  3 15.0000000  0 25G31G08G21G07G04G16G18G22G27G19R11R05
                                R21R10R07R22R12R06R13R23R20E12E19E18
                                E11
 132623186.554 7 103342742.671 6                  25237355.520    25237352.900
  25237352.280          42.900          39.250
 119529797.184 8  93140079.54746                  22745763.880
  22745760.580          48.100          40.200
 117221414.800 8  91341419.98347                  22306462.960
  22306457.020          48.350          43.500
 130299965.521 7 101532406.541 6                  24795259.020    24795255.000
  24795254.360          44.500          39.050
 133539409.994 7 104056686.65845                  25411700.600
  25411699.360          43.600          33.000
 107392241.915 8  83682267.56148                  20436062.140
  20436056.100          49.050          48.350
 116418163.327 8  90715446.27847                  22153630.760
  22153625.760          50.050          43.150
 118858704.785 8  92617180.36047                  22618046.140
  22618039.360          49.800          42.750
 111821108.929 8  87133341.975 8  83502780.855 8  21278843.740    21278842.260
  21278841.640          49.750          49.200
 121598879.557 7  94752351.23747                  23139493.440
  23139487.300          47.250          42.900
 111577904.674 7  86782826.802 6                  20880283.280    20880287.420
  20880285.580          47.600          41.500
 121243260.782 7  94300334.096 7                  22681056.580    22681058.640
  22681058.120          47.850          42.650
 108562130.366 8  84437263.184 7                  20287408.800    20287410.720
  20287409.840          48.150          46.250
 130308536.813 7 101351152.097 4                  24445556.400
  24445565.900          42.700          26.650
 127479544.161 7  99150783.393 6                  23814245.780    23814248.020
  23814247.220          44.250          39.250
 109395971.478 8  85085786.220 7                  20493543.980    20493546.380
  20493545.300          49.750          47.000
 109664168.263 7  85294367.980 7                  20529361.340    20529364.480
  20529363.760          44.950          43.900
 116479605.693 8  90595237.220 6                  21828225.380    21828227.320
  21828227.240          48.550          41.750
 128889700.772 6 100247548.878 6                  24136898.440    24136901.140
  24136899.020          41.150          37.000
 132209708.615 6 102829790.035 6                  24715210.540    24715214.680
  24715213.880          40.250          36.650
 125404411.594 6  97536781.322 6                  23451256.900    23451261.320
  23451259.280          38.900          39.100
 145353335.207 7                 108543202.841 7  27659770.920
                        46.300
 147270176.779 7                 109974492.521 6  28024580.800
                        44.350
 137475454.083 8                 102660277.427 8  26160705.180
                        50.750
 126628746.761 8                  94560536.449 8  24096595.520
                        51.200
 15  1 27  3  3 20.0000000  0 25G31G08G21G07G04G16G18G22G27G19R11R05
                                R21R10R07R22R12R06R13R23R20E12E19E18
                                E11
 132639687.026 7 103355600.126 6                  25240495.540    25240492.980
  25240492.340          43.400          38.950
 119545967.982 7  93152680.17046                  22748841.100
  22748837.760          47.900          40.800
 117231975.740 7  91349649.28247                  22308472.600
  22308466.620          47.600          43.900
 130289678.844 7 101524390.951 6                  24793301.480    24793297.560
  24793296.980          43.950          39.350
 133521092.330 7 104042413.19545                  25408214.800
  25408213.520          43.400          33.800
 107389652.633 8  83680249.93948                  20435569.420
  20435563.380          49.050          48.750
 116413887.665 8  90712114.58947                  22152817.200
  22152812.120          50.000          43.000
 118844997.030 8  92606498.98747                  22615437.700
  22615430.820          49.700          43.600
 111813169.159 8  87127155.139 8  83496851.806 8  21277332.880    21277331.380
  21277330.760          49.750          49.250
 121586165.272 7  94742444.00247                  23137073.980
  23137067.860          47.200          43.700
 111594336.358 7  86795606.998 6                  20883358.240    20883362.400
  20883360.560          47.150          41.650
 121248978.113 7  94304780.913 7                  22682126.140    22682128.220
  22682127.680          47.750          43.050
 108569106.220 8  84442688.850 7                  20288712.400    20288714.360
  20288713.460          48.300          46.350
 130331576.163 7 101369071.401 4                  24449878.700
  24449888.540          42.950          27.950
 127459092.501 7  99134876.567 6                  23810425.260    23810427.440
  23810426.620          44.650          38.900
 109389563.848 8  85080802.507 7                  20492343.620    20492346.020
  20492344.960          49.850          47.100
 109659696.179 7  85290889.693 7                  20528524.140    20528527.360
  20528526.580          44.850          44.000
 116467413.365 8  90585754.294 6                  21825940.520    21825942.460
  21825942.360          48.650          41.750
 128870644.636 6 100232727.433 6                  24133329.860    24133332.580
  24133330.420          40.900          36.950
 132195502.288 6 102818740.663 5                  24712554.820    24712558.960
  24712558.060          39.450          35.550
 125418856.092 6  97548015.907 6                  23453958.120    23453962.440
  23453960.480          39.950          39.250
 145364082.561 7                 108551228.445 7  27661816.080
                        46.550
 147274731.836 7                 109977894.041 6  28025447.540
                        44.400
 137499083.434 8                 102677922.718 8  26165201.700
                        50.850
 126634752.384 8                  94565021.168 8  24097738.360
                        51.100
 15  1 27  3  3 25.0000000  0 25G31G08G21G07G04G16G18G22G27G19R11R05
                                R21R10R07R22R12R06R13R23R20E12E19E18
                                E11
 132656182.435 7 103368453.604 6                  25243634.580    25243631.980
  25243631.360          43.750          38.550
 119562144.484 7  93165285.23346                  22751919.420
  22751916.080          47.800          40.300
 117242540.902 7  91357881.86647                  22310483.000
  22310477.120          47.750          44.100
 130279403.345 7 101516384.054 6                  24791346.060    24791342.180
  24791341.660          43.850          39.650
 133502775.242 7 104028140.18045                  25404729.160
  25404727.840          43.900          33.550
 107387075.855 8  83678242.05848                  20435079.060
  20435073.040          49.150          48.400
 116409623.522 8  90708791.88847                  22152005.820
  22152000.680          50.150          43.200
 118831294.745 8  92595821.88247                  22612830.300
  22612823.360          49.850          43.400
 111805233.270 8  87120971.327 8  83490925.644 8  21275822.740    21275821.220
  21275820.600          49.800          49.300
 121573453.128 7  94732538.44347                  23134654.900
  23134648.840          47.300          43.900
 111610781.144 7  86808397.387 6                  20886435.660    20886439.900
  20886438.000          47.000          41.800
 121254714.488 8  94309242.536 7                  22683199.240    22683201.320
  22683200.820          48.000          42.900
 108576086.184 8  84448117.705 7                  20290016.780    20290018.720
  20290017.840          48.550          46.200
 130354611.614 7 101386987.718 4                  24454200.260    24454210.880
  24454209.980          42.250          28.800
 127438638.752 7  99118968.088 6                  23806604.420    23806606.380
  23806605.560          45.350          38.250
 109383161.943 8  85075823.261 7                  20491144.360    20491146.720
  20491145.700          49.850          47.000
 109655245.813 7  85287428.288 7                  20527690.980    20527694.240
  20527693.480          45.000          44.150
 116455235.335 8  90576282.508 6                  21823658.340    21823660.400
  21823660.200          49.200          41.700
 128851596.668 6 100217912.347 6                  24129762.780    24129765.580
  24129763.380          40.800          37.050
 132181296.525 6 102807691.745 5                  24709899.180    24709903.280
  24709902.260          38.150          33.400
 125433298.662 6  97559249.040 6                  23456658.900    23456663.300
  23456661.340          38.850          39.950
 145374827.973 7                 108559252.611 7  27663860.880
                        46.450
 147279296.373 7                 109981302.627 7  28026316.080
                        44.300
 137522705.013 8                 102695562.196 8  26169696.740
                        50.700
 126640759.165 8                  94569506.739 8  24098881.420
                        51.150
 15  1 27  3  3 30.0000000  0 25G31G08G21G07G04G16G18G22G27G19R11R05
                                R21R10R07R22R12R06R13R23R20E12E19E18
                                E11
 132672675.325 7 103381305.110 6                  25246773.100    25246770.500
  25246769.840          44.400          38.400
 119578329.158 7  93177896.66346                  22754999.240
  22754995.940          47.700          40.950
 117253112.725 7  91366119.64247                  22312494.680
  22312488.900          47.600          44.250
 130269141.498 7 101508387.806 6                  24789393.220    24789389.460
  24789388.980          43.700          39.200
 133484461.235 7 104013869.53445                  25401244.120
  25401242.720          43.900          33.200
 107384514.028 8  83676245.82548                  20434591.580
  20434585.540          49.150          48.450
 116405373.388 8  90705480.09447                  22151197.120
  22151191.880          50.150          43.300
 118817600.446 8  92585150.99947                  22610224.420
  22610217.400          49.750          43.750
 111797303.718 8  87114792.451 8  83485004.233 8  21274313.800    21274312.280
  21274311.680          49.850          49.400
 121560745.596 7  94722636.48247                  23132236.720
  23132230.700          47.500          43.700
 111627241.629 7  86821199.985 6                  20889516.060    20889520.240
  20889518.340          46.800          41.800
 121260472.504 8  94313720.993 7                  22684276.400    22684278.480
  22684278.000          48.150          43.100
 108583072.756 8  84453551.705 7                  20291322.420    20291324.340
  20291323.460          48.700          46.300
 130377645.674 7 101404902.917 4                  24458521.500
  24458531.480          42.650          29.100
 127418185.376 7  99103059.898 6                  23802783.540    23802785.560
  23802784.660          45.900          39.000
 109376768.275 8  85070850.408 7                  20489946.640    20489948.980
  20489947.980          49.750          47.050
 109650819.660 7  85283985.729 7                  20526862.400    20526865.700
  20526864.920          45.050          44.100
 116443073.850 8  90566823.585 6                  21821379.320    21821381.400
  21821381.140          48.850          41.900
 128832559.575 6 100203105.696 6                  24126197.740    24126200.500
  24126198.380          40.600          37.300
 132167094.178 6 102796645.485 5                  24707244.100    24707248.200
  24707247.180          39.050          34.300
 125447741.663 6  97570482.429 6                  23459359.800    23459364.240
  23459362.280          40.050          39.100
 145385573.982 7                 108567277.214 7  27665905.800
                        46.850
 147283872.878 7                 109984720.155 6  28027186.900
                        44.700
 137546321.284 8                 102713197.726 8  26174190.800
                        50.850
 126646769.573 8                  94573995.038 8  24100025.200
                        51.100
 15  1 27  3  3 35.0000000  0 25G31G08G21G07G04G16G18G22G27G19R11R05
                                R21R10R07R22R12R06R13R23R20E12E19E18
                                E11
 132689166.007 7 103394154.914 6                  25249911.240    25249908.620
  25249908.020          44.550          38.750
 119594522.350 7  93190514.72946                  22758080.700
  22758077.380          47.600          41.100
 117263691.590 7  91374362.90347                  22314507.700
  22314502.040          47.950          43.900
 130258893.711 7 101500402.518 6                  24787443.080    24787439.340
  24787438.960          43.300          39.600
 133466150.635 7 103999601.57645                  25397759.740
  25397758.260          43.400          34.900
 107381967.556 8  83674261.56148                  20434107.000
  20434100.980          49.100          48.650
 116401137.609 8  90702179.49147                  22150391.140
  22150385.860          50.250          43.250
 118803914.539 8  92574486.65447                  22607620.140
  22607613.040          49.800          43.550
 111789380.885 8  87108618.817 8  83479087.832 8  21272806.140    21272804.620
  21272804.040          49.800          49.350
 121548043.079 7  94712738.42647                  23129819.540
  23129813.520          47.550          43.100
 111643718.267 7  86834015.143 6                  20892599.440    20892603.600
  20892601.740          46.900          41.700
 121266252.570 8  94318216.604 7                  22685357.700    22685359.740
  22685359.300          48.250          43.050
 108590066.338 8  84458991.158 7                  20292629.380    20292631.260
  20292630.380          48.800          46.400
 130400678.719 7 101422824.63415                  24462842.600    24462857.980
  24462852.760          42.900          30.300
 127397732.728 7  99087152.291 6                  23798962.840    23798964.920
  23798963.920          45.300          38.700
 109370383.147 8  85065884.195 7                  20488750.500    20488752.820
  20488751.840          49.600          46.950
 109646418.118 7  85280562.305 7                  20526038.400    20526041.760
  20526040.960          45.350          43.950
 116430929.366 8  90557377.867 7                  21819103.440    21819105.560
  21819105.240          48.800          42.250
 128813533.733 6 100188307.811 6                  24122634.820    24122637.640
  24122635.500          40.550          37.800
 132152895.281 6 102785601.882 5                  24704589.700    24704593.740
  24704592.940          40.600          35.150
 125462185.557 6  97581716.594 6                  23462060.960    23462065.160
  23462063.240          39.900          38.800
 145396320.921 7                 108575302.518 7  27667950.980
                        47.100
 147288461.730 7                 109988146.911 6  28028060.060
                        44.350
 137569932.631 8                 102730829.562 8  26178683.920
                        50.800
 126652783.987 8                  94578486.318 8  24101169.720
                        51.150
 15  1 27  3  3 40.0000000  0 25G31G08G21G07G04G16G18G22G27G19R11R05
                                R21R10R07R22R12R06R13R23R20E12E19E18
                                E11
 132705650.969 7 103407000.264 6                  25253048.260    25253045.700
  25253045.120          44.350          37.850
 119610720.553 7  93203136.70146                  22761163.100
  22761159.840          47.650          40.700
 117274273.946 8  91382608.88947                  22316521.440
  22316515.860          48.600          43.900
 130248656.469 7 101492425.437 6                  24785494.960    24785491.240
  24785490.880          43.600          39.550
 133447839.978 7 103985333.56945                  25394275.360
  25394273.880          42.900          33.350
 107379432.947 8  83672286.54148                  20433624.680
  20433618.660          49.150          48.800
 116396912.658 8  90698887.31147                  22149587.220
  22149581.860          50.250          43.250
 118790233.475 8  92563826.08747                  22605016.760
  22605009.620          50.000          43.250
 111781461.279 8  87102447.697 8  83473173.834 8  21271299.120    21271297.560
  21271296.980          49.800          49.400
 121535342.039 7  94702841.51647                  23127402.620
  23127396.640          47.700          43.700
 111660207.360 7  86846840.000 6                  20895685.120    20895689.260
  20895687.460          47.100          41.800
 121272050.999 8  94322726.485 7                  22686442.420    22686444.480
  22686444.040          48.550          42.700
 108597063.329 8  84464433.266 7                  20293936.960    20293938.800
  20293937.920          48.850          46.200
 130423707.117 7 101440735.435 5                  24467162.860    24467174.800
  24467173.320          42.400          30.000
 127377277.412 7  99071242.588 6                  23795141.680    23795143.720
  23795142.640          44.150          39.100
 109364003.171 8  85060921.979 7                  20487555.340    20487557.680
  20487556.660          49.850          47.050
 109642037.512 7  85277155.157 7                  20525218.320    20525221.700
  20525220.920          44.750          43.900
 116418798.602 8  90547942.833 7                  21816830.160    21816832.260
  21816831.940          49.150          42.150
 128794515.361 6 100173515.740 6                  24119073.340    24119076.260
  24119074.100          39.800          37.950
 132138696.461 7 102774558.301 6                  24701935.420    24701939.420
  24701938.760          42.750          38.000
 125476626.673 6  97592948.585 6                  23464761.460    23464765.740
  23464763.860          39.400          40.050
 145407065.288 7                 108583325.909 7  27669995.700
                        46.950
 147293059.437 7                 109991580.228 6  28028934.900
                        44.350
 137593535.541 8                 102748455.110 8  26183175.440
                        50.800
 126658798.893 8                  94582977.970 8  24102314.360
                        51.150
 15  1 27  3  3 45.0000000  0 25G31G08G21G07G04G16G18G22G27G19R11R05
                                R21R10R07R22R12R06R13R23R20E12E19E18
                                E11
 132722133.046 7 103419843.381 6                  25256184.740    25256182.300
  25256181.600          44.250          37.350
 119626926.606 7  93215764.79246                  22764247.000
  22764243.780          47.400          40.650
 117284862.682 8  91390859.86047                  22318536.420
  22318530.920          48.850          43.850
 130238432.619 7 101484458.801 6                  24783549.380    24783545.780
  24783545.360          43.550          39.950
 133429532.107 7 103971067.73145                  25390791.520
  25390790.100          43.600          34.700
 107376912.992 8  83670322.94448                  20433145.140
  20433139.140          49.200          48.650
 116392701.430 8  90695605.84747                  22148785.920
  22148780.500          50.350          43.250
 118776560.169 8  92553171.56547                  22602414.860
  22602407.680          49.850          43.450
 111773547.734 8  87096281.299 8  83467264.371 8  21269793.220    21269791.680
  21269791.100          49.800          49.350
 121522645.335 7  94692947.97647                  23124986.520
  23124980.560          47.500          43.250
 111676711.851 7  86859676.820 6                  20898773.740    20898777.840
  20898776.060          47.400          41.300
 121277870.765 8  94327252.982 7                  22687531.180    22687533.200
  22687532.780          48.400          42.400
 108604066.682 8  84469880.323 7                  20295245.720    20295247.540
  20295246.660          48.700          46.150
 130446733.789 7 101458644.832 5                  24471482.740    24471493.460
  24471493.080          42.800          30.800
 127356822.001 7  99055332.862 6                  23791320.420    23791322.500
  23791321.440          42.600          38.000
 109357631.077 8  85055965.918 7                  20486361.620    20486364.040
  20486362.980          49.900          47.150
 109637680.801 7  85273766.616 7                  20524402.720    20524406.160
  20524405.340          44.850          43.950
 116406684.350 8  90538520.643 7                  21814559.980    21814562.120
  21814561.740          49.100          42.300
 128775507.552 6 100158731.888 6                  24115513.720    24115516.780
  24115514.700          39.950          38.650
 132124500.512 7 102763517.007 6                  24699281.580    24699285.620
  24699285.000          42.750          37.400
 125491067.990 6  97604180.689 6                  23467462.040    23467466.300
  23467464.440          39.700          39.300
 145417809.960 7                 108591349.523 7  27672040.340
                        46.350
 147297668.781 7                 109995022.292 6  28029811.980
                        44.150
 137617132.863 8                 102766076.483 8  26187665.840
                        50.750
 126664817.143 8                  94587472.120 8  24103459.620
                        51.150
 15  1 27  3  3 50.0000000  0 25G31G08G21G07G04G16G18G22G27G19R11R05
                                R21R10R07R22R12R06R13R23R20E12E19E18
                                E11
 132738610.783 7 103432683.104 6                  25259320.420    25259318.040
  25259317.280          44.300          38.000
 119643139.037 7  93228397.84746                  22767332.100
  22767328.940          47.650          40.650
 117295456.340 8  91399114.65847                  22320552.400
  22320546.900          49.200          43.600
 130228220.695 7 101476501.466 6                  24781606.100    24781602.480
  24781602.180          44.100          39.750
 133411225.603 7 103956802.94445                  25387307.920
  25387306.480          42.900          35.650
 107374406.374 8  83668369.73848                  20432668.160
  20432662.140          49.150          48.650
 116388502.509 8  90692333.96147                  22147986.940
  22147981.460          50.200          43.500
 118762893.207 8  92542521.98847                  22599814.140
  22599806.980          49.700          43.550
 111765638.811 8  87090118.506 8  83461358.365 8  21268288.220    21268286.640
  21268286.100          49.800          49.450
 121509951.563 7  94683056.74147                  23122570.980
  23122565.040          47.450          43.900
 111693230.180 7  86872524.413 6                  20901864.960    20901869.020
  20901867.240          47.550          41.150
 121283710.359 7  94331794.899 7                  22688623.640    22688625.660
  22688625.220          47.900          42.100
 108611074.831 8  84475331.109 7                  20296555.340    20296557.180
  20296556.280          48.500          45.900
 130469757.102 7 101476551.667 4                  24475802.000    24475813.280
  24475812.240          42.000          29.850
 127336365.432 7  99039422.201 6                  23787498.920    23787501.000
  23787499.900          43.200          38.600
 109351265.458 8  85051014.881 7                  20485169.140    20485171.500
  20485170.520          50.100          46.800
 109633346.568 7  85270395.538 7                  20523591.320    20523594.760
  20523593.980          44.600          43.850
 116394585.142 8  90529110.149 7                  21812292.600    21812294.720
  21812294.360          48.900          42.200
 128756508.875 6 100143955.130 6                  24111955.760    24111959.100
  24111957.000          40.000          38.850
 132110306.057 6 102752476.857 6                  24696628.040    24696632.120
  24696631.340          41.650          37.400
 125505508.135 6  97615411.926 6                  23470162.380    23470166.640
  23470164.800          39.700          38.900
 145428553.475 7                 108599372.249 7  27674084.780
                        46.450
 147302288.370 7                 109998472.003 6  28030691.020
                        44.500
 137640723.125 8                 102783692.593 8  26192154.900
                        50.700
 126670837.291 8                  94591967.687 8  24104605.220
                        51.150
 15  1 27  3  3 55.0000000  0 25G31G08G21G07G04G16G18G22G27G19R11R05
                                R21R10R07R22R12R06R13R23R20E12E19E18
                                E11
 132755084.260 7 103445519.507 6                  25262455.240    25262452.940
  25262452.200          44.950          38.600
 119659357.939 7  93241035.95146                  22770418.440
  22770415.320          47.900          40.350
 117306055.034 8  91407373.38547                  22322569.340
  22322563.820          49.450          43.300
 130218020.871 7 101468553.543 6                  24779665.180    24779661.580
  24779661.260          44.550          40.200
 133392920.596 7 103942539.33145                  25383824.620
  25383823.200          43.000          34.900
 107371913.152 8  83666426.96948                  20432193.700
  20432187.700          49.000          48.800
 116384315.996 8  90689071.74047                  22147190.340
  22147184.780          50.150          43.350
 118749232.674 8  92531877.41747                  22597214.640
  22597207.480          49.600          43.650
 111757734.631 8  87083959.406 8  83455455.892 8  21266784.120    21266782.520
  21266781.980          49.850          49.600
 121497260.747 7  94673167.80847                  23120156.020
  23120150.020          47.700          43.550
 111709762.367 7  86885382.771 6                  20904958.740    20904962.840
  20904961.020          46.900          41.050
 121289569.960 7  94336352.354 6                  22689719.820    22689721.740
  22689721.380          47.250          41.550
 108618087.963 8  84480785.762 7                  20297865.940    20297867.760
  20297866.840          48.450          45.900
 130492777.369 6 101494456.131 4                  24480120.700    24480133.620
  24480130.480          40.800          27.800
 127315907.680 7  99023510.618 6                  23783677.180    23783679.300
  23783678.140          43.350          39.250
 109344906.297 8  85046068.868 7                  20483977.880    20483980.220
  20483979.260          49.850          46.950
 109629034.952 7  85267042.057 7                  20522784.180    20522787.580
  20522786.840          44.500          43.900
 116382500.943 8  90519711.333 6                  21810028.000    21810030.100
  21810029.780          48.800          41.900
 128737519.440 6 100129185.552 6                  24108399.680    24108402.940
  24108401.020          39.900          38.600
 132096113.068 7 102741437.849 6                  24693974.800    24693978.980
  24693978.080          42.100          38.300
 125519946.901 6  97626642.081 6                  23472862.440    23472866.800
  23472864.900          38.600          38.850
 145439295.908 7                 108607394.211 7  27676129.020
                        46.700
 147306918.272 7                 110001929.401 6  28031572.100
                        44.600
 137664306.455 8                 102801303.508 8  26196642.640
                        50.600
 126676859.430 8                  94596464.741 8  24105751.220
                        51.150
 15  1 27  3  4  0.0000000  0 25G31G08G21G07G04G16G18G22G27G19R11R05
                                R21R10R07R22R12R06R13R23R20E12E19E18
                                E11
 132771555.081 7 103458353.830 6                  25265589.580    25265587.300
  25265586.560          45.150          37.750
 119675584.919 8  93253680.34446                  22773506.360
  22773503.180          48.150          40.250
 117316660.348 8  91415637.27447                  22324587.560
  22324581.980          49.400          43.050
 130207834.723 7 101460616.274 6                  24777726.880    24777723.220
  24777722.920          43.600          40.000
 133374618.753 7 103928278.20645                  25380341.900
  25380340.420          42.900          35.100
 107369434.961 8  83664495.91348                  20431722.080
  20431716.100          48.850          48.700
 116380143.506 8  90685820.45347                  22146396.400
  22146390.760          50.150          42.850
 118735580.194 8  92521239.12147                  22594616.660
  22594609.500          49.450          43.900
 111749836.788 8  87077805.249 8  83449558.159 8  21265281.240    21265279.620
  21265279.080          49.950          49.450
 121484574.548 7  94663282.47247                  23117741.920
  23117735.920          47.750          43.300
 111726310.172 7  86898253.281 6                  20908055.400    20908059.540
  20908057.720          46.300          41.100
 121295451.093 7  94340926.558 6                  22690820.000    22690821.980
  22690821.520          46.900          41.550
 108625107.670 8  84486245.546 7                  20299177.700    20299179.540
  20299178.640          48.100          46.000
 130515796.138 6 101512359.462 4                  24484439.100    24484450.960
  24484448.780          40.250          29.150
 127295450.431 7  99007599.424 6                  23779855.660    23779857.740
  23779856.540          44.100          39.250
 109338555.321 8  85041129.227 7                  20482788.140    20482790.460
  20482789.540          49.400          46.850
 109624747.589 7  85263707.441 7                  20521981.580    20521985.040
  20521984.280          44.450          43.900
 116370433.536 8  90510325.577 7                  21807766.580    21807768.680
  21807768.320          48.700          42.100
 128718540.726 6 100114424.302 6                  24104845.560    24104848.880
  24104847.020          39.800          39.400
 132081923.321 6 102730401.371 6                  24691322.180    24691326.320
  24691325.540          41.150          37.500
 125534383.228 6  97637870.656 6                  23475562.660    23475567.020
  23475565.140          39.000          39.000
 145450038.932 7                 108615416.591 7  27678173.340
                        46.400
 147311560.121 7                 110005395.719 6  28032455.440
                        45.000
 137687884.456 8                 102818910.465 8  26201129.400
                        50.750
 126682885.193 8                  94600964.503 8  24106897.880
                        51.150
 15  1 27  3  4  5.0000000  0 25G31G08G21G07G04G16G18G22G27G19R11R05
                                R21R10R07R22R12R06R13R23R20E12E19E18
                                E11
 132788021.992 7 103471185.104 6                  25268723.140    25268720.940
  25268720.200          44.750          37.650
 119691818.675 8  93266330.02646                  22776595.580
  22776592.360          48.400          40.000
 117327271.008 8  91423905.32547                  22326606.800
  22326601.120          49.400          43.150
 130197661.034 7 101452688.735 6                  24775790.960    24775787.260
  24775786.960          43.650          39.900
 133356318.643 7 103914018.38745                  25376859.480
  25376858.140          42.800          34.500
 107366970.552 8  83662575.59448                  20431253.100
  20431247.120          48.950          48.600
 116375983.751 8  90682579.09247                  22145604.880
  22145599.180          50.350          42.900
 118721934.551 8  92510606.15047                  22592020.000
  22592012.840          49.650          43.300
 111741944.056 8  87071655.073 8  83443664.241 8  21263779.340    21263777.660
  21263777.140          50.050          49.250
 121471891.703 8  94653399.74147                  23115328.480
  23115322.420          48.100          42.700
 111742872.316 7  86911134.947 6                  20911154.800    20911158.920
  20911157.120          46.550          41.350
 121301352.592 7  94345516.619 6                  22691924.000    22691926.000
  22691925.460          46.400          41.500
 108632132.680 8  84491709.441 7                  20300490.500    20300492.280
  20300491.420          48.100          46.000
 130538811.904 6 101530260.422 5                  24488756.980    24488769.620
  24488766.580          40.750          30.550
 127274992.405 7  98991687.614 6                  23776033.960    23776036.040
  23776034.840          43.600          39.300
 109332211.318 8  85036195.003 7                  20481599.700    20481602.020
  20481601.080          49.050          46.650
 109620483.090 7  85260390.605 7                  20521183.240    20521186.700
  20521185.980          43.750          43.800
 116358381.806 8  90500952.026 7                  21805508.100    21805510.200
  21805509.840          48.700          42.050
 128699571.845 6 100099670.722 6                  24101293.200    24101296.700
  24101294.880          39.550          39.450
 132067735.422 6 102719366.355 6                  24688669.880    24688674.060
  24688673.360          39.950          37.150
                                                  23478262.820    23478267.220
  23478265.280          37.500          38.800
 145460781.239 7                 108623438.432 7  27680217.520
                        46.400
 147316212.679 7                 110008870.030 6  28033340.840
                        44.950
 137711455.849 8                 102836512.479 8  26205614.920
                        50.950
 126688913.296 8                  94605466.003 8  24108044.980
                        51.250
 15  1 27  3  4 10.0000000  0 25G31G08G21G07G04G16G18G22G27G19R11R05
                                R21R10R07R22R12R06R13R23R20E12E19E18
                                E11
 132804484.174 7 103484012.688 6                  25271855.820    25271853.680
  25271852.900          45.150          37.800
 119708058.416 8  93278984.36046                  22779685.920
  22779682.680          48.300          40.200
 117337886.203 8  91432176.91247                  22328626.880
  22328621.080          48.950          43.300
 130187498.983 7 101444770.250 6                  24773857.280    24773853.500
  24773853.200          43.900          39.700
 133338019.590 7 103899759.43345                  25373377.220
  25373375.920          42.250          34.750
 107364519.091 8  83660665.36148                  20430786.580
  20430780.600          48.800          48.700
 116371835.996 8  90679347.06947                  22144815.640
  22144809.860          50.100          43.450
 118708294.920 8  92499977.86647                  22589424.460
  22589417.340          49.700          43.650
 111734055.612 8  87065508.231 8  83437773.518 8  21262278.260    21262276.540
  21262276.020          50.050          49.400
 121459211.382 7  94643518.97947                  23112915.500
  23112909.440          47.900          42.400
 111759447.782 7  86924026.978 6                  20914256.680    20914260.820
  20914259.020          46.350          41.350
 121307273.504 7  94350121.758 6                  22693031.640    22693033.600
  22693033.040          46.250          41.550
 108639162.161 8  84497176.796 7                  20301804.140    20301805.920
  20301805.060          48.250          46.050
 130561824.079 6 101548158.584 4                  24493074.180    24493086.360
  24493083.620          40.150          29.450
 127254532.772 7  98975774.549 6                  23772211.940    23772214.000
  23772212.740          42.800          39.050
 109325873.448 8  85031265.532 7                  20480412.380    20480414.740
  20480413.760          49.100          46.800
 109616240.737 7  85257090.992 7                  20520389.020    20520392.480
  20520391.820          43.750          44.150
 116346344.865 8  90491589.955 7                  21803252.380    21803254.500
  21803254.100          48.450          42.050
 128680611.631 6 100084923.891 6                  24097742.500    24097746.200
  24097744.360          39.950          39.450
 132053548.626 6 102708332.161 6                  24686017.780    24686022.020
  24686021.260          39.600          36.100
 125563258.554 6  97660330.247 6                  23480962.580    23480967.100
  23480965.120          38.050          39.600
 145471522.074 7                 108631459.168 7  27682261.420
                        46.150
 147320875.060 7                 110012351.705 6  28034228.080
                        44.700
 137735019.854 8                 102854108.972 8  26210099.020
                        50.750
 126694942.935 8                  94609968.659 8  24109192.360
                        51.100
 15  1 27  3  4 15.0000000  0 25G31G08G21G07G04G16G18G22G27G19R11R05
                                R21R10R07R22R12R06R13R23R20E12E19E18
                                E11
 132820943.347 7 103496837.952 6                  25274988.000    25274985.860
  25274985.020          45.700          37.600
 119724305.827 8  93291644.68046                  22782777.720
  22782774.440          48.350          39.850
 117348507.655 8  91440453.36747                  22330648.100
  22330642.240          48.650          43.150
 130177350.446 7 101436862.302 6                  24771926.120    24771922.280
  24771922.040          43.650          39.750
 133319723.344 7 103885502.63845                  25369895.500
  25369894.320          42.250          34.100
 107362082.333 8  83658766.59348                  20430322.880
  20430316.900          48.950          48.600
 116367701.975 8  90676125.75947                  22144029.000
  22144023.160          50.300          42.950
 118694663.032 8  92489355.61847                  22586830.400
  22586823.280          49.750          43.400
 111726173.182 8  87059366.088 8  83431887.282 8  21260778.320    21260776.600
  21260776.040          50.100          49.250
 121446535.374 7  94633641.58747                  23110503.300
  23110497.240          47.900          42.400
 111776038.441 7  86936930.828 6                  20917361.420    20917365.540
  20917363.740          46.650          41.200
 121313215.608 7  94354743.397 6                  22694143.240    22694145.140
  22694144.560          46.750          41.550
 108646197.886 8  84502649.029 7                  20303118.940    20303120.720
  20303119.860          48.000          46.150
 130584834.452 6 101566055.348 4                  24497390.980    24497403.380
  24497400.360          39.350          28.600
 127234073.213 7  98959861.567 6                  23768389.880    23768391.920
  23768390.660          42.550          38.900
 109319543.485 8  85026342.234 7                  20479226.540    20479228.920
  20479227.940          49.450          46.800
 109612022.280 7  85253809.974 7                  20519599.280    20519602.800
  20519602.140          44.250          43.950
 116334324.373 8  90482240.681 6                  21800999.760    21801001.860
  21801001.420          48.600          41.900
 128661662.104 6 100070185.352 6                  24094193.780    24094197.580
  24094195.800          40.250          39.250
 132039364.741 6 102697300.270 6                  24683366.280    24683370.460
  24683369.640          39.050          36.750
 125577695.510 6  97671558.969 6                  23483662.320    23483667.000
  23483665.060          38.900          39.950
 145482263.109 7                 108639480.051 7  27684305.360
                        46.600
 147325549.070 7                 110015842.014 6  28035117.480
                        44.750
 137758578.178 8                 102871701.211 8  26214582.000
                        50.700
 126700975.849 8                  94614473.750 8  24110340.380
                        51.150
 15  1 27  3  4 20.0000000  0 25G31G08G21G07G04G16G18G22G27G19R11R05
                                R21R10R07R22R12R06R13R23R20E12E19E18
                                E11
 132837399.109 7 103509660.548 6                  25278119.480    25278117.300
  25278116.580          45.350          37.700
 119740560.529 8  93304310.68246                  22785870.900
  22785867.600          48.400          40.500
 117359134.979 8  91448734.40347                  22332670.400
  22332664.480          48.350          43.750
 130167214.886 7 101428964.473 6                  24769997.460    24769993.600
  24769993.280          43.550          39.700
 133301429.475 6 103871247.69845                  25366414.220
  25366412.960          41.200          34.050
 107359659.886 8  83656878.97548                  20429861.880
  20429855.920          49.000          48.650
 116363581.268 8  90672914.82047                  22143244.880
  22143239.000          50.200          43.250
 118681038.512 8  92478739.11547                  22584237.740
  22584230.660          49.600          43.550
 111718296.407 8  87053228.345 8  83426005.284 8  21259279.460    21259277.700
  21259277.120          49.950          49.150
 121433863.250 7  94623767.21747                  23108091.840
  23108085.820          47.650          42.300
 111792643.938 7  86949846.225 6                  20920468.960    20920473.120
  20920471.240          46.800          41.250
 121319178.592 7  94359381.292 6                  22695258.780    22695260.660
  22695259.960          46.750          41.550
 108653239.445 8  84508125.797 7                  20304434.880    20304436.640
  20304435.760          48.050          46.150
 130607842.347 6 101583950.218 4                  24501707.280    24501718.720
  24501716.540          38.200          27.900
 127213613.480 7  98943948.448 6                  23764567.720    23764569.740
  23764568.520          43.200          39.550
 109313220.933 8  85021424.718 7                  20478042.080    20478044.440
  20478043.500          49.350          46.750
 109607827.321 7  85250547.235 7                  20518813.940    20518817.520
  20518816.840          44.200          43.850
 116322319.895 8  90472903.875 7                  21798750.140    21798752.280
  21798751.760          48.850          42.000
 128642722.663 6 100055454.675 6                  24090647.020    24090650.860
  24090649.100          40.150          39.050
 132025183.278 6 102686270.257 6                  24680715.120    24680719.420
  24680718.420          39.800          37.000
 125592132.268 6  97682787.565 6                  23486362.060    23486366.780
  23486364.920          39.250          40.150
 145493003.955 7                 108647500.828 7  27686349.280
                        46.150
 147330234.278 7                 110019340.738 6  28036009.020
                        44.500
 137782130.435 8                 102889288.946 8  26219063.800
                        50.350
 126707011.657 8                  94618981.013 8  24111488.920
                        51.150
 15  1 27  3  4 25.0000000  0 25G31G08G21G07G04G16G18G22G27G19R11R05
                                R21R10R07R22R12R06R13R23R20E12E19E18
                                E11
 132853850.678 7 103522479.863 6                  25281250.160    25281248.000
  25281247.440          44.950          38.100
 119756821.706 8  93316981.72846                  22788965.340
  22788961.980          48.200          40.700
 117369767.405 8  91457019.40947                  22334693.600
  22334687.720          48.000          43.550
 130157091.506 7 101421076.116 6                  24768071.060    24768067.140
  24768066.840          43.250          39.350
 133283137.258 6 103856994.04445                  25362933.260
  25362932.000          41.150          35.500
 107357250.964 8  83655001.89648                  20429403.480
  20429397.520          49.100          48.500
 116359473.081 8  90669713.64547                  22142463.140
  22142457.220          50.200          43.200
 118667420.563 8  92468127.72847                  22581646.320
  22581639.300          49.400          43.550
 111710424.453 8  87047094.355 8  83420126.879 8  21257781.520    21257779.700
  21257779.120          49.900          49.200
 121421194.216 7  94613895.25647                  23105681.000
  23105674.900          47.700          42.450
 111809263.367 7  86962772.454 6                  20923579.100    20923583.220
  20923581.340          46.750          41.250
 121325161.564 7  94364034.723 6                  22696378.000    22696379.860
  22696379.120          46.900          41.700
 108660286.001 8  84513606.460 7                  20305751.760    20305753.460
  20305752.580          48.250          46.300
 130630847.078 6 101601835.330 4                  24506023.000
  24506032.420          37.800          27.850
 127193152.931 7  98928034.710 6                  23760745.520    23760747.560
  23760746.280          44.250          39.450
 109306905.032 8  85016512.355 7                  20476858.860    20476861.220
  20476860.300          49.400          46.900
 109603655.004 7  85247302.091 7                  20518032.800    20518036.480
  20518035.800          44.150          44.200
 116310330.998 8  90463579.187 7                  21796503.420    21796505.540
  21796505.060          48.750          42.050
 128623792.742 6 100040731.407 6                  24087102.080    24087105.900
  24087104.180          39.650          39.150
 132011003.515 6 102675241.561 6                  24678064.340    24678068.620
  24678067.640          39.650          38.400
 125606567.745 6  97694015.173 6                  23489061.620    23489066.300
  23489064.440          38.500          40.450
 145503743.849 7                 108655520.873 7  27688392.920
                        45.950
 147334929.897 7                 110022847.206 6  28036902.560
                        44.600
 137805675.827 8                 102906871.531 8  26223544.260
                        50.250
 126713049.538 8                  94623489.820 8  24112637.880
                        51.000
 15  1 27  3  4 30.0000000  0 25G31G08G21G07G04G16G18G22G27G19R11R05
                                R21R10R07R22R12R06R13R23R20E12E19E18
                                E11
 132870298.629 7 103535296.350 6                  25284380.140    25284378.080
  25284377.460          45.300          38.650
 119773089.918 8  93329658.24646                  22792061.100
  22792057.720          48.300          40.000
 117380405.483 7  91465308.80647                  22336717.880
  22336712.020          47.900          43.300
 130146980.963 7 101413197.746 6                  24766147.100    24766143.220
  24766142.780          43.400          39.750
 133264847.331 6 103842742.18745                  25359452.760
  25359451.420          41.250          33.400
 107354856.153 8  83653135.79948                  20428947.740
  20428941.800          49.250          48.400
 116355378.011 8  90666522.67547                  22141683.900
  22141677.940          50.250          43.100
 118653809.790 8  92457521.93547                  22579056.240
  22579049.280          49.400          43.900
 111702557.930 8  87040964.583 8  83414252.524 8  21256284.580    21256282.720
  21256282.140          50.000          49.250
 121408528.882 7  94604026.16147                  23103270.880
  23103264.700          47.900          42.250
 111825897.285 7  86975709.940 6                  20926691.920    20926696.020
  20926694.180          45.750          41.500
 121331165.086 7  94368704.127 7                  22697501.100    22697502.920
  22697502.160          47.250          42.000
 108667338.171 8  84519091.466 7                  20307069.680    20307071.360
  20307070.480          48.400          46.300
 130653849.322 6 101619725.755 4                  24510338.360
  24510347.820          37.100          28.100
 127172691.977 7  98912120.613 6                  23756923.240    23756925.280
  23756924.020          44.450          39.550
 109300596.338 8  85011605.583 7                  20475677.000    20475679.380
  20475678.480          49.350          47.000
 109599506.058 7  85244075.133 7                  20517256.120    20517259.800
  20517259.140          44.050          44.250
 116298358.017 8  90454266.870 7                  21794259.680    21794261.800
  21794261.300          48.850          42.000
 128604872.732 6 100026015.851 6                  24083558.960    24083562.840
  24083561.180          39.850          39.300
 131996825.975 7 102664214.517 6                  24675414.040    24675418.300
  24675417.420          42.000          38.750
 125621002.912 6  97705242.485 6                  23491761.040    23491765.800
  23491763.980          38.850          39.650
 145514483.363 7                 108663540.626 7  27690436.500
                        46.050
 147339636.493 7                 110026361.872 6  28037798.140
                        44.650
 137829214.936 8                 102924449.430 8  26228023.520
                        50.450
 126719090.072 8                  94628000.612 8  24113787.340
                        51.100
 15  1 27  3  4 35.0000000  0 25G31G08G21G07G04G16G18G22G27G19R11R05
                                R21R10R07R22R12R06R13R23R20E12E19E18
                                E11
 132886742.368 7 103548109.573 6                  25287509.320    25287507.280
  25287506.640          45.400          37.800
 119789364.748 8  93342339.92946                  22795158.100
  22795154.720          48.100          39.900
 117391048.798 8  91473602.28647                  22338743.160
  22338737.320          48.100          43.300
 130136882.779 7 101405329.041 6                  24764225.480    24764221.640
  24764221.200          43.850          40.200
 133246559.148 6 103828491.67145                  25355972.560
  25355971.160          41.750          34.050
 107352475.085 8  83651280.42048                  20428494.640
  20428488.680          49.200          48.400
 116351295.647 8  90663341.61947                  22140907.060
  22140901.100          50.000          43.050
 118640205.833 8  92446921.45347                  22576467.440
  22576460.540          49.450          43.550
 111694696.436 8  87034838.746 8  83408381.924 8  21254788.600    21254786.740
  21254786.140          50.000          49.150
 121395866.787 7  94594159.58546                  23100861.380
  23100855.120          47.800          41.950
 111842545.274 7  86988658.350 6                  20929807.360    20929811.460
  20929809.620          45.850          41.350
 121337188.887 7  94373389.295 6                  22698627.920    22698629.740
  22698628.980          46.750          41.850
 108674395.564 8  84524580.556 7                  20308388.580    20308390.200
  20308389.340          48.450          46.350
 130676848.547 6 101637613.848 4                  24514652.980
  24514662.580          37.600          27.950
 127152230.175 7  98896205.872 6                  23753100.800    23753102.840
  23753101.660          44.050          39.850
 109294294.488 8  85006704.133 7                  20474496.420    20474498.820
  20474497.940          49.050          46.850
 109595379.969 7  85240865.955 7                  20516483.700    20516487.420
  20516486.780          44.200          44.050
 116286400.505 8  90444966.589 6                  21792018.860    21792020.860
  21792020.440          48.600          41.250
 128585962.385 6 100011307.799 6                  24080017.620    24080021.620
  24080019.960          39.400          39.450
 131982650.235 7 102653188.935 6                  24672764.160    24672768.180
  24672767.560          42.100          38.050
 125635436.982 6  97716468.987 6                  23494460.240    23494465.100
  23494463.240          38.550          39.750
 145525222.073 7                 108671559.800 7  27692479.960
                        45.650
 147344353.678 7                 110029884.438 7  28038695.760
                        44.750
 137852747.347 8                 102942022.336 8  26232501.540
                        50.450
 126725132.858 8                  94632513.085 8  24114937.200
                        51.050
 15  1 27  3  4 40.0000000  0 25G31G08G21G07G04G16G18G22G27G19R11R05
                                R21R10R07R22R12R06R13R23R20E12E19E18
                                E11
 132903184.040 7 103560921.183 6                  25290638.120    25290636.080
  25290635.400          45.400          38.000
 119805648.140 8  93355028.28446                  22798256.740
  22798253.340          48.250          39.700
 117401699.263 8  91481901.34547                  22340769.860
  22340764.020          48.700          42.850
 130126798.996 7 101397471.556 6                  24762306.620    24762302.780
  24762302.240          43.350          39.850
 133228274.680 7 103814244.05445                  25352493.120
  25352491.660          42.550          35.250
 107350109.684 8  83649437.25348                  20428044.500
  20428038.560          49.100          48.400
 116347227.921 8  90660171.96847                  22140133.000
  22140127.040          50.000          43.700
 118626610.652 8  92436327.81347                  22573880.320
  22573873.480          49.700          43.250
 111686841.932 8  87028718.355 8  83402516.555 8  21253293.920    21253292.080
  21253291.460          50.000          49.300
 121383209.935 7  94584297.11146                  23098452.860
  23098446.520          47.900          41.400
 111859209.210 7  87001619.206 6                  20932925.800    20932929.920
  20932928.080          46.200          41.050
 121343234.794 7  94378091.682 7                  22699758.940    22699760.760
  22699760.000          46.850          42.000
 108681460.103 8  84530075.199 7                  20309708.800    20309710.360
  20309709.520          48.450          46.450
 130699846.887 6                                  24518967.480
                        37.700
 127131769.779 7  98880292.250 6                  23749278.620    23749280.660
  23749279.520          44.400          39.650
 109288001.434 8  85001809.538 7                  20473317.480    20473319.900
  20473319.020          49.050          46.750
 109591278.904 7  85237676.237 7                  20515715.960    20515719.700
  20515719.080          44.000          44.300
 116274460.678 8  90435680.053 6                  21789781.360    21789783.340
  21789782.880          48.650          41.550
 128567063.767 6  99996608.874 6                  24076478.540    24076482.540
  24076480.920          39.300          39.100
 131968478.256 6 102642166.291 6                  24670114.860    24670118.820
  24670118.280          41.250          36.800
 125649872.229 6  97727696.399 6                  23497159.760    23497164.560
  23497162.700          38.550          39.100
 145535961.996 7                 108679579.844 7  27694523.620
                        46.350
 147349083.397 7                 110033416.384 7  28039595.740
                        44.600
 137876275.016 8                 102959591.693 8  26236978.680
                        50.750
 126731179.880 8                  94637028.706 8  24116087.900
                        51.100
 15  1 27  3  4 45.0000000  0 25G31G08G21G07G04G16G18G22G27G19R11R05
                                R21R10R07R22R12R06R13R23R20E12E19E18
                                E11
 132919620.133 7 103573728.454 6                  25293765.900    25293763.820
  25293763.180          45.250          37.600
 119821936.537 8  93367720.54646                  22801356.360
  22801352.900          48.200          40.200
 117412353.359 8  91490203.24247                  22342797.260
  22342791.440          48.850          43.150
 130116726.063 7 101389622.523 6                  24760389.820    24760385.980
  24760385.400          42.800          40.100
 133209990.452 6 103799996.64045                  25349013.780
  25349012.320          41.600          35.400
 107347756.450 8  83647603.56748                  20427596.680
  20427590.760          49.250          48.200
 116343171.378 8  90657011.02847                  22139361.060
  22139355.120          50.100          43.100
 118613020.757 8  92425738.28547                  22571294.220
  22571287.400          49.550          43.250
 111678990.883 8  87022600.656 8  83396653.763 8  21251799.880    21251798.080
  21251797.460          50.000          49.300
 121370554.816 7  94574435.98146                  23096044.660
  23096038.320          47.900          41.400
 111875885.592 7  87014589.725 6                  20936046.560    20936050.740
  20936048.880          46.450          41.000
 121349299.355 7  94382808.568 7                  22700893.440    22700895.280
  22700894.540          47.100          42.650
 108688528.222 8  84535572.623 7                  20311029.700    20311031.220
  20311030.380          48.300          46.200
 130722840.546 6                                  24523281.140
                        37.800
 127111306.986 7  98864376.741 6                  23745455.960    23745458.040
  23745456.900          43.650          40.100
 109281713.660 8  84996919.051 7                  20472139.540    20472142.020
  20472141.120          49.600          46.750
 109587199.115 7  85234503.072 7                  20514952.180    20514955.980
  20514955.400          44.150          44.100
 116262534.687 8  90426404.282 6                  21787546.440    21787548.420
  21787547.920          48.250          41.850
 128548173.215 6  99981916.228 6                  24072940.920    24072945.040
  24072943.400          39.000          39.050
 131954306.531 6 102631143.834 5                  24667465.540    24667469.580
  24667468.900          39.150          35.550
 125664304.888 6  97738921.817 6                  23499858.600    23499863.500
  23499861.640          37.750          38.750
 145546699.529 7                 108687598.137 7  27696566.940
                        46.200
 147353822.101 7                 110036955.063 6  28040497.440
                        44.950
 137899794.416 8                 102977154.878 8  26241454.260
                        50.750
 126737227.567 8                  94641544.845 8  24117238.720
                        51.150
 15  1 27  3  4 50.0000000  0 25G31G08G21G07G04G16G18G22G27G19R11R05
                                R21R10R07R22R12R06R13R23R20E12E19E18
                                E11
 132936053.377 7 103586533.480 6                  25296893.120    25296891.080
  25296890.360          45.450          37.400
 119838232.718 8  93380418.86646                  22804457.460
  22804453.920          48.300          39.100
 117423013.936 8  91498510.18447                  22344825.940
  22344820.100          49.250          42.350
 130106666.816 7 101381784.149 6                  24758475.560    24758471.760
  24758471.160          43.400          39.950
 133191709.292 6 103785751.60545                  25345534.980
  25345533.460          41.500          32.500
 107345418.164 8  83645781.52047                  20427151.720
  20427145.780          49.400          47.950
 116339128.763 8  90653860.93247                  22138591.760
  22138585.860          50.050          43.250
 118599438.941 8  92415155.05247                  22568709.640
  22568702.840          49.700          43.000
 111671146.100 8  87016487.839 8  83390795.650 8  21250307.060    21250305.280
  21250304.640          50.200          49.350
 121357904.222 8  94564578.38446                  23093637.300
  23093630.980          48.500          41.200
 111892577.329 7  87027572.187 6                  20939170.180    20939174.340
  20939172.500          46.700          41.350
 121355385.215 7  94387542.019 7                  22702031.920    22702033.760
  22702033.060          47.450          42.050
 108695602.824 8  84541075.089 7                  20312351.780    20312353.280
  20312352.440          48.750          46.100
 130745832.364 6 101691285.395 4                  24527594.540
  24527605.780          39.700          26.500
 127090844.762 7  98848461.686 6                  23741633.400    23741635.500
  23741634.440          42.750          39.700
 109275433.887 8  84992034.794 7                  20470963.120    20470965.620
  20470964.700          49.700          46.600
 109583143.421 7  85231348.635 7                  20514192.920    20514196.740
  20514196.180          44.250          43.900
 116250625.671 8  90417141.722 6                  21785314.700    21785316.620
  21785316.180          48.700          41.800
 128529293.624 6  99967232.083 6                  24069405.420    24069409.520
  24069407.920          39.450          38.600
 131940138.050 6 102620123.923 5                  24664816.800    24664820.940
  24664820.020          39.750          35.250
 125678737.903 6  97750147.475 6                  23502557.680    23502562.600
  23502560.660          39.400          39.350
 145557437.542 7                 108695616.779 7  27698610.320
                        46.700
 147358572.632 7                 110040502.531 6  28041401.360
                        44.850
 137923308.337 8                 102994713.967 8  26245928.820
                        50.900
 126743278.746 8                  94646063.577 8  24118390.220
                        51.350
 15  1 27  3  4 55.0000000  0 25G31G08G21G07G04G16G18G22G27G19R11R05
                                R21R10R07R22R12R06R13R23R20E12E19E18
                                E11
 132952482.747 7 103599335.504 6                  25300019.640    25300017.560
  25300016.840          44.850          37.250
 119854535.674 7  93393122.47346                  22807559.860
  22807556.200          47.800          40.100
 117433679.943 8  91506821.36247                  22346855.660
  22346849.800          48.850          43.300
 130096620.242 7 101373955.648 6                  24756563.740    24756559.980
  24756559.320          43.050          39.650
 133173430.166 6 103771508.16645                  25342056.600
  25342054.960          41.350          33.750
 107343093.841 8  83643970.36748                  20426709.400
  20426703.460          48.950          48.400
 116335099.144 8  90650720.98247                  22137824.940
  22137819.080          49.650          43.350
 118585864.218 8  92404577.35447                  22566126.420
  22566119.700          49.000          44.050
 111663306.591 8  87010379.144 8  83384941.482 8  21248815.260    21248813.460
  21248812.820          49.950          49.350
 121345257.162 7  94554723.54046                  23091230.660
  23091224.300          47.850          41.950
 111909283.245 8  87040565.674 6                  20942296.500    20942300.620
  20942298.800          48.550          41.600
 121361491.530 8  94392291.380 7                  22703174.240    22703176.080
  22703175.400          48.950          42.000
 108702682.785 8  84546581.734 7                  20313674.880    20313676.340
  20313675.480          49.900          46.100
 130768821.314 6 101709165.507 4                  24531907.420
  24531918.140          40.350          26.800
 127070382.114 7  98832546.322 6                  23737810.700    23737812.940
  23737811.920          45.400          40.000
 109269161.182 8  84987156.036 7                  20469788.020    20469790.540
  20469789.600          50.450          46.750
 109579110.912 7  85228212.248 7                  20513438.020    20513441.860
  20513441.300          46.000          43.950
 116238732.573 8  90407891.537 6                  21783085.920    21783087.840
  21783087.380          49.600          41.250
 128510423.951 6  99952555.660 6                  24065871.780    24065875.780
  24065874.300          41.550          38.300
 131925971.605 7 102609105.523 5                  24662168.540    24662172.680
  24662171.720          42.500          35.050
 125693170.279 6  97761372.664 6                  23505256.600    23505261.540
  23505259.640          40.800          39.900
 145568174.980 7                 108703635.014 7  27700653.580
                        45.300
 147363333.960 7                 110044058.070 6  28042307.380
                        44.150
 137946815.777 8                 103012268.241 8  26250402.180
                        50.600
 126749332.410 8                  94650584.178 8  24119542.180
                        50.950
 15  1 27  3  5  0.0000000  0 25G31G08G21G07G04G16G18G22G27G19R11R05
                                R21R10R07R22R12R06R13R23R20E12E19E18
                                E11
 132968907.236 7 103612133.724 6                  25303145.220    25303143.120
  25303142.420          44.650          37.550
 119870844.388 8  93405830.56846                  22810663.360
  22810659.660          48.050          39.650
 117444350.368 8  91515135.98947                  22348886.240
  22348880.380          48.900          43.900
 130086585.352 7 101366136.245 6                  24754654.160    24754650.340
  24754649.700          43.650          40.000
 133155152.107 6 103757265.55945                  25338578.420
  25338576.720          41.750          35.000
 107340782.469 8  83642169.29648                  20426269.560
  20426263.620          49.050          48.500
 116331081.514 8  90647590.36347                  22137060.380
  22137054.560          49.750          42.850
 118572295.593 8  92394004.39747                  22563544.360
  22563537.680          49.000          43.750
 111655471.359 8  87004273.771 8  83379090.492 8  21247324.300    21247322.460
  21247321.820          50.150          49.350
 121332612.630 7  94544870.65647                  23088824.480
  23088818.100          47.850          42.200
 111926002.371 8  87053569.426 6                  20945425.260    20945429.400
  20945427.540          48.050          41.350
 121367617.228 8  94397055.815 7                  22704320.140    22704322.000
  22704321.340          48.150          42.000
 108709767.159 8  84552091.798 7                  20314998.800    20315000.220
  20314999.340          49.750          46.050
 130791806.319 6 101727042.534 4                  24536219.500
  24536230.540          41.100          27.950
 127049918.085 7  98816629.866 6                  23733987.820    23733990.180
  23733989.120          45.900          39.600
 109262894.501 8  84982281.944 7                  20468614.080    20468616.560
  20468615.640          50.050          46.700
 109575100.682 7  85225093.176 7                  20512687.300    20512691.140
  20512690.580          45.900          44.000
 116226854.170 8  90398652.783 6                  21780859.900    21780861.800
  21780861.340          49.550          41.700
 128491563.252 6  99937886.226 6                  24062339.880    24062343.800
  24062342.300          41.000          38.100
 131911806.021 7 102598087.854 5                  24659520.500    24659524.560
  24659523.640          43.250          35.500
 125707600.924 6  97772596.466 6                  23507955.180    23507960.240
  23507958.360          40.050          39.850
 145578910.926 7                 108711652.079 7  27702696.480
                        45.400
 147368105.090 7                 110047620.953 6  28043215.300
                        44.200
 137970315.741 8                 103029816.906 8  26254874.100
                        50.750
 126755387.548 8                  94655105.874 8  24120694.420
                        51.050
 15  1 27  3  5  5.0000000  0 25G31G08G21G07G04G16G18G22G27G19R11R05
                                R21R10R07R22R12R06R13R23R20E12E19E18
                                E11
 132985329.251 7 103624929.986 6                  25306270.340    25306268.180
  25306267.500          44.200          37.550
 119887161.281 8  93418545.02846                  22813768.380
  22813764.660          48.250          39.700
 117455027.623 8  91523455.92647                  22350918.120
  22350912.260          48.850          43.750
 130076564.586 7 101358327.858 6                  24752747.240    24752743.460
  24752742.860          43.900          40.000
 133136877.574 6 103743025.66945                  25335100.920
  25335099.120          41.850          33.600
 107338486.499 8  83640380.22248                  20425832.640
  20425826.720          49.050          48.400
 116327078.273 8  90644470.95247                  22136298.560
  22136292.780          49.900          43.400
 118558735.497 8  92383438.08447                  22560963.920
  22560957.280          49.050          43.600
 111647642.810 8  86998173.598 8  83373244.499 8  21245834.600    21245832.720
  21245832.080          50.200          49.400
 121319973.032 7  94535021.61247                  23086419.240
  23086412.840          47.800          42.100
 111942737.216 7  87066585.418 6                  20948556.960    20948561.120
  20948559.240          47.700          41.500
 121373764.747 7  94401837.213 6                  22705470.140    22705472.040
  22705471.380          47.900          41.900
 108716858.392 8  84557607.204 7                  20316324.020    20316325.380
  20316324.480          49.400          45.950
 130814790.019 6 101744918.535 4                  24540531.300
  24540541.920          40.600          27.850
 127029454.980 7  98800714.107 6                  23730165.120    23730167.420
  23730166.420          45.800          39.750
 109256636.364 8  84977414.498 7                  20467441.720    20467444.200
  20467443.260          49.850          46.600
 109571114.904 7  85221993.122 7                  20511941.160    20511944.980
  20511944.440          45.400          44.000
 116214993.230 8  90389427.616 6                  21778637.180    21778639.040
  21778638.600          49.400          41.700
 128472714.079 6  99923225.758 6                  24058810.000    24058814.000
  24058812.400          40.700          37.250
 131897643.898 7 102587072.866 5                  24656873.080    24656877.100
  24656876.260          42.850          35.300
 125722032.287 6  97783820.857 6                  23510653.940    23510659.020
  23510657.120          40.100          39.850
 145589647.699 7                 108719669.791 7  27704739.580
                        46.000
 147372888.418 7                 110051192.897 6  28044125.580
                        44.400
 137993810.639 8                 103047361.790 8  26259345.060
                        50.550
 126761446.578 8                  94659630.474 8  24121847.400
                        51.050
 15  1 27  3  5 10.0000000  0 25G31G08G21G07G04G16G18G22G27G19R11R05
                                R21R10R07R22R12R06R13R23R20E12E19E18
                                E11
 133001747.911 7 103637723.665 6                  25309394.780    25309392.620
  25309391.960          44.250          37.750
 119903485.421 8  93431265.14946                  22816874.760
  22816871.020          48.100          39.200
 117465710.792 8  91531780.48347                  22352951.100
  22352945.260          48.850          43.550
 130066557.088 7 101350529.801 6                  24750842.840    24750839.140
  24750838.500          43.350          40.550
 133118605.679 7 103728787.88645                  25331623.880
  25331622.060          42.000          34.850
 107336204.991 8  83638602.43048                  20425398.500
  20425392.540          49.100          48.750
 116323088.556 8  90641362.09047                  22135539.340
  22135533.580          49.800          43.400
 118545183.036 8  92372877.73847                  22558384.940
  22558378.320          49.400          43.650
 111639820.066 8  86992077.961 8  83367402.844 8  21244346.000    21244344.100
  21244343.480          50.250          49.400
 121307337.475 7  94525175.73447                  23084014.740
  23084008.340          47.600          42.150
 111959486.684 7  87079612.776 6                  20951691.400    20951695.480
  20951693.680          47.250          41.150
 121379933.140 7  94406634.845 6                  22706624.060    22706625.960
  22706625.320          47.550          41.950
 108723955.587 8  84563127.249 7                  20317650.360    20317651.620
  20317650.720          49.200          45.850
 130837771.354 6 101762792.729 4                  24544842.680
  24544853.700          38.900          27.300
 127008992.051 7  98784798.508 6                  23726342.500    23726344.700
  23726343.780          44.850          39.550
 109250385.770 8  84972552.924 7                  20466270.800    20466273.220
  20466272.320          50.100          46.600
 109567152.908 7  85218911.576 7                  20511199.480    20511203.300
  20511202.780          45.250          44.200
 116203148.766 8  90380215.257 6                  21776417.520    21776419.460
  21776418.960          49.000          41.600
 128453875.370 6  99908573.420 6                  24055282.180    24055286.000
  24055284.460          40.900          37.250
 131883484.559 6 102576060.032 6                  24654226.180    24654230.240
  24654229.400          41.150          36.800
 125736463.507 6  97795045.133 6                  23513352.640    23513357.640
  23513355.860          39.800          39.550
 145600384.417 7                 108727687.488 7  27706782.740
                        46.550
 147377683.049 7                 110054773.345 6  28045038.060
                        44.650
 138017299.589 8                 103064902.239 8  26263814.900
                        50.600
 126767508.618 8                  94664157.325 8  24123000.980
                        51.150
 15  1 27  3  5 15.0000000  0 25G31G08G21G07G04G16G18G22G27G19R11R05
                                R21R10R07R22R12R06R13R23R20E12E19E18
                                E11
 133018161.060 7 103650513.032 6                  25312518.180    25312515.980
  25312515.360          44.650          38.250
 119919814.713 8  93443989.25046                  22819982.140
  22819978.360          48.300          39.650
 117476397.779 8  91540108.00247                  22354984.800
  22354978.980          48.700          43.250
 130056560.694 7 101342740.402 6                  24748940.560    24748936.840
  24748936.340          43.200          40.500
 133100334.160 7 103714550.36345                  25328146.900
  25328145.060          42.050          31.150
 107333935.875 8  83636834.28348                  20424966.700
  20424960.740          49.200          48.300
 116319110.223 8  90638262.09047                  22134782.260
  22134776.520          49.800          43.450
 118531636.138 8  92362321.70547                  22555807.040
  22555800.420          49.400          43.150
 111632000.984 8  86985985.163 8  83361563.913 8  21242858.140    21242856.180
  21242855.560          50.150          49.400
 121294703.860 7  94515331.35546                  23081610.640
  23081604.200          47.950          41.850
 111976248.669 7  87092649.875 6                  20954828.200    20954832.300
  20954830.480          47.600          41.250
 121386120.248 7  94411447.041 7                  22707781.460    22707783.400
  22707782.800          47.550          42.000
 108731056.501 8  84568650.184 7                  20318977.360    20318978.580
  20318977.660          48.900          45.850
 130860748.161 6                                  24549153.180
                        37.700
 126988527.000 7  98768881.238 6                  23722519.440    23722521.580
  23722520.700          44.850          39.100
 109244140.542 8  84967695.519 7                  20465100.880    20465103.280
  20465102.360          50.050          46.600
 109563212.434 7  85215846.761 7                  20510461.820    20510465.580
  20510465.140          45.000          44.000
 116191318.821 8  90371014.189 6                  21774200.560    21774202.520
  21774202.040          48.850          41.850
 128435045.050 6  99893927.597 6                  24051755.820    24051759.580
  24051758.080          41.000          36.900
 131869325.667 7 102565047.533 6                  24651579.320    24651583.340
  24651582.520          42.000          36.050
 125750892.407 6  97806267.615 6                  23516050.900    23516056.000
  23516054.080          39.000          39.350
 145611119.014 7                 108735703.558 7  27708825.500
                        45.950
 147382486.893 7                 110058360.630 6  28045952.300
                        45.100
 138040780.435 8                 103082436.634 8  26268283.160
                        50.650
 126773571.518 8                  94668684.809 8  24124154.700
                        51.250
 15  1 27  3  5 20.0000000  0 25G31G08G21G07G04G16G18G22G27G19R11R05
                                R21R10R07R22R12R06R13R23R20E12E19E18
                                E11
 133034570.045 7 103663299.151 6                  25315640.820    25315638.620
  25315638.000          44.550          38.300
 119936150.429 8  93456718.38246                  22823090.720
  22823086.940          48.550          38.700
 117487089.903 8  91548439.52747                  22357019.460
  22357013.660          48.150          43.650
 130046576.768 7 101334960.717 6                  24747040.660    24747036.940
  24747036.460          43.600          40.750
 133082064.517 6 103700314.31744                  25324670.280
  25324668.300          41.750          29.150
 107331680.542 8  83635076.87748                  20424537.520
  20424531.540          49.150          48.400
 116315144.645 8  90635172.02547                  22134027.600
  22134021.900          49.850          43.200
 118518096.156 8  92351771.07447                  22553230.440
  22553223.840          49.650          43.150
 111624186.956 8  86979896.308 8  83355728.768 8  21241371.220    21241369.220
  21241368.600          50.100          49.400
 121282073.532 7  94505489.53246                  23079207.180
  23079200.700          47.950          41.850
 111993024.542 7  87105697.779 6                  20957967.580    20957971.700
  20957969.880          47.300          41.400
 121392327.463 7  94416274.862 6                  22708942.620    22708944.580
  22708944.060          47.250          41.850
 108738162.566 8  84574177.117 7                  20320305.320    20320306.480
  20320305.560          48.850          45.900
 130883721.868 6                                  24553463.080
                        38.200
 126968061.523 7  98752963.622 6                  23718696.320    23718698.460
  23718697.500          44.250          39.500
 109237902.161 8  84962843.451 7                  20463932.220    20463934.620
  20463933.640          49.850          46.400
 109559294.799 7  85212799.709 7                  20509728.440    20509732.160
  20509731.740          45.100          44.050
 116179504.461 8  90361825.240 7                  21771986.560    21771988.560
  21771988.060          48.900          42.400
 128416224.574 6  99879289.429 6                  24048231.340    24048235.120
  24048233.540          40.550          36.900
 131855168.516 6 102554036.439 6                  24648932.740    24648936.840
  24648935.920          41.750          37.000
 125765320.403 6  97817489.369 6                  23518749.000    23518754.060
  23518752.100          39.050          39.100
 145621852.808 7                 108743719.041 7  27710868.060
                        45.900
 147387301.262 7                 110061955.780 6  28046868.520
                        44.950
 138064254.550 8                 103099965.997 8  26272750.160
                        50.550
 126779636.665 8                  94673213.971 8  24125308.840
                        51.150
 15  1 27  3  5 25.0000000  0 25G31G08G21G07G04G16G18G22G27G19R11R05
                                R21R10R07R22R12R06R13R23R20E12E19E18
                                E11
 133050976.147 7 103676083.017 6                  25318762.880    25318760.700
  25318760.120          43.800          38.000
 119952493.845 8  93469453.51346                  22826200.760
  22826196.980          48.400          39.550
 117497788.406 8  91556776.02147                  22359055.260
  22359049.500          48.000          43.700
 130036606.599 7 101327191.752 6                  24745143.380    24745139.720
  24745139.280          43.900          40.550
 133063798.048 6 103686080.72545                  25321194.220
  25321192.320          41.700          32.250
 107329440.223 8  83633331.17848                  20424111.220
  20424105.220          49.150          48.100
 116311193.047 8  90632092.86047                  22133275.620
  22133269.920          49.750          42.750
 118504564.324 8  92341226.79747                  22550655.420
  22550648.800          49.750          42.950
 111616379.206 8  86973812.349 8  83349898.303 8  21239885.500    21239883.460
  21239882.840          50.100          49.300
 121269447.778 7  94495651.27746                  23076804.600
  23076798.100          47.900          41.400
 112009815.514 7  87118757.420 6                  20961109.780    20961113.940
  20961112.080          47.000          41.250
 121398556.109 7  94421119.373 7                  22710107.820    22710109.760
  22710109.280          47.250          42.200
 108745275.038 8  84579709.048 7                  20321634.500    20321635.640
  20321634.680          48.650          45.950
 130906693.699 6 101816417.683 5                  24557772.660    24557784.780
  24557784.420          38.950          31.000
 126947596.751 7  98737046.616 6                  23714873.260    23714875.520
  23714874.560          43.650          40.050
 109231671.843 8  84957997.657 7                  20462765.060    20462767.460
  20462766.440          49.600          46.350
 109555401.488 7  85209771.582 7                  20508999.700    20509003.340
  20509002.880          45.250          44.250
 116167707.043 8  90352649.485 7                  21769775.680    21769777.780
  21769777.300          48.950          42.400
 128397415.085 6  99864659.820 6                  24044708.880    24044712.740
  24044711.060          41.050          36.900
 131841014.523 7 102543027.755 6                  24646286.720    24646290.840
  24646289.880          42.900          38.200
 125779748.704 6  97828711.393 6                  23521447.160    23521452.200
  23521450.220          38.150          39.300
 145632587.069 7                 108751734.884 7  27712910.700
                        46.100
 147392127.431 7                 110065559.747 6  28047786.960
                        44.800
 138087723.168 8                 103117491.268 8  26277216.060
                        50.600
 126785705.280 8                  94677745.733 8  24126463.660
                        51.150
 15  1 27  3  5 30.0000000  0 25G31G08G21G07G04G16G18G22G27G19R11R05
                                R21R10R07R22R12R06R13R23R20E12E19E18
                                E11
 133067379.396 7 103688864.671 6                  25321884.460    25321882.220
  25321881.640          43.400          37.750
 119968845.016 8  93482194.68346                  22829312.240
  22829308.480          48.350          38.600
 117508493.452 7  91565117.61347                  22361092.260
  22361086.560          47.750          43.700
 130026650.301 7 101319433.596 6                  24743248.780    24743245.080
  24743244.740          44.050          40.350
 133045534.810 6 103671849.66244                  25317718.760
  25317717.040          41.850          29.950
 107327215.018 8  83631597.25047                  20423687.780
  20423681.800          49.100          47.950
 116307255.588 8  90629024.71747                  22132526.300
  22132520.620          49.850          42.550
 118491040.766 8  92330688.96447                  22548081.960
  22548075.340          49.650          43.300
 111608577.845 8  86967733.369 8  83344072.614 8  21238400.980    21238398.920
  21238398.300          50.050          49.300
 121256826.689 7  94485816.66646                  23074402.880
  23074396.380          47.600          41.150
 112026621.724 7  87131828.902 6                  20964254.840    20964258.980
  20964257.140          46.900          41.200
 121404806.190 7  94425980.545 7                  22711277.020    22711278.940
  22711278.500          46.800          42.050
 108752394.026 8  84585246.045 7                  20322964.840    20322966.000
  20322965.020          48.400          46.050
 130929663.698 6 101834282.994 4                  24562082.000    24562095.540
  24562093.260          37.650          29.500
 126927132.730 7  98721130.168 6                  23711050.420    23711052.720
  23711051.780          43.650          40.550
 109225449.674 8  84953158.194 7                  20461599.400    20461601.800
  20461600.760          49.300          46.400
 109551532.461 7  85206762.339 7                  20508275.440    20508279.040
  20508278.560          44.750          44.000
 116155926.797 8  90343487.063 7                  21767568.040    21767570.160
  21767569.720          48.400          42.000
 128378616.893 6  99850038.987 5                  24041188.600    24041192.500
  24041190.760          40.400          35.850
 131826863.687 7 102532021.570 6                  24643641.300    24643645.500
  24643644.560          42.250          38.300
 125794177.408 6  97839933.671 6                  23524145.400    23524150.440
  23524148.460          38.350          39.750
 145643321.858 7                 108759751.142 7  27714953.560
                        46.750
 147396965.488 7                 110069172.578 6  28048707.660
                        44.750
 138111186.389 8                 103135012.508 8  26281680.960
                        50.550
 126791777.473 8                  94682280.171 8  24127619.140
                        51.050
 15  1 27  3  5 35.0000000  0 25G31G08G21G07G04G16G18G22G27G19R11R05
                                R21R10R07R22R12R06R13R23R20E12E19E18
                                E11
 133083776.873 7 103701641.821 6                  25325004.860    25325002.580
  25325002.080          43.550          36.600
 119985201.015 8  93494939.59946                  22832424.660
  22832420.900          48.400          38.200
 117519202.048 7  91573461.96947                  22363129.920
  22363124.300          47.650          43.400
 130016704.936 7 101311683.955 6                  24741356.280    24741352.540
  24741352.240          44.600          40.400
 133027271.870 7 103657618.80345                  25314243.360
  25314241.640          42.000          32.350
 107325002.002 8  83629872.81847                  20423266.660
  20423260.680          49.150          47.950
 116303329.291 8  90625965.26246                  22131779.120
  22131773.460          49.950          41.650
 118477522.560 8  92320155.29347                  22545509.520
  22545502.900          49.600          42.300
 111600779.940 8  86961657.081 8  83338249.511 8  21236917.100    21236915.040
  21236914.420          50.100          49.150
 121244207.291 7  94475983.37946                  23072001.460
  23071994.960          47.550          41.200
 112043440.150 7  87144909.895 6                  20967402.140    20967406.300
  20967404.480          47.550          41.400
 121411074.743 7  94430856.101 7                  22712449.700    22712451.640
  22712451.180          47.400          42.350
 108759516.564 8  84590785.791 7                  20324295.860    20324297.020
  20324296.020          48.900          46.100
 130952628.890 6 101852144.594 4                  24566390.400    24566404.420
  24566401.960          37.350          28.600
 126906666.694 7  98705212.142 6                  23707227.220    23707229.560
  23707228.640          44.750          40.050
 109219232.634 8  84948322.708 7                  20460434.700    20460437.100
  20460436.060          49.750          46.550
 109547684.737 7  85203769.661 7                  20507555.180    20507558.740
  20507558.220          45.600          44.300
 116144160.617 8  90334335.582 7                  21765363.060    21765365.180
  21765364.780          49.000          42.100
 128359826.932 6  99835424.550 6                  24037669.800    24037673.760
  24037671.960          41.050          36.200
 131812712.905 7 102521015.356 6                  24640995.980    24641000.220
  24640999.280          42.600          39.200
 125808603.621 6  97851154.048 6                  23526843.140    23526848.320
  23526846.260          39.250          40.150
 145654054.280 7                 108767765.597 7  27716996.020
                        46.800
 147401812.478 7                 110072792.091 6  28049630.060
                        44.750
 138134641.286 8                 103152527.517 8  26286144.280
                        50.600
 126797850.305 8                  94686815.074 8  24128774.760
                        51.050
 15  1 27  3  5 40.0000000  0 25G31G08G21G07G04G16G18G22G27G19R11R05
                                R21R10R07R22R12R06R13R23R20E12E19E18
                                E11
 133100171.267 7 103714416.612 6                  25328124.720    25328122.440
  25328121.900          43.200          36.800
 120001564.575 8  93507690.41946                  22835538.540
  22835534.760          48.650          38.500
 117529916.913 8  91581811.20047                  22365168.820
  22365163.240          48.250          43.200
 130006773.211 7 101303944.942 6                  24739466.380    24739462.660
  24739462.360          44.950          40.700
 133009011.936 7 103643390.30344                  25310768.580
  25310766.780          42.350          28.850
 107322803.933 8  83628160.03347                  20422848.360
  20422842.400          49.350          47.850
 116299416.928 8  90622916.67147                  22131034.560
  22131028.940          50.100          42.750
 118464012.466 8  92309627.95347                  22542938.620
  22542932.000          49.750          42.800
 111592988.265 8  86955585.646 8  83332431.046 8  21235434.400    21235432.340
  21235431.700          50.350          49.150
 121231592.366 7  94466153.56546                  23069600.860
  23069594.400          47.650          41.350
 112060273.647 7  87158002.624 6                  20970552.280    20970556.420
  20970554.640          46.850          41.700
 121417364.676 7  94435748.271 7                  22713626.380    22713628.240
  22713627.820          47.350          42.550
 108766645.387 8  84596330.433 7                  20325628.080    20325629.220
  20325628.240          48.800          46.250
 130975592.157 6 101869995.475 4                  24570698.380
  24570709.980          36.200          26.900
 126886201.233 7  98689294.549 6                  23703404.100    23703406.380
  23703405.560          44.700          39.250
 109213023.610 8  84943493.459 7                  20459271.520    20459273.920
  20459272.860          49.600          46.750
 109543861.176 7  85200795.776 7                  20506839.480    20506842.980
  20506842.440          45.150          44.150
 116132411.596 8  90325197.463 6                  21763161.300    21763163.420
  21763163.060          48.700          41.900
 128341048.049 6  99820818.738 6                  24034153.140    24034157.000
  24034155.240          40.600          36.650
 131798565.201 7 102510011.609 6                  24638351.240    24638355.500
  24638354.700          42.400          39.700
 125823029.997 6  97862374.571 6                  23529541.000    23529546.080
  23529544.000          38.750          39.600
 145664787.055 7                 108775780.347 7  27719038.460
                        46.750
 147406671.147 7                 110076420.345 6  28050554.660
                        44.900
 138158090.600 8                 103170038.366 8  26290606.540
                        50.750
 126803926.540 8                  94691352.520 8  24129931.020
                        51.250
 15  1 27  3  5 45.0000000  0 25G31G08G21G07G04G16G18G22G27G19R11R05
                                R21R10R07R22R12R06R13R23R20E12E19E18
                                E11
 133116561.331 7 103727187.980 6                  25331243.720    25331241.500
  25331240.860          42.950          37.550
 120017934.378 8  93520446.10146                  22838653.580
  22838649.800          48.300          39.200
 117540636.794 8  91590164.34447                  22367208.680
  22367203.100          48.600          42.650
 129996853.893 7 101296215.607 6                  24737578.820    24737575.160
  24737574.840          45.100          41.050
 132990753.777 7 103629163.18945                  25307294.140
  25307292.420          42.150          31.400
 107320619.539 8  83626457.90548                  20422432.660
  20422426.720          49.350          48.000
 116295517.245 8  90619877.95547                  22130292.420
  22130286.840          50.150          42.400
 118450509.234 8  92299105.94447                  22540369.040
  22540362.400          49.650          43.500
 111585201.519 8  86949518.045 8  83326616.268 8  21233952.660    21233950.560
  21233949.940          50.400          49.300
 121218980.620 7  94456326.22646                  23067200.880
  23067194.460          47.850          40.750
 112077120.778 7  87171105.940 6                  20973704.980    20973709.120
  20973707.360          46.350          41.600
 121423674.441 7  94440655.862 7                  22714806.720    22714808.580
  22714808.200          46.950          42.900
 108773779.240 8  84601878.983 7                  20326961.220    20326962.360
  20326961.400          48.850          46.200
 130998552.117 6 101887849.29115                  24575005.780    24575015.620
  24575017.360          37.150          30.600
 126865735.173 7  98673376.477 6                  23699580.920    23699583.080
  23699582.320          44.350          39.050
 109206821.330 8  84938669.467 7                  20458109.580    20458112.040
  20458110.940          49.650          46.650
 109540060.506 7  85197839.703 7                  20506128.040    20506131.460
  20506130.960          45.800          44.200
 116120678.242 8  90316071.525 6                  21760962.480    21760964.540
  21760964.220          48.850          41.700
 128322278.987 6  99806220.559 6                  24030638.240    24030642.200
  24030640.380          41.100          37.300
 131784419.126 6 102499009.075 6                  24635706.760    24635711.040
  24635710.300          41.650          37.850
 125837455.319 6  97873594.272 6                  23532238.580    23532243.660
  23532241.620          38.900          40.400
 145675518.956 7                 108783794.416 7  27721080.700
                        46.250
 147411540.276 7                 110080056.389 6  28051481.240
                        44.700
 138181533.055 8                 103187544.092 8  26295067.500
                        50.700
 126810004.874 8                  94695891.535 8  24131087.660
                        51.150
 15  1 27  3  5 50.0000000  0 25G31G08G21G07G04G16G18G22G27G19R11R05
                                R21R10R07R22R12R06R13R23R20E12E19E18
                                E11
 133132948.418 7 103739957.022 6                  25334362.120    25334359.960
  25334359.320          43.000          37.650
 120034311.788 7  93533207.70746                  22841770.080
  22841766.340          47.850          39.200
 117551363.007 8  91598522.43447                  22369249.800
  22369244.200          48.850          42.750
 129986948.361 7 101288497.021 6                  24735693.920    24735690.260
  24735689.920          44.850          41.000
 132972498.725 7 103614938.46544                  25303820.280
  25303818.520          42.250          27.550
 107318450.171 8  83624767.49148                  20422019.860
  20422013.900          49.250          48.450
 116291631.545 8  90616850.14047                  22129552.940
  22129547.380          49.900          43.100
 118437014.243 8  92288590.36847                  22537801.020
  22537794.380          49.600          43.650
 111577421.071 8  86943455.357 8  83320806.192 8  21232472.120    21232469.960
  21232469.360          50.400          49.350
 121206373.396 7  94446502.40746                  23064801.800
  23064795.380          47.600          41.500
 112093983.019 7  87184221.010 6                  20976860.500    20976864.660
  20976862.900          46.550          41.850
 121430005.682 7  94445580.162 7                  22715991.100    22715993.000
  22715992.620          46.950          42.850
 108780919.427 8  84607432.453 7                  20328295.540    20328296.680
  20328295.760          48.850          46.400
 131021510.040 6 101905705.232 5                  24579312.740    24579327.760
  24579324.640          38.550          31.800
 126845269.929 7  98657459.051 6                  23695757.840    23695760.020
  23695759.240          43.850          40.100
 109200626.983 8  84933851.635 7                  20456949.120    20456951.600
  20456950.520          49.600          46.650
 109536283.940 7  85194902.362 7                  20505421.100    20505424.460
  20505423.960          45.700          44.100
 116108961.766 8  90306958.700 6                  21758766.840    21758768.860
  21758768.540          48.800          41.850
 128303521.092 6  99791631.086 6                  24027125.560    24027129.420
  24027127.660          40.950          36.900
 131770276.180 6 102488009.017 6                  24633062.780    24633067.220
  24633066.360          40.900          38.600
 125851880.962 6  97884814.211 6                  23534936.280    23534941.340
  23534939.340          40.300          39.650
 145686251.276 7                 108791808.812 7  27723122.960
                        45.450
 147416421.150 7                 110083701.175 6  28052410.000
                        44.700
 138204969.980 8                 103205045.688 7  26299527.400
                        50.700
 126816086.660 8                  94700433.133 8  24132244.960
                        51.150
 15  1 27  3  5 55.0000000  0 25G31G08G21G07G04G16G18G22G27G19R11R05
                                R21R10R07R22R12R06R13R23R20E12E19E18
                                E11
 133149330.534 7 103752722.188 6                  25337479.580    25337477.520
  25337476.780          42.950          38.350
 120050694.805 7  93545973.69546                  22844887.640
  22844883.940          47.350          40.350
 117562093.597 8  91606883.93347                  22371291.800
  22371286.120          49.000          43.150
 129977054.645 7 101280787.620 6                  24733811.240    24733807.580
  24733807.240          43.950          40.800
 132954244.870 7 103600714.67645                  25300346.660
  25300345.160          42.150          30.200
 107316293.843 8  83623087.23348                  20421609.540
  20421603.580          49.050          48.750
 116287757.917 8  90613831.72847                  22128815.760
  22128810.280          49.650          43.250
 118423525.523 8  92278079.67247                  22535234.240
  22535227.560          49.450          43.700
 111569644.935 8  86937396.028 8  83314999.329 8  21230992.420    21230990.220
  21230989.580          50.250          49.400
 121193768.757 7  94436680.61747                  23062403.180
  23062396.820          47.350          42.400
 112110858.147 7  87197346.109 6                  20980018.440    20980022.580
  20980020.880          47.050          41.250
 121436356.137 7  94450519.411 7                  22717179.060    22717180.980
  22717180.660          46.850          42.500
 108788064.020 8  84612989.361 7                  20329630.700    20329631.840
  20329630.960          49.150          46.550
 131044463.950 6 101923557.995 5                  24583618.820    24583633.080
  24583630.700          36.650          30.050
 126824803.438 7  98641540.698 6                  23691934.560    23691936.680
  23691935.940          44.350          40.350
 109194438.686 8  84929038.524 7                  20455789.820    20455792.340
  20455791.260          49.600          46.650
 109532529.698 7  85191982.411 7                  20504718.360    20504721.640
  20504721.140          45.600          44.050
 116097260.576 8  90297857.782 6                  21756574.000    21756576.020
  21756575.720          48.700          41.650
 128284772.228 6  99777048.619 6                  24023614.520    24023618.440
  24023616.600          40.850          36.550
 131756134.253 7 102477009.726 6                  24630419.100    24630423.540
  24630422.600          43.050          38.050
 125866305.022 6  97896032.920 6                  23537633.600    23537638.760
  23537636.760          39.950          40.050
 145696982.103 7                 108799822.067 7  27725164.860
                        44.900
 147421311.825 7                 110087353.294 6  28053340.540
                        44.100
 138228399.424 8                 103222541.696 8  26303985.880
                        50.350
 126822169.950 8                  94704975.836 8  24133402.560
                        50.950
 15  1 27  3  6  0.0000000  0 25G31G08G21G07G04G16G18G22G27G19R11R05
                                R21R10R07R22R12R06R13R23R20E12E19E18
                                E11
 133165708.780 7 103765484.357 6                  25340596.320    25340594.300
  25340593.640          42.800          38.900
 120067084.557 7  93558744.92846                  22848006.500
  22848002.860          47.050          40.900
 117572829.698 8  91615249.73447                  22373334.880
  22373329.100          49.150          43.150
 129967173.889 7 101273088.339 6                  24731931.000    24731927.360
  24731926.980          43.450          40.500
 132935993.320 7 103586492.72844                  25296873.540
  25296871.980          42.350          27.950
 107314151.725 8  83621418.05548                  20421201.880
  20421195.940          48.950          48.850
 116283897.507 8  90610823.62347                  22128081.100
  22128075.680          49.250          43.300
 118410044.192 8  92267574.73647                  22532668.840
  22532662.160          49.300          44.150
 111561874.269 8  86931340.970 8  83309196.561 8  21229513.740    21229511.500
  21229510.880          50.150          49.400
 121181167.815 7  94426861.70946                  23060005.280
  23059998.960          47.250          41.800
 112127747.526 7  87210482.311 6                  20983179.060    20983183.260
  20983181.500          47.200          41.200
 121442727.103 7  94455474.603 7                  22718370.840    22718372.780
  22718372.460          47.050          42.700
 108795214.130 8  84618550.560 7                  20330966.940    20330968.040
  20330967.200          49.250          46.550
 131067415.117 5 101941412.472 4                  24587924.440    24587937.800
  24587936.240          35.600          29.550
 126804337.021 7  98625622.399 6                  23688111.300    23688113.360
  23688112.660          45.300          40.000
 109188257.596 8  84924231.018 7                  20454631.880    20454634.380
  20454633.320          49.450          46.450
 109528798.869 7  85189080.663 7                  20504019.980    20504023.240
  20504022.700          45.850          44.100
 116085575.746 8  90288769.581 7                  21754384.240    21754386.260
  21754386.020          48.700          42.250
 128266033.848 6  99762474.311 6                  24020105.380    24020109.320
  24020107.480          40.400          36.650
 131741994.653 7 102466012.292 6                  24627775.880    24627780.340
  24627779.420          43.900          38.900
 125880728.430 6  97907251.108 6                  23540330.800    23540336.060
  23540334.000          40.400          39.300
 145707712.531 7                 108807835.025 7  27727206.640
                        44.650
 147426213.402 7                 110091013.576 6  28054273.200
                        44.000
 138251822.500 8                 103240032.951 8  26308443.120
                        50.050
 126828255.838 8                  94709520.498 8  24134560.640
                        50.850
 15  1 27  3  6  5.0000000  0 25G31G08G21G07G04G16G18G22G27G19R11R05
                                R21R10R07R22R12R06R13R23R20E12E19E18
                                E11
 133182083.733 7 103778243.944 6                  25343712.380    25343710.400
  25343709.840          42.400          39.250
 120083481.542 7  93571521.79346                  22851126.780
  22851123.100          47.100          40.850
 117583571.797 8  91623620.20547                  22375379.100
  22375373.220          49.100          42.950
 129957306.637 7 101265399.576 6                  24730053.340    24730049.720
  24730049.200          43.850          40.100
 132917744.582 7 103572272.90144                  25293400.940
  25293399.240          42.900          28.150
 107312024.345 8  83619760.35048                  20420797.080
  20420791.100          48.700          48.500
 116280050.837 8  90607826.21747                  22127349.040
  22127343.680          49.250          42.950
 118396570.804 8  92257075.99047                  22530104.940
  22530098.260          49.150          44.100
 111554109.584 8  86925290.570 8  83303398.267 8  21228036.200    21228033.940
  21228033.280          50.050          49.250
 121168571.106 7  94417046.10447                  23057608.140
  23057601.920          47.100          42.700
 112144651.461 7  87223629.812 6                  20986342.420    20986346.620
  20986344.860          47.100          41.100
 121449119.088 7  94460446.153 7                  22719566.580    22719568.580
  22719568.180          47.300          42.050
 108802370.325 8  84624116.487 7                  20332304.260    20332305.360
  20332304.540          49.350          46.150
 131090363.765 6 101959261.178 4                  24592229.740
  24592241.340          37.450          27.600
 126783870.964 7  98609704.358 6                  23684288.060    23684290.060
  23684289.380          44.350          39.350
 109182084.198 8  84919429.484 7                  20453475.400    20453477.900
  20453476.800          49.400          46.350
 109525091.961 7  85186197.498 7                  20503326.020    20503329.300
  20503328.760          45.350          43.900
 116073907.696 8  90279694.440 6                  21752197.620    21752199.700
  21752199.460          48.700          41.900
 128247306.370 6  99747908.468 6                  24016598.320    24016602.240
  24016600.440          40.450          37.400
 131727857.701 7 102455016.858 6                  24625133.160    24625137.660
  24625136.840          43.300          38.300
 125895151.905 6  97918469.374 6                  23543028.120    23543033.300
  23543031.260          39.600          39.250
 145718443.079 7                 108815848.087 7  27729248.500
                        44.900
 147431126.421 7                 110094682.417 6  28055208.020
                        43.950
 138275239.757 8                 103257519.862 8  26312899.240
                        49.900
 126834344.882 8                  94714067.511 8  24135719.360
                        50.750
 15  1 27  3  6 10.0000000  0 25G31G08G21G07G04G16G18G22G27G19R11R05
                                R21R10R07R22R12R06R13R23R20E12E19E18
                                E11
 133198453.605 7 103790999.574 6                  25346827.500    25346825.660
  25346825.040          42.200          39.950
 120099884.010 7  93584302.95046                  22854248.100
  22854244.400          46.750          41.750
 117594318.150 8  91631993.99147                  22377424.120
  22377418.180          49.050          42.950
 129947451.155 7 101257719.985 6                  24728177.880    24728174.220
  24728173.720          43.400          39.850
 132899496.981 7 103558054.00545                  25289928.620
  25289926.740          42.950          31.400
 107309909.950 8  83618112.77148                  20420394.720
  20420388.720          48.650          48.500
 116276216.167 8  90604838.17147                  22126619.280
  22126613.980          49.350          43.100
 118383103.622 8  92246582.08247                  22527542.240
  22527535.540          48.950          44.650
 111546349.147 8  86919243.478 8  83297603.126 8  21226559.460    21226557.160
  21226556.500          49.950          49.300
 121155976.901 7  94407232.44847                  23055211.480
  23055205.320          47.000          42.450
 112161568.285 7  87236787.326 6                  20989508.160    20989512.340
  20989510.620          47.200          41.400
 121455530.328 7  94465432.690 7                  22720765.940    22720767.920
  22720767.480          46.900          42.200
 108809530.760 8  84629685.719 7                  20333642.380    20333643.460
  20333642.660          48.800          46.050
 131113308.405 6 101977106.837 4                  24596534.320
  24596545.760          37.300          27.400
 126763403.742 7  98593785.425 6                  23680464.660    23680466.600
  23680465.880          43.800          38.850
 109175916.720 8  84914632.563 7                  20452320.000    20452322.520
  20452321.420          49.200          46.450
 109521407.133 7  85183331.520 7                  20502636.220    20502639.520
  20502638.980          45.400          44.200
 116062254.681 8  90270630.992 7                  21750013.800    21750016.000
  21750015.720          48.600          42.300
 128228588.010 6  99733349.746 6                  24013092.940    24013096.920
  24013095.140          38.750          37.100
 131713721.718 6 102444022.198 6                  24622490.600    24622495.040
  24622494.440          40.900          38.500
 125909573.602 6  97929686.241 6                  23545725.100    23545730.280
  23545728.240          38.850          39.300
 145729171.988 7                 108823859.927 7  27731290.140
                        45.200
 147436049.136 7                 110098358.458 6  28056144.720
                        43.750
 138298649.416 8                 103275001.086 8  26317353.920
                        50.050
 126840435.310 8                  94718615.549 8  24136878.320
                        50.700
 15  1 27  3  6 15.0000000  0 25G31G08G21G07G04G16G18G22G27G19R11R05
                                R21R10R07R22R12R06R13R23R20E12E19E18
                                E11
 133214820.255 6 103803752.693 6                  25349942.060    25349940.220
  25349939.600          41.200          39.900
 120116293.878 7  93597089.84946                  22857370.820
  22857367.100          47.000          41.900
 117605070.665 8  91640372.58047                  22379470.300
  22379464.340          48.900          43.300
 129937609.335 7 101250051.051 6                  24726305.080    24726301.340
  24726300.820          43.750          39.850
 132881252.380 7 103543837.43045                  25286456.800
  25286454.880          43.350          31.400
 107307810.450 8  83616476.79548                  20419995.180
  20419989.200          48.700          48.600
 116272395.404 8  90601860.95547                  22125892.140
  22125886.920          49.350          43.350
 118369644.591 8  92236094.53647                  22524981.080
  22524974.360          49.300          44.200
 111538594.859 8  86913201.174 8  83291812.594 8  21225083.860    21225081.580
  21225080.880          50.050          49.350
 121143387.103 7  94397422.22447                  23052815.680
  23052809.560          46.950          42.550
 112178499.890 7  87249956.358 6                  20992676.720    20992680.820
  20992679.160          46.950          41.500
 121461962.715 7  94470435.645 7                  22721969.280    22721971.260
  22721970.760          46.900          42.250
 108816697.403 8  84635259.770 7                  20334981.640    20334982.760
  20334981.940          48.800          46.050
 131136250.901 5                                  24600838.400
                        34.500
 126742937.227 7  98577867.020 6                  23676641.340    23676643.220
  23676642.580          44.300          39.550
 109169757.160 8  84909841.788 7                  20451166.100    20451168.640
  20451167.520          49.200          46.600
 109517746.490 7  85180484.358 7                  20501950.960    20501954.200
  20501953.720          45.350          43.950
 116050618.718 8  90261580.802 6                  21747833.200    21747835.420
  21747835.200          48.150          41.850
 128209880.891 6  99718799.743 6                  24009589.600    24009593.720
  24009591.900          39.000          36.550
 131699588.740 6 102433029.818 6                  24619848.580    24619853.100
  24619852.440          40.900          36.950
 125923995.424 6  97940903.222 6                  23548422.100    23548427.260
  23548425.220          37.700          38.600
 145739901.191 7                 108831871.978 7  27733331.900
                        45.700
 147440983.457 7                 110102043.170 7  28057083.620
                        43.900
 138322053.392 8                 103292478.086 8  26321807.540
                        50.350
 126846529.054 8                  94723166.076 8  24138037.900
                        50.800
 15  1 27  3  6 20.0000000  0 25G31G08G21G07G04G16G18G22G27G19R11R05
                                R21R10R07R22R12R06R13R23R20E12E19E18
                                E11
 133231182.554 6 103816502.443 6                  25353055.700    25353053.940
  25353053.300          40.450          39.350
 120132709.986 7  93609881.62246                  22860494.740
  22860491.080          47.300          41.100
 117615828.235 8  91648755.10047                  22381517.420
  22381511.460          48.800          42.750
 129927780.114 7 101242391.914 6                  24724434.640    24724430.900
  24724430.300          44.250          40.150
 132863009.693 7 103529622.37544                  25282985.340
  25282983.320          43.650          29.650
 107305724.771 8  83614851.59148                  20419598.280
  20419592.300          48.800          48.350
 116268587.395 8  90598893.67747                  22125167.440
  22125162.300          49.300          43.000
 118356192.612 8  92225612.47047                  22522421.280
  22522414.540          49.550          43.500
 111530845.637 8  86907162.818 8  83286025.841 8  21223609.220    21223606.960
  21223606.240          50.050          49.300
 121130800.602 7  94387614.56347                  23050420.520
  23050414.460          47.300          42.350
 112195445.236 7  87263136.063 6                  20995847.820    20995851.940
  20995850.260          46.750          41.100
 121468415.030 7  94475454.106 7                  22723176.300    22723178.320
  22723177.800          46.200          42.050
 108823869.143 8  84640837.794 7                  20336321.840    20336323.000
  20336322.160          48.500          46.050
 131159190.149 6                                  24605141.960
                        36.000
 126722470.417 7  98561948.378 6                  23672817.920    23672819.840
  23672819.200          43.300          40.100
 109163604.332 8  84905056.253 7                  20450013.440    20450016.000
  20450014.920          48.900          46.750
 109514108.732 7  85177654.995 7                  20501269.980    20501273.220
  20501272.700          45.300          43.800
 116038998.771 8  90252543.070 7                  21745655.600    21745657.860
  21745657.700          48.400          42.300
 128191183.786 6  99704257.520 6                  24006088.200    24006092.400
  24006090.540          38.750          36.800
 131685457.496 6 102422038.827 5                  24617206.900    24617211.400
  24617210.420          41.600          35.950
 125938416.196 6  97952119.368 6                  23551118.780    23551123.960
  23551121.940          39.350          38.700
 145750629.591 7                 108839883.463 7  27735373.420
                        45.050
 147445928.285 7                 110105735.743 6  28058024.600
                        44.200
 138345450.594 8                 103309950.019 8  26326259.920
                        50.400
 126852625.003 8                  94727718.246 8  24139197.940
                        50.950
 15  1 27  3  6 25.0000000  0 25G31G08G21G07G04G16G18G22G27G19R11R05
                                R21R10R07R22R12R06R13R23R20E12E19E18
                                E11
 133247540.707 6 103829248.914 6                  25356168.580    25356166.920
  25356166.320          40.750          39.600
 120149132.445 7  93622678.33946                  22863619.860
  22863616.180          47.700          40.600
 117626590.926 8  91657141.61447                  22383565.500
  22383559.580          48.600          43.250
 129917963.545 7 101234742.629 6                  24722566.580    24722562.820
  24722562.220          44.300          40.050
 132844768.950 7 103515408.81145                  25279514.240
  25279512.240          43.250          30.700
 107303652.879 8  83613237.13448                  20419204.000
  20419198.020          48.750          48.500
 116264792.266 8  90595936.43047                  22124445.180
  22124440.120          49.250          43.350
 118342747.751 8  92215135.95747                  22519862.800
  22519856.080          49.600          43.650
 111523101.538 8  86901128.458 8  83280242.916 8  21222135.560    21222133.300
  21222132.580          50.150          49.200
 121118217.474 7  94377809.52946                  23048025.980
  23048020.000          47.400          41.900
 112212404.236 7  87276326.390 6                  20999021.460    20999025.580
  20999023.940          46.600          41.050
 121474887.576 7  94480488.298 7                  22724387.080    22724389.120
  22724388.640          46.150          42.300
 108831046.060 8  84646419.843 7                  20337663.000    20337664.200
  20337663.340          48.400          46.100
 131182126.169 6                                  24609444.880
                        37.000
 126702003.302 7  98546029.531 6                  23668994.500    23668996.480
  23668995.760          43.300          39.950
 109157458.273 8  84900275.985 7                  20448862.060    20448864.660
  20448863.600          49.200          46.700
 109510494.138 7  85174843.638 7                  20500593.320    20500596.560
  20500596.020          45.000          43.950
 116027394.598 8  90243517.617 7                  21743480.960    21743483.300
  21743483.120          48.500          42.550
 128172496.747 6  99689723.146 6                  24002588.620    24002592.920
  24002591.120          39.200          37.000
 131671328.130 7 102411049.345 6                  24614565.580    24614570.020
  24614568.860          42.750          37.350
 125952836.149 6  97963334.910 6                  23553815.340    23553820.580
  23553818.520          39.500          39.600
 145761357.288 7                 108847894.410 7  27737414.780
                        45.700
 147450883.652 7                 110109436.205 6  28058967.600
                        44.350
 138368841.091 8                 103327416.942 8  26330711.040
                        50.400
 126858723.228 8                  94732272.119 8  24140358.400
                        51.000
 15  1 27  3  6 30.0000000  0 25G31G08G21G07G04G16G18G22G27G19R11R05
                                R21R10R07R22R12R06R13R23R20E12E19E18
                                E11
 133263895.754 6 103841992.978 6                  25359280.840    25359279.300
  25359278.800          41.100          39.450
 120165562.413 7  93635480.90546                  22866746.420
  22866742.680          47.800          40.150
 117637359.967 7  91665533.06747                  22385614.720
  22385608.920          47.950          43.900
 129908160.834 7 101227104.157 6                  24720701.140    24720697.380
  24720696.760          44.050          39.800
 132826531.483 7 103501197.81345                  25276043.780
  25276041.940          42.850          30.200
 107301596.103 8  83611634.45148                  20418812.580
  20418806.620          48.750          48.600
 116261011.237 8  90592990.17947                  22123725.600
  22123720.620          49.100          43.400
 118329311.234 8  92204665.93847                  22517305.920
  22517299.200          49.100          44.050
 111515363.785 8  86895099.040 8  83274464.725 8  21220663.120    21220660.860
  21220660.120          50.200          49.200
 121105638.937 7  94368008.07547                  23045632.340
  23045626.420          47.250          42.700
 112229378.053 7  87289528.233 6                  21002197.880    21002202.060
  21002200.400          46.850          41.200
 121481381.348 7  94485539.008 7                  22725601.800    22725603.880
  22725603.460          45.900          42.100
 108838229.304 8  84652006.813 7                  20339005.340    20339006.540
  20339005.700          48.450          46.100
 131205060.097 6                                  24613747.420
                        38.050
 126681537.242 7  98530111.480 6                  23665171.260    23665173.260
  23665172.480          43.900          39.700
 109151320.312 8  84895502.034 7                  20447712.200    20447714.840
  20447713.780          49.250          46.450
 109506903.882 7  85172051.220 7                  20499921.240    20499924.460
  20499923.920          44.950          43.750
 116015807.768 8  90234505.637 7                  21741309.560    21741311.960
  21741311.760          48.600          42.450
 128153821.016 6  99675197.579 6                  23999091.160    23999095.680
  23999093.820          39.200          37.100
 131657201.908 7 102400062.288 6                  24611924.900    24611929.260
  24611928.220          42.200          38.500
 125967256.458 6  97974550.693 6                  23556512.200    23556517.300
  23556515.280          39.250          39.950
 145772085.462 7                 108855905.683 7  27739456.220
                        44.900
 147455850.801 7                 110113145.433 6  28059912.880
                        44.350
 138392226.056 8                 103344879.739 8  26335161.080
                        50.350
 126864824.920 8                  94736828.571 8  24141519.520
                        51.150
 15  1 27  3  6 35.0000000  0 25G31G08G21G07G04G16G18G22G27G19R11R05
                                R21R10R07R22R12R06R13R23R20E12E19E18
                                E11
 133280245.363 6 103854732.819 6                  25362392.120    25362390.660
  25362390.200          41.700          39.050
 120181997.505 8  93648287.46646                  22869873.960
  22869870.220          48.150          40.000
 117648132.932 8  91673927.57547                  22387664.680
  22387658.980          48.000          43.800
 129898369.680 7 101219474.681 6                  24718837.880    24718834.160
  24718833.480          43.850          39.750
 132808294.934 7 103486987.52445                  25272573.480
  25272571.680          42.800          33.050
 107299552.086 8  83610041.71448                  20418423.600
  20418417.660          48.800          48.600
 116257241.918 8  90590053.05247                  22123008.240
  22123003.320          49.150          43.600
 118315880.712 8  92194200.60047                  22514750.160
  22514743.460          48.850          44.150
 111507630.028 8  86889072.736 8  83268689.515 8  21219191.440    21219189.180
  21219188.420          50.200          49.350
 121093062.613 7  94358208.35247                  23043239.120
  23043233.240          47.600          42.450
 112246364.396 7  87302739.833 6                  21005376.640    21005380.760
  21005379.140          46.900          41.400
 121487893.994 7  94490604.403 6                  22726820.100    22726822.200
  22726821.800          46.000          41.750
 108845416.541 8  84657596.886 7                  20340348.440    20340349.640
  20340348.800          48.500          46.000
 131227989.494 5                                  24618049.180
                        34.600
 126661069.699 7  98514192.276 6                  23661347.780    23661349.640
  23661348.880          43.600          38.800
 109145188.033 8  84890732.485 7                  20446563.360    20446566.100
  20446564.980          49.050          46.650
 109503335.476 7  85169275.792 7                  20499253.300    20499256.420
  20499255.920          45.150          44.100
 116004235.895 8  90225505.300 7                  21739141.000    21739143.420
  21739143.220          48.600          42.350
 128135154.315 6  99660679.040 6                  23995595.460    23995600.040
  23995598.160          39.400          37.650
 131643076.278 7 102389075.668 6                  24609284.240    24609288.680
  24609287.840          42.300          37.950
 125981674.748 6  97985764.898 6                  23559208.460    23559213.700
  23559211.660          39.250          39.650
 145782811.735 7                 108863915.553 7  27741497.280
                        45.400
 147460827.361 7                 110116861.708 6  28060859.940
                        44.250
 138415603.142 8                 103362336.646 8  26339609.580
                        50.250
 126870927.716 8                  94741385.858 8  24142680.860
                        51.250
 15  1 27  3  6 40.0000000  0 25G31G08G21G07G04G16G18G22G27G19R11R05
                                R21R10R07R22R12R06R13R23R20E12E19E18
                                E11
 133296591.773 6 103867470.166 6                  25365502.780    25365501.340
  25365500.820          41.700          39.000
 120198439.917 8  93661099.73146                  22873002.860
  22872999.140          48.400          39.900
 117658912.003 8  91682326.84747                  22389715.820
  22389710.180          48.100          43.600
 129888592.238 7 101211855.872 6                  24716977.280    24716973.560
  24716972.820          43.700          39.900
 132790061.374 7 103472779.58945                  25269103.780
  25269101.900          42.700          30.550
 107297523.043 8  83608460.64048                  20418037.460
  20418031.560          48.900          48.650
 116253486.562 8  90587126.80347                  22122293.520
  22122288.720          49.150          43.350
 118302458.418 8  92183741.68247                  22512195.940
  22512189.260          49.100          44.150
 111499902.432 8  86883051.233 8  83262918.918 8  21217720.920    21217718.640
  21217717.880          50.200          49.400
 121080490.702 7  94348412.05847                  23040846.760
  23040840.940          47.600          42.850
 112263365.373 7  87315962.809 6                  21008558.120    21008562.260
  21008560.640          46.950          41.200
 121494427.821 7  94495686.283 6                  22728042.360    22728044.540
  22728044.060          46.200          41.800
 108852609.975 8  84663191.777 7                  20341692.700    20341693.900
  20341693.060          48.700          45.950
 131250916.671 6                                  24622350.460
                        37.700
 126640603.093 7  98498273.792 6                  23657524.440    23657526.220
  23657525.540          42.300          40.100
 109139063.619 8  84885969.042 7                  20445416.020    20445418.820
  20445417.660          48.900          46.500
 109499791.165 7  85166519.099 7                  20498589.840    20498592.900
  20498592.440          44.850          44.050
 115992681.127 8  90216518.265 7                  21736975.640    21736978.040
  21736977.860          48.750          42.250
 128116498.800 6  99646169.189 6                  23992101.760    23992106.540
  23992104.640          38.600          37.550
 131628953.668 6 102378091.389 6                  24606644.180    24606648.580
  24606647.920          41.500          37.600
 125996093.050 6  97996979.101 6                  23561904.780    23561910.120
  23561908.020          39.750          39.650
 145793538.327 7                 108871925.644 7  27743538.460
                        45.700
 147465815.517 7                 110120586.614 6  28061809.180
                        44.100
 138438974.560 8                 103379789.325 8  26344056.980
                        50.200
 126877033.821 8                  94745945.617 8  24143842.840
                        51.400
 15  1 27  3  6 45.0000000  0 25G31G08G21G07G04G16G18G22G27G19R11R05
                                R21R10R07R22R12R06R13R23R20E12E19E18
                                E11
 133312934.305 6 103880204.490 6                  25368612.780    25368611.340
  25368610.860          41.900          39.050
 120214888.969 8  93673917.16446                  22876133.040
  22876129.280          48.450          40.050
 117669696.534 8  91690730.37347                  22391768.000
  22391762.420          48.100          43.350
 129878827.882 7 101204247.287 6                  24715119.160    24715115.440
  24715114.660          43.950          39.650
 132771830.266 7 103458573.52945                  25265634.520
  25265632.600          42.850          31.150
 107295508.320 8  83606890.72648                  20417654.060
  20417648.180          48.950          48.650
 116249744.522 8  90584210.93447                  22121581.380
  22121576.640          49.200          43.600
 118289043.713 8  92173288.65947                  22509643.180
  22509636.520          49.200          43.900
 111492180.392 8  86877034.068 8  83257152.453 8  21216251.500    21216249.180
  21216248.440          50.350          49.550
 121067922.584 7  94338618.71947                  23038455.160
  23038449.280          47.600          43.600
 112280380.483 7  87329196.788 6                  21011742.300    21011746.480
  21011744.760          46.900          41.350
 121500982.084 7  94500784.050 6                  22729268.440    22729270.680
  22729270.140          46.150          41.600
 108859808.971 8  84668791.000 7                  20343038.020    20343039.220
  20343038.340          48.950          45.900
 131273841.025 6                                  24626651.140
                        36.000
 126620136.513 7  98482355.391 6                  23653701.000    23653702.920
  23653702.300          42.400          40.100
 109132946.415 8  84881211.225 7                  20444270.040    20444272.880
  20444271.720          49.350          46.700
 109496270.355 7  85163780.695 7                  20497930.700    20497933.780
  20497933.360          45.550          43.950
 115981142.829 8  90207544.027 7                  21734813.380    21734815.700
  21734815.600          48.950          42.150
 128097853.899 6  99631667.599 6                  23988610.200    23988614.900
  23988613.160          39.500          37.600
 131614833.283 6 102367108.871 6                  24604004.600    24604008.960
  24604008.120          41.350          36.400
 126010510.990 6  98008193.094 6                  23564601.060    23564606.260
  23564604.240          39.050          39.100
 145804264.566 7                 108879935.502 7  27745579.640
                        46.150
 147470814.617 7                 110124319.721 6  28062760.520
                        44.150
 138462339.657 8                 103397237.274 8  26348503.180
                        50.550
 126883142.605 8                  94750507.366 8  24145005.320
                        51.400
 15  1 27  3  6 50.0000000  0 25G31G08G21G07G04G16G18G22G27G19R11R05
                                R21R10R07R22R12R06R13R23R20E12E19E18
                                E11
 133329273.698 7 103892936.371 6                  25371722.120    25371720.700
  25371720.220          42.950          39.800
 120231345.425 8  93686740.37746                  22879264.620
  22879260.880          48.350          39.650
 117680487.321 8  91699138.76847                  22393821.420
  22393815.840          48.750          43.150
 129869077.419 7 101196649.542 6                  24713263.700    24713259.940
  24713259.240          44.150          40.150
 132753602.369 7 103444369.98544                  25262165.860
  25262163.960          42.750          28.850
 107293508.687 8  83605332.56748                  20417273.540
  20417267.660          49.000          48.650
 116246016.524 8  90581306.00247                  22120871.880
  22120867.240          49.300          43.700
 118275637.282 8  92162842.09047                  22507091.960
  22507085.380          49.300          44.150
 111484464.662 8  86871021.805 8  83251390.701 8  21214783.260    21214780.920
  21214780.180          50.550          49.550
 121055359.021 7  94328828.92647                  23036064.400
  23036058.480          47.700          43.050
 112297410.396 7  87342442.264 6                  21014929.260    21014933.400
  21014931.680          47.050          41.000
 121507557.639 7  94505898.351 6                  22730498.460    22730500.740
  22730500.220          46.250          41.600
 108867014.265 8  84674395.118 7                  20344384.520    20344385.700
  20344384.800          49.000          45.850
 131296763.055 6                                  24630951.440
                        39.550
 126599671.082 7  98466437.861 6                  23649877.840    23649879.860
  23649879.240          43.750          39.800
 109126837.335 8  84876459.712 7                  20443125.580    20443128.460
  20443127.320          49.550          46.750
 109492773.797 7  85161061.144 7                  20497276.200    20497279.200
  20497278.780          44.700          43.800
 115969621.970 8  90198583.363 7                  21732654.400    21732656.740
  21732656.600          49.050          42.300
 128079220.367 6  99617174.850 6                  23985120.800    23985125.540
  23985123.760          39.700          37.500
 131600715.955 6 102356128.754 6                  24601365.520    24601369.920
  24601368.720          41.500          36.700
 126024929.082 6  98019407.168 6                  23567297.280    23567302.560
  23567300.520          38.900          39.450
 145814991.245 7                 108887945.688 7  27747620.940
                        46.550
 147475825.417 7                 110128061.582 6  28063714.040
                        44.100
 138485699.167 8                 103414681.063 8  26352948.360
                        50.550
 126889254.813 8                  94755071.669 8  24146168.440
                        51.450
 15  1 27  3  6 55.0000000  0 25G31G08G21G07G04G16G18G22G27G19R11R05
                                R21R10R07R22R12R06R13R23R20E12E19E18
                                E11
 133345607.848 7 103905664.162 6                  25374830.480    25374829.100
  25374828.520          42.400          39.850
 120247807.160 8  93699567.69346                  22882397.180
  22882393.440          48.350          39.900
 117691282.288 8  91707550.43647                  22395875.660
  22395870.020          49.250          42.600
 129859338.732 7 101189060.959 6                  24711410.480    24711406.720
  24711406.020          43.700          40.400
 132735375.623 7 103430167.32945                  25258697.420
  25258695.400          42.450          30.850
 107291522.050 8  83603784.53748                  20416895.480
  20416889.620          49.100          48.600
 116242300.560 8  90578410.44747                  22120164.700
  22120160.100          49.650          43.100
 118262237.155 8  92152400.44247                  22504541.960
  22504535.420          49.700          43.650
 111476753.168 8  86865012.849 8  83245632.126 8  21213315.820    21213313.480
  21213312.720          50.700          49.450
 121042797.925 7  94319041.05947                  23033674.140
  23033668.180          47.600          43.750
 112314452.926 7  87355697.575 6                  21018118.520    21018122.740
  21018120.940          46.950          41.350
 121514152.336 7  94511027.585 6                  22731732.100    22731734.400
  22731733.920          45.700          41.950
 108874223.761 8  84680002.512 7                  20345731.800    20345732.920
  20345732.020          48.800          45.950
 131319680.754 6 102137616.12214                  24635250.940    24635263.560
                        39.050          29.350
 126579204.347 7  98450519.279 6                  23646054.480    23646056.420
  23646055.800          44.400          39.000
 109120734.018 8  84871712.702 7                  20441982.220    20441985.120
  20441984.000          49.550          46.900
 109489299.496 7  85158358.924 7                  20496625.760    20496628.820
  20496628.360          44.800          43.800
 115958116.226 8  90189634.455 7                  21730498.280    21730500.540
  21730500.420          48.900          42.550
 128060596.251 6  99602689.416 6                  23981633.080    23981637.880
  23981636.080          39.200          37.900
 131586599.513 6 102345149.322 6                  24598726.600    24598730.960
  24598729.740          41.700          39.100
 126039345.375 6  98030619.805 6                  23569993.260    23569998.540
  23569996.540          39.650          39.950
 145825716.281 7                 108895954.636 7  27749661.920
                        46.600
 147480845.859 7                 110131810.602 6  28064669.380
                        44.400
 138509051.031 8                 103432119.143 8  26357392.120
                        50.800
 126895368.353 8                  94759636.987 8  24147331.840
                        51.500
 15  1 27  3  7  0.0000000  0 25G31G08G21G07G04G16G18G22G27G19R11R05
                                R21R10R07R22R12R06R13R23R20E12E19E18
                                E11
 133361936.507 7 103918387.682 6                  25377937.840    25377936.460
  25377935.880          43.100          39.450
 120264273.903 8  93712398.91346                  22885530.680
  22885526.980          48.000          39.350
 117702081.100 8  91715965.10247                  22397930.660
  22397924.880          49.350          42.450
 129849611.577 7 101181481.346 6                  24709559.460    24709555.720
  24709554.940          43.550          40.250
 132717149.778 6 103415965.38445                  25255229.120
  25255227.080          41.750          31.850
 107289548.119 8  83602246.40448                  20416519.820
  20416514.020          48.900          48.650
 116238596.288 8  90575524.00447                  22119459.760
  22119455.180          49.700          43.050
 118248843.041 8  92141963.47147                  22501993.100
  22501986.640          49.650          43.700
 111469045.597 8  86859006.948 8  83239876.470 8  21211849.140    21211846.760
  21211846.040          50.450          49.400
 121030239.026 7  94309254.90847                  23031284.240
  23031278.340          47.450          42.750
 112331507.879 7  87368962.526 6                  21021310.100    21021314.320
  21021312.560          46.900          41.150
 121520765.778 7  94516171.348 7                  22732969.220    22732971.640
  22732971.160          45.650          42.550
 108881437.165 8  84685612.939 7                  20347079.800    20347080.880
  20347079.980          48.600          45.800
 131342593.807 6                                  24639549.560
                        37.000
 126558736.596 7  98434599.875 6                  23642230.920    23642232.900
  23642232.180          44.400          38.700
 109114636.316 8  84866970.043 7                  20440839.920    20440842.800
  20440841.720          49.300          46.650
 109485847.082 7  85155673.701 7                  20495979.440    20495982.540
  20495982.020          44.700          43.800
 115946625.388 8  90180697.133 7                  21728344.920    21728347.140
  21728347.040          49.200          42.400
 128041981.059 6  99588210.929 6                  23978147.020    23978151.900
  23978150.060          39.550          37.900
 131572483.701 6 102334170.312 6                  24596087.760    24596092.200
  24596091.180          40.450          39.950
 126053759.660 6  98041830.916 6                  23572688.900    23572694.100
  23572692.080          39.950          38.750
 145836439.367 7                 108903962.133 7  27751702.500
                        46.250
 147485875.648 7                 110135566.619 6  28065626.520
                        44.700
 138532394.952 8                 103449551.298 8  26361834.360
                        50.800
 126901482.949 8                  94764203.084 8  24148495.440
                        51.450
 15  1 27  3  7  5.0000000  0 25G31G08G21G07G04G16G18G22G27G19R11R05
                                R21R10R07R22R12R06R13R23R20E12E19E18
                                E11
 133378262.828 6 103931109.371 6                  25381044.740    25381043.340
  25381042.760          41.800          39.500
 120280748.868 7  93725236.54346                  22888665.720
  22888662.060          47.900          39.850
 117712887.011 8  91724385.29047                  22399987.020
  22399981.120          49.650          42.800
 129839899.192 7 101173913.251 6                  24707711.260    24707707.500
  24707706.740          44.600          39.850
 132698927.997 6 103401766.59945                  25251761.620
  25251759.540          41.850          32.800
 107287590.080 8  83600720.65948                  20416147.200
  20416141.420          49.000          48.650
 116234907.006 8  90572649.23947                  22118757.680
  22118753.140          49.650          43.150
 118235458.227 8  92131533.74347                  22499446.020
  22499439.600          49.650          43.700
 111461345.257 8  86853006.678 8  83234126.212 8  21210383.820    21210381.420
  21210380.720          50.350          49.400
 121017685.587 7  94299473.01247                  23028895.440
  23028889.500          47.800          43.050
 112348578.351 7  87382239.541 6                  21024504.660    21024508.780
  21024507.040          46.700          40.900
 121527401.473 7  94521332.442 7                  22734210.540    22734213.040
  22734212.620          45.850          42.850
 108888657.780 8  84691228.973 7                  20348429.140    20348430.240
  20348429.300          48.500          46.150
 131365505.603 5                                  24643848.000
                        34.800
 126538270.495 7  98418681.751 6                  23638407.780    23638409.680
  23638408.900          43.550          39.600
 109108547.471 8  84862234.272 7                  20439699.300    20439702.140
  20439701.100          49.000          46.800
 109482419.840 7  85153008.068 7                  20495337.840    20495340.940
  20495340.400          44.900          43.850
 115935152.683 8  90171773.926 7                  21726194.980    21726197.120
  21726197.040          49.100          42.300
 128023378.376 6  99573742.144 6                  23974663.340    23974668.160
  23974666.360          39.900          38.350
 131558372.020 6 102323194.512 6                  24593449.620    24593454.320
  24593453.460          37.800          40.150
 126068175.085 6  98053042.956 6                  23575384.680    23575389.740
  23575387.760          38.500          38.700
 145847163.762 7                 108911970.590 7  27753743.360
                        46.450
 147490918.007 7                 110139332.039 6  28066586.060
                        44.600
 138555734.178 8                 103466979.927 8  26366275.680
                        50.700
 126907601.858 8                  94768772.386 8  24149659.840
                        51.400
 15  1 27  3  7 10.0000000  0 25G31G08G21G07G04G16G18G22G27G19R11R05
                                R21R10R07R22R12R06R13R23R20E12E19E18
                                E11
 133394584.621 6 103943827.531 6                  25384150.760    25384149.400
  25384148.780          41.400          39.750
 120297229.771 7  93738078.80146                  22891801.900
  22891798.320          47.650          40.250
 117723697.728 8  91732809.22647                  22402044.320
  22402038.260          49.650          42.100
 129830199.311 7 101166354.892 6                  24705865.400    24705861.660
  24705860.960          44.300          39.900
 132680707.998 7 103387569.19745                  25248294.460
  25248292.320          42.350          33.650
 107285645.806 8  83599205.63848                  20415777.200
  20415771.460          49.050          48.750
 116231230.441 8  90569784.38747                  22118058.020
  22118053.480          49.550          43.300
 118222080.428 8  92121109.48847                  22496900.280
  22496893.880          49.650          43.750
 111453649.809 8  86847010.228 8  83228379.612 8  21208919.420    21208917.040
  21208916.320          50.300          49.450
 121005135.304 7  94289693.57247                  23026507.240
  23026501.280          47.850          43.050
 112365662.120 7  87395526.919 6                  21027701.700    21027705.780
  21027704.000          47.050          41.350
 121534056.933 7  94526508.909 7                  22735455.560    22735458.140
  22735457.760          45.800          42.800
 108895883.291 8  84696848.813 7                  20349779.380    20349780.520
  20349779.540          48.400          46.100
 131388413.818 5                                  24648145.740
                        33.950
 126517804.084 7  98402763.456 6                  23634584.520    23634586.420
  23634585.600          42.650          40.350
 109102465.273 8  84857503.668 7                  20438559.920    20438562.740
  20438561.700          49.150          46.850
 109479015.490 7  85150360.228 7                  20494700.520    20494703.640
  20494703.100          44.750          44.200
 115923695.989 8  90162863.168 7                  21724048.020    21724050.160
  21724050.040          49.000          42.650
 128004785.587 6  99559281.066 6                  23971181.480    23971186.340
  23971184.520          40.100          38.500
 131544262.031 6 102312219.989 6                  24590811.900    24590816.580
  24590815.940          38.150          40.250
 126082589.375 6  98064254.044 6                  23578080.220    23578085.320
  23578083.280          39.350          39.200
 145857887.208 7                 108919978.365 7  27755784.040
                        46.700
 147495970.690 7                 110143105.147 6  28067547.540
                        44.850
 138579066.433 8                 103484403.372 8  26370715.660
                        50.450
 126913722.784 8                  94773343.210 8  24150824.640
                        51.400
 15  1 27  3  7 15.0000000  0 25G31G08G21G07G04G16G18G22G27G19R11R05
                                R21R10R07R22R12R06R13R23R20E12E19E18
                                E11
 133410902.145 6 103956542.380 6                  25387256.020    25387254.620
  25387254.000          41.050          38.850
 120313716.977 7  93750925.96846                  22894939.280
  22894935.680          47.250          39.750
 117734513.629 8  91741237.21747                  22404102.600
  22404096.400          49.350          42.650
 129820512.323 7 101158806.608 6                  24704022.000    24704018.260
  24704017.640          44.350          39.650
 132662490.243 7 103373373.56245                  25244827.700
  25244825.700          42.250          33.950
 107283715.658 8  83597701.63148                  20415409.880
  20415404.180          48.950          48.450
 116227566.996 8  90566929.76047                  22117360.860
  22117356.340          49.550          43.250
 118208710.075 8  92110691.04247                  22494355.940
  22494349.560          49.700          43.750
 111445959.680 8  86841017.929 8  83222636.998 8  21207456.020    21207453.640
  21207452.940          50.300          49.400
 120992588.560 7  94279916.88647                  23024119.680
  23024113.720          47.550          42.950
 112382759.566 7  87408824.943 6                  21030901.280    21030905.360
  21030903.540          47.050          41.000
 121540732.586 7  94531701.080 7                  22736704.360    22736707.020
  22736706.660          46.250          43.100
 108903114.047 8  84702472.745 7                  20351130.580    20351131.740
  20351130.780          48.150          46.350
 131411318.983 4                                  24652442.760
                        29.700
 126497337.896 7  98386845.361 6                  23630761.180    23630763.240
  23630762.340          42.800          39.950
 109096390.077 8  84852778.518 7                  20437421.860    20437424.680
  20437423.640          49.450          46.700
 109475634.376 7  85147730.486 7                  20494067.520    20494070.700
  20494070.140          44.300          44.050
 115912255.618 8  90153965.106 7                  21721904.140    21721906.260
  21721906.120          48.800          42.600
 127986203.355 6  99544828.196 6                  23967701.680    23967706.480
  23967704.680          39.750          39.000
 131530153.837 6 102301246.920 6                  24588174.600    24588179.240
  24588178.580          40.800          38.550
 126097002.968 6  98075464.602 6                  23580775.720    23580780.740
  23580778.720          39.800          38.800
 145868610.058 7                 108927985.680 7  27757824.600
                        46.400
 147501034.063 7                 110146886.227 6  28068511.100
                        44.900
 138602392.103 8                 103501821.888 8  26375154.320
                        50.300
 126919846.124 8                  94777915.838 8  24151989.860
                        51.250
 15  1 27  3  7 20.0000000  0 24G31G08G21G07G04G16G18G22G27G19R11R05
                                R21R07R22R12R06R13R23R20E12E19E18E11
 133427214.416 6 103969253.099 6                  25390360.280    25390358.940
  25390358.140          41.850          38.900
 120330209.390 7  93763777.20446                  22898077.640
  22898074.100          47.100          40.300
 117745333.544 8  91749668.32047                  22406161.600
  22406155.300          49.000          42.550
 129810837.169 7 101151267.535 6                  24702180.880    24702177.100
  24702176.520          44.900          39.300
 132644273.600 7 103359178.77545                  25241361.180
  25241359.120          42.300          30.750
 107281798.500 8  83596207.74148                  20415045.020
  20415039.380          49.000          48.050
 116223915.532 8  90564084.46647                  22116665.980
  22116661.500          49.450          42.750
 118195346.050 8  92100277.51747                  22491812.820
  22491806.460          49.300          43.650
 111438273.780 8  86835028.919 8  83216897.528 8  21205993.420    21205991.060
  21205990.380          50.350          49.350
 120980044.257 7  94270142.12147                  23021732.600
  23021726.620          47.350          42.450
 112399869.480 7  87422132.662 6                  21034103.220    21034107.180
  21034105.380          46.750          41.300
 121547427.174 7  94536908.004 7                  22737956.720    22737959.440
  22737959.100          46.550          42.950
 108910348.965 7  84708099.908 7                  20352482.580    20352483.740
  20352482.800          47.900          46.200
 126476870.465 7  98370926.263 6                  23626937.620    23626939.840
  23626938.880          42.950          38.600
 109090320.614 8  84848057.828 7                  20436284.860    20436287.660
  20436286.620          49.450          46.700
 109472275.472 7  85145118.006 7                  20493438.680    20493441.900
  20493441.320          44.300          43.900
 115900830.507 8  90145078.920 7                  21719763.080    21719765.220
  21719765.040          49.000          42.750
 127967630.343 6  99530382.518 6                  23964223.560    23964228.320
  23964226.540          39.850          38.850
 131516046.520 6 102290274.600 6                  24585537.440    24585542.140
  24585541.220          41.650          37.250
 126111414.633 6  98086673.689 6                  23583470.860    23583475.820
  23583473.740          39.800          39.200
 145879331.279 7                 108935991.786 7  27759864.780
                        46.200
 147506107.007 7                 110150674.493 6  28069476.440
                        44.800
 138625710.083 8                 103519234.655 8  26379591.520
                        50.300
 126925970.771 8                  94782489.438 8  24153155.360
                        51.300
 15  1 27  3  7 25.0000000  0 24G31G08G21G07G04G16G18G22G27G19R11R05
                                R21R07R22R12R06R13R23R20E12E19E18E11
 133443523.947 6 103981961.681 6                  25393464.000    25393462.620
  25393461.860          41.750          39.400
 120346709.529 7  93776634.45146                  22901217.500
  22901214.020          47.200          39.800
 117756160.052 8  91758104.56647                  22408221.800
  22408215.520          48.650          42.400
 129801176.349 7 101143739.615 6                  24700342.460    24700338.760
  24700338.120          44.300          39.000
 132626060.635 7 103344986.89345                  25237895.360
  25237893.280          42.850          30.650
 107279896.910 8  83594725.98748                  20414683.140
  20414677.540          49.000          48.300
 116220278.637 8  90561250.53447                  22115973.880
  22115969.440          49.550          42.900
 118181990.903 8  92089870.92247                  22489271.380
  22489265.060          49.650          43.250
 111430594.634 8  86829045.176 8  83211163.102 8  21204532.120    21204529.780
  21204529.080          50.400          49.200
 120967504.965 7  94260371.25447                  23019346.440
  23019340.480          47.400          42.450
 112416994.476 7  87435452.101 6                  21037307.940    21037311.860
  21037310.080          46.650          40.950
 121554143.518 7  94542131.808 7                  22739213.160    22739215.920
  22739215.600          46.400          43.150
 108917590.619 7  84713732.313 7                  20353835.800    20353837.040
  20353836.080          47.950          46.250
 126456404.758 7  98355008.464 6                  23623114.380    23623116.620
  23623115.660          43.800          39.000
 109084259.638 8  84843343.746 7                  20435149.420    20435152.240
  20435151.200          49.150          46.800
 109468941.257 7  85142524.726 7                  20492814.540    20492817.680
  20492817.100          44.250          44.000
 115889423.287 8  90136206.636 7                  21717625.400    21717627.500
  21717627.320          48.800          42.650
 127949069.279 6  99515946.133 6                  23960747.680    23960752.400
  23960750.660          39.950          39.350
 131501942.793 6 102279305.117 6                  24582900.820    24582905.600
  24582904.520          37.900          37.000
 126125827.054 6  98097883.338 6                  23586166.040    23586171.080
  23586168.840          38.100          38.300
 145890053.359 7                 108943998.513 7  27761905.020
                        45.750
 147511192.092 7                 110154471.783 6  28070444.120
                        44.800
 138649022.910 8                 103536643.573 8  26384027.720
                        50.300
 126932099.277 8                  94787065.914 8  24154321.560
                        51.300
 15  1 27  3  7 30.0000000  0 24G31G08G21G07G04G16G18G22G27G19R11R05
                                R21R07R22R12R06R13R23R20E12E19E18E11
 133459829.247 7 103994666.951 6                  25396566.940    25396565.520
  25396564.780          42.050          39.800
 120363215.948 7  93789496.59546                  22904358.560
  22904355.080          47.400          39.950
 117766991.839 8  91766544.90946                  22410282.980
  22410276.740          48.550          41.850
 129791528.506 7 101136221.813 6                  24698506.520    24698502.820
  24698502.180          44.550          38.850
 132607849.998 7 103330796.77045                  25234429.960
  25234427.840          43.200          30.850
 107278009.483 8  83593255.25847                  20414323.960
  20414318.380          49.100          47.900
 116216654.859 8  90558426.80547                  22115284.260
  22115279.840          49.650          42.850
 118168643.257 8  92079470.14947                  22486731.420
  22486725.080          49.650          43.600
 111422920.848 8  86823065.599 8  83205432.687 8  21203071.840    21203069.480
  21203068.820          50.550          49.250
 120954969.267 7  94250603.18447                  23016960.980
  23016955.000          47.450          43.000
 112434133.183 7  87448782.203 6                  21040515.180    21040519.180
  21040517.340          46.700          41.200
 121560880.043 7  94547371.322 7                  22740473.340    22740476.140
  22740475.860          46.900          43.150
 108924837.604 8  84719368.845 7                  20355190.020    20355191.300
  20355190.360          48.100          46.100
 126435939.233 7  98339090.813 6                  23619291.200    23619293.560
  23619292.520          45.250          39.550
 109078205.602 8  84838635.053 7                  20434015.280    20434018.120
  20434017.060          49.150          46.700
 109465630.381 7  85139949.608 7                  20492194.700    20492197.880
  20492197.260          45.300          43.750
 115878032.522 8  90127347.148 7                  21715490.800    21715492.860
  21715492.700          49.000          42.700
 127930519.066 6  99501518.172 6                  23957273.840    23957278.600
  23957276.800          39.750          39.250
 131487841.291 5 102268337.222 6                  24580264.500    24580269.420
  24580268.380          35.350          38.300
 126140238.730 6  98109092.402 6                  23588860.980    23588866.040
  23588863.800          38.700          38.550
 145900774.864 7                 108952004.837 7  27763945.220
                        46.100
 147516287.879 7                 110158277.102 6  28071413.820
                        44.600
 138672329.179 8                 103554047.605 8  26388462.720
                        50.650
 126938230.220 8                  94791644.227 8  24155488.240
                        51.350
 15  1 27  3  7 35.0000000  0 24G31G08G21G07G04G16G18G22G27G19R11R05
                                R21R07R22R12R06R13R23R20E12E19E18E11
 133476130.083 6 104007368.788 6                  25399669.020    25399667.600
  25399666.840          41.700          39.900
 120379728.404 7  93802363.44246                  22907500.760
  22907497.320          47.450          40.400
 117777828.629 8  91774989.15547                  22412345.040
  22412338.940          48.050          43.350
 129781893.390 7 101128713.931 6                  24696673.020    24696669.320
  24696668.660          44.550          38.500
 132589641.368 7 103316608.29145                  25230964.980
  25230962.980          43.350          32.300
 107276135.934 8  83591795.35648                  20413967.440
  20413961.860          48.850          48.400
 116213043.972 8  90555613.13147                  22114597.100
  22114592.720          49.450          43.250
 118155302.882 8  92069075.04947                  22484192.840
  22484186.500          49.500          43.950
 111415252.190 8  86817090.019 8  83199706.090 8  21201612.520    21201610.200
  21201609.540          50.550          49.350
 120942436.916 7  94240837.71447                  23014576.160
  23014570.180          47.450          43.300
 112451285.232 7  87462122.679 6                  21043724.920    21043728.940
  21043727.120          46.800          41.500
 121567636.506 7  94552626.350 7                  22741737.280    22741740.140
  22741739.820          46.800          42.850
 108932089.623 8  84725009.308 7                  20356545.200    20356546.480
  20356545.600          48.100          46.100
 126415473.663 7  98323173.151 6                  23615468.100    23615470.440
  23615469.420          45.550          40.100
 109072158.409 8  84833931.692 7                  20432882.400    20432885.280
  20432884.220          49.050          46.800
 109462342.565 7  85137392.410 7                  20491579.200    20491582.340
  20491581.720          45.000          43.550
 115866657.904 8  90118500.240 7                  21713359.220    21713361.240
  21713361.140          49.200          42.700
 127911979.071 6  99487098.201 6                  23953802.020    23953806.720
  23953804.880          39.800          39.400
 131473741.584 6 102257370.671 6                  24577628.680    24577633.640
  24577632.740          40.600          39.450
 126154649.451 6  98120300.751 6                  23591555.800    23591561.020
  23591558.660          39.200          38.800
 145911495.620 7                 108960010.606 7  27765985.400
                        46.750
 147521394.136 7                 110162090.206 6  28072385.520
                        44.700
 138695628.635 8                 103571446.549 8  26392896.440
                        50.700
 126944363.358 8                  94796224.166 8  24156655.340
                        51.100
 15  1 27  3  7 40.0000000  0 24G31G08G21G07G04G16G18G22G27G19R11R05
                                R21R07R22R12R06R13R23R20E12E19E18E11
 133492425.835 6 104020066.654 6                  25402770.100    25402768.700
  25402767.980          41.550          39.700
 120396246.255 7  93815234.48946                  22910644.000
  22910640.540          47.800          40.150
 117788669.772 8  91783436.78047                  22414407.980
  22414401.980          48.350          42.900
 129772270.438 7 101121215.510 6                  24694841.840    24694838.100
  24694837.500          43.950          38.550
 132571434.152 7 103302420.86845                  25227500.240
  25227498.360          43.300          30.700
 107274275.693 8  83590345.82048                  20413613.440
  20413607.880          48.950          48.450
 116209445.368 8  90552809.02647                  22113912.300
  22113907.940          49.600          43.150
 118141969.160 8  92058685.13747                  22481655.540
  22481649.180          49.850          43.900
 111407588.033 8  86811117.947 8  83193982.847 8  21200154.080    21200151.760
  21200151.100          50.650          49.400
 120929907.288 7  94231074.36347                  23012191.880
  23012185.920          47.500          43.550
 112468450.025 7  87475473.077 6                  21046937.080    21046941.080
  21046939.260          47.050          41.100
 121574412.279 7  94557896.400 7                  22743004.840    22743007.680
  22743007.380          46.900          43.000
 108939346.083 8  84730653.217 7                  20357901.200    20357902.500
  20357901.640          48.450          46.100
 126395007.469 7  98307255.027 6                  23611644.820    23611647.220
  23611646.180          44.700          39.250
 109066117.288 8  84829233.036 7                  20431750.620    20431753.580
  20431752.520          48.900          47.050
 109459077.139 7  85134852.637 7                  20490967.880    20490971.040
  20490970.400          45.450          43.700
 115855298.977 8  90109665.521 7                  21711230.560    21711232.560
  21711232.480          49.100          42.550
 127893448.698 6  99472685.674 6                  23950331.920    23950336.660
  23950334.740          39.800          39.400
 131459642.933 7 102246405.029 6                  24574993.180    24574998.040
  24574997.280          43.350          40.150
 126169058.554 6  98131507.846 6                  23594250.400    23594255.540
  23594253.220          38.500          39.000
 145922214.957 7                 108968015.296 7  27768025.320
                        46.650
 147526510.234 7                 110165910.683 6  28073359.120
                        44.600
 138718920.652 8                 103588839.929 8  26397328.800
                        50.800
 126950498.076 8                  94800805.281 8  24157822.740
                        51.100
 15  1 27  3  7 45.0000000  0 24G31G08G21G07G04G16G18G22G27G19R11R05
                                R21R07R22R12R06R13R23R20E12E19E18E11
 133508718.810 6 104032762.362 6                  25405870.640    25405869.200
  25405868.520          41.000          38.950
 120412771.781 7  93828111.53246                  22913788.740
  22913785.240          47.950          39.000
 117799517.532 8  91791889.57647                  22416472.220
  22416466.300          48.800          42.850
 129762661.889 7 101113728.336 6                  24693013.400    24693009.620
  24693008.940          44.200          38.400
 132553230.670 7 103288236.35345                  25224036.240
  25224034.280          42.200          33.350
 107272431.060 8  83588908.44248                  20413262.400
  20413256.860          49.050          48.400
 116205861.321 8  90550016.27047                  22113230.260
  22113225.920          49.750          43.050
 118128644.392 8  92048302.19747                  22479119.960
  22479113.560          49.950          43.800
 111399930.669 8  86805151.170 8  83188264.687 8  21198696.920    21198694.620
  21198693.980          50.600          49.350
 120917382.702 7  94221314.94847                  23009808.560
  23009802.580          47.400          43.350
 112485629.820 7  87488835.153 6                  21050152.020    21050156.060
  21050154.240          47.050          41.400
 121581209.782 7  94563183.357 7                  22744276.460    22744279.340
  22744279.020          47.050          43.050
 108946609.264 8  84736302.356 7                  20359258.500    20359259.780
  20359258.940          48.700          46.100
 126374542.848 7  98291338.105 6                  23607821.840    23607824.240
  23607823.200          44.200          38.950
 109060084.604 8  84824540.952 7                  20430620.460    20430623.480
  20430622.400          49.200          46.800
 109455836.559 7  85132332.179 7                  20490361.200    20490364.420
  20490363.740          45.100          43.550
 115843958.022 8  90100844.776 7                  21709105.280    21709107.200
  21709107.180          49.050          42.600
 127874930.487 6  99458282.603 6                  23946864.060    23946868.860
  23946866.840          40.400          38.600
 131445547.811 7 102235442.197 6                  24572358.300    24572363.080
  24572362.420          43.850          40.200
 126183468.543 6  98142715.615 6                  23596945.040    23596950.280
  23596947.960          39.350          39.350
 145932935.156 7                 108976020.653 7  27770065.360
                        46.300
 147531638.491 7                 110169740.232 6  28074335.020
                        45.200
 138742207.514 8                 103606229.478 8  26401760.200
                        50.850
 126956636.662 8                  94805389.295 8  24158990.860
                        51.050
 15  1 27  3  7 50.0000000  0 24G31G08G21G07G04G16G18G22G27G19R11R05
                                R21R07R22R12R06R13R23R20E12E19E18E11
 133525006.275 6 104045453.731 6                  25408970.140    25408968.580
  25408968.000          41.250          39.050
 120429302.249 7  93840992.40646                  22916934.360
  22916930.860          47.650          40.050
 117810369.177 8  91800345.40647                  22418537.220
  22418531.320          48.350          42.900
 129753065.038 7 101106250.268 6                  24691187.180    24691183.340
  24691182.680          43.900          38.500
 132535028.239 6 103274052.70245                  25220572.460
  25220570.540          40.650          34.300
 107270599.271 8  83587481.07348                  20412913.820
  20412908.280          48.500          48.450
 116202289.142 8  90547232.75947                  22112550.500
  22112546.200          49.400          43.800
 118115325.817 8  92037924.08547                  22476585.540
  22476579.140          49.600          44.300
 111392277.354 8  86799187.549 8  83182549.553 8  21197240.540    21197238.240
  21197237.600          50.050          49.400
 120904860.399 7  94211557.31347                  23007425.660
  23007419.700          46.750          44.300
 112502821.882 7  87502206.744 6                  21053369.300    21053373.300
  21053371.520          46.250          41.550
 121588026.056 7  94568484.908 7                  22745551.640    22745554.440
  22745554.180          46.650          43.350
 108953876.384 8  84741954.566 7                  20360616.560    20360617.840
  20360616.980          48.100          46.200
 126354077.144 7  98275420.339 6                  23603998.620    23604001.060
  23604000.080          44.150          39.350
 109054057.546 8  84819853.245 7                  20429491.340    20429494.400
  20429493.320          48.900          46.850
 109452617.935 7  85129828.813 7                  20489758.640    20489761.920
  20489761.180          44.450          43.900
 115832632.174 8  90092035.785 7                  21706982.840    21706984.760
  21706984.720          48.700          42.650
 127856421.463 6  99443886.689 6                  23943397.980    23943402.780
  23943400.660          39.800          38.850
 131431453.370 6 102224479.867 6                  24569723.460    24569728.220
  24569727.520          40.950          38.650
 126197876.414 6  98153921.710 6                  23599639.340    23599644.660
  23599642.380          37.600          39.300
 145943653.531 7                 108984024.625 7  27772105.020
                        45.700
 147536776.129 7                 110173576.777 6  28075312.720
                        44.500
 138765486.507 8                 103623613.128 8  26406190.120
                        50.600
 126962776.372 8                  94809974.138 8  24160159.220
                        50.750
 15  1 27  3  7 55.0000000  0 23G31G08G21G07G04G16G18G22G27G19R11R05
                                R21R07R22R12R06R13R23E12E19E18E11
 133541289.680 6 104058141.966 6                  25412068.880    25412067.380
  25412066.600          41.700          39.650
 120445839.107 8  93853878.27046                  22920081.220
  22920077.720          48.050          38.900
 117821226.178 8  91808805.40647                  22420603.260
  22420597.400          48.800          43.050
 129743481.338 7 101098782.448 6                  24689363.440    24689359.560
  24689358.940          43.650          38.750
 132516828.288 6 103259870.92445                  25217109.100
  25217107.180          40.300          33.300
 107268781.851 8  83586064.90048                  20412567.960
  20412562.440          48.700          48.700
 116198730.327 8  90544459.66047                  22111873.300
  22111869.020          49.550          43.400
 118102014.941 8  92027551.97447                  22474052.580
  22474046.200          49.600          44.450
 111384629.585 8  86793228.257 8  83176838.557 8  21195785.240    21195782.920
  21195782.280          50.250          49.250
 120892341.898 7  94201802.64947                  23005043.480
  23005037.520          47.050          43.850
 112520027.640 7  87515588.996 6                  21056589.080    21056593.200
  21056591.340          46.400          41.200
 121594862.613 7  94573802.239 7                  22746830.640    22746833.380
  22746833.140          46.100          42.700
 108961148.975 8  84747611.024 7                  20361975.620    20361976.940
  20361976.020          48.600          46.000
 126333611.897 7  98259502.925 6                  23600175.500    23600178.020
  23600177.040          44.900          40.200
 109048037.642 8  84815171.112 7                  20428363.580    20428366.620
  20428365.560          48.800          46.450
 109449422.867 7  85127343.762 7                  20489160.500    20489163.780
  20489163.040          44.850          43.650
 115821323.146 8  90083239.877 7                  21704863.540    21704865.440
  21704865.420          48.700          42.750
 127837923.400 6  99429499.305 6                  23939933.920    23939938.720
  23939936.520          39.300          39.250
 131417361.237 6 102213519.361 6                  24567089.020    24567093.800
  24567093.000          38.050          39.300
 145954371.565 7                 108992028.320 7  27774144.540
                        44.900
 147541924.627 7                 110177421.437 6  28076292.500
                        44.900
 138788759.088 8                 103640991.994 8  26410618.800
                        50.500
 126968918.689 8                  94814560.929 8  24161328.040
                        50.750
 15  1 27  3  8  0.0000000  0 24G31G08G21G07G04G16G18G22G27G19R11R05
                                R21R07R22R12R06R13R23R20E12E19E18E11
 133557569.912 7 104070827.735 6                  25415167.020    25415165.580
  25415164.820          42.250          40.050
 120462383.228 8  93866769.78646                  22923229.480
  22923225.940          48.200          38.950
 117832089.398 8  91817270.25747                  22422670.500
  22422664.600          49.100          42.300
 129733911.724 7 101091325.603 6                  24687542.380    24687538.480
  24687538.000          44.050          39.200
 132498631.679 6 103245691.77345                  25213646.460
  25213644.580          40.200          34.000
 107266979.652 8  83584660.58748                  20412225.020
  20412219.500          48.700          48.600
 116195185.761 8  90541697.66547                  22111198.800
  22111194.520          49.600          43.850
 118088712.709 8  92017186.60947                  22471521.280
  22471514.920          49.750          44.350
 111376988.275 8  86787273.987 8  83171132.391 8  21194331.140    21194328.820
  21194328.180          50.250          49.350
 120879828.179 7  94192051.70647                  23002662.220
  23002656.220          47.200          43.450
 112537248.005 7  87528982.611 6                  21059811.600    21059815.720
  21059813.920          47.050          41.300
 121601720.513 7  94579136.144 7                  22748113.560    22748116.320
  22748116.080          46.700          42.450
 108968427.939 8  84753272.437 7                  20363335.900    20363337.200
  20363336.260          48.700          46.050
 126313148.214 7  98243586.739 6                  23596352.680    23596355.220
  23596354.240          44.900          39.650
 109042025.891 8  84810495.310 7                  20427237.360    20427240.440
  20427239.320          48.700          46.550
 109446252.294 7  85124877.759 7                  20488566.960    20488570.200
  20488569.480          44.950          43.550
 115810031.642 8  90074457.593 7                  21702747.520    21702749.460
  21702749.420          48.950          42.700
 127819437.002 6  99415120.995 6                  23936472.020    23936476.780
  23936474.580          40.000          38.800
 131403272.295 6 102202561.291 6                  24564455.240    24564460.020
  24564459.220          38.950          38.950
 126226691.530 6  98176337.447 6                  23605027.840    23605033.220
  23605030.960          38.650          39.450
 145965090.119 7                 109000032.450 7  27776184.140
                        45.050
 147547084.917 7                 110181274.929 6  28077274.480
                        44.850
 138812026.181 8                 103658366.761 8  26415046.440
                        50.600
 126975064.516 8                  94819150.355 8  24162497.520
                        50.900
 15  1 27  3  8  5.0000000  0 24G31G08G21G07G04G16G18G22G27G19R11R05
                                R21R07R22R12R06R13R23R20E12E19E18E11
 133573845.182 7 104083509.623 6                  25418264.220    25418262.760
  25418262.060          42.950          40.050
 120478932.822 8  93879665.55946                  22926378.740
  22926375.200          48.400          38.550
 117842957.063 8  91825738.57247                  22424738.600
  22424732.680          49.100          42.800
 129724354.407 7 101083878.345 6                  24685723.660    24685719.760
  24685719.380          44.300          39.300
 132480436.652 6 103231513.85445                  25210184.060
  25210182.340          40.250          35.150
 107265190.846 8  83583266.71248                  20411884.600
  20411879.120          48.700          48.700
 116191653.665 8  90538945.38647                  22110526.700
  22110522.400          49.650          43.250
 118075417.357 8  92006826.59647                  22468991.300
  22468984.900          49.900          44.300
 111369351.620 8  86781323.348 8  83165429.691 8  21192877.940    21192875.620
  21192874.940          50.200          49.200
 120867317.312 7  94182302.98047                  23000281.520
  23000275.460          47.400          43.500
 112554481.184 7  87542386.187 6                  21063036.580    21063040.720
  21063038.920          46.750          41.350
 121608597.868 7  94584485.209 7                  22749400.160    22749402.900
  22749402.660          46.250          42.300
 108975711.428 8  84758937.377 7                  20364697.000    20364698.280
  20364697.340          48.650          46.150
 126292684.140 7  98227670.222 6                  23592529.800    23592532.360
  23592531.320          44.550          39.350
 109036020.420 8  84805824.382 7                  20426112.360    20426115.380
  20426114.280          48.700          46.600
 109443104.353 7  85122429.357 7                  20487977.680    20487980.900
  20487980.160          45.050          43.600
 115798755.989 8  90065687.645 7                  21700634.480    21700636.420
  21700636.400          48.900          42.950
 127800960.643 6  99400750.483 6                  23933011.980    23933016.800
  23933014.500          40.150          38.500
 131389184.696 6 102191604.286 6                  24561821.840    24561826.520
  24561825.820          41.000          40.250
 126241097.847 6  98187542.373 6                  23607721.940    23607727.300
  23607725.040          38.000          39.550
 145975807.440 7                 109008035.616 7  27778223.540
                        45.200
 147552255.191 7                 110185135.846 6  28078258.360
                        44.950
 138835285.969 8                 103675736.079 8  26419472.660
                        50.650
 126981212.072 8                  94823741.047 8  24163667.380
                        50.950
