     2.11           OBSERVATION DATA    M (MIXED)           RINEX VERSION / TYPE
teqc  2011Oct11     IGN-E (SPG)         20150127 10:00:49UTCPGM / RUN BY / DATE
Linux 2.4.21-27.ELsmp|Opteron|gcc -static|Linux x86_64|=+   COMMENT
BIT 2 OF LLI FLAGS DATA COLLECTED UNDER A/S CONDITION       COMMENT
VALE                                                        MARKER NAME
13439M001                                                   MARKER NUMBER
Programas GeodesicosInstituto Geografico Nacional           OBSERVER / AGENCY
1700071             LEICA GR10          3.03/6.214          REC # / TYPE / VERS
10190012            LEIAR25.R3      LEIT                    ANT # / TYPE
  4929534.0457   -29050.6755  4033709.9250                  APPROX POSITION XYZ
        3.0390        0.0000        0.0000                  ANTENNA: DELTA H/E/N
     1     1                                                WAVELENGTH FACT L1/2
     8    L1    L2    L5    C1    C2    P2    S1    S2      # / TYPES OF OBSERV
     5.0000                                                 INTERVAL
Forced Modulo Decimation to 5 seconds                       COMMENT
DefaultJobName                                              COMMENT
DefaultUserDiscription                                      COMMENT
Project creator:                                            COMMENT
 SNR is mapped to RINEX snr flag value [0-9]                COMMENT
  L1 & L2: min(max(int(snr_dBHz/6), 0), 9)                  COMMENT
  2015     1    27     9     0    0.0000000     GPS         TIME OF FIRST OBS
    15                                                      LEAP SECONDS
                                                            END OF HEADER
 15  1 27  9  0  0.0000000  0 23G11G06G28G08G04G17G03G23G31G09G19G20
                                G32G01R24R17R02R08R09R10R03R23R01
 113333216.343 8  88311580.24347                  21566593.960
  21566590.360          50.100          44.850
 132523222.586 6 103264849.907 6  98962145.490 7  25218331.300    25218332.900
  25218332.280          40.900          40.400
 130241219.377 7 101486618.52645                  24784090.340
  24784089.220          42.450          34.000
 132148179.612 7 102972619.95545                  25146959.700
  25146961.800          44.050          35.600
 117567145.050 8  91610765.25547                  22372280.940
  22372278.900          49.350          42.750
 115654078.109 8  90120016.620 7                  22008244.260    22008240.700
  22008240.120          49.900          46.300
 106917849.526 8  83312610.598 8  79841255.335 8  20345787.440    20345787.160
  20345786.460          50.200          49.800
 114344998.328 8  89099965.86347                  21759124.540
  21759119.460          50.600          44.950
 127663808.440 7  99478288.116 6                  24293611.420    24293611.360
  24293610.520          45.600          39.550
 125056774.855 7  97446855.004 7  93386577.031 8  23797506.540    23797507.700
  23797507.380          47.500          43.450
 136116733.287 7 106064931.68046                  25902173.900
  25902175.260          42.150          36.850
 116248900.655 8  90583520.29747                  22121433.540
  22121429.940          49.400          42.900
 116446732.456 8  90737730.91547                  22159065.040
  22159061.940          49.450          43.550
 108485629.469 8  84534272.459 8  81012000.060 8  20644126.400    20644125.760
  20644125.540          50.350          49.700
 104355008.902 7  81165021.427 7                  19514913.480    19514915.700
  19514913.620          47.750          42.650
 108962891.859 8  84748916.134 7                  20362326.420    20362328.180
  20362326.940          48.750          46.450
 107414907.872 8  83544946.036 7                  20129508.880    20129512.960
  20129512.040          49.200          46.450
 126785315.845 7  98610803.839 6                  23676265.240    23676268.660
  23676267.900          45.100          40.850
 131615691.95415                                  24647390.920
                        30.700
 128070007.021 7  99610061.328 5                  24025604.580    24025616.220
  24025615.140          43.100          32.500
 129335530.359 6 100594318.983 6                  24160962.160    24160968.340
  24160967.280          41.400          39.550
 123079313.745 7  95728360.989 6                  23008387.420    23008393.360
  23008392.380          45.450          39.950
 106470059.889 8  82810055.752 7                  19917422.160    19917426.860
  19917426.500          48.250          42.750
 15  1 27  9  0  5.0000000  0 23G11G06G28G08G04G17G03G23G31G09G19G20
                                G32G01R24R17R02R08R09R10R03R23R01
 113346494.601 8  88321926.92747                  21569120.740
  21569117.120          50.250          44.850
 132507151.195 7 103252326.745 6  98950144.088 7  25215273.060    25215274.640
  25215273.840          42.150          40.300
 130252434.986 7 101495357.94245                  24786224.580
  24786223.520          42.350          34.850
 132136784.349 7 102963740.54945                  25144791.240
  25144793.440          44.300          34.950
 117580436.480 8  91621122.20547                  22374810.240
  22374808.160          49.600          42.350
 115645924.580 8  90113663.212 7                  22006692.720    22006689.120
  22006688.540          50.050          46.200
 106919161.138 8  83313632.633 8  79842234.780 8  20346037.020    20346036.740
  20346036.040          50.200          49.750
 114332267.902 8  89090046.05147                  21756702.020
  21756696.940          50.550          45.350
 127660005.917 7  99475325.116 6                  24292887.760    24292887.780
  24292886.960          45.700          39.900
 125038274.130 7  97432438.862 7  93372761.583 8  23793986.000    23793987.100
  23793986.780          47.150          43.750
 136135249.510 7 106079359.89345                  25905697.440
  25905698.980          42.250          35.550
 116237146.200 8  90574360.97947                  22119196.780
  22119193.120          49.450          42.450
 116459838.539 8  90747943.43747                  22161559.060
  22161555.960          49.450          43.150
 108490723.015 8  84538241.456 8  81015803.668 8  20645095.700    20645095.040
  20645094.820          50.400          49.700
 104363785.815 7  81171847.917 7                  19516554.780    19516557.040
  19516554.940          47.900          42.450
 108949503.333 8  84738502.834 7                  20359824.460    20359826.220
  20359824.980          48.600          46.250
 107407002.555 8  83538797.452 7                  20128027.480    20128031.500
  20128030.580          49.350          46.400
 126803676.064 7  98625083.993 6                  23679693.860    23679697.340
  23679696.700          45.700          41.000
 131621253.388 5                                  24648432.180
                        30.800
 128061859.784 7  99603724.594 5                  24024076.200    24024087.920
  24024086.680          43.600          33.100
 129318119.948 6 100580777.627 6                  24157709.600    24157715.980
  24157714.800          41.200          38.600
 123100552.747 7  95744880.223 6                  23012357.760    23012363.700
  23012362.620          45.550          40.800
 106479890.326 8  82817701.646 7                  19919261.160    19919265.840
  19919265.520          48.550          42.600
 15  1 27  9  0 10.0000000  0 23G11G06G28G08G04G17G03G23G31G09G19G20
                                G32G01R24R17R02R08R09R10R03R23R01
 113359783.343 8  88332281.77347                  21571649.500
  21571645.880          50.200          45.000
 132491079.431 7 103239803.258 6  98938142.409 7  25212214.720    25212216.320
  25212215.460          42.450          41.050
 130263654.802 7 101504100.62745                  24788359.600
  24788358.580          42.800          32.150
 132125394.632 7 102954865.42946                  25142623.820
  25142625.980          44.300          36.200
 117593735.516 8  91631485.07747                  22377340.980
  22377338.880          49.400          43.100
 115637786.130 8  90107321.555 7                  22005144.020    22005140.460
  22005139.840          49.850          46.350
 106920482.183 8  83314662.006 8  79843221.261 8  20346288.400    20346288.140
  20346287.400          49.900          49.900
 114319548.501 8  89080134.83147                  21754281.620
  21754276.520          50.550          45.200
 127656217.689 7  99472373.270 6                  24292166.840    24292166.920
  24292166.080          45.900          39.950
 125019777.973 7  97418026.299 7  93358949.542 8  23790466.320    23790467.400
  23790467.080          46.900          44.050
 136153764.981 6 106093787.50545                  25909220.840
  25909222.480          40.950          33.300
 116225398.781 8  90565207.14047                  22116961.340
  22116957.680          49.400          42.900
 116472949.056 8  90758159.40647                  22164053.900
  22164050.800          49.200          44.000
 108495827.522 8  84542218.984 8  81019615.468 8  20646067.100    20646066.400
  20646066.200          50.300          49.750
 104372583.848 7  81178690.825 7                  19518200.020    19518202.320
  19518200.200          47.900          42.350
 108936130.923 8  84728102.072 7                  20357325.520    20357327.240
  20357326.020          48.750          46.300
 107399111.456 8  83532659.935 7                  20126548.740    20126552.700
  20126551.780          49.750          46.650
 126822035.638 7  98639363.630 6                  23683122.360    23683126.000
  23683125.340          45.250          40.750
 131626834.223 5                                  24649477.140
                        30.050
 128053730.094 7  99597401.538 5                  24022551.080    24022562.940
  24022561.600          44.350          32.300
 129300715.367 6 100567240.743 6                  24154458.240    24154464.640
  24154463.380          39.850          38.700
 123121799.049 7  95761405.079 6                  23016329.640    23016335.540
  23016334.400          46.650          41.750
 106489731.834 8  82825356.143 7                  19921102.240    19921106.920
  19921106.580          48.450          42.600
 15  1 27  9  0 15.0000000  0 23G11G06G28G08G04G17G03G23G31G09G19G20
                                G32G01R24R17R02R08R09R10R03R23R01
 113373081.142 8  88342643.68247                  21574180.000
  21574176.380          50.250          44.900
 132475005.794 7 103227278.337 6  98926139.309 7  25209156.040    25209157.620
  25209156.800          42.900          40.650
 130274877.283 7 101512845.38845                  24790495.180
  24790494.100          42.850          34.100
 132114008.933 7 102945993.46245                  25140457.140
  25140459.360          44.050          34.600
 117607040.712 8  91641852.75147                  22379872.880
  22379870.780          49.350          42.800
 115629661.281 8  90100990.497 7                  22003597.920    22003594.360
  22003593.720          49.800          46.250
 106921811.116 8  83315697.528 8  79844213.624 8  20346541.280    20346541.020
  20346540.280          49.850          49.850
 114306838.670 8  89070231.06447                  21751863.040
  21751857.900          50.650          45.150
 127652442.324 7  99469431.433 6                  24291448.360    24291448.520
  24291447.680          45.350          40.500
 125001284.912 7  97403616.147 7  93345139.808 8  23786947.200    23786948.280
  23786947.980          46.800          44.300
 136172278.200 6 106108213.28145                  25912743.820
  25912745.420          41.300          33.550
 116213656.872 8  90556057.60047                  22114726.980
  22114723.280          49.250          42.700
 116486062.450 8  90768377.62147                  22166549.300
  22166546.220          49.000          44.000
 108500941.481 8  84546203.877 8  81023434.320 8  20647040.300    20647039.580
  20647039.360          50.500          49.750
 104381401.300 7  81185548.827 7                  19519848.880    19519851.220
  19519849.120          47.650          42.650
 108922773.116 8  84717712.661 7                  20354829.280    20354831.000
  20354829.780          48.750          46.400
 107391233.041 8  83526532.270 7                  20125072.400    20125076.240
  20125075.380          49.850          46.700
 126840392.977 7  98653641.537 6                  23686550.460    23686554.140
  23686553.460          44.900          40.150
 131632432.975 4                                  24650524.760
                        28.700
 128045616.509 7  99591091.002 5                  24021029.020    24021040.820
  24021039.540          44.550          31.600
 129283315.427 6 100553707.463 6                  24151207.760    24151214.100
  24151212.840          40.850          38.500
 123143051.319 7  95777934.576 6                  23020302.600    23020308.560
  23020307.420          46.100          41.500
 106499582.912 8  82833018.077 7                  19922945.100    19922949.760
  19922949.440          48.600          42.450
 15  1 27  9  0 20.0000000  0 23G11G06G28G08G04G17G03G23G31G09G19G20
                                G32G01R24R17R02R08R09R10R03R23R01
 113386388.831 8  88353013.30347                  21576712.380
  21576708.740          50.250          44.650
 132458931.119 7 103214752.594 6  98914135.438 7  25206097.180    25206098.720
  25206097.940          42.950          40.150
 130286103.279 7 101521592.96245                  24792631.480
  24792630.220          44.050          34.200
 132102628.103 7 102937125.30745                  25138291.360
  25138293.640          44.250          34.350
 117620352.920 8  91652225.89247                  22382406.120
  22382404.000          49.550          42.450
 115621550.869 8  90094670.692 7                  22002054.560    22002050.980
  22002050.360          49.900          46.200
 106923148.814 8  83316739.884 8  79845212.556 8  20346795.840    20346795.560
  20346794.820          50.000          49.850
 114294139.233 8  89060335.40347                  21749446.440
  21749441.280          50.750          45.300
 127648680.649 7  99466500.264 6                  24290732.520    24290732.680
  24290731.920          45.400          40.500
 124982795.793 7  97389209.073 7  93331333.038 8  23783428.840    23783429.920
  23783429.640          46.600          44.200
 136190790.019 7 106122638.01245                  25916266.500
  25916268.260          42.300          33.350
 116201921.343 8  90546913.03647                  22112493.820
  22112490.060          49.250          42.650
 116499179.584 8  90778598.75047                  22169045.360
  22169042.340          48.850          43.450
 108506065.708 8  84550196.779 8  81027260.851 8  20648015.420    20648014.680
  20648014.460          50.550          49.700
 104390239.006 7  81192422.589 7                  19521501.540    19521503.820
  19521501.820          47.850          42.650
 108909430.812 8  84707335.317 7                  20352335.960    20352337.640
  20352336.440          49.000          46.450
 107383368.061 8  83520415.063 7                  20123598.560    20123602.360
  20123601.480          49.750          46.800
 126858749.047 7  98667918.459 6                  23689978.300    23689982.080
  23689981.360          45.600          40.550
 131638050.511 4                                  24651577.020
                        29.350
 128037519.861 7  99584793.595 5                  24019510.120    24019521.800
  24019520.580          45.000          32.200
 129265920.880 6 100540178.421 6                  24147958.220    24147964.580
  24147963.320          41.600          38.750
 123164310.304 7  95794469.291 6                  23024276.720    23024282.760
  23024281.620          44.900          40.650
 106509444.220 8  82840687.976 7                  19924789.920    19924794.520
  19924794.180          48.750          42.700
 15  1 27  9  0 25.0000000  0 22G11G06G28G08G04G17G03G23G31G09G19G20
                                G32G01R24R17R02R08R10R03R23R01
 113399705.955 8  88363390.27747                  21579246.560
  21579242.920          50.000          44.900
 132442855.001 7 103202225.720 6  98902130.500 7  25203038.020    25203039.540
  25203038.800          42.350          39.900
 130297332.443 7 101530342.93445                  24794768.380
  24794767.020          43.700          32.900
 132091251.771 7 102928260.63745                  25136126.500
  25136128.780          44.600          34.400
 117633671.658 8  91662604.10947                  22384940.620
  22384938.460          49.100          42.800
 115613454.480 8  90088361.817 7                  22000513.860    22000510.300
  22000509.660          49.650          46.300
 106924494.797 8  83317788.706 8  79846217.677 8  20347051.980    20347051.700
  20347050.960          50.050          49.900
 114281449.760 8  89050447.51047                  21747031.700
  21747026.560          50.750          45.200
 127644932.221 7  99463579.417 6                  24290019.200    24290019.360
  24290018.580          45.650          40.300
 124964310.189 7  97374804.741 7  93317528.888 8  23779911.080    23779912.260
  23779911.940          46.100          44.300
 136209299.933 7 106137061.28445                  25919788.840
  25919790.680          42.650          33.850
 116190191.788 8  90537773.13247                  22110261.800
  22110258.000          49.100          43.200
 116512300.017 8  90788822.45447                  22171542.060
  22171539.080          48.750          43.550
 108511199.828 8  84554197.390 8  81031094.768 8  20648992.440    20648991.660
  20648991.480          50.450          49.750
 104399096.641 8  81199311.861 7                  19523157.940    19523160.280
  19523158.260          48.000          42.650
 108896103.680 8  84696969.771 7                  20349845.440    20349847.160
  20349845.920          49.100          46.200
 107375516.175 8  83514308.043 7                  20122127.160    20122130.920
  20122130.060          49.600          46.650
 126877103.255 7  98682193.930 6                  23693405.840    23693409.700
  23693408.900          45.550          40.250
 128029439.672 7  99578508.987 5                  24017994.260    24018005.880
  24018004.680          44.500          31.950
 129248531.172 6 100526653.159 6                  24144709.680    24144715.980
  24144714.820          41.100          38.500
 123185575.628 7  95811008.943 6                  23028252.000    23028258.060
  23028256.840          45.250          39.050
 106519315.617 8  82848365.725 7                  19926636.600    19926641.160
  19926640.820          48.800          42.550
 15  1 27  9  0 30.0000000  0 22G11G06G28G08G04G17G03G23G31G09G19G20
                                G32G01R24R17R02R08R10R03R23R01
 113413033.918 8  88373775.68447                  21581782.780
  21581779.160          49.800          44.800
 132426778.807 6 103189698.785 6  98890125.516 7  25199978.840    25199980.380
  25199979.620          41.600          39.300
 130308566.104 7 101539096.40945                  24796906.140
  24796904.500          43.100          34.050
 132079881.324 7 102919400.54745                  25133962.800
  25133964.860          45.650          35.600
 117646998.372 8  91672988.54647                  22387476.600
  22387474.460          49.250          42.250
 115605373.552 8  90082064.986 7                  21998976.120    21998972.540
  21998971.900          49.700          46.100
 106925850.525 8  83318845.114 8  79847230.064 8  20347309.980    20347309.680
  20347308.940          50.050          49.850
 114268771.703 8  89040568.50547                  21744619.160
  21744614.020          50.800          45.200
 127641198.511 7  99460670.039 6                  24289308.680    24289308.840
  24289308.120          45.350          40.350
 124945829.532 7  97360404.260 7  93303728.421 8  23776394.260    23776395.540
  23776395.200          46.150          44.350
 136227809.445 7 106151484.26245                  25923311.200
  25923313.100          43.350          34.850
 116178469.606 8  90528638.95647                  22108031.180
  22108027.380          49.000          43.000
 116525425.141 8  90799049.80447                  22174039.660
  22174036.740          48.800          43.600
 108516345.220 8  84558206.774 8  81034937.092 8  20649971.600    20649970.800
  20649970.620          50.350          49.650
 104407975.343 7  81206217.512 7                  19524818.280    19524820.660
  19524818.620          47.650          42.800
 108882793.103 8  84686617.089 7                  20347358.040    20347359.760
  20347358.480          49.000          46.200
 107367678.948 8  83508212.409 7                  20120658.520    20120662.220
  20120661.380          49.450          46.900
 126895457.097 7  98696469.117 6                  23696833.280    23696837.180
  23696836.400          45.350          40.250
 128021377.531 7  99572238.423 5                  24016481.800    24016493.400
  24016492.180          42.850          31.350
 129231147.877 6 100513132.861 6                  24141462.280    24141468.700
  24141467.480          40.350          39.300
 123206848.631 7  95827554.611 6                  23032228.800    23032234.760
  23032233.460          45.300          40.200
 106529198.237 8  82856052.206 7                  19928485.360    19928489.840
  19928489.560          48.800          42.900
 15  1 27  9  0 35.0000000  0 22G11G06G28G08G04G17G03G23G31G09G19G20
                                G32G01R24R17R02R08R10R03R23R01
 113426368.967 8  88384166.61147                  21584320.360
  21584316.760          49.850          45.150
 132410698.858 6 103177168.936 6  98878117.721 7  25196918.900    25196920.420
  25196919.760          41.550          39.000
 130319800.490 7 101547850.50445                  24799043.960
  24799042.220          42.600          33.550
 132068513.083 7 102910542.15245                  25131799.540
  25131801.380          45.650          33.650
 117660329.339 8  91683376.30947                  22390013.420
  22390011.260          49.250          42.700
 115597304.356 8  90075777.293 7                  21997440.600    21997437.020
  21997436.380          49.750          46.150
 106927212.202 8  83319906.157 8  79848246.895 8  20347569.120    20347568.800
  20347568.060          50.150          49.800
 114256101.289 8  89030695.45747                  21742208.080
  21742202.920          50.900          45.100
 127637475.765 7  99457769.196 6                  24288600.300    24288600.400
  24288599.700          44.900          40.400
 124927350.087 7  97346004.723 7  93289928.867 8  23772877.720    23772879.040
  23772878.700          46.550          44.450
 136246314.760 7 106165903.92545                  25926832.740
  25926834.720          44.150          35.300
 116166751.056 8  90519507.61847                  22105801.260
  22105797.380          49.250          42.800
 116538551.242 8  90809277.92347                  22176537.460
  22176534.580          48.950          43.400
 108521498.155 8  84562222.042 8  81038785.057 8  20650952.200    20650951.380
  20650951.180          50.400          49.700
 104416871.654 7  81213136.859 7                  19526481.920    19526484.300
  19526482.300          47.750          43.100
 108869495.214 8  84676274.282 7                  20344872.980    20344874.720
  20344873.420          49.050          46.150
 107359852.371 8  83502125.062 7                  20119191.840    20119195.540
  20119194.720          49.700          46.850
 126913806.775 7  98710741.054 6                  23700259.900    23700263.860
  23700263.120          45.250          39.950
 128013329.610 7  99565978.924 5                  24014971.940    24014983.420
  24014982.340          42.700          32.650
 129213767.251 6 100499614.606 6                  24138215.420    24138221.860
  24138220.640          40.800          39.350
 123228125.582 7  95844103.309 6                  23036206.400    23036212.300
  23036210.940          46.550          41.100
 106539088.480 8  82863744.611 7                  19930335.600    19930340.000
  19930339.760          48.700          42.800
 15  1 27  9  0 40.0000000  0 22G11G06G28G08G04G17G03G23G31G09G19G20
                                G32G01R24R17R02R08R10R03R23R01
 113439715.110 8  88394566.19347                  21586860.040
  21586856.440          49.950          44.900
 132394619.164 6 103164639.288 6  98866110.142 7  25193858.960    25193860.600
  25193859.840          41.500          38.500
 130331039.697 6 101556608.30245                  24801182.600
  24801180.980          40.850          35.600
 132057151.063 7 102901688.62645                  25129637.480
  25129639.180          45.850          32.600
 117673668.602 8  91693770.52247                  22392551.780
  22392549.620          49.450          42.950
 115589250.962 8  90069501.916 7                  21995908.080    21995904.520
  21995903.880          49.700          46.350
 106928583.932 8  83320975.035 8  79849271.240 8  20347830.160    20347829.820
  20347829.100          50.100          49.800
 114243442.634 8  89020831.57447                  21739799.240
  21739794.080          50.900          44.850
 127633768.001 7  99454880.043 6                  24287894.700    24287894.800
  24287894.140          45.150          40.200
 124908875.907 7  97331609.295 7  93276133.270 8  23769362.120    23769363.520
  23769363.200          46.200          44.550
 136264819.940 7 106180323.53545                  25930354.180
  25930356.240          42.650          32.600
 116155040.220 8  90510382.29347                  22103572.780
  22103568.880          49.350          42.900
 116551682.333 8  90819509.92747                  22179036.200
  22179033.380          49.100          43.350
 108526662.675 8  84566246.337 8  81042641.677 8  20651935.020    20651934.160
  20651933.980          50.500          49.650
 104425789.480 7  81220072.936 7                  19528149.600    19528151.980
  19528149.980          47.800          42.900
 108856214.239 8  84665944.635 7                  20342391.100    20342392.840
  20342391.520          48.650          46.150
 107352040.571 8  83496049.217 7                  20117727.920    20117731.640
  20117730.840          49.600          46.800
 126932156.400 7  98725012.957 6                  23703686.580    23703690.500
  23703689.820          45.800          39.950
 128005299.944 7  99559733.676 5                  24013465.600    24013477.020
  24013475.960          42.800          33.500
 129196393.279 6 100486101.556 6                  24134969.800    24134976.280
  24134975.020          41.600          39.200
 123249410.450 7  95860658.181 6                  23040185.480    23040191.340
  23040190.040          46.100          41.350
 106548990.270 8  82871445.988 7                  19932187.980    19932192.300
  19932192.140          48.850          42.650
 15  1 27  9  0 45.0000000  0 22G11G06G28G08G04G17G03G23G31G09G19G20
                                G32G01R24R17R02R08R10R03R23R01
 113453071.371 8  88404973.65947                  21589401.640
  21589398.060          49.900          44.950
 132378538.824 7 103152109.110 6  98854102.025 7  25190798.980    25190800.540
  25190799.760          42.000          38.200
 130342282.658 6 101565369.04345                  24803321.860
  24803320.560          40.150          35.950
 132045794.314 7 102892839.23145                  25127476.440
  25127478.020          45.950          34.300
 117687015.060 8  91704170.34647                  22395091.520
  22395089.340          49.550          42.800
 115581212.402 8  90063238.098 7                  21994378.380    21994374.860
  21994374.220          49.650          46.250
 106929964.671 8  83322050.934 8  79850302.308 8  20348092.940    20348092.560
  20348091.840          49.950          49.700
 114230794.744 8  89010976.07947                  21737392.440
  21737387.280          50.800          44.800
 127630074.281 7  99452001.849 6                  24287191.780    24287191.940
  24287191.260          45.050          39.950
 124890406.047 7  97317217.238 7  93262340.868 8  23765847.340    23765848.820
  23765848.520          46.200          44.250
 136283323.955 7 106194742.18345                  25933875.420
  25933877.500          42.000          32.400
 116143336.076 8  90501262.18547                  22101345.580
  22101341.640          49.400          42.700
 116564817.439 8  90829745.07147                  22181535.720
  22181532.940          49.000          43.450
 108531837.810 8  84570278.904 8  81046506.217 8  20652919.820    20652918.980
  20652918.780          50.450          49.650
 104434727.913 7  81227025.035 7                  19529821.160    19529823.540
  19529821.540          47.800          42.700
 108842949.214 8  84655627.398 7                  20339912.160    20339913.940
  20339912.620          48.600          46.050
 107344242.698 8  83489984.217 7                  20116266.620    20116270.300
  20116269.560          49.650          46.650
 126950504.975 7  98739284.059 6                  23707113.080    23707117.020
  23707116.360          45.650          40.400
 127997287.682 7  99553501.966 5                  24011962.580    24011974.040
  24011972.980          43.100          33.200
 129179025.013 7 100472592.963 6                  24131725.220    24131731.760
  24131730.440          42.100          38.950
 123270702.288 7  95877218.475 6                  23044165.820    23044171.680
  23044170.360          45.350          41.300
 106558902.702 8  82879155.645 7                  19934042.340    19934046.600
  19934046.500          48.850          42.350
 15  1 27  9  0 50.0000000  0 22G11G06G28G08G04G17G03G23G31G09G19G20
                                G32G01R24R17R02R08R10R03R23R01
 113466437.000 8  88415388.41847                  21591945.040
  21591941.460          49.850          45.050
 132362456.944 6 103139577.724 6  98842092.788 7  25187738.720    25187740.260
  25187739.400          41.100          37.800
 130353528.629 6 101574132.08745                  24805461.800
  24805460.660          41.100          35.900
 132034442.057 7 102883993.31345                  25125316.240
  25125317.700          45.650          32.900
 117700368.024 8  91714575.24247                  22397632.500
  22397630.320          49.400          42.600
 115573187.834 8  90056985.183 7                  21992851.320    21992847.840
  21992847.220          49.400          46.350
 106931353.659 8  83323133.264 8  79851339.527 8  20348357.280    20348356.880
  20348356.160          49.950          49.750
 114218156.812 8  89001128.34447                  21734987.500
  21734982.360          50.700          44.950
 127626393.838 7  99449133.990 6                  24286491.400    24286491.520
  24286490.880          44.900          40.600
 124871939.719 7  97302827.928 7  93248551.102 8  23762333.260    23762334.840
  23762334.500          46.700          44.250
 136301825.973 7 106209159.30745                  25937396.320
  25937398.260          42.750          33.650
 116131637.810 8  90492146.65447                  22099119.480
  22099115.520          49.350          42.600
 116577955.732 8  90839982.68147                  22184035.820
  22184033.120          49.050          43.300
 108537022.770 8  84574319.126 8  81050378.082 8  20653906.520    20653905.660
  20653905.440          50.550          49.700
 104443686.121 7  81233992.539 7                  19531496.420    19531498.820
  19531496.800          47.750          42.650
 108829699.285 8  84645321.906 7                  20337436.060    20337437.900
  20337436.560          48.650          46.050
 107336457.787 8  83483929.288 7                  20114807.740    20114811.440
  20114810.700          49.450          46.600
 126968851.612 7  98753553.634 6                  23710539.200    23710543.120
  23710542.500          45.600          39.950
 127989291.883 7  99547283.032 5                  24010462.600    24010474.040
  24010473.100          42.450          32.700
 129161661.581 6 100459088.121 6                  24128481.500    24128488.020
  24128486.700          41.000          38.400
 123292000.359 7  95893783.592 6                  23048147.180    23048153.220
  23048151.840          45.400          41.350
 106568824.952 8  82886872.924 7                  19935898.540    19935902.780
  19935902.700          48.600          42.200
 15  1 27  9  0 55.0000000  0 22G11G06G28G08G04G17G03G23G31G09G19G20
                                G32G01R24R17R02R08R10R03R23R01
 113479811.903 8  88425810.40647                  21594490.220
  21594486.620          49.800          45.000
 132346373.561 6 103127045.179 6  98830082.432 7  25184678.120    25184679.680
  25184678.760          40.750          38.150
 130364777.626 7 101582897.47645                  24807602.420
  24807601.340          42.900          34.500
 132023094.229 7 102875150.87045                  25123156.820
  25123158.400          45.100          34.550
 117713727.464 8  91724985.17347                  22400174.720
  22400172.540          49.600          42.550
 115565177.271 8  90050743.184 7                  21991326.940    21991323.500
  21991322.880          49.350          46.400
 106932750.836 8  83324221.971 8  79852382.878 8  20348623.160    20348622.760
  20348622.060          49.950          49.800
 114205528.822 8  88991288.35747                  21732584.460
  21732579.340          50.600          45.100
 127622726.570 7  99446276.400 6                  24285793.500    24285793.640
  24285793.060          44.650          39.600
 124853476.863 7  97288441.314 7  93234763.949 8  23758819.820    23758821.440
  23758821.100          46.600          44.400
 136320326.023 7 106223574.92645                  25940916.800
  25940918.680          42.900          31.900
 116119945.427 8  90483035.70047                  22096894.520
  22096890.500          49.200          42.700
 116591097.183 8  90850222.75847                  22186536.560
  22186533.900          49.100          43.550
 108542217.491 8  84578366.956 8  81054257.259 8  20654895.060    20654894.200
  20654893.980          50.550          49.750
 104452663.913 8  81240975.260 7                  19533175.320    19533177.740
  19533175.700          48.000          42.550
 108816464.468 8  84635028.156 7                  20334962.780    20334964.640
  20334963.320          48.900          46.100
 107328685.869 8  83477884.455 7                  20113351.300    20113355.000
  20113354.280          49.300          46.550
 126987196.374 7  98767821.768 6                  23713964.920    23713968.920
  23713968.280          45.450          39.750
 127981312.468 7  99541076.818 5                  24008965.680    24008977.180
  24008976.320          43.400          32.700
 129144303.001 6 100445587.033 6                  24125238.700    24125245.140
  24125243.880          41.400          38.150
 123313304.444 7  95910353.380 7                  23052129.760    23052135.900
  23052134.500          46.850          42.150
 106578757.019 8  82894597.852 7                  19937756.580    19937760.820
  19937760.720          48.800          42.400
 15  1 27  9  1  0.0000000  0 22G11G06G28G08G04G17G03G23G31G09G19G20
                                G32G01R24R17R02R08R10R03R23R01
 113493197.246 8  88436240.53347                  21597037.380
  21597033.740          50.200          44.850
 132330289.779 6 103114512.321 6  98818071.798 7  25181617.480    25181619.060
  25181618.160          41.650          38.800
 130376030.622 7 101591666.02045                  24809743.860
  24809742.800          43.200          33.050
 132011752.039 7 102866312.82245                  25120998.440
  25121000.100          45.550          34.750
 117727094.488 8  91735401.02947                  22402718.360
  22402716.200          49.750          42.650
 115557181.869 8  90044513.002 7                  21989805.440    21989802.060
  21989801.440          49.400          46.450
 106934157.328 8  83325317.939 8  79853433.180 8  20348890.820    20348890.400
  20348889.700          50.100          49.800
 114192911.921 8  88981457.00947                  21730183.520
  21730178.420          50.550          45.100
 127619073.661 7  99443429.988 6                  24285098.340    24285098.480
  24285097.820          45.850          39.650
 124835018.638 7  97274058.328 7  93220980.256 8  23755307.280    23755308.980
  23755308.600          46.850          44.300
 136338825.211 7 106237989.88545                  25944437.140
  25944438.900          42.900          33.950
 116108260.015 8  90473930.19247                  22094670.860
  22094666.800          49.200          42.650
 116604242.935 8  90860466.19447                  22189038.120
  22189035.480          49.150          43.250
 108547423.137 8  84582423.300 8  81058144.588 8  20655885.700    20655884.800
  20655884.580          50.550          49.750
 104461662.668 8  81247974.281 7                  19534858.160    19534860.580
  19534858.540          48.050          42.600
 108803245.939 8  84624747.077 7                  20332492.580    20332494.440
  20332493.120          49.050          46.250
 107320928.103 8  83471850.635 7                  20111897.500    20111901.240
  20111900.500          49.350          46.850
 127005540.339 7  98782089.271 6                  23717390.500    23717394.540
  23717393.940          45.100          39.450
 127973350.795 7  99534884.411 5                  24007472.040    24007483.600
  24007482.740          43.150          32.900
 129126950.562 6 100432090.725 6                  24121997.040    24122003.460
  24122002.240          41.050          38.500
 123334615.754 7  95926928.812 6                  23056113.800    23056119.900
  23056118.520          47.550          41.350
 106588699.878 8  82902331.189 7                  19939616.640    19939620.820
  19939620.740          49.000          42.150
 15  1 27  9  1  5.0000000  0 22G11G06G28G08G04G17G03G23G31G09G19G20
                                G32G01R24R17R02R08R10R03R23R01
 113506590.686 8  88446676.97447                  21599586.120
  21599582.400          50.200          44.750
 132314203.324 6 103101977.390 6  98806059.141 7  25178556.280    25178557.960
  25178557.100          41.800          39.750
 130387285.271 7 101600435.86045                  24811885.660
  24811884.620          44.400          32.850
 132000413.186 7 102857477.38345                  25118840.740
  25118842.460          45.250          35.350
 117740466.764 8  91745820.97047                  22405263.040
  22405260.860          49.550          42.600
 115549199.275 8  90038292.798 7                  21988286.360    21988283.040
  21988282.420          49.200          46.450
 106935570.838 8  83326419.371 8  79854488.715 8  20349159.820    20349159.360
  20349158.700          50.100          49.850
 114180303.817 8  88971632.51847                  21727784.260
  21727779.200          50.400          45.000
 127615432.841 7  99440592.989 6                  24284405.560    24284405.640
  24284404.820          46.050          38.850
 124816562.796 7  97259677.187 7  93207198.321 8  23751795.200    23751796.920
  23751796.600          46.900          43.800
 136357321.255 6 106252402.33945                  25947956.780
  25947958.560          41.900          33.350
 116096579.280 8  90464828.32047                  22092448.100
  22092444.020          48.950          43.350
 116617390.684 8  90870711.17347                  22191540.100
  22191537.460          49.100          43.400
 108552637.385 8  84586486.342 8  81062038.331 8  20656877.940    20656877.060
  20656876.840          50.400          49.800
 104470679.823 8  81254987.620 7                  19536544.420    19536546.840
  19536544.840          48.150          43.100
 108790041.356 8  84614476.841 7                  20330024.980    20330026.780
  20330025.560          48.750          46.550
 107313182.088 8  83465825.954 7                  20110445.920    20110449.640
  20110448.920          49.300          46.950
 127023881.080 7  98796354.271 6                  23720815.540    23720819.540
  23720818.960          44.900          39.350
 127965404.461 7  99528703.941 5                  24005981.340    24005992.900
  24005992.020          43.350          32.700
 129109601.642 6 100418597.166 6                  24118755.980    24118762.560
  24118761.320          40.250          38.750
 123355931.988 7  95943508.107 6                  23060098.720    23060104.800
  23060103.360          46.900          41.800
 106598651.213 8  82910071.121 7                  19941478.300    19941482.460
  19941482.320          48.950          42.300
 15  1 27  9  1 10.0000000  0 22G11G06G28G08G04G17G03G23G31G09G19G20
                                G32G01R24R17R02R08R10R03R23R01
 113519993.447 8  88457120.67947                  21602136.620
  21602132.840          50.200          44.950
 132298115.470 6 103089441.359 6  98794045.443 7  25175494.880    25175496.620
  25175495.820          41.900          40.150
 130398542.916 7 101609208.05745                  24814028.040
  24814026.800          43.850          35.000
 131989078.970 7 102848645.53145                  25116683.920
  25116685.580          45.650          33.550
 117753845.564 8  91756246.00547                  22407808.940
  22407806.780          49.600          42.950
 115541230.789 8  90032083.590 7                  21986770.000    21986766.700
  21986766.100          49.300          46.600
 106936992.659 8  83327527.289 8  79855550.461 8  20349430.400    20349429.940
  20349429.280          50.200          49.800
 114167705.786 8  88961815.87947                  21725386.920
  21725381.880          50.600          45.450
 127611805.340 7  99437766.357 6                  24283715.340    24283715.300
  24283714.460          45.550          39.650
 124798110.585 7  97245298.872 7  93193419.093 8  23748283.860    23748285.560
  23748285.240          47.100          44.100
 136375815.361 7 106266813.27846                  25951476.080
  25951477.880          42.000          36.000
 116084904.556 8  90455731.13947                  22090226.460
  22090222.380          48.850          43.350
 116630541.681 8  90880958.68647                  22194042.680
  22194040.000          49.150          43.200
 108557861.558 8  84590557.120 8  81065939.482 8  20657872.080    20657871.180
  20657870.960          50.400          49.700
 104479716.799 8  81262016.377 7                  19538234.400    19538236.880
  19538234.840          48.300          42.750
 108776852.024 8  84604218.480 7                  20327560.260    20327562.020
  20327560.800          48.650          46.300
 107305449.161 8  83459811.473 7                  20108996.760    20109000.520
  20108999.800          49.450          46.850
 127042220.003 7  98810617.876 6                  23724240.200    23724244.280
  23724243.580          44.750          39.600
 127957474.799 7  99522536.451 5                  24004493.800    24004505.400
  24004504.400          44.750          33.300
 129092257.805 6 100405107.550 6                  24115515.980    24115522.580
  24115521.300          39.750          37.900
 123377254.443 7  95960092.195 6                  23064084.680    23064090.840
  23064089.400          46.450          41.900
 106608612.397 8  82917818.712 7                  19943341.800    19943345.920
  19943345.720          49.100          42.300
 15  1 27  9  1 15.0000000  0 23G11G06G28G08G04G17G03G23G31G09G19G20
                                G32G01R24R17R02R08R10R03R18R23R01
 113533406.483 8  88467572.37647                  21604689.060
  21604685.200          50.350          44.750
 132282027.084 6 103076904.909 6  98782031.354 7  25172433.400    25172435.180
  25172434.440          41.850          41.000
 130409804.373 7 101617983.19245                  24816171.100
  24816169.840          43.050          34.800
 131977750.225 7 102839817.92545                  25114528.160
  25114529.540          45.800          31.950
 117767231.779 8  91766676.80247                  22410356.260
  22410354.100          49.700          42.750
 115533277.298 8  90025886.048 7                  21985256.480    21985253.200
  21985252.600          49.250          46.450
 106938423.605 8  83328642.302 8  79856619.024 8  20349702.700    20349702.240
  20349701.580          50.150          49.800
 114155118.686 8  88952007.74747                  21722991.660
  21722986.640          50.350          45.250
 127608192.067 7  99434950.820 6                  24283027.760    24283027.620
  24283026.780          45.350          39.350
 124779662.893 7  97230924.076 7  93179643.248 8  23744773.340    23744775.060
  23744774.720          47.000          43.600
 136394308.367 6 106281223.35345                  25954995.160
  25954997.040          41.550          35.200
 116073236.686 8  90446639.29047                  22088006.140
  22088002.060          48.900          43.300
 116643696.772 8  90891209.38647                  22196546.040
  22196543.320          49.050          43.100
 108563096.464 8  84594636.255 8  81069848.667 8  20658868.260    20658867.380
  20658867.160          50.400          49.700
 104488774.520 7  81269061.252 7                  19539928.260    19539930.720
  19539928.700          47.800          42.700
 108763678.847 8  84593972.669 7                  20325098.540    20325100.260
  20325099.080          48.650          46.250
 107297730.320 8  83453807.923 7                  20107550.240    20107553.980
  20107553.320          49.150          46.800
 127060557.989 7  98824880.708 6                  23727664.680    23727668.800
  23727668.080          45.300          39.550
 127949562.636 7  99516382.565 5                  24003009.520    24003020.920
  24003020.120          44.350          33.750
 129074919.733 6 100391622.419 6                  24112277.080    24112283.660
  24112282.320          40.900          37.850
 131460075.63317                                  24626902.120
                        42.300
 123398583.812 7  95976681.640 6                  23068071.960    23068078.220
  23068076.780          47.050          41.650
 106618584.313 8  82925574.630 7                  19945207.300    19945211.300
  19945211.140          49.050          42.250
 15  1 27  9  1 20.0000000  0 23G11G06G28G08G04G17G03G23G31G09G19G20
                                G32G01R24R17R02R08R10R03R18R23R01
 113546829.108 8  88478031.55347                  21607243.360
  21607239.400          50.250          44.300
 132265937.542 7 103064367.581 6  98770016.372 7  25169371.720    25169373.520
  25169372.800          42.150          41.350
 130421068.993 6 101626760.86145                  24818314.760
  24818313.300          41.950          33.150
 131966426.354 7 102830994.16245                  25112373.340
  25112374.580          45.500          34.400
 117780624.720 8  91777112.84647                  22412904.860
  22412902.680          49.750          42.050
 115525338.156 8  90019699.703 7                  21983745.700    21983742.440
  21983741.860          49.200          46.450
 106939863.061 8  83329763.953 8  79857693.949 8  20349976.640    20349976.160
  20349975.500          50.050          49.800
 114142541.878 8  88942207.65147                  21720598.360
  21720593.360          50.300          45.100
 127604592.315 7  99432145.822 6                  24282342.780    24282342.580
  24282341.760          45.700          39.450
 124761219.040 7  97216552.269 7  93165870.284 8  23741263.600    23741265.300
  23741264.940          46.800          43.550
 136412799.710 6 106295632.16746                  25958513.940
  25958515.820          40.050          36.650
 116061575.031 8  90437552.29147                  22085786.980
  22085782.920          48.950          42.850
 116656855.323 8  90901462.79247                  22199050.040
  22199047.280          49.200          42.800
 108568341.478 8  84598723.279 8  81073765.404 8  20659866.360    20659865.480
  20659865.260          50.300          49.700
 104497852.211 7  81276121.670 7                  19541625.860    19541628.300
  19541626.280          47.700          42.450
 108750521.151 8  84583738.906 7                  20322639.720    20322641.400
  20322640.220          48.350          46.300
 107290024.814 8  83447814.752 7                  20106106.240    20106109.960
  20106109.320          48.800          46.700
 127078894.253 7  98839142.226 6                  23731088.840    23731092.940
  23731092.200          45.250          39.650
 127941667.500 7  99510241.912 5                  24001528.380    24001539.900
  24001539.040          43.950          32.600
 129057587.000 6 100378141.442 6                  24109039.180    24109045.680
  24109044.360          41.250          38.050
 131438713.518 6                                  24622900.660    24622905.820
  24622904.440          40.350          33.850
 123419919.709 7  95993276.207 7                  23072060.520    23072066.820
  23072065.400          46.800          42.400
 106628566.283 8  82933338.374 7                  19947074.680    19947078.660
  19947078.440          48.700          42.000
 15  1 27  9  1 25.0000000  0 23G11G06G28G08G04G17G03G23G31G09G19G20
                                G32G01R24R17R02R08R10R03R18R23R01
 113560260.111 8  88488497.26247                  21609799.240
  21609795.200          50.350          44.400
 132249845.607 7 103051828.378 6  98757999.614 7  25166309.600    25166311.460
  25166310.740          42.650          41.400
 130432335.618 6 101635540.00045                  24820458.700
  24820457.080          40.700          33.900
 131955106.170 7 102822173.23745                  25110219.220
  25110220.420          45.900          35.550
 117794023.292 8  91787553.28346                  22415454.540
  22415452.380          49.800          41.800
 115517412.217 8  90013523.647 7                  21982237.420    21982234.160
  21982233.620          49.350          46.650
 106941309.833 8  83330891.299 8  79858774.317 8  20350251.980    20350251.480
  20350250.800          50.200          49.750
 114129974.201 8  88932414.65647                  21718206.780
  21718201.800          50.300          45.300
 127601004.999 7  99429350.507 6                  24281660.160    24281659.880
  24281659.020          46.200          39.750
 124742777.928 7  97202182.600 7  93152099.346 8  23737754.360    23737756.040
  23737755.600          46.750          42.900
 136431288.170 6 106310038.71245                  25962032.160
  25962034.100          41.000          33.800
 116049918.385 8  90428469.19447                  22083568.800
  22083564.700          49.200          42.650
 116670016.170 8  90911717.98947                  22201554.460
  22201551.700          49.150          43.100
 108573595.428 8  84602817.263 8  81077688.793 8  20660866.140    20660865.280
  20660865.060          50.350          49.650
 104506948.664 8  81283196.689 7                  19543326.940    19543329.360
  19543327.360          48.000          42.800
 108737377.817 8  84573516.313 7                  20320183.540    20320185.280
  20320184.080          48.650          46.600
 107282331.376 8  83441830.961 7                  20104664.480    20104668.220
  20104667.580          49.150          46.650
 127097227.689 7  98853401.538 6                  23734512.440    23734516.560
  23734515.840          45.300          40.100
 127933788.097 7  99504113.485 5                  24000050.200    24000061.720
  24000060.860          43.350          32.400
 129040258.195 6 100364663.540 6                  24105802.040    24105808.480
  24105807.120          41.800          37.300
 131417350.690 6 102213517.011 4                  24618898.660    24618904.120
  24618902.320          38.200          28.550
 123441260.470 7  96009874.528 7                  23076050.020    23076056.260
  23076054.900          47.050          42.000
 106638557.060 8  82941108.970 7                  19948943.700    19948947.580
  19948947.400          48.650          42.050
 15  1 27  9  1 30.0000000  0 23G11G06G28G08G04G17G03G23G31G09G19G20
                                G32G01R24R17R02R08R10R03R18R23R01
 113573701.530 8  88498971.08547                  21612357.080
  21612353.000          50.250          44.550
 132233753.374 6 103039288.952 6  98745982.632 7  25163247.420    25163249.280
  25163248.580          41.750          41.050
 130443606.277 6 101644322.33845                  24822603.320
  24822601.760          38.900          33.800
 131943791.721 7 102813356.83345                  25108066.200
  25108067.340          45.400          34.150
 117807429.450 8  91797999.62647                  22418005.660
  22418003.500          49.600          42.050
 115509501.521 8  90007359.466 7                  21980732.060    21980728.840
  21980728.300          49.500          46.600
 106942765.951 8  83332025.932 8  79859861.668 8  20350529.120    20350528.560
  20350527.900          50.150          49.750
 114117417.693 8  88922630.37047                  21715817.340
  21715812.360          50.350          45.400
 127597432.161 7  99426566.488 6                  24280980.300    24280979.960
  24280979.120          45.850          39.550
 124724341.537 7  97187816.606 7  93138331.954 8  23734246.000    23734247.660
  23734247.200          46.900          43.300
 136449775.742 6 106324444.57746                  25965550.220
  25965552.340          41.250          36.000
 116038268.813 8  90419391.60547                  22081351.960
  22081347.840          49.050          42.550
 116683181.259 8  90921976.48847                  22204059.700
  22204056.920          49.050          42.750
 108578860.357 8  84606919.798 8  81081620.387 8  20661868.020    20661867.140
  20661866.960          50.250          49.650
 104516066.011 8  81290287.951 7                  19545031.880    19545034.340
  19545032.340          48.100          42.650
 108724250.995 8  84563306.556 7                  20317730.480    20317732.200
  20317731.020          48.600          46.350
 107274652.084 8  83435858.180 7                  20103225.380    20103229.120
  20103228.480          49.600          46.650
 127115560.261 7  98867660.172 6                  23737935.980    23737940.000
  23737939.320          45.850          40.350
 127925926.442 7  99497998.883 5                  23998575.380    23998586.780
  23998586.000          43.600          32.600
 129022935.489 6 100351190.387 6                  24102566.000    24102572.380
  24102571.040          41.650          36.650
 131395989.405 6 102196897.289 4                  24614896.960    24614899.820
  24614899.920          38.350          29.650
 123462608.628 7  96026478.626 6                  23080040.840    23080047.140
  23080045.760          46.450          41.500
 106648558.743 8  82948888.040 6                  19950814.740    19950818.620
  19950818.420          48.750          41.950
 15  1 27  9  1 35.0000000  0 23G11G06G28G08G04G17G03G23G31G09G19G20
                                G32G01R24R17R02R08R10R03R18R23R01
 113587152.248 8  88509452.14947                  21614916.700
  21614912.580          50.250          44.800
 132217659.673 6 103026748.371 6  98733964.555 7  25160184.940    25160186.820
  25160186.100          41.600          40.800
 130454879.799 6 101653106.89345                  24824748.460
  24824746.800          41.500          32.600
 131932481.847 7 102804543.96445                  25105914.000
  25105915.140          45.050          35.400
 117820842.072 8  91808451.00347                  22420558.000
  22420555.860          49.650          42.400
 115501604.868 8  90001206.228 7                  21979229.360    21979226.180
  21979225.660          49.400          46.600
 106944230.266 8  83333166.957 8  79860955.150 8  20350807.780    20350807.200
  20350806.540          50.200          49.800
 114104871.243 8  88912853.91847                  21713429.820
  21713424.860          50.200          45.350
 127593872.607 7  99423792.822 6                  24280302.960    24280302.560
  24280301.740          45.700          39.950
 124705908.796 7  97173453.455 7  93124567.268 8  23730738.360    23730739.960
  23730739.500          46.900          43.100
 136468261.241 6 106338848.84645                  25969067.920
  25969070.000          41.400          35.300
 116026625.175 8  90410318.64147                  22079136.260
  22079132.160          48.700          43.150
 116696349.508 8  90932237.45147                  22206565.520
  22206562.760          48.950          43.400
 108584135.104 8  84611029.980 8  81085559.312 8  20662871.780    20662870.920
  20662870.740          50.300          49.750
 104525203.059 8  81297394.533 7                  19546740.560    19546743.040
  19546741.000          48.050          42.850
 108711139.279 8  84553108.549 7                  20315280.200    20315281.960
  20315280.800          48.850          46.400
 107266985.823 8  83429895.533 7                  20101788.720    20101792.500
  20101791.820          49.400          46.650
 127133890.887 7  98881917.319 6                  23741359.100    23741363.100
  23741362.480          45.000          40.200
 127918081.431 7  99491897.225 5                  23997103.720    23997115.060
  23997114.240          43.700          32.400
 129005617.753 6 100337721.085 6                  24099330.900    24099337.120
  24099335.880          41.700          36.550
 131374628.379 6 102180279.407 5                  24610895.500    24610903.160
  24610898.660          36.550          30.850
 123483962.776 7  96043087.376 7                  23084032.720    23084039.100
  23084037.740          45.900          42.200
 106658570.033 8  82956674.593 7                  19952687.600    19952691.400
  19952691.240          48.700          42.550
 15  1 27  9  1 40.0000000  0 23G11G06G28G08G04G17G03G23G31G09G19G20
                                G32G01R24R17R02R08R10R03R18R23R01
 113600613.229 8  88519941.21547                  21617478.300
  21617474.120          50.300          44.800
 132201565.517 6 103014207.435 6  98721946.177 7  25157122.360    25157124.260
  25157123.520          41.350          40.500
 130466157.169 6 101661894.40045                  24826894.440
  24826892.520          41.750          34.550
 131921177.587 7 102795735.46745                  25103762.840
  25103764.040          45.250          34.850
 117834262.174 8  91818908.21347                  22423111.760
  22423109.620          49.400          43.050
 115493723.298 8  89995064.745 7                  21977729.560    21977726.360
  21977725.840          49.600          46.650
 106945703.763 8  83334315.138 8  79862055.486 8  20351088.200    20351087.600
  20351086.940          50.150          49.800
 114092335.850 8  88903086.08747                  21711044.400
  21711039.460          50.300          45.450
 127590327.395 7  99421030.317 6                  24279628.360    24279627.960
  24279627.200          45.650          40.050
 124687480.659 7  97159093.896 7  93110806.028 8  23727231.600    23727233.120
  23727232.660          46.800          43.100
 136486745.645 6 106353252.26345                  25972585.380
  25972587.460          41.800          33.600
 116014988.469 8  90401251.08247                  22076921.860
  22076917.760          48.750          43.050
 116709521.880 8  90942501.62647                  22209072.140
  22209069.360          48.600          43.600
 108589420.655 8  84615148.590 8  81089506.308 8  20663877.580    20663876.740
  20663876.560          50.250          49.850
 104534360.740 7  81304517.159 7                  19548453.100    19548455.580
  19548453.520          47.800          42.800
 108698043.991 8  84542923.329 7                  20312833.020    20312834.780
  20312833.640          49.000          46.550
 107259333.596 8  83423943.803 7                  20100354.700    20100358.440
  20100357.780          49.300          46.650
 127152220.615 7  98896173.745 6                  23744782.000    23744786.000
  23744785.420          44.800          40.100
 127910254.118 7  99485809.342 5                  23995635.300    23995646.500
  23995645.780          43.700          32.800
 128988306.061 7 100324256.484 6                  24096096.920    24096103.120
  24096101.840          42.000          37.400
 131353268.816 6 102163666.377 5                  24606894.260    24606899.620
  24606897.460          39.000          32.550
 123505323.933 7  96059701.535 6                  23088026.000    23088032.420
  23088031.100          46.300          41.650
 106668591.989 8  82964469.441 7                  19954562.440    19954566.200
  19954566.080          49.200          42.250
 15  1 27  9  1 45.0000000  0 23G11G06G28G08G04G17G03G23G31G09G19G20
                                G32G01R24R17R02R08R10R03R18R23R01
 113614083.249 8  88530437.31847                  21620041.600
  21620037.420          50.450          44.850
 132185469.685 6 103001665.187 6  98709926.536 7  25154059.520    25154061.300
  25154060.620          41.650          39.650
 130477437.084 7 101670683.91745                  24829041.000
  24829039.260          42.450          33.300
 131909877.719 7 102786930.38346                  25101612.540
  25101613.820          45.350          36.100
 117847688.432 8  91829370.21247                  22425666.700
  22425664.580          49.650          42.750
 115485855.603 8  89988934.066 7                  21976232.380    21976229.160
  21976228.680          49.400          46.700
 106947185.212 8  83335469.511 8  79863161.764 8  20351370.140    20351369.480
  20351368.840          50.100          49.850
 114079810.286 8  88893325.90847                  21708660.860
  21708655.920          50.300          45.450
 127586795.257 7  99418278.034 6                  24278956.240    24278955.820
  24278955.060          45.750          39.950
 124669055.924 7  97144736.980 7  93097047.341 8  23723725.460    23723726.920
  23723726.480          46.400          42.900
 136505227.788 7 106367653.91145                  25976102.440
  25976104.580          42.600          35.950
 116003357.455 8  90392187.94747                  22074708.540
  22074704.480          48.650          43.400
 116722697.144 8  90952768.04847                  22211579.300
  22211576.540          48.750          43.700
 108594715.815 8  84619274.678 8  81093460.483 8  20664885.220    20664884.380
  20664884.220          50.300          49.800
 104543537.808 7  81311654.871 7                  19550169.280    19550171.760
  19550169.680          47.900          42.800
 108684963.733 8  84532749.786 7                  20310388.660    20310390.420
  20310389.280          49.000          46.750
 107251694.067 8  83418001.944 7                  20098923.060    20098926.800
  20098926.120          49.250          46.750
 127170548.162 7  98910428.476 6                  23748204.540    23748208.580
  23748207.980          44.750          40.400
 127902443.157 7  99479734.174 5                  23994169.960    23994181.160
  23994180.440          42.550          34.000
 128970999.072 6 100310795.542 6                  24092863.820    24092869.900
  24092868.700          41.250          37.350
 131331909.389 6 102147053.419 5                  24602892.720    24602897.500
  24602896.380          40.650          33.100
 123526690.852 7  96076320.228 6                  23092020.400    23092026.800
  23092025.420          46.050          41.200
 106678623.398 8  82972271.642 7                  19956439.060    19956442.780
  19956442.660          49.550          42.700
 15  1 27  9  1 50.0000000  0 24G11G06G28G08G04G17G03G23G31G09G19G20
                                G32G01R24R17R02R08R10R03R18R11R23R01
 113627561.456 8  88540939.80947                  21622606.460
  21622602.260          50.450          44.600
 132169371.347 7 102989120.984 6  98697904.996 7  25150996.180    25150997.900
  25150997.200          42.800          39.800
 130488718.728 7 101679474.84045                  24831187.920
  24831186.120          43.850          30.850
 131898581.434 7 102778128.11245                  25099462.920
  25099464.200          45.850          35.350
 117861120.042 8  91839836.39347                  22428222.680
  22428220.560          49.800          42.100
 115478000.946 8  89982813.546 7                  21974737.660    21974734.480
  21974733.980          49.350          46.600
 106948673.751 8  83336629.407 8  79864273.323 8  20351653.420    20351652.740
  20351652.100          50.100          49.800
 114067293.703 8  88883572.73147                  21706279.060
  21706274.100          50.650          45.050
 127583275.358 7  99415535.258 6                  24278286.520    24278286.000
  24278285.260          46.350          40.200
 124650633.774 7  97130382.071 7  93083290.548 8  23720219.820    23720221.240
  23720220.800          47.000          43.300
 136523706.784 7 106382053.11045                  25979618.940
  25979621.100          43.450          35.050
 115991731.238 8  90383128.56447                  22072496.140
  22072492.100          48.900          43.000
 116735874.453 8  90963036.06847                  22214086.840
  22214084.140          49.050          43.150
 108600019.712 8  84623407.575 8  81097421.163 8  20665894.520    20665893.680
  20665893.540          50.400          49.800
 104552733.451 7  81318807.033 7                  19551888.900    19551891.400
  19551889.320          47.850          42.850
 108671897.796 8  84522587.389 7                  20307946.980    20307948.740
  20307947.620          48.800          46.800
 107244066.514 8  83412069.406 7                  20097493.660    20097497.380
  20097496.700          49.350          46.850
 127188872.559 7  98924680.740 6                  23751626.460    23751630.560
  23751629.960          44.900          40.300
 127894647.894 7  99473671.252 5                  23992707.560    23992718.740
  23992718.200          42.900          33.800
 128953695.948 6 100297337.567 6                  24089631.440    24089637.460
  24089636.280          40.700          37.200
 131310549.179 6 102130439.858 5                  24598891.240    24598896.400
  24598895.020          38.200          32.950
 131674096.345 6                                  24641011.620    24641020.000
                        38.800          28.750
 123548062.577 7  96092942.658 6                  23096015.700    23096021.920
  23096020.560          46.550          41.150
 106688663.250 8  82980080.408 7                  19958317.240    19958321.000
  19958320.820          49.400          42.750
 15  1 27  9  1 55.0000000  0 24G11G06G28G08G04G17G03G23G31G09G19G20
                                G32G01R24R17R02R08R10R03R18R11R23R01
 113641049.529 8  88551449.98347                  21625173.200
  21625168.980          50.350          45.000
 132153272.193 7 102976576.132 6  98685882.872 7  25147932.700    25147934.380
  25147933.520          42.450          39.800
 130500003.814 7 101688268.38745                  24833335.460
  24833333.820          43.050          35.100
 131887290.426 7 102769329.93345                  25097314.340
  25097315.640          46.050          35.600
 117874558.737 8  91850308.09547                  22430779.980
  22430777.880          49.750          42.600
 115470161.033 8  89976704.524 7                  21973245.780    21973242.620
  21973242.100          49.350          46.600
 106950171.087 8  83337796.162 8  79865391.467 8  20351938.400    20351937.680
  20351937.020          50.050          49.850
 114054787.804 8  88873827.87847                  21703899.280
  21703894.300          50.650          45.350
 127579769.380 7  99412803.327 6                  24277619.380    24277618.860
  24277618.140          45.850          41.150
 124632215.873 7  97116030.482 7  93069536.964 8  23716715.020    23716716.340
  23716715.940          46.950          43.650
 136542184.277 6 106396451.15246                  25983135.160
  25983137.260          41.900          36.700
 115980111.553 8  90374074.27047                  22070285.020
  22070280.980          48.950          43.000
 116749055.503 8  90973307.00947                  22216595.120
  22216592.420          49.000          43.550
 108605334.032 8  84627548.601 8  81101389.653 8  20666905.780    20666904.980
  20666904.840          50.350          49.800
 104561949.320 7  81325974.929 7                  19553612.320    19553614.840
  19553612.700          47.500          42.650
 108658847.713 8  84512437.331 7                  20305508.220    20305510.020
  20305508.940          48.700          46.700
 107236452.641 8  83406147.496 7                  20096066.800    20096070.540
  20096069.840          49.550          46.650
 127207195.663 7  98938932.030 6                  23755048.140    23755052.260
  23755051.660          44.200          39.800
 127886869.960 7  99467621.757 5                  23991248.400    23991259.680
  23991259.080          43.950          32.950
 128936398.450 6 100283883.957 6                  24086400.140    24086406.080
  24086404.940          41.900          36.800
 131289189.912 6 102113827.074 5                  24594889.900    24594895.740
  24594893.860          40.750          34.550
 131657654.594 6 102400449.943 4                  24637933.700    24637945.640
                        38.100          29.850
 123569440.863 7  96109570.195 6                  23100012.180    23100018.380
  23100016.980          46.100          41.350
 106698713.382 8  82987897.173 7                  19960197.360    19960201.100
  19960200.920          49.350          42.450
 15  1 27  9  2  0.0000000  0 24G11G06G28G08G04G17G03G23G31G09G19G20
                                G32G01R24R17R02R08R10R03R18R11R23R01
 113654548.659 8  88561968.77447                  21627742.040
  21627737.820          50.450          44.800
 132137173.437 7 102964031.610 6  98673861.032 7  25144869.340    25144870.880
  25144870.060          42.900          40.300
 130511293.501 7 101697065.55645                  24835483.920
  24835482.140          42.100          35.700
 131876005.925 7 102760536.85946                  25095166.960
  25095168.360          45.800          36.800
 117888005.660 8  91860786.20547                  22433338.880
  22433336.760          49.850          42.500
 115462337.091 8  89970607.940 7                  21971756.900    21971753.760
  21971753.260          49.400          46.700
 106951678.436 8  83338970.713 8  79866517.079 8  20352225.260    20352224.500
  20352223.840          50.050          49.800
 114042293.808 8  88864092.29647                  21701521.760
  21701516.740          50.600          45.300
 127576278.625 7  99410083.279 6                  24276955.140    24276954.620
  24276953.880          46.000          40.550
 124613803.480 7  97101683.183 7  93055787.471 8  23713211.260    23713212.560
  23713212.140          46.950          43.750
 136560661.618 6 106410849.06645                  25986651.280
  25986653.460          40.750          33.300
 115968499.643 8  90365026.03747                  22068075.340
  22068071.340          49.050          42.950
 116762241.486 8  90983581.78847                  22219104.340
  22219101.680          49.150          43.600
 108610660.037 8  84631698.727 8  81105366.849 8  20667919.260    20667918.500
  20667918.360          50.350          49.800
 104571186.809 7  81333159.634 7                  19555339.780    19555342.360
  19555340.160          47.550          42.650
 108645814.906 8  84502300.705 7                  20303072.720    20303074.520
  20303073.500          48.400          46.700
 107228853.608 8  83400237.137 7                  20094642.740    20094646.480
  20094645.780          49.400          46.850
 127225518.572 7  98953183.165 6                  23758469.820    23758473.940
  23758473.380          43.750          39.600
 127879110.511 7  99461586.619 5                  23989792.720    23989803.980
  23989803.480          43.650          32.200
 128919107.632 7 100270435.595 6                  24083170.060    24083175.860
  24083174.880          42.300          36.200
 131267832.900 6 102097216.032 5                  24590889.300    24590894.600
  24590893.180          38.700          34.350
 131641218.107 6 102387665.971 5                  24634858.080    24634867.040
                        39.100          30.400
 123590827.017 7  96126203.832 6                  23104010.080    23104016.340
  23104014.900          45.050          41.350
 106708775.020 8  82995722.887 7                  19962079.620    19962083.340
  19962083.180          49.100          42.450
 15  1 27  9  2  5.0000000  0 24G11G06G28G08G04G17G03G23G31G09G19G20
                                G32G01R24R17R02R08R10R03R18R11R23R01
 113668055.742 8  88572493.76747                  21630312.380
  21630308.180          50.350          45.300
 132121071.971 7 102951484.975 6  98661837.185 7  25141805.420    25141806.860
  25141806.080          42.750          40.550
 130522584.623 6 101705863.83245                  24837632.620
  24837630.820          41.700          35.550
 131864724.838 7 102751746.41446                  25093020.260
  25093021.740          45.550          37.000
 117901457.758 8  91871268.34747                  22435898.740
  22435896.620          49.850          42.600
 115454525.951 8  89964521.340 7                  21970270.460    21970267.360
  21970266.840          49.350          46.650
 106953192.666 8  83340150.631 8  79867647.838 8  20352513.440    20352512.640
  20352511.980          50.100          49.750
 114029808.637 8  88854363.59847                  21699145.940
  21699140.880          50.650          45.700
 127572799.920 7  99407372.600 6                  24276293.180    24276292.660
  24276291.920          46.100          40.600
 124595393.522 7  97087337.780 7  93042039.797 8  23709707.940    23709709.240
  23709708.760          47.150          43.900
 136579135.445 6 106425244.22745                  25990166.720
  25990169.060          38.300          34.750
 115956892.368 8  90355981.41547                  22065866.540
  22065862.560          49.050          42.850
 116775429.286 8  90993857.98847                  22221613.900
  22221611.280          49.050          43.100
 108615994.592 8  84635855.516 8  81109350.441 8  20668934.380    20668933.640
  20668933.500          50.250          49.850
 104580442.653 7  81340358.616 7                  19557070.660    19557073.220
  19557071.060          47.850          42.800
 108632796.060 8  84492174.945 7                  20300639.800    20300641.680
  20300640.660          48.250          46.450
 107221266.278 8  83394335.874 7                  20093220.880    20093224.640
  20093223.920          49.250          46.700
 127243838.054 7  98967431.624 6                  23761890.860    23761895.060
  23761894.380          43.900          38.900
 127871366.565 7  99455563.560 5                  23988339.940    23988351.240
  23988350.800          43.200          31.350
 128901820.535 7 100256990.140 5                  24079940.700    24079946.380
  24079945.460          42.250          35.750
 131246474.957 6 102080604.300 5                  24586888.500    24586893.880
  24586891.980          38.100          30.200
 131624783.599 6 102374883.622 5                  24631782.260    24631794.100
                        39.000          31.900
 123612217.687 7  96142840.969 6                  23108008.840    23108015.140
  23108013.680          45.900          41.850
 106718844.930 8  83003555.029 7                  19963963.400    19963967.140
  19963966.980          48.950          42.250
 15  1 27  9  2 10.0000000  0 24G11G06G28G08G04G17G03G23G31G09G19G20
                                G32G01R24R17R02R08R10R03R18R11R23R01
 113681572.137 8  88583026.01547                  21632884.500
  21632880.300          50.400          45.200
 132104969.205 6 102938937.324 6  98649812.337 7  25138741.200    25138742.660
  25138741.820          41.800          40.150
 130533878.682 6 101714664.33645                  24839781.820
  24839780.020          41.150          32.500
 131853448.525 7 102742959.71345                  25090874.460
  25090876.020          45.600          34.000
 117914916.387 8  91881755.57647                  22438459.840
  22438457.740          50.000          42.250
 115446729.013 8  89958445.801 7                  21968786.720    21968783.660
  21968783.140          49.350          46.700
 106954715.163 8  83341336.986 8  79868784.765 8  20352803.180    20352802.360
  20352801.680          50.050          49.700
 114017333.700 8  88844642.87047                  21696772.060
  21696766.980          50.550          45.650
 127569334.684 7  99404672.416 6                  24275633.800    24275633.260
  24275632.480          45.850          40.000
 124576987.326 7  97072995.304 7  93028294.946 8  23706205.360    23706206.600
  23706206.140          46.950          44.050
 136597607.368 6 106439637.88646                  25993681.740
  25993684.200          40.150          37.200
 115945291.136 8  90346941.49847                  22063658.880
  22063654.940          48.950          42.700
 116788620.256 8  91004136.66147                  22224124.080
  22224121.480          48.900          43.600
 108621339.068 8  84640020.041 8  81113341.442 8  20669951.380    20669950.680
  20669950.540          50.150          49.800
 104589718.207 8  81347572.938 7                  19558805.220    19558807.800
  19558805.660          48.000          43.000
 108619792.864 8  84482061.352 7                  20298209.820    20298211.780
  20298210.700          48.150          46.250
 107213691.991 8  83388444.760 7                  20091801.460    20091805.220
  20091804.480          49.450          46.650
 127262155.654 7  98981678.612 6                  23765311.480    23765315.780
  23765314.980          44.150          37.700
 127863639.376 7  99449553.539 5                  23986890.360    23986901.720
  23986901.120          42.300          31.850
 128884538.649 6 100243548.704 6                  24076712.340    24076717.980
  24076717.000          41.250          36.600
 131225117.569 6 102063992.903 5                  24582887.660    24582891.980
  24582891.140          41.200          34.100
 131608352.696 6 102362104.027 5                  24628707.540    24628719.040
                        39.000          30.050
 123633614.439 7  96159482.860 6                  23112008.840    23112015.060
  23112013.560          46.050          41.350
 106728924.607 8  83011394.774 7                  19965849.040    19965852.740
  19965852.560          48.900          42.600
 15  1 27  9  2 15.0000000  0 24G11G06G28G08G04G17G03G23G31G09G19G20
                                G32G01R24R17R02R08R10R03R18R11R23R01
 113695099.873 8  88593567.09647                  21635458.760
  21635454.560          50.250          45.350
 132088867.080 7 102926390.197 6  98637788.000 7  25135677.060    25135678.560
  25135677.880          42.100          40.600
 130545177.547 6 101723468.62845                  24841931.900
  24841930.120          40.000          30.900
 131842179.023 7 102734178.29746                  25088729.960
  25088731.480          45.550          36.650
 117928383.579 8  91892249.46347                  22441022.560
  22441020.480          49.950          42.100
 115438948.347 8  89952382.937 7                  21967306.080    21967303.060
  21967302.520          49.300          46.750
 106956247.923 8  83342531.334 8  79869929.347 8  20353094.880    20353094.020
  20353093.340          50.150          49.750
 114004870.950 8  88834931.63247                  21694400.520
  21694395.380          50.650          45.650
 127565884.911 7  99401984.281 6                  24274977.400    24274976.840
  24274976.020          46.400          40.250
 124558586.935 7  97058657.347 7  93014554.404 8  23702703.880    23702705.060
  23702704.640          47.050          44.150
 136616079.251 6 106454031.52746                  25997196.780
  25997199.360          39.900          37.300
 115933697.937 8  90337907.82847                  22061452.740
  22061448.820          48.800          43.250
 116801816.422 8  91014419.36447                  22226635.240
  22226632.660          49.250          43.600
 108626695.460 8  84644193.845 8  81117341.337 8  20670970.620    20670969.960
  20670969.840          50.300          49.900
 104599015.510 8  81354804.159 7                  19560543.840    19560546.480
  19560544.340          48.100          42.750
 108606807.172 8  84471961.367 7                  20295783.080    20295785.080
  20295783.980          48.450          46.000
 107206132.913 8  83382565.469 7                  20090384.880    20090388.640
  20090387.900          49.200          46.400
 127280473.315 7  98995925.661 6                  23768732.220    23768736.500
  23768735.620          44.150          37.750
 127855931.054 7  99443558.217 5                  23985444.320    23985455.660
  23985455.000          42.300          32.950
 128867263.791 6 100230112.723 6                  24073485.180    24073490.740
  24073489.860          41.250          37.100
 131203762.737 6 102047383.538 5                  24578887.180    24578891.520
  24578890.660          41.500          31.950
 131591927.265 6 102349328.679 4                  24625634.140    24625643.760
                        39.600          29.400
 123655019.191 7  96176130.982 6                  23116010.300    23116016.500
  23116014.940          45.650          41.500
 106739015.988 8  83019243.603 7                  19967736.840    19967740.560
  19967740.360          49.200          42.200
 15  1 27  9  2 20.0000000  0 24G11G06G28G08G04G17G03G23G31G09G19G20
                                G32G01R24R17R02R08R10R03R18R11R23R01
 113708634.556 8  88604113.59247                  21638034.340
  21638030.180          50.250          44.850
 132072761.248 7 102913840.175 6  98625760.866 7  25132612.200    25132613.720
  25132613.000          42.050          40.200
 130556476.835 6 101732273.26445                  24844082.040
  24844080.300          41.200          30.850
 131830911.909 7 102725398.74046                  25086585.900
  25086587.180          45.050          36.450
 117941854.829 8  91902746.53047                  22443586.080
  22443584.000          49.950          42.300
 115431179.563 8  89946329.340 7                  21965827.700    21965824.740
  21965824.180          49.350          46.850
 106957786.540 8  83343730.258 8  79871078.310 8  20353387.700    20353386.800
  20353386.100          50.200          49.800
 113992416.054 8  88825226.52447                  21692030.460
  21692025.280          50.600          46.000
 127562446.155 7  99399304.747 6                  24274323.080    24274322.420
  24274321.620          46.450          40.450
 124540187.960 7  97044320.508 7  93000814.932 8  23699202.660    23699203.840
  23699203.420          47.050          44.400
 136634546.618 6 106468421.68046                  26000710.960
  26000713.560          39.700          37.100
 115922108.382 8  90328877.00647                  22059247.280
  22059243.440          48.600          43.500
 116815013.372 8  91024702.68547                  22229146.560
  22229144.000          49.250          43.100
 108632059.393 8  84648373.529 8  81121346.865 8  20671991.300    20671990.700
  20671990.580          50.100          49.850
 104608330.165 7  81362048.876 7                  19562285.740    19562288.400
  19562286.240          47.950          42.800
 108593834.641 8  84461871.616 7                  20293358.840    20293360.820
  20293359.740          48.350          46.150
 107198584.494 8  83376694.482 7                  20088970.280    20088974.020
  20088973.320          49.100          46.300
 127298786.710 7  99010169.391 6                  23772152.120    23772156.560
  23772155.460          44.650          38.050
 127848237.216 7  99437574.164 5                  23984000.980    23984012.280
  23984011.600          43.150          33.000
 128849991.565 6 100216678.788 6                  24070258.520    24070264.120
  24070263.200          41.950          37.200
 131182405.928 6 102030772.653 5                  24574886.220    24574890.040
  24574889.800          41.050          31.250
 131575502.870 6 102336554.094 4                  24622560.440    24622570.680
                        39.400          29.100
 123676427.577 7  96192781.906 6                  23120012.380    23120018.520
  23120017.000          45.800          41.700
 106749114.626 8  83027098.092 7                  19969626.040    19969629.740
  19969629.500          49.300          42.250
 15  1 27  9  2 25.0000000  0 24G11G06G28G08G04G17G03G23G31G09G19G20
                                G32G01R24R17R02R08R10R03R18R11R23R01
 113722179.223 8  88614667.86447                  21640611.820
  21640607.680          50.200          45.100
 132056654.832 6 102901289.703 6  98613733.295 7  25129547.200    25129548.760
  25129548.080          41.800          39.800
 130567779.667 7 101741080.62545                  24846232.840
  24846231.200          42.300          33.000
 131819650.342 7 102716623.50945                  25084442.840
  25084444.000          44.950          35.350
 117955333.290 8  91913249.21647                  22446150.980
  22446148.880          49.750          42.550
 115423425.779 8  89940287.431 7                  21964352.180    21964349.260
  21964348.680          49.200          46.700
 106959334.116 8  83344936.160 8  79872233.966 8  20353682.200    20353681.280
  20353680.560          50.300          49.600
 113979972.116 8  88815529.95447                  21689662.480
  21689657.280          50.750          45.350
 127559021.604 7  99396636.253 6                  24273671.480    24273670.780
  24273669.860          46.100          39.850
 124521793.542 7  97029987.218 7  92987078.848 8  23695702.320    23695703.480
  23695703.080          46.750          44.300
 136653012.786 6 106482810.85545                  26004224.920
  26004227.720          40.450          31.900
 115910525.543 8  90319851.41547                  22057043.080
  22057039.340          48.250          43.200
 116828214.197 8  91034989.03447                  22231658.620
  22231656.080          49.200          42.950
 108637433.975 8  84652561.511 8  81125360.342 8  20673014.000    20673013.460
  20673013.340          49.950          49.650
 104617665.205 7  81369309.452 7                  19564031.440    19564034.180
  19564031.960          47.650          42.800
 108580878.230 8  84451794.416 7                  20290937.580    20290939.620
  20290938.500          48.250          46.300
 107191049.922 8  83370834.268 7                  20087558.280    20087562.040
  20087561.340          49.050          46.550
 127317098.810 7  99024412.145 6                  23775571.780    23775576.220
  23775575.020          44.250          37.400
 127840561.102 7  99431603.857 5                  23982560.960    23982572.280
  23982571.520          43.600          32.550
 128832725.120 6 100203249.389 6                  24067033.020    24067038.580
  24067037.660          40.250          37.700
 131161050.443 7 102014162.719 5                  24570885.680    24570889.500
  24570888.980          42.050          34.850
 131559082.785 6 102323782.933 4                  24619487.420    24619497.920
                        38.500          28.300
 123697842.509 7  96209437.930 6                  23124015.680    23124021.860
  23124020.360          45.800          41.300
 106759223.580 8  83034960.606 7                  19971517.180    19971520.840
  19971520.600          49.050          42.300
 15  1 27  9  2 30.0000000  0 24G11G06G28G08G04G17G03G23G31G09G19G20
                                G32G01R24R17R02R08R10R03R18R11R23R01
 113735735.178 8  88625230.92947                  21643191.420
  21643187.340          50.200          44.600
 132040549.068 6 102888739.726 6  98601706.246 7  25126482.360    25126483.940
  25126483.160          41.600          38.950
 130579087.266 7 101749891.75345                  24848384.640
  24848383.020          42.450          32.150
 131808395.624 7 102707853.61445                  25082301.100
  25082302.180          44.950          33.300
 117968820.302 8  91923758.55947                  22448717.500
  22448715.400          49.850          42.200
 115415688.299 8  89934258.220 7                  21962879.780    21962876.880
  21962876.300          49.100          46.750
 106960891.919 8  83346150.028 8  79873397.262 8  20353978.660    20353977.720
  20353976.980          50.400          49.600
 113967540.389 8  88805842.89247                  21687296.840
  21687291.600          50.750          45.250
 127555612.591 7  99393979.863 6                  24273022.800    24273022.040
  24273021.080          46.550          40.450
 124503404.901 7  97015658.421 7  92973347.114 8  23692203.040    23692204.220
  23692203.800          46.650          44.350
 136671478.883 6 106497200.01445                  26007738.920
  26007741.820          41.550          33.950
 115898950.723 8  90310832.07547                  22054840.400
  22054836.780          48.400          42.850
 116841420.151 8  91045279.36747                  22234171.640
  22234169.100          49.150          43.300
 108642820.468 8  84656758.766 8  81129382.716 8  20674038.960    20674038.480
  20674038.360          50.000          49.600
 104627021.974 7  81376586.933 7                  19565781.200    19565783.960
  19565781.740          47.800          42.800
 108567939.556 8  84441730.993 7                  20288519.680    20288521.740
  20288520.580          48.600          46.250
 107183530.433 8  83364985.774 7                  20086149.100    20086152.920
  20086152.180          48.950          46.600
 127335410.961 7  99038654.931 6                  23778991.400    23778995.940
  23778994.680          44.700          38.400
 127832903.820 7  99425648.204 5                  23981124.460    23981135.820
  23981135.020          44.100          32.500
 128815465.899 6 100189825.586 6                  24063808.820    24063814.380
  24063813.520          38.800          37.600
 131139697.486 7 101997554.814 5                  24566885.660    24566889.200
  24566888.680          43.000          34.300
 131542668.370 6                                  24616415.340
                        37.650
 123719265.395 7  96226100.152 6                  23128020.460    23128026.720
  23128025.200          45.350          41.300
 106769344.249 8  83042832.234 7                  19973410.500    19973414.120
  19973413.880          49.000          42.350
 15  1 27  9  2 35.0000000  0 24G11G06G28G08G04G17G03G23G31G09G19G20
                                G32G01R24R17R02R08R10R03R18R11R23R01
 113749299.825 8  88635800.77047                  21645772.680
  21645768.660          50.050          44.900
 132024441.407 6 102876188.265 6  98589677.754 7  25123417.140    25123418.780
  25123417.900          41.200          38.700
 130590397.030 7 101758704.55845                  24850536.840
  24850535.280          42.650          33.050
 131797145.114 7 102699087.00345                  25080160.160
  25080161.220          45.250          34.600
 117982313.239 8  91934272.53047                  22451285.140
  22451283.040          49.650          43.100
 115407964.495 8  89928239.673 7                  21961409.980    21961407.080
  21961406.480          49.200          46.750
 106962457.360 8  83347369.850 8  79874566.250 8  20354276.560    20354275.620
  20354274.860          50.300          49.700
 113955118.287 8  88796163.34047                  21684933.020
  21684927.760          50.750          45.400
 127552216.453 7  99391333.534 6                  24272376.560    24272375.800
  24272374.840          46.750          40.750
 124485019.492 7  97001332.155 7  92959617.783 8  23688704.380    23688705.580
  23688705.160          46.450          44.250
 136689942.251 7 106511587.01745                  26011252.400
  26011255.260          42.800          33.800
 115887381.281 8  90301816.93647                  22052638.760
  22052635.220          48.350          42.850
 116854628.651 8  91055571.69447                  22236685.160
  22236682.640          49.200          43.350
 108648216.301 8  84660963.303 8  81133412.060 8  20675065.720    20675065.300
  20675065.140          50.100          49.700
 104636397.828 7  81383879.262 7                  19567534.520    19567537.380
  19567535.120          47.650          42.750
 108555015.786 8  84431679.169 7                  20286104.560    20286106.660
  20286105.460          48.800          46.200
 107176023.396 8  83359146.955 7                  20084742.220    20084746.100
  20084745.340          48.850          46.750
 127353720.582 7  99052895.739 6                  23782410.560    23782415.280
  23782413.900          44.550          38.750
 127825262.765 7  99419705.186 5                  23979691.020    23979702.420
  23979701.580          44.000          32.750
 128798211.107 6 100176405.211 6                  24060585.540    24060591.120
  24060590.180          38.900          37.750
 131118344.408 6 101980946.802 5                  24562885.600    24562889.340
  24562888.560          41.800          34.950
 131526256.827 6                                  24613344.020
                        39.650
 123740693.691 7  96242766.565 6                  23132026.280    23132032.600
  23132031.060          45.400          41.900
 106779473.859 8  83050710.811 7                  19975305.500    19975309.040
  19975308.820          48.900          42.600
 15  1 27  9  2 40.0000000  0 24G11G06G28G08G04G17G03G23G31G09G19G20
                                G32G01R24R17R02R08R10R03R18R11R23R01
 113762873.351 8  88646377.53447                  21648355.620
  21648351.660          50.200          45.000
 132008332.096 6 102863635.526 6  98577648.036 7  25120351.620    25120353.300
  25120352.400          41.100          39.000
 130601709.232 7 101767519.24945                  24852689.480
  24852687.920          42.300          33.700
 131785899.088 7 102690323.90945                  25078020.080
  25078021.220          45.600          34.800
 117995812.259 8  91944791.23647                  22453853.940
  22453851.860          49.600          42.850
 115400254.646 8  89922231.995 7                  21959942.840    21959939.940
  21959939.340          49.350          46.800
 106964030.675 8  83348595.810 8  79875741.125 8  20354575.980    20354575.000
  20354574.240          50.250          49.800
 113942706.082 8  88786491.49647                  21682571.080
  21682565.780          50.850          45.400
 127548833.419 7  99388697.414 6                  24271732.800    24271732.080
  24271731.080          46.450          40.900
 124466637.599 7  96987008.622 7  92945891.072 8  23685206.380    23685207.640
  23685207.140          46.150          44.600
 136708403.169 7 106525972.16445                  26014765.440
  26014768.240          42.550          33.850
 115875817.531 8  90292806.23247                  22050438.180
  22050434.740          48.650          42.900
 116867839.947 8  91065866.19847                  22239199.200
  22239196.700          49.550          43.100
 108653621.686 8  84665175.285 8  81137448.545 8  20676094.280    20676093.920
  20676093.760          50.200          49.750
 104645793.003 7  81391186.610 7                  19569291.460    19569294.340
  19569292.080          47.650          42.650
 108542107.284 8  84421639.222 7                  20283692.340    20283694.380
  20283693.200          48.800          46.200
 107168529.120 8  83353318.068 7                  20083337.740    20083341.640
  20083340.920          48.600          46.700
 127372027.819 7  99067134.666 6                  23785829.260    23785834.120
  23785832.680          44.700          39.350
 127817638.246 7  99413775.038 5                  23978260.720    23978272.060
  23978271.280          43.800          32.750
 128780960.989 6 100162988.509 6                  24057363.180    24057368.740
  24057367.720          39.000          38.000
 131096991.498 6 101964338.944 5                  24558885.480    24558889.600
  24558888.460          38.850          34.500
 131509848.536 6                                  24610273.520
                        40.600
 123762127.578 7  96259437.298 6                  23136033.100    23136039.480
  23136037.940          45.650          40.550
 106789612.671 8  83058596.545 7                  19977202.220    19977205.700
  19977205.520          48.950          42.450
 15  1 27  9  2 45.0000000  0 24G11G06G28G08G04G17G03G23G31G09G19G20
                                G32G01R24R17R02R08R10R03R18R11R23R01
 113776457.610 8  88656962.66547                  21650940.600
  21650936.720          50.050          44.850
 131992222.937 6 102851082.906 6  98565618.436 7  25117286.160    25117287.840
  25117286.940          41.500          39.000
 130613025.617 6 101776337.22645                  24854842.920
  24854841.360          41.950          32.450
 131774659.405 7 102681565.74845                  25075881.280
  25075882.480          45.850          35.250
 118009319.232 8  91955316.13647                  22456424.260
  22456422.140          49.800          42.450
 115392560.554 8  89916236.598 7                  21958478.680    21958475.780
  21958475.220          49.450          46.600
 106965613.684 8  83349829.319 8  79876923.239 8  20354877.240    20354876.260
  20354875.480          50.250          49.650
 113930305.602 8  88776828.78447                  21680211.360
  21680206.040          50.850          45.050
 127545465.420 7  99386072.999 6                  24271091.900    24271091.200
  24271090.240          46.150          40.650
 124448261.031 7  96972689.248 7  92932168.342 8  23681709.360    23681710.640
  23681710.220          46.300          44.450
 136726863.470 7 106540356.82145                  26018278.380
  26018281.280          43.050          32.800
 115864261.254 8  90283801.35047                  22048239.020
  22048235.680          48.800          42.300
 116881055.854 8  91076164.29847                  22241714.120
  22241711.640          49.650          42.800
 108659038.485 8  84669396.161 8  81141493.545 8  20677125.040    20677124.700
  20677124.520          50.350          49.600
 104655209.337 8  81398510.411 7                  19571052.380    19571055.240
  19571053.000          48.000          42.700
 108529215.776 8  84411612.493 7                  20281283.300    20281285.300
  20281284.120          48.650          46.250
 107161049.386 8  83347500.497 7                  20081935.980    20081939.920
  20081939.220          48.750          46.700
 127390334.613 7  99081373.229 6                  23789247.920    23789252.840
  23789251.460          44.750          39.550
 127810032.162 7  99407859.196 5                  23976833.900    23976845.100
  23976844.440          43.650          33.200
 128763717.589 6 100149577.054 6                  24054141.940    24054147.600
  24054146.520          39.850          37.950
 131075640.612 6 101947732.705 5                  24554885.800    24554889.920
  24554888.820          38.650          34.200
 131493445.308 6                                  24607204.000
                        39.700
 123783568.764 7  96276113.771 6                  23140041.340    23140047.660
  23140046.120          46.000          40.750
 106799762.688 8  83066490.992 7                  19979101.020    19979104.520
  19979104.300          48.950          42.400
 15  1 27  9  2 50.0000000  0 24G11G06G28G08G04G17G03G23G31G09G19G20
                                G32G01R24R17R02R08R10R03R18R11R23R01
 113790049.940 8  88667554.07547                  21653527.100
  21653523.300          50.050          45.100
 131976111.314 6 102838528.362 6  98553587.012 7  25114220.200    25114221.880
  25114221.020          41.150          39.550
 130624343.537 7 101785156.38245                  24856996.680
  24856995.100          42.300          33.650
 131763423.441 7 102672810.48746                  25073743.140
  25073744.440          45.450          36.800
 118022831.533 8  91965845.19447                  22458995.580
  22458993.460          49.800          42.250
 115384879.590 8  89910251.427 7                  21957017.060    21957014.120
  21957013.580          49.600          46.650
 106967203.716 8  83351068.297 8  79878110.593 8  20355179.840    20355178.840
  20355178.040          50.350          49.650
 113917914.197 8  88767173.14247                  21677853.360
  21677848.020          50.750          45.150
 127542109.712 7  99383458.159 6                  24270453.320    24270452.640
  24270451.720          46.150          40.800
 124429887.133 7  96958371.949 7  92918447.604 8  23678212.920    23678214.200
  23678213.760          45.950          44.200
 136745320.485 6 106554738.89345                  26021790.740
  26021793.420          41.950          34.800
 115852709.837 8  90274800.25046                  22046040.820
  22046037.500          48.650          41.850
 116894273.679 8  91086463.89547                  22244229.400
  22244226.960          49.400          43.100
 108664463.988 8  84673623.818 8  81145545.053 8  20678157.440    20678157.160
  20678156.980          50.400          49.650
 104664644.088 8  81405848.542 7                  19572816.720    19572819.520
  19572817.340          48.300          42.600
 108516338.742 8  84401597.026 7                  20278877.000    20278878.880
  20278877.720          48.500          46.100
 107153581.567 8  83341692.200 7                  20080536.460    20080540.460
  20080539.780          49.000          46.600
 127408638.150 7  99095609.285 6                  23792665.960    23792670.980
  23792669.620          45.050          39.850
 127802441.864 7  99401955.648 5                  23975409.920    23975421.140
  23975420.640          43.300          33.150
 128746478.035 6 100136168.610 6                  24050921.420    24050927.040
  24050926.020          40.900          37.900
 131054289.176 6 101931125.981 5                  24550885.960    24550890.500
  24550889.080          40.250          34.900
 131477044.546 6                                  24604134.980
                        40.250
 123805014.719 7  96292793.930 6                  23144050.480    23144056.800
  23144055.160          45.950          40.350
 106809921.027 8  83074391.910 7                  19981001.380    19981004.860
  19981004.620          48.950          42.050
 15  1 27  9  2 55.0000000  0 24G11G06G28G08G04G17G03G23G31G09G19G20
                                G32G01R24R17R02R08R10R03R18R11R23R01
 113803651.572 8  88678152.73747                  21656115.380
  21656111.680          50.050          44.950
 131959998.455 6 102825972.884 6  98541554.645 7  25111154.060    25111155.700
  25111154.980          41.050          39.800
 130635664.294 6 101793977.69845                  24859150.900
  24859149.480          40.400          34.100
 131752192.413 7 102664059.06246                  25071605.920
  25071607.280          45.350          36.050
 118036350.325 8  91976379.30547                  22461568.120
  22461566.040          49.700          42.000
 115377212.979 8  89904277.438 7                  21955558.160    21955555.220
  21955554.660          49.450          46.850
 106968802.019 8  83352313.728 8  79879304.129 8  20355484.000    20355482.960
  20355482.200          50.400          49.750
 113905533.107 8  88757525.55047                  21675497.320
  21675491.960          50.450          45.600
 127538767.549 7  99380853.881 6                  24269817.340    24269816.720
  24269815.760          46.200          40.800
 124411517.156 7  96944057.701 7  92904729.800 8  23674717.200    23674718.460
  23674718.060          46.100          44.500
 136763775.489 6 106569119.40145                  26025302.700
  26025305.220          40.650          33.450
 115841164.498 8  90265803.89447                  22043843.760
  22043840.520          48.500          42.750
 116907494.702 8  91096765.98347                  22246745.300
  22246742.860          49.300          42.750
 108669899.495 8  84677859.273 8  81149604.030 8  20679191.760    20679191.520
  20679191.320          50.250          49.850
 104674098.513 8  81413201.987 7                  19574584.740    19574587.540
  19574585.380          48.000          42.800
 108503477.484 8  84391593.826 7                  20276473.600    20276475.440
  20276474.280          48.450          46.250
 107146126.849 8  83335894.100 7                  20079139.360    20079143.440
  20079142.780          49.000          46.800
 127426939.778 7  99109843.870 6                  23796083.680    23796088.680
  23796087.460          44.750          40.500
 127794868.587 7  99396065.361 5                  23973989.120    23974000.280
  23973999.980          42.400          34.150
 128729243.620 6 100122764.115 6                  24047701.880    24047707.500
  24047706.480          41.600          38.550
 131032938.396 6 101914519.817 5                  24546886.300    24546891.020
  24546889.400          40.400          32.900
 131460647.337 6 102247200.995 4                  24601066.140    24601078.760
                        39.450          29.100
 123826466.499 7  96309478.608 6                  23148060.680    23148067.040
  23148065.400          45.650          41.200
 106820088.893 8  83082300.244 7                  19982903.540    19982906.960
  19982906.740          48.850          42.300
 15  1 27  9  3  0.0000000  0 24G11G06G28G08G04G17G03G23G31G09G19G20
                                G32G01R24R17R02R08R10R03R18R11R23R01
 113817262.379 8  88688758.54247                  21658705.380
  21658701.780          50.150          45.050
 131943884.199 6 102813416.283 6  98529521.268 7  25108087.680    25108089.300
  25108088.660          40.700          40.650
 130646987.669 6 101802801.10546                  24861305.500
  24861304.280          38.750          36.350
 131740966.223 7 102655311.41445                  25069469.620
  25069471.000          45.700          34.650
 118049875.564 8  91986918.43447                  22464141.900
  22464139.820          49.750          42.600
 115369560.578 8  89898314.522 7                  21954101.980    21954099.040
  21954098.480          49.600          46.650
 106970408.444 8  83353565.482 8  79880503.732 8  20355789.720    20355788.660
  20355787.880          50.600          49.700
 113893162.194 8  88747885.88547                  21673143.200
  21673137.860          50.600          45.250
 127535438.830 7  99378260.072 6                  24269183.900    24269183.300
  24269182.400          46.350          41.100
 124393150.988 7  96929746.420 7  92891014.837 8  23671222.180    23671223.520
  23671223.060          46.350          44.450
 136782228.333 6 106583498.20645                  26028814.200
  26028816.740          38.650          34.950
 115829625.084 8  90256812.14747                  22041647.840
  22041644.660          48.500          42.850
 116920718.765 8  91107070.43147                  22249261.800
  22249259.360          49.600          42.900
 108675344.839 8  84682102.388 8  81153670.348 8  20680227.960    20680227.740
  20680227.540          50.350          49.700
 104683572.671 7  81420570.763 7                  19576356.480    19576359.200
  19576357.120          47.750          42.650
 108490631.766 8  84381602.718 7                  20274073.100    20274074.900
  20274073.720          48.700          46.250
 107138685.191 8  83330106.144 7                  20077744.720    20077748.860
  20077748.200          48.650          46.750
 127445239.248 7  99124076.774 6                  23799500.980    23799506.100
  23799504.840          44.650          40.850
 127787312.120 6  99390188.121 5                  23972571.520    23972582.820
  23972582.480          41.100          33.600
 128712014.312 6 100109363.551 6                  24044483.300    24044488.920
  24044487.840          40.150          38.250
 131011588.214 6 101897914.051 5                  24542886.760    24542891.480
  24542889.800          40.450          31.650
 131444253.792 6 102234450.468 4                  24597998.260    24598008.960
                        39.400          28.350
 123847924.041 7  96326167.753 6                  23152071.980    23152078.280
  23152076.740          46.050          41.600
 106830266.308 8  83090215.999 7                  19984807.440    19984810.960
  19984810.620          48.800          42.100
 15  1 27  9  3  5.0000000  0 24G11G06G28G08G04G17G03G23G31G09G19G20
                                G32G01R24R17R02R08R10R03R18R11R23R01
 113830884.464 8  88699373.13747                  21661297.560
  21661294.020          50.150          45.200
 131927770.726 6 102800860.334 6  98517488.452 7  25105021.440    25105023.080
  25105022.400          40.950          40.800
 130658315.749 6 101811628.19345                  24863461.040
  24863459.980          40.400          35.350
 131729747.032 7 102646569.21445                  25067334.680
  25067336.100          45.400          35.750
 118063409.330 8  91997464.21347                  22466717.300
  22466715.220          49.450          42.700
 115361924.546 8  89892364.366 7                  21952648.920    21952645.980
  21952645.400          49.350          46.750
 106972025.137 8  83354825.241 8  79881711.007 8  20356097.420    20356096.300
  20356095.520          50.450          49.700
 113880803.664 8  88738255.86047                  21670791.420
  21670786.100          50.450          45.600
 127532125.694 7  99375678.407 6                  24268553.460    24268552.900
  24268552.020          46.450          41.350
 124374790.782 7  96915439.785 7  92877304.331 8  23667728.320    23667729.700
  23667729.280          46.250          44.750
 136800681.090 6 106597876.90145                  26032325.700
  26032328.020          39.550          33.750
 115818093.762 8  90247826.70047                  22039453.480
  22039450.340          48.400          43.350
 116933947.970 8  91117378.89247                  22251779.260
  22251776.780          49.350          43.450
 108680802.167 8  84686354.839 8  81157745.623 8  20681266.440    20681266.280
  20681266.040          50.350          49.800
 104693068.389 8  81427956.304 7                  19578132.220    19578134.920
  19578132.860          48.450          42.450
 108477803.806 8  84371625.405 7                  20271675.920    20271677.680
  20271676.500          49.450          46.250
 107131258.703 8  83324329.985 7                  20076352.920    20076357.160
  20076356.460          48.850          46.550
 127463538.794 7  99138309.719 6                  23802918.360    23802923.360
  23802922.240          46.200          40.400
 127779774.747 7  99384325.786 5                  23971157.500    23971168.940
  23971168.580          42.450          32.850
 128694792.202 6 100095968.617 6                  24041266.020    24041271.740
  24041270.620          40.950          38.950
 130990240.736 6 101881310.378 5                  24538887.720    24538892.520
  24538890.620          41.850          33.200
 131427866.085 6                                  24594931.520
                        36.800
 123869389.569 7  96342863.118 6                  23156084.760    23156091.100
  23156089.600          46.350          41.100
 106840455.318 8  83098140.776 7                  19986713.520    19986716.980
  19986716.680          49.350          42.150
 15  1 27  9  3 10.0000000  0 24G11G06G28G08G04G17G03G23G31G09G19G20
                                G32G01R24R17R02R08R10R03R18R11R23R01
 113844514.554 8  88709993.97947                  21663891.240
  21663887.780          50.150          44.900
 131911654.751 6 102788302.414 6  98505453.764 7  25101954.720    25101956.400
  25101955.640          40.350          39.900
 130669645.395 6 101820456.44345                  24865616.900
  24865616.060          40.600          32.750
 131718531.578 7 102637829.93645                  25065200.400
  25065201.940          45.450          35.350
 118076948.353 8  92008014.08547                  22469293.700
  22469291.620          49.650          42.850
 115354301.618 8  89886424.424 7                  21951198.360    21951195.360
  21951194.820          49.650          46.950
 106973648.833 8  83356090.460 8  79882923.491 8  20356406.420    20356405.260
  20356404.480          50.550          49.700
 113868454.218 8  88728632.92147                  21668441.380
  21668436.080          50.550          45.450
 127528824.874 7  99373106.357 6                  24267925.380    24267924.800
  24267923.960          46.350          41.350
 124356433.304 7  96901135.291 7  92863595.830 8  23664235.000    23664236.360
  23664236.000          46.800          44.700
 136819130.540 6 106612253.10946                  26035836.480
  26035838.920          40.400          36.350
 115806567.283 8  90238845.03447                  22037260.040
  22037256.960          48.600          43.000
 116947179.059 8  91127688.81747                  22254297.080
  22254294.560          49.650          43.250
 108686268.208 8  84690614.086 8  81161827.394 8  20682306.580    20682306.420
  20682306.220          50.550          49.850
 104702582.523 8  81435356.184 7                  19579911.440    19579914.140
  19579912.020          48.750          42.650
 108464990.369 8  84361659.396 7                  20269281.480    20269283.180
  20269281.980          50.000          46.350
 107123843.980 8  83318562.979 7                  20074963.340    20074967.640
  20074966.920          49.200          46.800
 127481835.088 7  99152540.156 6                  23806335.140    23806340.100
  23806339.020          46.100          40.400
 127772253.168 7  99378475.684 5                  23969746.500    23969757.740
  23969757.540          42.000          32.550
 128677574.006 6 100082576.721 6                  24038049.480    24038055.080
  24038054.060          41.350          38.000
 130968892.746 7 101864706.319 5                  24534888.560    24534893.540
  24534891.400          42.650          34.850
 131411480.705 6                                  24591865.340
                        38.100
 123890859.682 7  96359562.055 6                  23160098.420    23160104.800
  23160103.280          47.200          41.650
 106850652.661 8  83106072.041 7                  19988621.120    19988624.680
  19988624.320          49.700          42.350
 15  1 27  9  3 15.0000000  0 24G11G06G28G08G04G17G03G23G31G09G19G20
                                G32G01R24R17R02R08R10R03R18R11R23R01
 113858154.036 8  88720622.13047                  21666486.720
  21666483.280          50.350          44.750
 131895537.655 6 102775743.619 6  98493418.239 7  25098887.740    25098889.440
  25098888.640          41.100          39.600
 130680977.735 6 101829286.80945                  24867773.360
  24867772.460          41.400          32.150
 131707321.218 7 102629094.63145                  25063067.080
  25063068.680          45.700          34.950
 118090494.004 8  92018569.12947                  22471871.340
  22471869.320          49.600          42.300
 115346693.186 8  89880495.775 7                  21949750.540    21949747.560
  21949747.000          49.750          46.800
 106975280.850 8  83357362.153 8  79884142.201 8  20356717.020    20356715.820
  20356715.040          50.350          49.750
 113856115.187 8  88719018.09447                  21666093.320
  21666088.040          50.450          45.400
 127525537.739 7  99370544.949 6                  24267299.880    24267299.340
  24267298.520          46.350          41.150
 124338079.853 7  96886833.913 7  92849890.358 8  23660742.480    23660743.800
  23660743.420          46.800          44.500
 136837577.958 7 106626627.69446                  26039346.920
  26039349.440          42.500          37.800
 115795046.963 8  90229868.15947                  22035067.760
  22035064.720          48.250          43.250
 116960413.356 8  91138001.24447                  22256815.520
  22256812.940          49.450          43.000
 108691744.317 8  84694881.182 8  81165916.686 8  20683348.640    20683348.500
  20683348.300          50.400          49.800
 104712116.520 8  81442771.503 7                  19581694.340    19581697.040
  19581694.900          48.550          42.450
 108452192.659 8  84351705.615 7                  20266889.960    20266891.640
  20266890.420          49.900          46.350
 107116442.533 8  83312806.298 7                  20073576.280    20073580.640
  20073579.920          49.350          46.950
 127500129.552 7  99166769.143 6                  23809751.580    23809756.440
  23809755.460          46.050          39.450
 127764748.687 7  99372638.887 5                  23968338.640    23968349.940
  23968349.660          43.800          33.200
 128660361.119 6 100069188.934 6                  24034833.900    24034839.480
  24034838.460          40.200          36.750
 130947545.511 7 101848102.870 5                  24530889.580    24530894.480
  24530892.400          42.700          35.300
 131395099.247 6                                  24588799.860
                        39.100
 123912335.721 7  96376265.599 6                  23164113.140    23164119.540
  23164118.080          47.250          41.100
 106860859.745 8  83114010.877 7                  19990530.560    19990534.160
  19990533.760          49.650          42.250
 15  1 27  9  3 20.0000000  0 24G11G06G28G08G04G17G03G23G31G09G19G20
                                G32G01R24R17R02R08R10R03R18R11R23R01
 113871803.977 8  88731258.43847                  21669084.220
  21669080.800          50.400          44.800
 131879420.529 6 102763184.795 6  98481382.690 7  25095820.760    25095822.500
  25095821.560          41.800          40.150
 130692313.960 6 101838120.28745                  24869930.600
  24869929.640          41.900          32.700
 131696117.080 7 102620364.16145                  25060935.000
  25060936.560          46.050          34.600
 118104047.279 8  92029130.10847                  22474450.420
  22474448.420          49.350          42.900
 115339100.353 8  89874579.278 7                  21948305.720    21948302.680
  21948302.140          49.800          46.850
 106976922.320 8  83358641.217 8  79885367.963 8  20357029.400    20357028.180
  20357027.400          50.250          49.750
 113843787.704 8  88709412.26747                  21663747.440
  21663742.200          50.600          45.400
 127522265.342 7  99367995.024 6                  24266677.200    24266676.660
  24266675.820          46.350          40.800
 124319731.574 7  96872536.571 7  92836188.745 8  23657250.920    23657252.240
  23657251.860          46.700          44.550
 136856024.462 7 106641001.55946                  26042857.180
  26042859.700          43.100          37.150
 115783533.935 8  90220896.98147                  22032876.900
  22032873.860          48.400          43.150
 116973651.980 8  91148317.04847                  22259334.800
  22259332.160          49.300          43.400
 108697231.607 8  84699156.986 8  81170014.332 8  20684392.820    20684392.700
  20684392.500          50.350          49.800
 104721671.329 8  81450203.013 7                  19583481.160    19583483.840
  19583481.700          48.150          42.650
 108439411.912 8  84341765.031 7                  20264501.640    20264503.240
  20264502.040          49.750          46.300
 107109055.344 8  83307060.709 7                  20072191.880    20072196.280
  20072195.600          49.150          46.950
 127518423.129 7  99180997.475 6                  23813167.840    23813172.560
  23813171.660          45.550          39.200
 127757262.437 7  99366816.229 5                  23966934.240    23966945.480
  23966945.200          43.200          33.550
 128643154.594 6 100055806.106 6                  24031619.540    24031625.060
  24031624.000          40.700          37.050
 130926200.304 6 101831500.999 5                  24526890.920    24526895.780
  24526893.780          41.150          35.000
 131378722.916 6                                  24585735.300
                        39.900
 123933818.832 7  96392974.671 6                  23168129.200    23168135.560
  23168134.120          46.800          41.650
 106871077.572 8  83121958.071 7                  19992442.040    19992445.600
  19992445.220          49.550          42.600
 15  1 27  9  3 25.0000000  0 24G11G06G28G08G04G17G03G23G31G09G19G20
                                G32G01R24R17R02R08R10R03R18R11R23R01
 113885461.570 8  88741900.70647                  21671683.200
  21671679.740          50.550          44.700
 131863300.550 7 102750623.777 6  98469345.029 7  25092753.220    25092755.000
  25092754.080          42.300          39.900
 130703651.308 7 101846954.55145                  24872088.040
  24872087.060          42.550          32.250
 131684916.364 7 102611636.35345                  25058803.560
  25058805.020          46.000          35.950
 118117605.446 8  92039694.90047                  22477030.440
  22477028.480          49.350          42.350
 115331520.325 8  89868672.756 7                  21946863.320    21946860.260
  21946859.720          49.800          46.800
 106978570.428 8  83359925.449 8  79886598.683 8  20357343.040    20357341.820
  20357341.020          50.350          49.750
 113831469.000 8  88699813.28147                  21661403.220
  21661397.980          50.400          45.450
 127519004.955 7  99365454.457 6                  24266056.760    24266056.260
  24266055.440          45.900          40.750
 124301385.706 7  96858241.119 7  92822488.936 8  23653759.820    23653761.120
  23653760.820          47.000          44.650
 136874467.183 6 106655372.52245                  26046366.740
  26046369.280          41.650          35.300
 115772025.394 8  90211929.29147                  22030686.900
  22030683.840          48.450          42.950
 116986892.129 8  91158634.03447                  22261854.340
  22261851.620          49.300          43.600
 108702727.268 8  84703439.313 8  81174118.223 8  20685438.600    20685438.500
  20685438.300          50.250          49.750
 104731244.293 7  81457648.655 7                  19585271.360    19585274.000
  19585271.880          47.900          42.550
 108426645.421 8  84331835.538 7                  20262115.960    20262117.520
  20262116.300          49.750          46.300
 107101679.708 8  83301324.118 7                  20070809.640    20070814.080
  20070813.420          49.050          46.800
 127536713.172 7  99195223.047 6                  23816583.400    23816588.140
  23816587.160          45.600          38.750
 127749791.696 7  99361005.677 5                  23965532.720    23965543.980
  23965543.560          43.250          32.650
 128625951.625 6 100042426.091 6                  24028405.760    24028411.340
  24028410.260          40.700          37.500
 130904854.142 6 101814898.406 6                  24522892.000    24522896.900
  24522895.080          41.250          36.800
 131362348.718 6                                  24582671.140
                        40.750
 123955306.089 7  96409686.928 6                  23172146.060    23172152.440
  23172150.980          46.600          41.300
 106881303.317 8  83129911.417 7                  19994355.000    19994358.580
  19994358.180          49.650          42.450
 15  1 27  9  3 30.0000000  0 24G11G06G28G08G04G17G03G23G31G09G19G20
                                G32G01R24R17R02R08R10R03R18R11R23R01
 113899128.564 8  88752550.30147                  21674283.980
  21674280.480          50.450          44.850
 131847179.497 7 102738061.874 6  98457306.562 7  25089685.540    25089687.280
  25089686.320          42.350          40.200
 130714991.446 6 101855791.02645                  24874245.980
  24874244.880          41.850          33.900
 131673720.784 7 102602912.56545                  25056673.120
  25056674.580          46.150          34.950
 118131170.269 8  92050264.87347                  22479611.720
  22479609.820          49.250          42.950
 115323954.821 8  89862777.550 7                  21945423.680    21945420.580
  21945420.040          49.650          46.850
 106980226.889 8  83361216.190 8  79887835.651 8  20357658.260    20357657.020
  20357656.240          50.550          49.850
 113819160.800 8  88690222.47847                  21659061.020
  21659055.760          50.400          45.350
 127515758.294 7  99362924.590 6                  24265438.880    24265438.480
  24265437.600          45.150          40.650
 124283043.962 7  96843948.866 7  92808792.210 8  23650269.520    23650270.840
  23650270.520          46.950          44.600
 136892907.998 6 106669741.96645                  26049875.860
  26049878.360          39.400          35.300
 115760523.038 8  90202966.41447                  22028498.040
  22028495.000          48.450          43.000
 117000135.533 8  91168953.55847                  22264374.500
  22264371.760          49.200          43.000
 108708233.034 8  84707729.511 8  81178229.672 8  20686486.280    20686486.220
  20686486.020          50.050          49.800
 104740836.839 8  81465109.510 7                  19587065.200    19587067.840
  19587065.740          48.300          42.550
 108413894.842 8  84321918.416 7                  20259733.240    20259734.740
  20259733.540          49.600          46.400
 107094317.321 8  83295597.817 7                  20069429.920    20069434.380
  20069433.720          49.050          46.700
 127555001.274 7  99209447.107 6                  23819998.580    23820003.300
  23820002.320          45.000          39.050
 127742338.125 7  99355208.474 5                  23964134.420    23964145.800
  23964145.160          42.450          32.850
 128608754.040 6 100029050.220 6                  24025193.040    24025198.620
  24025197.520          40.400          37.800
 130883508.860 7 101798296.487 6                  24518893.280    24518898.280
  24518896.500          42.800          37.700
 131345978.519 6                                  24579607.780
                        40.150
 123976799.402 7  96426403.912 6                  23176164.080    23176170.420
  23176169.020          46.800          41.950
 106891538.689 8  83137872.256 7                  19996269.760    19996273.320
  19996272.960          49.450          42.450
 15  1 27  9  3 35.0000000  0 24G11G06G28G08G04G17G03G23G31G09G19G20
                                G32G01R24R17R02R08R10R03R18R11R23R01
 113912806.273 8  88763208.24847                  21676886.800
  21676883.260          50.550          44.750
 131831058.740 7 102725500.239 6  98445268.298 7  25086617.880    25086619.680
  25086618.720          42.900          40.350
 130726335.698 7 101864630.67945                  24876404.740
  24876403.700          42.700          32.700
 131662531.741 7 102594193.84945                  25054543.920
  25054545.400          45.900          35.800
 118144743.062 8  92060841.06147                  22482194.500
  22482192.640          49.450          42.550
 115316405.164 8  89856894.694 7                  21943987.060    21943983.960
  21943983.400          49.650          46.850
 106981893.043 8  83362514.491 8  79889079.852 8  20357975.340    20357974.080
  20357973.300          50.650          49.900
 113806864.456 8  88680640.91747                  21656721.060
  21656715.820          50.400          45.400
 127512526.710 7  99360406.486 6                  24264823.900    24264823.560
  24264822.600          45.800          40.700
 124264707.713 7  96829660.895 7  92795099.561 8  23646780.260    23646781.560
  23646781.200          46.700          44.550
 136911348.130 6 106684110.86245                  26053384.880
  26053387.620          37.000          34.000
 115749028.229 8  90194009.43247                  22026310.640
  22026307.600          48.500          43.400
 117013383.483 8  91179276.62147                  22266895.520
  22266892.760          49.000          43.400
 108713750.257 8  84712028.637 8  81182349.665 8  20687536.160    20687536.120
  20687535.920          50.050          49.750
 104750450.654 8  81472586.912 7                  19588863.020    19588865.740
  19588863.580          48.300          42.450
 108401161.616 8  84312014.805 7                  20257353.760    20257355.220
  20257354.020          49.450          46.200
 107086969.522 8  83289882.858 7                  20068052.920    20068057.440
  20068056.720          48.900          46.750
 127573288.805 7  99223670.720 6                  23823413.640    23823418.400
  23823417.380          44.850          39.600
 127734903.067 7  99349425.665 5                  23962739.580    23962751.040
  23962750.220          42.550          33.300
 128591563.030 6 100015679.464 6                  24021981.600    24021987.100
  24021986.040          40.750          38.000
 130862165.794 7 101781696.302 5                  24514895.080    24514900.280
  24514898.300          42.450          35.550
 131329613.477 6                                  24576545.360    24576558.480
                        39.800          27.950
 123998299.896 7  96443126.468 7                  23180183.400    23180189.840
  23180188.440          46.700          42.000
 106901784.880 8  83145841.514 7                  19998186.540    19998190.140
  19998189.740          48.900          42.400
 15  1 27  9  3 40.0000000  0 24G11G06G28G08G04G17G03G23G31G09G19G20
                                G32G01R24R17R02R08R10R03R18R11R23R01
 113926492.658 8  88773872.95147                  21679491.280
  21679487.660          50.400          45.000
 131814936.202 7 102712937.191 6  98433228.724 7  25083549.940    25083551.680
  25083550.780          42.950          39.950
 130737682.079 6 101873472.01345                  24878563.900
  24878563.000          40.750          34.550
 131651347.226 7 102585478.67745                  25052415.560
  25052417.040          45.850          33.750
 118158321.816 8  92071421.90046                  22484778.440
  22484776.620          49.400          41.900
 115308869.380 8  89851022.653 7                  21942553.100    21942549.980
  21942549.420          49.600          46.850
 106983566.874 8  83363818.771 8  79890329.786 8  20358293.860    20358292.620
  20358291.840          50.600          49.800
 113794578.002 8  88671067.06347                  21654383.000
  21654377.760          50.600          45.150
 127509308.201 7  99357898.561 6                  24264211.400    24264211.080
  24264210.140          46.300          40.800
 124246374.897 7  96815375.612 7  92781409.504 8  23643291.620    23643292.960
  23643292.580          46.800          44.550
 136929785.690 5 106698477.75245                  26056893.260
  26056896.320          35.950          30.350
 115737538.969 8  90185056.77847                  22024124.280
  22024121.280          48.350          43.150
 117026634.036 8  91189601.70747                  22269417.020
  22269414.260          49.050          43.350
 108719276.925 8  84716335.125 8  81186476.705 8  20688587.820    20688587.800
  20688587.600          49.950          49.700
 104760083.568 7  81480079.174 7                  19590664.460    19590667.060
  19590664.940          47.900          42.200
 108388443.621 8  84302123.028 7                  20254977.140    20254978.560
  20254977.360          49.350          46.100
 107079634.190 8  83284177.604 7                  20066678.280    20066682.820
  20066682.060          48.950          46.650
 127591573.833 7  99237892.375 6                  23826828.320    23826833.140
  23826831.940          45.300          38.550
 127727484.571 7  99343655.736 5                  23961347.840    23961359.300
  23961358.340          42.550          32.550
 128574376.785 6 100002312.399 6                  24018770.960    24018776.600
  24018775.500          40.700          37.550
 130840822.928 7 101765096.212 5                  24510896.860    24510901.800
  24510900.120          42.450          35.850
 131313251.726 6 102132582.075 4                  24573483.440    24573494.560
                        40.500          28.350
 124019805.643 7  96459853.123 6                  23184203.720    23184210.240
  23184208.820          45.950          41.700
 106912040.175 8  83153817.854 7                  20000104.960    20000108.620
  20000108.240          48.350          42.300
 15  1 27  9  3 45.0000000  0 24G11G06G28G08G04G17G03G23G31G09G19G20
                                G32G01R24R17R02R08R10R03R18R11R23R01
 113940187.898 8  88784544.55947                  21682097.440
  21682093.780          50.450          45.250
 131798812.121 7 102700372.942 6  98421187.983 7  25080481.700    25080483.380
  25080482.480          42.850          40.950
 130749030.657 7 101882315.06245                  24880723.480
  24880722.540          42.100          32.350
 131640167.372 7 102576767.14145                  25050288.100
  25050289.520          45.600          34.000
 118171906.742 8  92082007.54047                  22487363.560
  22487361.780          49.400          42.600
 115301347.700 8  89845161.600 7                  21941121.800    21941118.680
  21941118.120          49.750          47.050
 106985248.533 8  83365129.150 8  79891585.570 8  20358613.880    20358612.640
  20358611.860          50.450          49.850
 113782301.556 8  88661501.00547                  21652046.860
  21652041.640          50.800          45.250
 127506102.963 7  99355400.963 6                  24263601.440    24263601.100
  24263600.180          46.350          40.700
 124228045.788 7  96801093.218 7  92767722.204 8  23639803.700    23639805.040
  23639804.700          46.850          44.650
 136948220.620 6 106712842.54946                  26060401.320
  26060404.280          40.150          37.850
 115726055.431 8  90176108.56747                  22021939.020
  22021936.040          48.450          43.650
 117039887.267 8  91199928.89247                  22271939.000
  22271936.260          48.950          43.450
 108724813.183 8  84720649.085 8  81190610.920 8  20689641.300    20689641.320
  20689641.120          49.850          49.750
 104769735.717 8  81487586.386 7                  19592469.480    19592472.040
  19592469.920          48.050          42.100
 108375741.175 8  84292243.347 7                  20252603.400    20252604.800
  20252603.600          49.100          46.350
 107072311.729 8  83278482.361 7                  20065306.040    20065310.600
  20065309.840          48.600          46.700
 127609856.505 7  99252112.235 6                  23830242.540    23830247.240
  23830246.060          44.200          38.700
 127720082.900 6  99337898.865 5                  23959959.300    23959970.780
  23959969.700          41.750          32.750
 128557195.374 6  99988949.097 6                  24015561.340    24015566.980
  24015565.860          41.400          38.500
 130819480.478 7 101748496.475 6                  24506898.740    24506903.700
  24506902.060          42.550          36.600
 131296893.551 6 102119859.083 4                  24570422.220    24570432.840
                        39.900          26.650
 124041316.785 7  96476583.978 6                  23188225.040    23188231.520
  23188230.100          45.300          41.300
 106922304.560 8  83161801.246 7                  20002025.080    20002028.760
  20002028.400          48.250          42.350
 15  1 27  9  3 50.0000000  0 24G11G06G28G08G04G17G03G23G31G09G19G20
                                G32G01R24R17R02R08R10R03R18R11R23R01
 113953892.361 8  88795223.35947                  21684705.360
  21684701.660          50.700          44.650
 131782686.769 7 102687807.739 6  98409146.332 7  25077413.260    25077414.860
  25077413.980          43.750          41.300
 130760381.772 7 101891160.09145                  24882883.520
  24882882.600          42.550          31.150
 131628992.589 7 102568059.55945                  25048161.580
  25048162.980          45.900          33.950
 118185498.071 8  92092598.17447                  22489949.860
  22489948.140          49.850          42.250
 115293840.436 8  89839311.785 7                  21939693.220    21939690.120
  21939689.580          50.050          47.200
 106986938.410 8  83366445.936 8  79892847.487 8  20358935.460    20358934.220
  20358933.460          50.600          49.900
 113770035.454 8  88651943.01047                  21649712.700
  21649707.500          51.050          45.250
 127502911.330 7  99352913.978 6                  24262994.120    24262993.760
  24262992.820          47.200          41.100
 124209720.664 7  96786813.922 7  92754037.886 8  23636316.540    23636317.880
  23636317.520          47.000          44.300
 136966653.374 6 106727205.74646                  26063909.020
  26063911.820          40.400          37.850
 115714577.966 8  90167165.10047                  22019754.900
  22019751.900          48.850          42.950
 117053143.578 8  91210258.47447                  22274461.620
  22274458.840          49.250          43.700
 108730359.403 8  84724970.804 8  81194752.562 8  20690696.680    20690696.740
  20690696.520          50.250          49.850
 104779407.454 7  81495108.840 7                  19594278.160    19594280.660
  19594278.580          47.800          42.350
 108363054.511 8  84282375.947 7                  20250232.600    20250234.020
  20250232.820          48.900          46.550
 107065002.310 8  83272797.261 7                  20063936.260    20063940.820
  20063940.100          48.600          46.700
 127628137.072 7  99266330.421 6                  23833656.280    23833661.100
  23833659.840          44.250          39.000
 127712698.445 6  99332155.464 5                  23958573.960    23958585.740
  23958584.380          41.250          32.350
 128540019.064 6  99975589.762 6                  24012352.640    24012358.300
  24012357.100          41.900          38.700
 130798138.840 6 101731897.381 6                  24502900.700    24502905.780
  24502904.120          41.000          37.600
 131280539.212 6                                  24567361.720
                        40.050
 124062833.586 7  96493319.239 6                  23192247.340    23192253.880
  23192252.400          44.750          41.150
 106932578.399 8  83169791.997 7                  20003947.000    20003950.700
  20003950.340          48.450          42.350
 15  1 27  9  3 55.0000000  0 24G11G06G28G08G04G17G03G23G31G09G19G20
                                G32G01R24R17R02R08R10R03R18R11R23R01
 113967607.013 8  88805910.08847                  21687315.200
  21687311.460          50.650          44.750
 131766561.241 7 102675242.363 6  98397104.512 7  25074344.740    25074346.360
  25074345.460          43.950          41.800
 130771736.517 7 101900007.88945                  24885044.280
  24885043.420          42.950          30.850
 131617823.870 7 102559356.68245                  25046036.180
  25046037.520          45.650          32.300
 118199096.887 8  92103194.63747                  22492537.620
  22492535.880          49.800          42.100
 115286348.610 8  89833473.995 7                  21938267.600    21938264.500
  21938263.980          50.100          47.100
 106988637.479 8  83367769.873 8  79894116.260 8  20359258.760    20359257.560
  20359256.780          50.350          49.850
 113757780.756 8  88642393.89747                  21647380.720
  21647375.540          51.000          45.100
 127499734.333 7  99350438.382 6                  24262389.620    24262389.220
  24262388.280          47.150          41.500
 124191400.607 7  96772538.573 7  92740357.328 8  23632830.300    23632831.640
  23632831.280          47.100          44.450
 136985084.930 6 106741567.98146                  26067416.460
  26067419.080          40.050          36.650
 115703107.556 8  90158227.12247                  22017572.140
  22017569.140          48.700          42.850
 117066403.942 8  91220591.21447                  22276985.000
  22276982.200          49.350          43.300
 108735916.606 8  84729301.078 8  81198902.404 8  20691754.120    20691754.240
  20691754.020          50.150          49.800
 104789099.805 7  81502647.335 7                  19596090.660    19596093.160
  19596091.120          47.650          42.450
 108350384.847 8  84272521.760 7                  20247865.000    20247866.400
  20247865.220          49.050          46.550
 107057706.999 8  83267123.131 7                  20062569.100    20062573.700
  20062572.960          48.850          46.700
 127646416.525 7  99280547.738 6                  23837069.900    23837074.640
  23837073.420          44.900          39.000
 127705332.018 6  99326426.056 5                  23957191.960    23957203.940
  23957202.460          40.550          32.950
 128522849.001 7  99962235.289 6                  24009145.040    24009150.800
  24009149.520          42.000          38.600
 130776798.921 6 101715299.637 6                  24498903.020    24498907.980
  24498906.540          40.700          37.350
 131264189.827 6                                  24564302.100
                        39.600
 124084357.138 7  96510059.746 6                  23196271.000    23196277.540
  23196275.940          45.700          41.300
 106942862.640 8  83177790.845 7                  20005870.840    20005874.600
  20005874.240          48.650          42.350
 15  1 27  9  4  0.0000000  0 24G11G06G28G08G04G17G03G23G31G09G19G20
                                G32G01R24R17R02R08R10R03R18R11R23R01
 113981329.600 8  88816602.99947                  21689926.540
  21689922.760          50.550          44.600
 131750433.245 7 102662675.082 7  98385060.881 7  25071275.720    25071277.340
  25071276.540          44.000          42.100
 130783092.614 7 101908856.82345                  24887205.300
  24887204.500          43.050          32.150
 131606659.019 7 102550656.81245                  25043911.500
  25043912.840          45.200          33.600
 118212700.938 8  92113795.18147                  22495126.380
  22495124.660          49.450          42.150
 115278869.985 8  89827646.485 7                  21936844.480    21936841.400
  21936840.860          49.800          47.050
 106990343.484 8  83369099.222 8  79895390.221 8  20359583.400    20359582.200
  20359581.440          50.300          49.800
 113745535.223 8  88632851.92547                  21645050.460
  21645045.300          50.800          45.400
 127496569.695 7  99347972.428 6                  24261787.440    24261787.000
  24261786.120          46.550          41.300
 124173083.335 7  96758265.388 7  92726678.855 8  23629344.600    23629345.960
  23629345.580          47.050          44.400
 137003513.086 6 106755927.53845                  26070923.240
  26070925.840          39.850          33.550
 115691641.975 8  90149292.90747                  22015390.280
  22015387.280          48.400          43.000
 117079666.112 8  91230925.36447                  22279508.740
  22279505.900          49.350          43.300
 108741482.521 8  84733638.144 8  81203058.761 8  20692813.260    20692813.420
  20692813.200          50.050          49.800
 104798810.554 7  81510200.138 7                  19597906.640    19597909.120
  19597907.080          47.800          42.600
 108337729.739 8  84262678.896 7                  20245500.120    20245501.520
  20245500.340          49.000          46.400
 107050423.421 8  83261458.133 7                  20061204.200    20061208.760
  20061208.040          48.650          46.750
 127664692.592 7  99294762.431 6                  23840482.880    23840487.580
  23840486.360          45.950          38.900
 127697981.414 7  99320708.941 5                  23955812.940    23955824.980
  23955823.620          42.050          34.000
 128505682.945 6  99948883.917 6                  24005938.280    24005943.960
  24005942.640          41.600          39.000
 130755458.540 6 101698701.549 6                  24494905.300    24494910.320
  24494908.900          40.600          37.300
 131247843.069 6                                  24561243.100
                        39.250
 124105885.122 7  96526803.715 6                  23200295.520    23200302.020
  23200300.420          45.300          41.200
 106953155.068 8  83185796.058 7                  20007796.220    20007800.020
  20007799.700          48.400          42.400
 15  1 27  9  4  5.0000000  0 24G11G06G28G08G04G17G03G23G31G09G19G20
                                G32G01R24R17R02R08R10R03R18R11R23R01
 113995062.290 8  88827303.78847                  21692539.780
  21692536.020          50.250          44.700
 131734304.958 7 102650107.583 6  98373017.020 7  25068206.680    25068208.300
  25068207.400          43.900          41.850
 130794452.177 7 101917708.41845                  24889367.000
  24889366.220          44.200          31.800
 131595500.206 7 102541961.67045                  25041788.000
  25041789.160          45.300          33.850
 118226312.347 8  92124401.46347                  22497716.520
  22497714.820          49.000          42.800
 115271406.715 8  89821830.948 7                  21935424.280    21935421.220
  21935420.680          49.700          46.900
 106992058.601 8  83370435.675 8  79896670.983 8  20359909.740    20359908.580
  20359907.820          50.350          49.700
 113733301.009 8  88623318.77947                  21642722.360
  21642717.200          50.800          45.150
 127493419.612 7  99345517.820 6                  24261188.000    24261187.600
  24261186.700          46.200          41.100
 124154771.045 7  96743996.093 7  92713004.126 8  23625859.880    23625861.200
  23625860.840          46.950          44.100
 137021939.942 6 106770286.13345                  26074429.800
  26074432.400          39.750          35.850
 115680183.399 8  90140364.15147                  22013209.740
  22013206.720          48.100          43.600
 117092932.226 8  91241262.58347                  22282033.240
  22282030.340          49.300          43.250
 108747059.320 8  84737983.694 8  81207223.244 8  20693874.460    20693874.640
  20693874.420          50.000          49.650
 104808541.706 7  81517768.805 7                  19599726.420    19599728.860
  19599726.820          47.850          42.750
 108325091.463 8  84252849.126 7                  20243138.400    20243139.760
  20243138.580          49.300          46.650
 107043153.964 8  83255804.116 7                  20059841.960    20059846.460
  20059845.740          48.750          46.800
 127682967.528 7  99308976.277 6                  23843895.660    23843900.320
  23843899.160          45.400          38.800
 127690649.007 7  99315005.972 5                  23954437.360    23954449.400
  23954448.180          42.750          34.300
 128488523.047 6  99935537.346 6                  24002732.560    24002738.280
  24002736.940          41.550          38.750
 130734119.966 6 101682104.834 6                  24490907.820    24490912.880
  24490911.580          40.350          36.600
 131231501.154 6                                  24558184.920
                        38.200
 124127419.740 7  96543552.826 6                  23204321.180    23204327.760
  23204326.160          44.850          41.850
 106963457.888 8  83193809.356 7                  20009723.560    20009727.360
  20009727.100          48.300          42.600
 15  1 27  9  4 10.0000000  0 24G11G06G28G08G04G17G03G23G31G09G19G20
                                G32G01R24R17R02R08R10R03R18R11R23R01
 114008804.321 8  88838011.85647                  21695154.800
  21695151.040          50.100          44.600
 131718175.657 7 102637539.282 6  98360972.393 7  25065137.440    25065139.040
  25065138.140          44.000          41.150
 130805814.473 7 101926562.12245                  24891529.200
  24891528.480          43.000          33.950
 131584346.643 7 102533270.62945                  25039665.480
  25039666.740          45.300          35.550
 118239930.380 8  92135012.90547                  22500307.960
  22500306.240          49.000          42.700
 115263958.063 8  89816026.803 7                  21934006.860    21934003.800
  21934003.280          49.750          46.800
 106993782.074 8  83371778.641 8  79897957.988 8  20360237.700    20360236.580
  20360235.800          50.300          49.700
 113721077.397 8  88613793.88747                  21640396.300
  21640391.100          50.650          45.250
 127490283.354 7  99343073.976 6                  24260591.140    24260590.800
  24260589.940          46.500          40.850
 124136463.019 7  96729730.120 7  92699332.542 8  23622375.980    23622377.240
  23622376.880          47.300          43.950
 137040364.764 6 106784643.09045                  26077935.980
  26077938.520          40.000          34.400
 115668731.074 8  90131440.27447                  22011030.380
  22011027.380          48.150          42.800
 117106201.595 8  91251602.34147                  22284558.360
  22284555.420          49.300          43.400
 108752646.263 8  84742337.150 8  81211395.300 8  20694937.600    20694937.800
  20694937.580          50.000          49.650
 104818292.756 8  81525352.949 7                  19601549.940    19601552.320
  19601550.300          48.050          42.350
 108312469.326 8  84243031.906 7                  20240779.700    20240781.020
  20240779.840          49.650          46.350
 107035897.701 8  83250160.350 7                  20058482.200    20058486.680
  20058485.920          48.750          46.750
 127701240.577 7  99323188.630 6                  23847308.000    23847312.740
  23847311.560          44.950          38.850
 127683334.012 7  99309316.543 5                  23953065.060    23953077.000
  23953076.020          42.050          33.700
 128471368.602 7  99922195.044 6                  23999527.900    23999533.660
  23999532.320          42.250          39.750
 130712782.382 6 101665508.906 6                  24486910.600    24486915.580
  24486914.440          40.300          36.650
 131215163.453 6                                  24555127.520
                        40.750
 124148960.177 7  96560306.437 6                  23208347.960    23208354.600
  23208353.000          44.300          40.950
 106973770.260 8  83201830.090 7                  20011652.640    20011656.540
  20011656.300          48.000          42.700
 15  1 27  9  4 15.0000000  0 24G11G06G28G08G04G17G03G23G31G09G19G20
                                G32G01R24R17R02R08R10R03R18R11R23R01
 114022555.818 8  88848727.30047                  21697771.580
  21697767.880          50.000          44.800
 131702045.443 7 102624970.263 6  98348927.078 7  25062068.060    25062069.640
  25062068.740          43.950          41.700
 130817179.620 7 101935418.07245                  24893691.940
  24893691.300          43.200          34.150
 131573198.564 7 102524583.85745                  25037544.040
  25037545.400          45.700          34.350
 118253555.192 8  92145629.63247                  22502900.680
  22502898.960          49.250          42.300
 115256524.182 8  89810234.166 7                  21932592.260    21932589.240
  21932588.680          49.800          46.900
 106995514.010 8  83373128.206 8  79899251.311 8  20360567.260    20360566.160
  20360565.400          50.250          49.650
 113708864.487 8  88604277.34047                  21638072.260
  21638067.060          50.650          45.500
 127487160.985 7  99340640.966 6                  24259996.900    24259996.660
  24259995.800          46.050          40.800
 124118159.341 7  96715467.524 7  92685664.237 8  23618892.900    23618894.120
  23618893.740          47.300          44.000
 137058787.686 6 106798998.57345                  26081441.800
  26081444.340          40.100          34.000
 115657285.105 8  90122521.35347                  22008852.240
  22008849.240          48.400          43.000
 117119474.275 8  91261944.68547                  22287084.100
  22287081.140          49.200          43.600
 108758243.470 8  84746698.604 8  81215575.019 8  20696002.720    20696002.920
  20696002.700          50.150          49.700
 104828063.514 8  81532952.425 7                  19603377.160    19603379.480
  19603377.460          48.350          42.200
 108299863.526 8  84233227.397 7                  20238424.060    20238425.340
  20238424.140          49.700          46.400
 107028654.822 8  83244527.009 7                  20057124.940    20057129.360
  20057128.620          48.950          46.800
 127719511.795 7  99337399.562 6                  23850720.000    23850724.820
  23850723.680          44.650          39.600
 127676036.437 7  99303640.664 5                  23951695.980    23951708.080
  23951707.040          42.750          33.700
 128454219.617 7  99908856.948 6                  23996324.320    23996330.080
  23996328.740          42.250          39.750
 130691445.983 6 101648913.894 6                  24482913.620    24482918.520
  24482917.500          40.000          36.250
 131198830.011 6                                  24552070.920
                        41.000
 124170506.574 7  96577064.708 6                  23212375.800    23212382.560
  23212380.840          44.850          40.300
 106984092.276 8  83209858.327 7                  20013583.560    20013587.520
  20013587.300          48.250          42.400
 15  1 27  9  4 20.0000000  0 24G11G06G28G08G04G17G03G23G31G09G19G20
                                G32G01R24R17R02R08R10R03R18R11R23R01
 114036316.604 8  88859449.97647                  21700390.140
  21700386.460          49.950          44.650
 131685914.156 7 102612400.428 6  98336880.983 7  25058998.400    25058999.980
  25058999.100          44.150          41.200
 130828547.360 7 101944276.02745                  24895855.140
  24895854.560          43.550          33.900
 131562055.713 7 102515901.13546                  25035423.600
  25035424.980          45.400          36.750
 118267186.555 8  92156251.45647                  22505494.640
  22505492.940          49.450          42.350
 115249104.855 8  89804452.864 7                  21931180.420    21931177.400
  21931176.880          49.850          47.000
 106997254.210 8  83374484.193 8  79900550.825 8  20360898.400    20360897.300
  20360896.560          50.200          49.650
 113696662.132 8  88594769.00747                  21635750.240
  21635745.020          50.650          45.150
 127484052.372 7  99338218.670 6                  24259405.280    24259405.060
  24259404.260          46.050          40.650
 124099859.868 7  96701208.202 7  92671999.074 8  23615410.620    23615411.780
  23615411.380          47.450          43.750
 137077208.461 6 106813352.37345                  26084947.100
  26084949.880          39.300          35.350
 115645845.342 8  90113607.25647                  22006675.320
  22006672.280          48.550          43.250
 117132750.110 8  91272289.47347                  22289610.440
  22289607.460          49.200          43.350
 108763850.745 8  84751067.901 8  81219762.274 8  20697069.780    20697069.940
  20697069.720          50.200          49.650
 104837853.905 8  81540567.163 7                  19605208.060    19605210.320
  19605208.320          48.300          42.100
 108287273.758 8  84223435.347 7                  20236071.380    20236072.640
  20236071.440          49.600          46.650
 107021425.085 8  83238903.866 7                  20055770.120    20055774.540
  20055773.780          48.950          46.650
 127737781.010 7  99351608.912 6                  23854131.660    23854136.440
  23854135.480          44.450          39.150
 127668756.122 7  99297978.197 5                  23950330.160    23950342.360
  23950341.240          42.550          32.550
 128437076.009 6  99895523.029 6                  23993121.800    23993127.540
  23993126.180          41.600          40.000
 130670110.547 6 101632319.625 6                  24478916.760    24478921.680
  24478920.720          41.300          37.250
 131182500.643 6                                  24549015.120
                        40.500
 124192058.707 7  96593827.435 6                  23216404.800    23216411.440
  23216409.720          45.800          39.600
 106994423.959 8  83217894.066 7                  20015516.260    20015520.300
  20015520.080          48.150          42.650
 15  1 27  9  4 25.0000000  0 24G11G06G28G08G04G17G03G23G31G09G19G20
                                G32G01R24R17R02R08R10R03R18R11R23R01
 114050086.058 8  88870179.41347                  21703010.360
  21703006.700          50.000          44.700
 131669781.192 7 102599829.258 6  98324833.608 7  25055928.440    25055930.000
  25055929.100          44.000          41.150
 130839917.118 7 101953135.56045                  24898018.780
  24898018.300          43.350          35.200
 131550917.544 7 102507222.08145                  25033304.080
  25033305.440          45.600          34.200
 118280823.868 8  92166877.92647                  22508089.760
  22508088.020          49.150          42.700
 115241699.514 8  89798682.467 7                  21929771.260    21929768.220
  21929767.740          49.900          47.050
 106999002.124 8  83375846.200 8  79901856.070 8  20361230.980    20361229.920
  20361229.180          50.100          49.700
 113684469.761 8  88585268.46547                  21633430.120
  21633424.880          50.800          44.950
 127480956.922 7  99335806.623 6                  24258816.220    24258816.060
  24258815.200          46.100          40.750
 124081564.007 7  96686951.700 7  92658336.586 8  23611929.040    23611930.120
  23611929.720          47.500          43.800
 137095626.501 6 106827704.05746                  26088451.940
  26088454.680          39.250          36.100
 115634411.144 8  90104697.50447                  22004499.460
  22004496.400          48.400          43.150
 117146028.474 8  91282636.23747                  22292137.240
  22292134.260          49.300          43.250
 108769467.506 8  84755444.593 8  81223956.598 8  20698138.640    20698138.760
  20698138.560          50.200          49.650
 104847663.442 7  81548196.787 7                  19607042.500    19607044.740
  19607042.760          47.700          42.200
 108274699.453 8  84213655.338 7                  20233721.600    20233722.840
  20233721.660          49.300          46.800
 107014208.086 8  83233290.655 7                  20054417.700    20054422.060
  20054421.320          49.050          46.600
 127756047.574 7  99365816.225 6                  23857542.820    23857547.640
  23857546.720          44.700          38.800
 127661492.612 7  99292328.838 5                  23948967.520    23948979.860
  23948978.560          43.950          32.100
 128419937.117 7  99882192.811 6                  23989920.200    23989925.800
  23989924.480          42.000          40.100
 130648775.488 6 101615725.634 6                  24474919.900    24474924.940
  24474923.980          40.950          37.750
 131166174.875 6 102018178.139 4                  24545960.020    24545971.120
                        40.650          27.050
 124213616.070 7  96610594.273 6                  23220434.800    23220441.280
  23220439.480          45.450          38.800
 107004764.310 8  83225936.548 7                  20017450.600    20017454.740
  20017454.480          48.300          42.750
 15  1 27  9  4 30.0000000  0 24G11G06G28G08G04G17G03G23G31G09G19G20
                                G32G01R24R17R02R08R10R03R18R11R23R01
 114063865.557 8  88880916.67547                  21705632.480
  21705628.860          49.950          44.800
 131653647.915 7 102587257.853 6  98312786.019 7  25052858.460    25052859.960
  25052859.060          44.550          41.650
 130851290.271 7 101961997.74545                  24900183.100
  24900182.540          42.850          33.900
 131539785.424 7 102498547.72745                  25031185.740
  25031187.080          46.000          34.000
 118294468.578 8  92177510.14347                  22510686.280
  22510684.540          49.300          43.000
 115234309.594 8  89792924.082 7                  21928365.020    21928362.000
  21928361.500          50.050          47.050
 107000759.077 8  83377215.240 8  79903168.060 8  20361565.300    20361564.280
  20361563.520          50.150          49.750
 113672288.726 8  88575776.74047                  21631112.140
  21631106.920          50.750          44.950
 127477876.013 7  99333405.902 6                  24258229.960    24258229.760
  24258228.920          46.650          41.000
 124063273.157 7  96672699.096 7  92644677.843 8  23608448.400    23608449.420
  23608449.000          47.750          43.850
 137114043.251 6 106842054.73345                  26091956.480
  26091959.520          38.850          35.500
 115622983.922 8  90095793.17147                  22002324.900
  22002321.840          48.450          43.000
 117159310.731 8  91292986.03447                  22294664.760
  22294661.820          49.150          42.950
 108775095.139 8  84759829.754 8  81228159.042 8  20699209.580    20699209.660
  20699209.460          50.250          49.650
 104857493.415 7  81555842.305 7                  19608880.780    19608883.000
  19608881.000          47.650          42.300
 108262142.033 8  84203888.456 7                  20231374.980    20231376.240
  20231375.060          49.600          46.800
 107007004.983 8  83227688.248 7                  20053067.900    20053072.200
  20053071.440          49.300          46.650
 127774313.069 7  99380022.688 6                  23860953.700    23860958.560
  23860957.720          44.800          39.250
 127654247.108 7  99286693.446 5                  23947608.240    23947620.440
  23947619.200          43.400          33.050
 128402804.379 7  99868867.377 6                  23986719.660    23986725.240
  23986723.900          42.650          40.100
 130627442.188 6 101599133.026 6                  24470923.380    24470928.460
  24470927.620          41.600          38.500
 131149854.033 6 102005484.159 4                  24542905.800    24542914.760
                        40.800          26.650
 124235179.822 7  96627366.074 6                  23224465.920    23224472.300
  23224470.420          44.300          39.450
 107015115.045 8  83233987.105 7                  20019386.880    20019391.040
  20019390.820          48.150          42.500
 15  1 27  9  4 35.0000000  0 24G11G06G28G08G04G17G03G23G31G09G19G20
                                G32G01R24R17R02R08R10R03R18R11R23R01
 114077653.588 8  88891660.58247                  21708256.220
  21708252.620          49.950          44.650
 131637512.864 7 102574685.079 6  98300737.114 7  25049788.120    25049789.580
  25049788.700          44.500          41.500
 130862665.281 7 101970861.40445                  24902347.740
  24902347.020          42.600          31.950
 131528657.866 7 102489876.93045                  25029068.200
  25029069.520          45.600          35.550
 118308119.079 8  92188146.88547                  22513283.920
  22513282.160          49.550          42.600
 115226933.521 8  89787176.488 7                  21926961.400    21926958.360
  21926957.900          50.150          47.100
 107002523.563 8  83378590.160 8  79904485.698 8  20361901.040    20361900.080
  20361899.300          50.250          49.800
 113660117.517 8  88566292.69447                  21628796.020
  21628790.820          50.850          45.250
 127474808.160 7  99331015.371 6                  24257646.200    24257645.980
  24257645.100          47.100          41.000
 124044985.818 7  96658449.229 7  92631021.746 8  23604968.440    23604969.380
  23604969.000          47.800          44.200
 137132457.066 6 106856403.12945                  26095460.520
  26095463.440          39.700          34.550
 115611562.142 8  90086893.09747                  22000151.400
  22000148.320          48.650          42.850
 117172595.353 8  91303337.66947                  22297192.740
  22297189.840          49.300          42.950
 108780732.113 8  84764222.197 8  81232368.469 8  20700282.300    20700282.360
  20700282.140          50.250          49.650
 104867342.214 8  81563502.480 7                  19610722.540    19610724.760
  19610722.760          48.300          42.250
 108249599.961 8  84194133.511 7                  20229031.200    20229032.480
  20229031.300          49.700          46.750
 106999814.331 8  83222095.514 7                  20051720.420    20051724.640
  20051723.900          49.400          46.850
 127792575.647 7  99394226.880 6                  23864364.100    23864368.960
  23864368.160          43.900          39.100
 127647018.255 7  99281070.992 5                  23946252.020    23946264.340
  23946263.000          42.600          33.750
 128385676.321 7  99855545.565 6                  23983519.960    23983525.500
  23983524.200          43.050          40.050
 130606109.139 6 101582540.621 6                  24466927.000    24466932.060
  24466931.320          39.800          38.500
 131133536.622 6 101992792.887 4                  24539852.240    24539864.000
                        41.600          28.900
 124256748.611 7  96644141.732 6                  23228497.940    23228504.460
  23228502.480          45.050          40.900
 107025474.338 8  83242044.331 7                  20021324.800    20021328.960
  20021328.740          48.250          42.450
 15  1 27  9  4 40.0000000  0 24G11G06G28G08G04G17G03G23G31G09G19G20
                                G32G01R24R17R02R08R10R03R18R11R23R01
 114091451.798 8  88902412.43047                  21710881.900
  21710878.340          49.900          44.900
 131621377.730 7 102562112.220 6  98288688.111 7  25046717.740    25046719.200
  25046718.320          43.750          41.800
 130874043.817 7 101979727.77145                  24904513.020
  24904512.300          42.250          35.300
 131517536.550 7 102481210.99945                  25026951.820
  25026953.180          45.350          35.000
 118321777.056 8  92198789.45647                  22515882.980
  22515881.200          49.350          42.400
 115219572.937 8  89781440.973 7                  21925560.760    21925557.700
  21925557.240          50.150          47.150
 107004297.269 8  83379972.266 8  79905810.212 8  20362238.540    20362237.620
  20362236.860          50.150          49.850
 113647957.875 8  88556817.65647                  21626482.120
  21626476.920          50.800          45.100
 127471755.102 7  99328636.370 6                  24257065.300    24257065.000
  24257064.120          46.750          40.950
 124026703.649 7  96644203.404 7  92617369.495 8  23601489.480    23601490.340
  23601489.960          47.750          44.350
 137150869.660 6 106870750.55546                  26098964.340
  26098967.280          40.000          36.950
 115600147.527 8  90077998.59847                  21997979.260
  21997976.160          48.700          43.150
 117185884.082 8  91313692.51847                  22299721.500
  22299718.640          48.950          43.850
 108786380.118 8  84768623.233 8  81236586.124 8  20701357.120    20701357.160
  20701356.920          50.250          49.650
 104877211.675 8  81571178.729 7                  19612568.180    19612570.420
  19612568.380          48.000          42.750
 108237075.074 8  84184391.930 7                  20226690.640    20226691.900
  20226690.740          49.700          46.850
 106992637.903 8  83216513.846 7                  20050375.600    20050379.780
  20050379.020          49.150          47.100
 127810837.271 7  99408430.348 6                  23867774.340    23867779.220
  23867778.400          43.350          39.300
 127639807.736 6  99275462.825 5                  23944899.180    23944911.760
  23944910.300          41.400          34.400
 128368554.543 7  99842228.653 6                  23980321.420    23980326.960
  23980325.660          42.800          40.300
 130584778.161 6 101565949.869 6                  24462931.040    24462936.120
  24462935.420          40.350          37.850
 131117224.296 6 101980105.556 4                  24536799.620    24536809.520
                        41.050          28.500
 124278323.985 7  96660922.518 6                  23232531.260    23232537.880
  23232535.840          45.050          41.250
 107035844.089 7  83250109.696 7                  20023264.640    20023268.740
  20023268.600          47.950          42.450
 15  1 27  9  4 45.0000000  0 24G11G06G28G08G04G17G03G23G31G09G19G20
                                G32G01R24R17R02R08R10R03R18R11R23R01
 114105258.313 8  88913170.73747                  21713509.160
  21713505.620          49.850          44.700
 131605240.520 7 102549537.772 6  98276637.620 7  25043646.960    25043648.400
  25043647.600          44.050          41.850
 130885423.951 7 101988595.41444                  24906678.620
  24906677.840          42.750          28.750
 131506419.588 7 102472548.46445                  25024836.260
  25024837.580          45.150          34.300
 118335440.579 8  92209436.33947                  22518483.120
  22518481.300          49.400          42.450
 115212226.043 8  89775716.114 7                  21924162.700    21924159.620
  21924159.200          50.050          47.100
 107006078.261 8  83381360.050 8  79907140.180 8  20362577.420    20362576.540
  20362575.800          50.150          49.800
 113635807.867 8  88547350.12447                  21624170.020
  21624164.860          50.700          45.100
 127468714.867 7  99326267.339 6                  24256486.840    24256486.380
  24256485.600          46.750          40.600
 124008424.789 7  96629960.146 7  92603719.724 8  23598011.080    23598011.960
  23598011.560          47.600          44.400
 137169279.089 6 106885095.51445                  26102467.620
  26102470.480          40.150          33.750
 115588738.149 8  90069108.18447                  21995808.120
  21995804.980          48.900          43.200
 117199174.918 8  91324049.00047                  22302250.680
  22302247.840          49.050          43.250
 108792037.234 8  84773031.370 8  81240810.595 8  20702433.680    20702433.660
  20702433.420          50.250          49.550
 104887099.791 7  81578869.484 7                  19614417.300    19614419.520
  19614417.520          47.600          42.750
 108224565.344 8  84174662.132 7                  20224352.920    20224354.140
  20224353.000          49.650          46.750
 106985473.634 8  83210941.643 7                  20049033.020    20049037.200
  20049036.420          48.800          47.100
 127829095.869 7  99422631.462 6                  23871184.000    23871188.940
  23871188.080          43.300          38.950
 127632613.598 6  99269867.418 5                  23943549.560    23943562.140
  23943560.660          41.350          34.400
 128351437.112 7  99828915.117 6                  23977123.700    23977129.220
  23977127.980          42.400          40.600
 130563447.196 6 101549359.093 6                  24458935.020    24458940.220
  24458939.500          41.150          37.450
 131100915.293 6 101967420.780 4                  24533747.580    24533758.940
                        41.700          29.100
 124299904.088 7  96677706.986 6                  23236565.400    23236572.220
  23236570.140          44.600          40.100
 107046222.397 8  83258181.708 7                  20025206.100    20025210.260
  20025210.040          48.150          42.600
 15  1 27  9  4 50.0000000  0 24G11G06G28G08G04G17G03G23G31G09G19G20
                                G32G01R24R17R02R08R10R03R18R11R23R01
 114119074.492 8  88923936.58547                  21716138.220
  21716134.760          49.850          44.650
 131589102.710 7 102536962.846 6  98264586.631 7  25040576.060    25040577.520
  25040576.720          43.300          41.900
 130896807.039 7 101997465.32045                  24908844.780
  24908843.980          42.800          34.300
 131495308.428 7 102463890.45245                  25022721.860
  25022723.300          45.250          35.900
 118349111.049 8  92220088.64147                  22521084.580
  22521082.700          49.350          42.950
 115204894.202 8  89770002.989 7                  21922767.520    21922764.420
  21922764.000          50.150          47.000
 107007867.945 8  83382754.607 8  79908476.620 8  20362917.960    20362917.120
  20362916.380          50.400          49.800
 113623668.864 8  88537891.16147                  21621860.040
  21621854.860          50.650          45.200
 127465688.737 7  99323909.311 6                  24255911.060    24255910.480
  24255909.680          46.200          40.500
 123990150.600 7  96615720.539 7  92590073.436 8  23594533.560    23594534.500
  23594534.060          47.450          44.850
 137187686.853 6 106899439.21046                  26105970.600
  26105973.520          38.300          37.050
 115577335.400 8  90060222.92947                  21993638.260
  21993635.080          49.000          42.400
 117212469.269 8  91334408.23147                  22304780.520
  22304777.700          49.300          43.600
 108797704.877 8  84777447.707 8  81245042.905 8  20703512.260    20703512.180
  20703511.920          50.450          49.550
 104897008.082 8  81586575.916 7                  19616270.180    19616272.420
  19616270.440          48.050          43.050
 108212072.212 8  84164945.243 7                  20222018.300    20222019.500
  20222018.360          49.700          46.800
 106978322.955 8  83205380.008 7                  20047693.000    20047697.160
  20047696.380          49.050          47.050
 127847352.920 7  99436831.365 6                  23874593.360    23874598.300
  23874597.420          44.050          38.750
 127625437.323 7  99264285.868 5                  23942203.320    23942215.820
  23942214.500          42.350          35.300
 128334325.574 7  99815606.155 6                  23973927.080    23973932.660
  23973931.460          42.300          40.700
 130542117.729 6 101532769.481 6                  24454939.360    24454944.420
  24454943.800          40.700          36.600
 131084610.814 6 101954739.533 4                  24530696.340    24530708.500
                        41.250          29.700
 124321490.246 7  96694496.183 6                  23240600.780    23240607.620
  23240605.420          45.050          38.900
 107056610.441 8  83266261.284 7                  20027149.360    20027153.520
  20027153.320          48.400          42.800
 15  1 27  9  4 55.0000000  0 24G11G06G28G08G04G17G03G23G31G09G19G20
                                G32G01R24R17R02R08R10R03R18R11R23R01
 114132898.636 8  88934708.63347                  21718768.800
  21718765.420          49.850          44.350
 131572962.576 7 102524386.128 7  98252533.933 7  25037504.660    25037506.220
  25037505.440          43.850          42.100
 130908191.401 7 102006336.26145                  24911011.160
  24911010.320          42.050          31.950
 131484201.317 7 102455235.59946                  25020608.200
  25020609.680          45.250          36.050
 118362786.861 8  92230745.11047                  22523687.040
  22523685.140          49.300          42.500
 115197575.721 8  89764300.271 7                  21921374.860    21921371.740
  21921371.360          50.150          47.050
 107009664.610 8  83384154.604 8  79909818.282 8  20363259.840    20363259.040
  20363258.300          50.400          49.750
 113611539.202 8  88528439.48247                  21619551.820
  21619546.640          50.600          44.800
 127462675.179 7  99321561.076 6                  24255337.620    24255336.960
  24255336.080          46.100          40.150
 123971879.425 7  96601483.282 7  92576429.406 8  23591056.620    23591057.600
  23591057.200          47.550          44.900
 137206091.096 6 106913780.09945                  26109472.860
  26109475.520          37.350          33.250
 115565937.572 8  90051341.51347                  21991469.340
  21991466.140          48.950          42.950
 117225765.387 8  91344768.82747                  22307310.700
  22307307.880          49.250          42.900
 108803381.324 8  84781870.906 8  81249281.811 8  20704592.520    20704592.360
  20704592.100          50.700          49.300
 104906934.510 8  81594296.463 7                  19618126.480    19618128.760
  19618126.740          48.150          42.950
 108199593.987 8  84155239.949 7                  20219686.480    20219687.640
  20219686.540          49.600          46.750
 106971184.182 8  83199827.621 7                  20046355.200    20046359.320
  20046358.560          49.250          47.050
 127865606.547 7  99451028.608 6                  23878002.120    23878006.980
  23878006.040          45.100          38.000
 127618277.108 7  99258716.839 5                  23940860.080    23940872.500
  23940871.280          43.350          34.850
 128317218.134 7  99802300.360 6                  23970731.220    23970736.780
  23970735.640          42.450          39.700
 130520788.053 6 101516179.660 6                  24450943.600    24450948.520
  24450947.960          40.300          36.450
 131068309.324 7 101942060.634 4                  24527645.680    24527658.140
                        42.300          29.550
 124343080.908 7  96711288.906 6                  23244636.940    23244643.580
  23244641.380          43.800          37.600
 107067006.586 8  83274347.158 7                  20029094.140    20029098.340
  20029098.140          48.650          42.850
 15  1 27  9  5  0.0000000  0 24G11G06G28G08G04G17G03G23G31G09G19G20
                                G32G01R24R17R02R08R10R03R18R11R23R01
 114146734.027 8  88945489.44547                  21721401.540
  21721398.200          49.950          44.150
 131556823.379 7 102511810.141 7  98240481.952 7  25034433.480    25034435.100
  25034434.300          43.650          42.050
 130919580.303 7 102015210.70645                  24913178.440
  24913177.700          42.900          33.300
 131473101.594 7 102446586.50946                  25018495.960
  25018497.400          45.000          36.300
 118376471.179 8  92241408.19847                  22526291.120
  22526289.200          49.400          42.300
 115190273.921 8  89758610.554 7                  21919985.380    21919982.260
  21919981.880          50.100          46.900
 107011471.535 8  83385562.600 8  79911167.609 8  20363603.660    20363602.900
  20363602.160          50.400          49.750
 113599422.178 8  88518997.64347                  21617246.040
  21617240.820          50.550          44.950
 127459677.452 7  99319225.162 6                  24254767.140    24254766.440
  24254765.520          46.050          40.550
 123953614.548 7  96587250.935 7  92562790.087 8  23587580.880    23587581.920
  23587581.500          47.600          44.950
 137224495.252 6 106928120.93446                  26112975.160
  26112977.460          38.700          36.700
 115554547.913 8  90042466.46647                  21989301.980
  21989298.720          49.000          42.850
 117239066.662 8  91355133.45147                  22309841.880
  22309839.060          49.350          42.900
 108809069.889 8  84786303.548 8  81253529.762 8  20705675.060    20705674.880
  20705674.600          50.750          49.250
 104916882.723 8  81602033.954 7                  19619986.840    19619989.140
  19619987.140          48.300          42.850
 108187134.077 8  84145548.912 7                  20217358.080    20217359.180
  20217358.120          49.450          46.600
 106964060.633 8  83194287.089 7                  20045020.240    20045024.340
  20045023.600          49.250          47.000
 127883860.181 7  99465225.875 6                  23881410.920    23881415.760
  23881414.700          45.450          38.100
 127611136.316 7  99253162.919 5                  23939520.480    23939532.820
  23939531.740          42.800          34.850
 128300118.098 7  99789000.351 6                  23967536.840    23967542.280
  23967541.200          42.400          39.450
 130499461.578 6 101499592.366 6                  24446948.480    24446953.340
  24446952.820          40.200          36.900
 131052014.148 6 101929386.654 4                  24524596.240    24524608.780
  24524605.240          41.000          28.700
 124364679.139 7  96728087.511 6                  23248674.420    23248681.020
  23248678.780          43.800          38.550
 107077414.281 8  83282442.021 7                  20031041.060    20031045.340
  20031045.140          48.450          42.850
 15  1 27  9  5  5.0000000  0 24G11G06G28G08G04G17G03G23G31G09G19G20
                                G32G01R24R17R02R08R10R03R18R11R23R01
 114160577.562 8  88956276.60847                  21724035.820
  21724032.540          50.000          44.250
 131540682.133 7 102499232.540 6  98228428.416 7  25031361.940    25031363.520
  25031362.820          44.600          41.950
 130930970.679 7 102024086.30145                  24915345.940
  24915345.240          42.300          30.500
 131462006.170 7 102437940.77545                  25016384.500
  25016386.060          44.900          34.550
 118390160.987 8  92252075.57547                  22528896.240
  22528894.280          49.350          42.200
 115182985.717 8  89752931.434 7                  21918598.480    21918595.360
  21918594.980          50.000          46.950
 107013285.671 8  83386976.204 8  79912522.313 8  20363948.860    20363948.140
  20363947.400          50.250          49.750
 113587314.726 8  88509563.26947                  21614942.060
  21614936.840          50.350          44.950
 127456692.494 7  99316899.207 6                  24254199.100    24254198.400
  24254197.400          45.650          40.750
 123935352.956 7  96573021.146 7  92549153.201 8  23584105.740    23584106.920
  23584106.480          47.400          44.900
 137242896.117 6 106942459.23346                  26116476.840
  26116479.300          39.300          37.150
 115543163.431 8  90033595.44947                  21987135.580
  21987132.300          48.950          42.600
 117252369.960 8  91365499.64947                  22312373.420
  22312370.600          49.350          42.750
 108814767.475 8  84790743.227 8  81257784.450 8  20706759.320    20706759.100
  20706758.800          50.650          49.200
 104926849.371 8  81609785.791 7                  19621850.680    19621852.920
  19621850.980          48.050          42.850
 108174689.287 8  84135869.631 7                  20215032.480    20215033.580
  20215032.520          49.300          46.600
 106956949.160 8  83188755.952 7                  20043687.540    20043691.660
  20043690.920          48.950          46.900
 127902110.740 7  99479420.739 6                  23884819.100    23884823.940
  23884822.860          44.650          38.500
 127604011.955 6  99247621.762 5                  23938183.860    23938196.260
  23938195.260          41.950          33.950
 128283022.477 7  99775703.805 6                  23964343.240    23964348.640
  23964347.560          42.450          39.050
 130478135.081 6 101483005.083 6                  24442953.300    24442958.260
  24442957.680          40.600          37.550
 131035722.133 6 101916715.114 4                  24521547.420    24521559.160
  24521557.180          40.850          28.850
 124386281.894 7  96744889.593 6                  23252712.720    23252719.500
  23252717.260          43.700          40.350
 107087830.151 8  83290543.250 7                  20032989.520    20032993.880
  20032993.660          48.250          42.950
 15  1 27  9  5 10.0000000  0 24G11G06G28G08G04G17G03G23G31G09G19G20
                                G32G01R24R17R02R08R10R03R18R11R23R01
 114174432.000 8  88967072.25847                  21726672.180
  21726668.960          49.850          44.550
 131524541.604 7 102486655.480 6  98216375.396 7  25028290.520    25028292.080
  25028291.440          43.550          41.400
 130942365.251 6 102032965.16845                  24917514.220
  24917513.600          41.150          34.750
 131450917.861 7 102429300.56145                  25014274.340
  25014276.040          44.900          34.250
 118403859.036 8  92262749.36746                  22531502.940
  22531500.940          49.300          41.850
 115175713.870 8  89747265.058 7                  21917214.700    21917211.580
  21917211.180          49.900          46.900
 107015109.757 8  83388397.559 8  79913884.445 8  20364295.940    20364295.260
  20364294.540          50.200          49.750
 113575219.652 8  88500138.53647                  21612640.440
  21612635.200          50.550          44.700
 127453723.095 7  99314585.381 6                  24253633.980    24253633.360
  24253632.400          46.100          40.800
 123917097.357 7  96558796.030 7  92535520.805 8  23580631.760    23580633.020
  23580632.580          47.600          45.200
 137261296.500 6 106956797.12045                  26119978.400
  26119980.820          39.200          32.250
 115531786.894 8  90024730.62747                  21984970.700
  21984967.400          49.000          42.850
 117265678.022 8  91375869.56447                  22314905.860
  22314903.060          49.200          42.750
 108820476.871 8  84795192.100 8  81262047.955 8  20707845.820    20707845.540
  20707845.260          50.700          49.300
 104936837.370 7  81617554.224 7                  19623718.500    19623720.820
  19623718.780          47.800          43.150
 108162262.399 8  84126204.278 7                  20212710.240    20212711.340
  20212710.260          48.800          46.550
 106949852.658 8  83183236.456 7                  20042357.660    20042361.760
  20042361.000          48.750          46.950
 127920360.859 7  99493615.253 6                  23888227.200    23888232.020
  23888230.960          44.550          38.550
 127596906.736 7  99242095.484 5                  23936850.880    23936863.360
  23936862.240          42.450          33.900
 128265933.910 7  99762412.736 6                  23961150.920    23961156.340
  23961155.260          42.550          39.700
 130456811.539 7 101466420.064 6                  24438958.720    24438963.700
  24438963.140          42.300          38.250
 131019436.132 6 101904048.237 5                  24518499.680    24518511.920
  24518509.260          41.000          30.250
 124407892.009 7  96761697.369 6                  23256752.520    23256759.520
  23256757.200          44.050          40.850
 107098257.165 8  83298653.145 7                  20034940.120    20034944.520
  20034944.240          48.100          42.800
 15  1 27  9  5 15.0000000  0 24G11G06G28G08G04G17G03G23G31G09G19G20
                                G32G01R24R17R02R08R10R03R18R11R23R01
 114188294.017 8  88977873.82347                  21729309.980
  21729306.820          49.100          45.100
 131508398.390 7 102474076.342 6  98204320.377 7  25025218.580    25025220.120
  25025219.460          42.800          40.950
 130953760.661 6 102041844.69445                  24919682.680
  24919682.020          40.750          32.350
 131439833.323 7 102420663.29846                  25012164.920
  25012166.600          43.450          37.200
 118417561.988 8  92273426.97547                  22534110.540
  22534108.520          48.750          42.700
 115168455.092 8  89741608.867 7                  21915833.400    21915830.260
  21915829.900          49.100          46.850
 107016940.461 8  83389824.076 8  79915251.524 8  20364644.300    20364643.660
  20364642.940          49.450          49.750
 113563133.609 8  88490720.84047                  21610340.540
  21610335.300          49.850          45.400
 127450765.947 7  99312281.108 6                  24253071.220    24253070.620
  24253069.740          45.250          40.800
 123898844.461 7  96544573.021 7  92521890.423 8  23577158.300    23577159.640
  23577159.220          46.950          45.450
 137279693.068 6 106971132.03746                  26123479.200
  26123481.440          38.750          36.850
 115520414.939 8  90015869.37647                  21982806.700
  21982803.380          48.250          43.650
 117278987.555 8  91386240.61247                  22317438.560
  22317435.760          48.450          43.450
 108826194.741 8  84799647.577 8  81266317.781 8  20708933.940    20708933.620
  20708933.320          49.950          49.350
 104946843.343 7  81625336.637 7                  19625589.680    19625591.980
  19625589.960          46.650          42.950
 108149850.155 7  84116550.318 7                  20210390.680    20210391.840
  20210390.700          47.950          46.200
 106942767.697 7  83177725.933 7                  20041029.940    20041034.040
  20041033.240          47.650          46.800
 127938607.283 7  99507806.912 6                  23891634.560    23891639.400
  23891638.320          43.250          38.950
 127589817.263 6  99236581.487 5                  23935520.920    23935533.300
  23935532.260          41.700          33.800
 128248849.060 6  99749124.524 6                  23957959.300    23957964.780
  23957963.680          40.250          40.250
 130435487.457 6 101449834.634 6                  24434964.060    24434969.080
  24434968.500          41.250          38.150
 131003152.878 6 101891383.498 5                  24515452.420    24515464.520
  24515462.000          38.900          31.400
 124429505.973 7  96778508.169 6                  23260793.060    23260800.220
  23260797.820          43.400          39.100
 107108691.865 7  83306769.021 7                  20036892.120    20036896.580
  20036896.240          47.050          42.650
 15  1 27  9  5 20.0000000  0 24G11G06G28G08G04G17G03G23G31G09G19G20
                                G32G01R24R17R02R08R10R03R18R11R23R01
 114202165.366 8  88988682.64947                  21731949.600
  21731946.440          49.700          44.400
 131492254.309 6 102461496.498 6  98192264.718 7  25022146.480    25022147.940
  25022147.280          41.600          41.050
 130965158.715 7 102050726.29045                  24921851.740
  24921850.860          43.200          30.100
 131428754.289 7 102412030.30945                  25010056.560
  25010058.200          44.150          35.950
 118431271.579 8  92284109.76747                  22536719.400
  22536717.340          49.200          42.400
 115161211.149 8  89735964.228 7                  21914454.900    21914451.780
  21914451.400          49.750          46.700
 107018779.537 8  83391257.120 8  79916624.858 8  20364994.260    20364993.640
  20364992.940          50.050          49.700
 113551058.368 8  88481311.55747                  21608042.700
  21608037.440          50.500          45.050
 127447822.793 7  99309987.735 6                  24252511.160    24252510.560
  24252509.760          46.600          40.650
 123880596.046 7  96530353.495 7  92508263.385 8  23573685.720    23573687.120
  23573686.680          47.900          45.050
 137298087.510 6 106985465.31345                  26126979.600
  26126981.880          39.200          33.750
 115509049.341 8  90007013.07447                  21980643.920
  21980640.560          48.700          43.500
 117292300.323 8  91396614.18947                  22319971.880
  22319969.120          48.950          43.350
 108831922.853 8  84804111.030 8  81270595.255 8  20710024.000    20710023.640
  20710023.320          50.350          49.400
 104956868.960 7  81633134.329 7                  19627464.560    19627466.820
  19627464.840          46.950          42.800
 108137454.427 8  84106909.191 7                  20208074.200    20208075.380
  20208074.180          48.300          46.000
 106935696.072 7  83172225.764 7                  20039704.720    20039708.800
  20039708.020          47.750          46.850
 127956851.811 7  99521997.090 6                  23895041.580    23895046.400
  23895045.340          42.950          39.100
 127582745.334 7  99231081.089 5                  23934194.280    23934206.620
  23934205.480          42.450          33.700
 128231769.860 6  99735840.706 6                  23954768.780    23954774.280
  23954773.160          40.500          39.900
 130414164.647 6 101433250.201 6                  24430969.580    24430974.720
  24430974.120          40.800          38.100
 130986874.209 6 101878722.342 5                  24512406.080    24512417.940
  24512415.720          39.050          31.450
 124451125.695 7  96795323.497 6                  23264834.660    23264841.800
  23264839.340          43.400          38.300
 107119136.153 7  83314892.349 7                  20038845.900    20038850.440
  20038850.060          47.350          42.700
 15  1 27  9  5 25.0000000  0 24G11G06G28G08G04G17G03G23G31G09G19G20
                                G32G01R24R17R02R08R10R03R18R11R23R01
 114216046.266 8  88999498.92847                  21734591.060
  21734587.920          49.850          44.750
 131476109.579 7 102448916.215 6  98180208.598 7  25019074.140    25019075.680
  25019075.040          42.000          41.550
 130976559.593 7 102059610.07945                  24924021.320
  24924020.480          43.100          32.400
 131417681.081 7 102403401.85545                  25007949.400
  25007950.940          44.800          34.600
 118444988.099 8  92294797.95146                  22539329.600
  22539327.500          49.250          41.800
 115153982.286 8  89730331.347 7                  21913079.300    21913076.160
  21913075.760          49.700          46.700
 107020627.244 8  83392696.894 8  79918004.637 8  20365345.840    20365345.280
  20365344.560          50.100          49.700
 113538994.170 8  88471910.88847                  21605746.960
  21605741.700          50.350          45.300
 127444893.902 7  99307705.482 6                  24251953.860    24251953.220
  24251952.460          46.800          40.350
 123862352.391 7  96516137.679 7  92494639.899 8  23570214.060    23570215.500
  23570215.060          47.850          45.250
 137316480.137 6 106999797.17546                  26130479.700
  26130481.900          39.450          37.950
 115497690.353 8  89998161.92147                  21978482.400
  21978479.020          48.700          43.600
 117305616.512 8  91406990.42647                  22322505.860
  22322503.120          48.900          42.900
 108837661.439 8  84808582.649 8  81274880.557 8  20711116.060    20711115.640
  20711115.340          50.350          49.400
 104966914.604 7  81640947.612 7                  19629343.120    19629345.460
  19629343.480          47.350          43.100
 108125075.345 8  84097281.007 7                  20205760.840    20205762.060
  20205760.780          48.750          46.350
 106928637.977 8  83166736.146 7                  20038382.020    20038386.180
  20038385.340          48.350          47.000
 127975094.610 7  99536185.888 6                  23898448.300    23898453.120
  23898452.080          43.750          39.700
 127575691.384 7  99225594.676 5                  23932870.980    23932883.320
  23932882.160          42.950          33.550
 128214696.343 6  99722561.339 6                  23951579.300    23951584.780
  23951583.680          40.050          39.000
 130392843.360 6 101416666.961 6                  24426975.400    24426980.560
  24426979.960          40.800          36.200
 130970600.341 6 101866064.891 5                  24509360.620    24509372.460
  24509369.860          39.850          31.250
 124472751.345 7  96812143.430 6                  23268877.260    23268884.400
  23268881.900          42.900          39.100
 107129590.036 7  83323023.139 7                  20040801.480    20040806.080
  20040805.680          47.800          42.850
 15  1 27  9  5 30.0000000  0 24G11G06G28G08G04G17G03G23G31G09G19G20
                                G32G01R24R17R02R08R10R03R18R11R23R01
 114229936.289 8  89010322.31347                  21737234.280
  21737231.100          49.950          44.300
 131459963.750 6 102436335.066 6  98168151.658 7  25016001.620    25016003.200
  25016002.560          41.300          41.300
 130987962.815 7 102068495.67245                  24926191.360
  24926190.380          43.150          33.000
 131406613.232 7 102394777.60345                  25005843.260
  25005844.640          44.550          32.550
 118458711.004 8  92305491.10746                  22541941.000
  22541938.900          49.450          41.800
 115146768.068 8  89724709.873 7                  21911706.480    21911703.320
  21911702.920          49.800          46.550
 107022483.105 8  83394143.021 8  79919390.503 8  20365699.000    20365698.440
  20365697.740          50.050          49.650
 113526940.561 8  88462518.47447                  21603453.240
  21603447.940          50.300          45.000
 127441978.818 7  99305433.978 6                  24251399.220    24251398.540
  24251397.760          46.650          40.100
 123844113.020 7  96501925.206 7  92481019.608 8  23566743.220    23566744.700
  23566744.260          47.900          45.050
 137334870.451 6 107014127.22745                  26133979.340
  26133981.340          39.400          34.500
 115486337.482 8  89989315.53647                  21976322.020
  21976318.620          48.800          43.100
 117318935.670 8  91417368.97747                  22325040.400
  22325037.680          49.000          43.150
 108843410.061 8  84813062.095 8  81279173.357 8  20712210.040    20712209.560
  20712209.240          50.450          49.400
 104976979.742 7  81648776.044 7                  19631225.360    19631227.740
  19631225.760          47.350          43.050
 108112712.473 8  84087665.438 7                  20203450.500    20203451.740
  20203450.480          48.700          46.550
 106921592.907 8  83161256.652 7                  20037061.800    20037065.940
  20037065.120          48.700          47.100
 127993335.280 7  99550373.067 6                  23901854.700    23901859.500
  23901858.500          43.400          39.300
 127568654.831 7  99220121.818 5                  23931550.960    23931563.380
  23931562.080          42.700          33.250
 128197628.352 6  99709286.288 6                  23948390.860    23948396.340
  23948395.260          39.800          38.550
 130371523.173 6 101400084.550 5                  24422981.460    24422986.560
  24422985.940          39.600          34.900
 130954330.761 6 101853410.790 4                  24506315.960    24506327.680
  24506325.080          39.100          29.650
 124494382.573 7  96828967.662 6                  23272920.860    23272928.080
  23272925.680          43.250          39.800
 107140053.169 8  83331161.119 7                  20042758.820    20042763.420
  20042763.060          48.000          43.000
 15  1 27  9  5 35.0000000  0 24G11G06G28G08G04G17G03G23G31G09G19G20
                                G32G01R24R17R02R08R10R03R18R11R23R01
 114243834.860 8  89021152.35747                  21739879.120
  21739875.940          50.050          44.800
 131443816.288 7 102423752.636 6  98156093.476 7  25012928.740    25012930.500
  25012929.860          42.400          41.750
 130999367.837 7 102077382.69445                  24928361.720
  24928360.740          43.550          32.400
 131395550.229 7 102386157.10045                  25003738.060
  25003739.300          45.300          34.050
 118472439.803 8  92316188.86447                  22544553.520
  22544551.440          49.450          42.100
 115139567.894 8  89719099.348 7                  21910336.320    21910333.160
  21910332.740          49.700          46.700
 107024346.564 8  83395595.055 8  79920782.032 8  20366053.600    20366053.040
  20366052.360          49.950          49.750
 113514896.992 8  88453133.86847                  21601161.400
  21601156.120          50.250          45.000
 127439076.980 7  99303172.775 6                  24250847.060    24250846.380
  24250845.580          46.250          40.350
 123825877.387 8  96487715.637 7  92467402.096 8  23563273.100    23563274.560
  23563274.160          48.000          44.950
 137353257.794 6 107028454.96546                  26137478.380
  26137480.500          39.550          36.000
 115474990.195 8  89980473.49647                  21974162.720
  21974159.300          48.900          43.350
 117332257.233 8  91427749.40047                  22327575.420
  22327572.700          49.050          43.400
 108849168.130 8  84817548.902 8  81283473.202 8  20713305.820    20713305.280
  20713304.960          50.300          49.400
 104987063.836 7  81656619.203 7                  19633111.140    19633113.580
  19633111.560          47.550          42.800
 108100365.353 8  84078062.114 7                  20201143.140    20201144.380
  20201143.140          48.200          46.750
 106914560.434 8  83155786.959 7                  20035743.920    20035748.060
  20035747.280          48.550          47.100
 128011573.246 7  99564558.125 6                  23905260.500    23905265.300
  23905264.420          42.200          38.650
 127561635.090 6  99214662.028 5                  23930234.060    23930246.560
  23930245.140          41.400          33.750
 128180565.049 6  99696014.833 6                  23945203.260    23945208.820
  23945207.680          38.900          38.900
 130350203.562 6 101383502.585 6                  24418987.640    24418992.800
  24418992.020          39.850          36.450
 130938064.914 6 101840759.605 5                  24503272.000    24503283.280
  24503280.460          39.100          30.200
 124516018.568 7  96845795.602 6                  23276965.460    23276972.860
  23276970.380          44.100          40.200
 107150525.013 7  83339305.878 7                  20044717.800    20044722.460
  20044722.080          47.900          43.000
 15  1 27  9  5 40.0000000  0 24G11G06G28G08G04G17G03G23G31G09G19G20
                                G32G01R24R17R02R08R10R03R18R11R23R01
 114257743.874 8  89031990.54547                  21742525.960
  21742522.780          50.100          44.550
 131427669.164 7 102411170.453 6  98144035.565 7  25009855.960    25009857.820
  25009857.220          42.100          41.700
 131010776.611 7 102086272.61345                  24930532.800
  24930531.740          42.800          32.200
 131384494.031 7 102377541.91146                  25001634.180
  25001635.240          45.350          37.200
 118486176.466 8  92326892.74146                  22547167.520
  22547165.440          49.350          41.750
 115132383.714 8  89713501.283 7                  21908969.220    21908966.040
  21908965.620          49.700          46.550
 107026219.548 8  83397054.517 8  79922180.691 8  20366410.000    20366409.480
  20366408.800          50.000          49.800
 113502865.381 8  88443758.58747                  21598871.860
  21598866.560          50.250          44.750
 127436190.310 7  99300923.415 6                  24250297.780    24250297.100
  24250296.200          46.300          40.400
 123807647.443 7  96473510.504 7  92453788.854 8  23559804.040    23559805.520
  23559805.120          47.850          44.800
 137371644.191 6 107042781.96045                  26140977.240
  26140979.660          40.600          31.750
 115463650.440 8  89971637.33447                  21972004.820
  21972001.420          48.850          42.800
 117345583.133 8  91438133.20947                  22330111.280
  22330108.560          49.250          43.050
 108854937.620 8  84822044.603 8  81287781.586 8  20714403.760    20714403.180
  20714402.860          50.300          49.350
 104997168.692 7  81664478.530 7                  19635000.820    19635003.200
  19635001.240          47.500          42.950
 108088035.863 8  84068472.521 7                  20198839.040    20198840.340
  20198839.140          48.450          46.800
 106907542.555 8  83150328.602 7                  20034428.760    20034432.940
  20034432.140          48.300          47.000
 128029810.438 7  99578742.554 6                  23908666.180    23908670.940
  23908670.180          42.100          38.750
 127554634.174 6  99209216.887 5                  23928920.720    23928933.080
  23928931.780          41.750          34.300
 128163508.573 6  99682748.721 6                  23942017.020    23942022.480
  23942021.340          39.900          39.250
 130328886.516 6 101366922.642 5                  24414994.300    24414999.560
  24414998.640          41.100          35.250
 130921804.806 6 101828112.861 5                  24500229.140    24500240.060
  24500237.760          40.750          31.900
 124537661.435 7  96862628.903 6                  23281011.460    23281018.920
  23281016.400          45.050          40.200
 107161007.399 7  83347458.845 7                  20046678.720    20046683.420
  20046683.060          47.950          42.850
 15  1 27  9  5 45.0000000  0 24G11G06G28G08G04G17G03G23G31G09G19G20
                                G32G01R24R17R02R08R10R03R18R11R23R01
 114271661.610 8  89042835.52947                  21745174.460
  21745171.240          50.050          44.850
 131411520.608 7 102398587.169 6  98131976.551 7  25006782.940    25006784.860
  25006784.220          42.850          41.550
 131022187.280 7 102095164.04745                  24932704.240
  24932703.040          42.200          31.700
 131373442.847 7 102368930.62746                  24999531.220
  24999532.200          45.500          36.050
 118499919.177 8  92337601.33947                  22549782.680
  22549780.600          49.450          42.100
 115125213.788 8  89707914.332 7                  21907604.840    21907601.640
  21907601.200          49.800          46.750
 107028100.304 8  83398520.035 8  79923585.146 8  20366767.900    20366767.360
  20366766.720          50.100          49.850
 113490844.009 8  88434391.29247                  21596584.260
  21596578.940          50.300          45.400
 127433317.038 7  99298684.494 6                  24249750.980    24249750.280
  24249749.420          45.700          39.750
 123789421.419 7  96459308.434 7  92440178.543 8  23556335.740    23556337.260
  23556336.840          47.850          44.850
 137390027.919 7 107057106.88145                  26144475.580
  26144477.980          42.400          32.900
 115452316.446 8  89962805.65847                  21969848.080
  21969844.600          49.000          43.050
 117358911.629 8  91448519.04247                  22332647.640
  22332644.920          49.400          43.150
 108860716.756 8  84826547.817 8  81292097.172 8  20715503.560    20715502.920
  20715502.600          50.250          49.400
 105007292.700 7  81672352.754 7                  19636894.060    19636896.420
  19636894.520          47.300          42.650
 108075722.330 8  84058895.335 7                  20196537.900    20196539.280
  20196538.080          48.450          46.800
 106900537.296 8  83144880.071 7                  20033115.960    20033120.180
  20033119.340          48.450          47.050
 128048045.028 7  99592924.983 6                  23912071.420    23912076.140
  23912075.340          43.350          37.750
 127547650.412 7  99203785.108 5                  23927610.560    23927622.900
  23927621.660          42.600          34.600
 128146457.008 6  99669486.441 6                  23938831.640    23938837.180
  23938835.980          41.300          39.750
 130307570.223 6 101350343.265 6                  24411001.120    24411006.340
  24411005.420          40.100          36.700
 130905548.773 6 101815469.277 5                  24497187.120    24497198.020
  24497195.860          41.350          32.000
 124559309.268 7  96879466.076 6                  23285058.340    23285065.860
  23285063.300          44.600          40.300
 107171498.644 7  83355618.699 7                  20048641.300    20048646.000
  20048645.680          47.600          42.850
 15  1 27  9  5 50.0000000  0 24G11G06G28G08G04G17G03G23G31G09G19G20
                                G32G01R24R17R02R08R10R03R18R11R23R01
 114285586.771 8  89053686.29647                  21747824.380
  21747821.140          50.100          44.600
 131395369.293 7 102386001.709 6  98119915.500 7  25003709.420    25003711.340
  25003710.760          42.600          40.900
 131033598.684 6 102104056.05644                  24934875.780
  24934874.400          41.250          29.750
 131362395.438 7 102360322.29646                  24997428.960
  24997429.840          45.650          36.600
 118513666.652 8  92348313.64946                  22552398.720
  22552396.680          49.500          41.750
 115118056.858 8  89702337.498 7                  21906242.920    21906239.720
  21906239.280          49.900          46.750
 107029987.524 8  83399990.590 8  79924994.421 8  20367127.020    20367126.480
  20367125.860          50.100          49.800
 113478831.592 8  88425030.96747                  21594298.380
  21594293.060          50.350          45.300
 127430455.934 7  99296455.058 6                  24249206.480    24249205.720
  24249204.900          45.100          39.050
 123771198.092 7  96445108.455 7  92426570.216 8  23552867.940    23552869.460
  23552869.060          47.850          44.900
 137408407.639 6 107071428.71045                  26147973.200
  26147975.480          40.650          32.550
 115440986.946 8  89953977.48347                  21967692.200
  21967688.640          49.250          42.850
 117372241.386 8  91458905.85747                  22335184.240
  22335181.540          49.400          42.800
 108866504.245 8  84831057.543 8  81296418.983 8  20716604.940    20716604.240
  20716603.920          50.350          49.300
 105017434.442 7  81680240.765 7                  19638790.640    19638793.000
  19638791.080          47.650          42.950
 108063423.395 8  84049329.490 7                  20194239.520    20194240.940
  20194239.720          48.800          46.800
 106893543.472 8  83139440.435 7                  20031805.320    20031809.540
  20031808.720          49.050          47.050
 128066275.652 7  99607104.368 6                  23915475.880    23915480.660
  23915479.820          44.250          38.550
 127540682.489 7  99198365.625 5                  23926303.320    23926315.780
  23926314.540          42.450          35.200
 128129409.223 6  99656227.069 6                  23935646.940    23935652.520
  23935651.320          41.650          38.900
 130286253.348 6 101333763.467 6                  24407007.800    24407013.000
  24407012.080          41.600          37.250
 130889295.342 6 101802827.745 5                  24494145.460    24494156.580
  24494154.540          39.950          31.650
 124580961.001 7  96896306.285 6                  23289105.900    23289113.460
  23289110.940          43.400          40.550
 107181997.307 7  83363784.315 7                  20050605.240    20050610.020
  20050609.700          47.550          42.800
 15  1 27  9  5 55.0000000  0 24G11G06G28G08G04G17G03G23G31G09G19G20
                                G32G01R24R17R02R08R10R03R18R11R23R01
 114299524.008 8  89064546.46847                  21750476.600
  21750473.320          50.100          44.550
 131379219.973 7 102373417.819 6  98107855.925 8  25000636.280    25000638.200
  25000637.620          42.700          41.050
 131045015.343 6 102112952.10945                  24937048.320
  24937047.000          40.900          34.550
 131351356.437 7 102351720.48945                  24995328.380
  24995329.080          45.900          35.350
 118527423.573 8  92359033.30946                  22555016.560
  22555014.560          49.450          41.500
 115110917.577 8  89696774.420 7                  21904884.380    21904881.180
  21904880.700          50.050          46.700
 107031885.903 8  83401469.838 8  79926412.042 8  20367488.260    20367487.740
  20367487.140          50.150          49.750
 113466832.835 8  88415681.28647                  21592015.080
  21592009.760          50.550          45.000
 127427611.664 7  99294238.728 6                  24248665.140    24248664.400
  24248663.560          45.300          39.400
 123752982.105 7  96430914.198 7  92412967.406 8  23549401.520    23549403.060
  23549402.660          47.150          44.650
 137426787.974 6 107085751.09945                  26151470.940
  26151473.240          38.100          31.150
 115429666.599 8  89945156.43747                  21965538.040
  21965534.420          49.350          43.050
 117385577.103 8  91469297.31347                  22337721.960
  22337719.260          49.450          42.300
 108872304.793 8  84835577.444 8  81300750.564 8  20717708.780    20717708.060
  20717707.740          50.350          49.250
 105027598.644 7  81688146.243 7                  19640691.400    19640693.760
  19640691.840          47.750          42.850
 108051143.892 8  84039778.766 7                  20191944.760    20191946.200
  20191944.980          48.800          46.550
 106886565.791 8  83134013.358 7                  20030497.720    20030501.960
  20030501.120          49.000          47.200
 128084507.187 7  99621284.444 6                  23918880.580    23918885.340
  23918884.520          44.600          39.850
 127533734.986 7  99192962.040 5                  23924999.940    23925012.320
  23925011.340          43.750          35.300
 128112370.014 7  99642974.369 6                  23932463.900    23932469.440
  23932468.260          42.000          37.700
 130264940.781 7 101317187.016 6                  24403015.300    24403020.500
  24403019.520          42.500          36.300
 130873049.416 6 101790192.035 5                  24491105.260    24491116.740
  24491114.420          40.050          31.300
 124602621.108 7  96913152.977 6                  23293154.940    23293162.580
  23293160.060          42.600          41.050
 107192508.358 7  83371959.566 7                  20052571.500    20052576.320
  20052576.040          47.200          42.750
 15  1 27  9  6  0.0000000  0 24G11G06G28G08G04G17G03G23G31G09G19G20
                                G32G01R24R17R02R08R10R03R18R11R23R01
 114313469.232 8  89075412.86947                  21753130.340
  21753127.020          50.150          44.800
 131363068.466 7 102360832.219 6  98095794.747 8  24997562.680    24997564.640
  24997564.080          42.850          41.050
 131056433.232 6 102121849.15745                  24939221.060
  24939219.820          41.550          31.550
 131340321.827 7 102343122.10445                  24993228.600
  24993229.220          46.000          35.900
 118541185.749 8  92369757.07247                  22557635.400
  22557633.420          49.400          42.050
 115103791.878 8  89691221.929 7                  21903528.420    21903525.200
  21903524.720          50.100          46.750
 107033791.331 8  83402954.591 8  79927834.921 8  20367850.860    20367850.340
  20367849.760          50.150          49.800
 113454843.643 8  88406339.06247                  21589733.620
  21589728.320          50.550          45.300
 127424780.099 7  99292032.323 6                  24248126.260    24248125.600
  24248124.720          45.650          39.850
 123734769.363 7  96416722.482 7  92399366.998 8  23545935.700    23545937.280
  23545936.860          47.350          44.550
 137445164.891 6 107100070.69045                  26154968.040
  26154970.220          38.800          34.300
 115418351.325 8  89936339.35347                  21963384.860
  21963381.180          49.350          42.700
 117398914.693 8  91479690.23847                  22340260.000
  22340257.360          49.150          42.950
 108878114.266 8  84840104.306 8  81305088.795 8  20718814.320    20718813.560
  20718813.260          50.350          49.300
 105037781.359 7  81696066.132 7                  19642595.660    19642598.000
  19642596.060          47.350          42.900
 108038879.574 8  84030239.846 7                  20189652.840    20189654.320
  20189653.080          48.250          46.900
 106879600.003 7  83128595.532 7                  20029192.320    20029196.600
  20029195.780          47.900          47.350
 128102735.388 7  99635461.911 6                  23922284.620    23922289.420
  23922288.600          44.350          39.200
 127526803.964 7  99187571.250 5                  23923699.700    23923712.160
  23923711.200          42.100          34.900
 128095334.870 6  99629724.840 6                  23929281.600    23929287.100
  23929285.920          40.550          37.600
 130243628.291 6 101300610.583 5                  24399022.820    24399028.080
  24399026.920          40.200          34.800
 130856806.833 6 101777558.990 5                  24488065.700    24488077.300
  24488075.220          38.400          30.500
 124624285.559 7  96930003.030 6                  23297204.880    23297212.500
  23297210.020          44.500          41.250
 107203027.367 7  83380141.009 7                  20054539.260    20054544.100
  20054543.840          46.450          42.700
 15  1 27  9  6  5.0000000  0 24G11G06G28G08G04G17G03G23G31G09G19G20
                                G32G01R24R17R02R08R10R03R18R11R23R01
 114327422.492 8  89086285.52647                  21755785.600
  21755782.260          50.300          44.400
 131346914.902 7 102348245.012 6  98083732.009 8  24994488.780    24994490.720
  24994490.220          42.950          41.100
 131067852.324 7 102130747.10645                  24941394.080
  24941392.740          42.650          32.200
 131329291.644 7 102334527.18745                  24991129.660
  24991130.280          46.100          35.300
 118554953.385 8  92380485.08646                  22560255.260
  22560253.360          49.250          41.950
 115096679.823 8  89685680.056 7                  21902175.040    21902171.820
  21902171.340          50.050          46.750
 107035703.831 8  83404444.846 8  79929263.082 8  20368214.780    20368214.280
  20368213.700          50.250          49.750
 113442864.067 8  88397004.32847                  21587453.980
  21587448.700          50.650          45.050
 127421961.358 7  99289835.892 6                  24247589.860    24247589.140
  24247588.300          46.000          39.850
 123716559.969 7  96402533.360 7  92385769.097 8  23542470.500    23542472.100
  23542471.660          47.550          44.400
 137463538.460 6 107114387.65945                  26158464.560
  26158466.560          37.200          34.700
 115407041.175 8  89927526.24547                  21961232.660
  21961228.900          49.400          42.800
 117412254.128 8  91490084.58847                  22342798.400
  22342795.780          49.200          42.650
 108883932.736 8  84844638.168 8  81309433.755 8  20719921.560    20719920.760
  20719920.480          50.400          49.300
 105047982.277 7  81704000.171 7                  19644503.320    19644505.620
  19644503.720          47.650          43.150
 108026630.550 8  84020712.816 7                  20187363.820    20187365.320
  20187364.060          48.350          47.100
 106872646.375 8  83123187.150 7                  20027889.200    20027893.500
  20027892.700          48.100          47.550
 128120960.323 7  99649636.866 6                  23925688.000    23925692.760
  23925692.000          44.400          38.700
 127519889.342 7  99182193.200 5                  23922402.520    23922414.960
  23922414.100          43.650          34.300
 128078304.161 7  99616478.735 6                  23926100.140    23926105.600
  23926104.420          42.300          38.350
 130222315.930 6 101284034.277 5                  24395030.340    24395035.600
  24395034.360          41.150          34.100
 130840567.611 6 101764928.527 4                  24485026.660    24485038.000
  24485036.460          36.600          27.750
 124645954.305 7  96946856.492 6                  23301255.740    23301263.300
  23301260.880          45.150          41.550
 107213554.553 7  83388328.804 7                  20056508.580    20056513.480
  20056513.180          47.200          42.650
 15  1 27  9  6 10.0000000  0 24G11G06G28G08G04G17G03G23G31G09G19G20
                                G32G01R24R17R02R08R10R03R18R11R23R01
 114341385.712 8  89097165.95347                  21758442.760
  21758439.420          50.200          44.700
 131330761.231 7 102335657.746 6  98071669.167 7  24991414.720    24991416.780
  24991416.200          42.750          41.000
 131079274.580 7 102139647.58445                  24943567.720
  24943566.140          42.800          31.650
 131318267.852 7 102325937.24545                  24989031.880
  24989032.620          45.850          35.850
 118568728.288 8  92391218.76246                  22562876.520
  22562874.660          49.300          41.250
 115089583.360 8  89680150.346 7                  21900824.660    21900821.440
  21900820.920          50.100          46.800
 107037625.361 8  83405942.140 8  79930697.985 8  20368580.440    20368579.960
  20368579.360          50.250          49.800
 113430896.070 8  88387678.62247                  21585176.560
  21585171.280          50.700          45.250
 127419157.384 7  99287650.950 6                  24247056.320    24247055.640
  24247054.720          46.350          40.550
 123698355.846 7  96388348.349 7  92372175.136 8  23539006.320    23539007.900
  23539007.480          47.550          44.200
 137481910.579 6 107128703.46545                  26161960.700
  26161962.640          36.550          34.800
 115395738.090 8  89918718.65047                  21959081.780
  21959077.980          49.250          43.100
 117425597.414 8  91500481.95047                  22345337.520
  22345334.960          49.050          42.650
 108889762.136 8  84849180.556 8  81313786.861 8  20721030.880    20721030.080
  20721029.800          50.300          49.550
 105058203.562 7  81711950.054 7                  19646414.760    19646417.100
  19646415.180          47.200          43.000
 108014398.845 8  84011199.276 7                  20185078.020    20185079.560
  20185078.300          48.300          47.050
 106865706.754 8  83117789.664 7                  20026588.700    20026593.020
  20026592.240          48.500          47.250
 128139183.918 7  99663810.762 6                  23929091.140    23929095.880
  23929095.200          44.300          38.850
 127512993.172 7  99176829.506 5                  23921108.780    23921121.140
  23921120.360          43.200          34.100
 128061279.691 6  99603237.487 6                  23922919.780    23922925.220
  23922924.080          41.200          38.700
 130201005.759 7 101267459.650 5                  24391038.260    24391043.300
  24391042.180          42.050          35.250
 130824333.834 6 101752302.265 4                  24481988.760    24482000.100
                        38.300          28.350
 124667629.278 7  96963714.775 6                  23305307.720    23305315.220
  23305312.880          44.550          41.350
 107224091.699 7  83396524.358 7                  20058479.760    20058484.720
  20058484.360          47.550          42.650
 15  1 27  9  6 15.0000000  0 23G11G06G28G08G04G17G03G23G31G09G20G32
                                G01R24R17R02R08R10R03R18R11R23R01
 114355358.476 8  89108053.81147                  21761101.740
  21761098.360          50.100          44.750
 131314606.942 6 102323069.974 6  98059605.907 7  24988340.520    24988342.800
  24988342.020          41.750          41.600
 131090699.563 7 102148550.13145                  24945741.860
  24945740.320          43.600          32.800
 131307249.997 7 102317351.93545                  24986935.260
  24986936.140          45.650          35.650
 118582510.113 8  92401957.83246                  22565499.080
  22565497.300          49.300          41.350
 115082502.061 8  89674632.446 7                  21899477.140    21899473.920
  21899473.400          50.000          46.750
 107039555.483 8  83407446.123 8  79932139.308 8  20368947.720    20368947.240
  20368946.660          50.150          49.800
 113418939.238 8  88378361.61547                  21582901.260
  21582895.980          50.750          45.000
 127416367.680 7  99285477.145 6                  24246525.480    24246524.760
  24246523.900          46.950          40.700
 123680156.570 7  96374167.112 7  92358584.793 8  23535543.020    23535544.640
  23535544.220          47.500          44.450
 115384441.614 8  89909916.20347                  21956932.180
  21956928.320          49.400          42.900
 117438944.093 8  91510881.94347                  22347877.280
  22347874.760          48.800          42.700
 108895602.036 8  84853731.123 8  81318147.827 8  20722142.220    20722141.400
  20722141.120          50.400          49.650
 105068444.856 7  81719915.490 7                  19648329.960    19648332.240
  19648330.360          47.200          42.850
 108002184.068 8  84001698.902 7                  20182795.360    20182796.960
  20182795.740          48.500          47.050
 106858780.665 8  83112402.707 7                  20025290.720    20025295.100
  20025294.300          49.000          47.250
 128157405.779 7  99677983.268 6                  23932493.980    23932498.720
  23932498.100          44.200          38.250
 127506114.995 6  99171479.816 5                  23919818.340    23919830.920
  23919830.000          41.650          32.950
 128044261.171 6  99590000.889 6                  23919740.600    23919746.020
  23919744.900          41.750          38.600
 130179697.279 7 101250886.352 5                  24387046.520    24387051.540
  24387050.400          42.250          35.000
 130808105.137 6 101739679.919 4                  24478951.760    24478963.180
                        38.700          29.100
 124689310.092 7  96980577.591 6                  23309360.760    23309368.260
  23309365.980          44.400          41.650
 107234638.408 8  83404727.349 7                  20060452.780    20060457.660
  20060457.360          48.100          42.650
 15  1 27  9  6 20.0000000  0 24G11G06G28G08G04G17G03G23G31G09G19G20
                                G32G01R24R17R02R08R10R03R18R11R23R01
 114369338.762 8  89118947.52647                  21763762.160
  21763758.740          50.150          44.350
 131298450.020 7 102310480.181 7  98047540.707 7  24985265.860    24985268.280
  24985267.480          42.600          42.100
 131102125.271 7 102157453.24145                  24947916.120
  24947914.620          43.900          31.350
 131296236.102 7 102308769.69545                  24984839.340
  24984840.340          45.400          35.850
 118596296.798 8  92412700.68746                  22568122.580
  22568120.880          49.300          41.700
 115075433.923 8  89669124.798 7                  21898132.140    21898128.920
  21898128.400          49.950          46.850
 107041492.202 8  83408955.245 8  79933585.550 8  20369316.260    20369315.800
  20369315.200          49.950          49.800
 113406991.560 8  88369051.73047                  21580627.700
  21580622.420          50.750          45.400
 127413590.286 7  99283312.934 6                  24245997.020    24245996.240
  24245995.400          46.650          40.500
 123661960.164 7  96359988.114 7  92344996.595 8  23532080.320    23532081.920
  23532081.520          47.700          44.450
 137518761.891 6 107157492.01545                  26168951.680
  26168953.100          37.700          34.300
 115373149.757 8  89901117.34947                  21954783.440
  21954779.540          49.250          42.750
 117452292.162 8  91521283.02147                  22350417.300
  22350414.820          48.950          43.150
 108901450.433 8  84858288.312 8  81322515.135 8  20723255.140    20723254.320
  20723254.060          50.550          49.650
 105078703.932 7  81727894.767 7                  19650248.480    19650250.760
  19650248.900          47.600          43.000
 107989984.162 8  83992210.085 7                  20180515.460    20180517.100
  20180515.920          48.700          47.050
 106851866.100 8  83107024.705 7                  20023994.940    20023999.280
  20023998.520          49.000          47.200
 128175623.846 7  99692152.840 6                  23935896.100    23935900.820
  23935900.260          44.650          38.750
 127499252.700 6  99166142.474 5                  23918530.820    23918543.440
  23918542.600          41.150          33.400
 128027246.559 6  99576767.283 6                  23916562.200    23916567.560
  23916566.440          41.850          39.050
 130158388.534 6 101234312.851 5                  24383054.700    24383059.740
  24383058.640          41.700          35.950
 130791879.359 6 101727059.862 5                  24475915.220    24475926.600
                        38.050          30.800
 124710994.726 7  96997443.359 6                  23313414.460    23313422.000
  23313419.820          44.750          41.700
 107245192.665 8  83412936.207 7                  20062427.200    20062432.040
  20062431.760          48.100          42.800
 15  1 27  9  6 25.0000000  0 24G11G06G28G08G04G17G03G23G31G09G19G20
                                G32G01R24R17R02R08R10R03R18R11R23R01
 114383329.348 8  89129849.26747                  21766424.520
  21766421.040          50.200          44.600
 131282293.405 7 102297890.625 6  98035475.706 7  24982191.380    24982193.900
  24982192.980          43.000          41.600
 131113554.466 7 102166359.05945                  24950091.060
  24950089.440          43.550          31.900
 131285229.018 7 102300192.77745                  24982744.720
  24982745.780          45.300          35.750
 118610091.106 8  92423449.48247                  22570747.520
  22570745.880          49.450          42.000
 115068381.757 8  89663629.600 7                  21896790.180    21896786.960
  21896786.440          50.050          46.950
 107043438.289 8  83410471.671 8  79935038.796 8  20369686.600    20369686.120
  20369685.540          50.000          49.800
 113395055.835 8  88359751.16647                  21578356.440
  21578351.120          50.850          45.150
 127410828.011 7  99281160.519 6                  24245471.420    24245470.680
  24245469.760          45.850          39.750
 123643769.451 7  96345813.552 7  92331412.639 8  23528618.700    23528620.240
  23528619.860          47.700          44.250
 137537127.053 6 107171802.45946                  26172446.840
  26172448.640          36.950          36.250
 115361865.333 8  89892324.29447                  21952636.120
  21952632.160          49.350          43.100
 117465644.410 8  91531687.35947                  22352958.160
  22352955.680          48.950          43.650
 108907310.155 8  84862854.323 8  81326890.897 8  20724370.220    20724369.380
  20724369.160          50.450          49.700
 105088983.751 7  81735890.182 7                  19652170.860    19652173.220
  19652171.320          47.800          42.950
 107977801.835 8  83982734.933 7                  20178238.880    20178240.540
  20178239.380          48.850          46.850
 106844965.871 8  83101657.869 7                  20022701.840    20022706.180
  20022705.440          48.700          47.200
 128193841.000 7  99706321.721 6                  23939298.020    23939302.760
  23939302.180          44.200          38.850
 127492409.305 6  99160819.856 5                  23917247.000    23917259.600
  23917258.680          40.950          32.600
 128010238.611 7  99563538.901 6                  23913385.020    23913390.180
  23913389.240          42.550          38.350
 130137082.348 7 101217741.373 5                  24379063.380    24379068.500
  24379067.400          42.800          35.150
 130775659.278 6 101714444.293 5                  24472879.840    24472891.480
  24472888.980          39.800          30.550
 124732685.889 7  97014314.228 6                  23317469.440    23317477.040
  23317474.860          44.400          41.200
 107255757.401 8  83421153.216 7                  20064403.540    20064408.360
  20064408.100          48.100          42.750
 15  1 27  9  6 30.0000000  0 24G11G06G28G08G04G17G03G23G31G09G19G20
                                G32G01R24R17R02R08R10R03R18R11R23R01
 114397328.528 8  89140757.71547                  21769088.520
  21769085.020          50.200          44.050
 131266135.377 7 102285299.936 6  98023409.613 7  24979116.660    24979119.180
  24979118.180          44.050          41.500
 131124985.432 7 102175266.30945                  24952266.300
  24952264.720          43.100          32.600
 131274227.028 7 102291619.82745                  24980651.040
  24980652.040          44.750          34.000
 118623891.428 8  92434202.97247                  22573373.620
  22573372.000          49.300          42.000
 115061343.882 8  89658145.542 7                  21895450.940    21895447.700
  21895447.220          50.100          46.800
 107045392.090 8  83411994.107 8  79936497.792 8  20370058.400    20370057.920
  20370057.340          50.050          49.650
 113383130.381 8  88350458.60947                  21576087.120
  21576081.780          50.800          45.400
 127408079.176 7  99279018.566 6                  24244948.320    24244947.560
  24244946.620          45.750          39.700
 123625582.732 7  96331642.097 7  92317831.664 8  23525157.860    23525159.400
  23525158.940          47.650          44.150
 137555489.311 6 107186110.56845                  26175940.520
  26175941.960          36.550          33.550
 115350586.636 8  89883535.71447                  21950489.880
  21950485.900          49.350          42.850
 117478999.093 8  91542093.59647                  22355499.480
  22355497.020          48.850          42.950
 108913179.481 8  84867427.821 8  81331273.827 8  20725487.120    20725486.280
  20725486.080          50.350          49.550
 105099282.511 7  81743900.318 7                  19654096.780    19654099.180
  19654097.240          47.500          43.000
 107965635.639 8  83973272.339 7                  20175965.300    20175967.040
  20175965.840          48.950          47.000
 106838078.357 8  83096300.918 7                  20021411.120    20021415.420
  20021414.740          48.500          47.250
 128212055.461 7  99720488.526 6                  23942699.460    23942704.240
  23942703.600          43.750          38.850
 127485583.131 6  99155510.638 5                  23915966.460    23915979.020
  23915978.000          40.350          33.850
 127993235.567 7  99550314.346 6                  23910208.760    23910213.780
  23910212.880          42.800          38.050
 130115777.003 7 101201170.508 5                  24375072.220    24375077.320
  24375076.240          42.950          34.350
 130759443.462 6 101701831.996 5                  24469845.340    24469856.700
  24469854.620          39.950          30.650
 124754381.933 7  97031188.895 6                  23321525.360    23321532.880
  23321530.740          44.100          41.200
 107266330.755 8  83429376.934 7                  20066381.500    20066386.300
  20066386.060          48.100          42.700
 15  1 27  9  6 35.0000000  0 24G11G06G28G08G04G17G03G23G31G09G19G20
                                G32G01R24R17R02R08R10R03R18R11R23R01
 114411338.143 8  89151674.28647                  21771754.500
  21771750.960          50.750          43.650
 131249977.709 7 102272709.541 6  98011343.810 7  24976042.020    24976044.460
  24976043.540          44.350          40.750
 131136419.974 7 102184176.29545                  24954442.260
  24954440.800          44.050          30.500
 131263231.999 7 102283052.31345                  24978558.680
  24978559.700          45.250          35.000
 118637699.533 8  92444962.51646                  22576001.200
  22575999.620          49.700          41.250
 115054322.028 8  89652673.961 7                  21894114.760    21894111.520
  21894111.040          50.650          46.750
 107047355.379 8  83413523.938 8  79937963.875 8  20370432.000    20370431.520
  20370430.940          50.650          49.650
 113371217.063 8  88341175.50847                  21573820.100
  21573814.780          51.300          44.700
 127405345.648 7  99276888.522 6                  24244428.160    24244427.460
  24244426.380          46.550          39.900
 123607401.847 8  96317475.187 7  92304255.048 8  23521698.160    23521699.640
  23521699.180          48.350          44.400
 137573850.575 6 107200417.98645                  26179434.580
  26179437.080          36.100          32.700
 115339315.497 8  89874753.01047                  21948345.060
  21948341.060          49.750          42.550
 117492358.079 8  91552503.17947                  22358041.640
  22358039.140          49.450          42.850
 108919060.249 8  84872010.228 8  81335665.290 8  20726606.200    20726605.360
  20726605.160          50.700          49.400
 105109601.984 8  81751926.562 7                  19656026.560    19656028.980
  19656027.040          49.050          43.000
 107953487.351 8  83963823.668 7                  20173695.100    20173696.860
  20173695.660          49.950          47.000
 106831205.343 8  83090955.242 7                  20020123.120    20020127.440
  20020126.740          50.000          47.000
 128230269.112 7  99734654.687 6                  23946100.820    23946105.560
  23946104.880          44.750          38.550
 127478775.855 7  99150216.108 5                  23914689.480    23914702.100
  23914700.860          44.350          33.850
 127976239.445 7  99537095.150 6                  23907033.800    23907038.680
  23907037.820          44.650          38.400
 130094474.427 7 101184601.787 5                  24371081.480    24371086.680
  24371085.580          43.700          33.950
 130743233.659 6 101689224.388 5                  24466811.920    24466823.300
  24466821.940          41.500          30.050
 124776084.610 7  97048068.734 6                  23325582.540    23325590.000
  23325587.840          46.350          41.650
 107276914.506 8  83437608.736 7                  20068361.400    20068366.240
  20068365.940          49.450          42.700
 15  1 27  9  6 40.0000000  0 24G11G06G28G08G04G17G03G23G31G09G19G20
                                G32G01R24R17R02R08R10R03R18R11R23R01
 114425355.585 8  89162596.95847                  21774421.960
  21774418.380          50.700          43.700
 131233817.866 7 102260117.445 6  97999276.379 7  24972966.940    24972969.400
  24972968.400          44.650          39.900
 131147855.533 7 102193087.09545                  24956618.380
  24956617.140          43.250          30.400
 131252241.363 7 102274488.20545                  24976467.140
  24976468.260          45.000          35.800
 118651512.877 8  92455726.14846                  22578629.780
  22578628.220          49.700          41.250
 115047313.697 8  89647212.922 7                  21892781.140    21892777.880
  21892777.440          50.700          46.700
 107049325.597 8  83415059.167 8  79939435.137 8  20370806.920    20370806.440
  20370805.860          50.650          49.700
 113359313.293 8  88331899.84447                  21571554.880
  21571549.580          51.250          44.550
 127402624.796 7  99274768.367 6                  24243910.420    24243909.660
  24243908.620          46.800          39.700
 123589224.217 8  96303310.817 7  92290680.873 8  23518239.080    23518240.500
  23518240.040          48.050          44.550
 137592208.222 6 107214722.53146                  26182928.240
  26182930.740          40.200          37.700
 115328049.313 8  89865974.17347                  21946201.180
  21946197.200          49.650          42.600
 117505718.772 8  91562914.10147                  22360584.140
  22360581.600          49.450          43.200
 108924949.885 8  84876599.542 8  81340063.393 8  20727726.940    20727726.120
  20727725.940          50.700          49.400
 105119939.660 8  81759966.969 7                  19657959.760    19657962.160
  19657960.240          49.050          43.000
 107941354.325 8  83954386.872 7                  20171427.720    20171429.520
  20171428.340          49.750          46.950
 106824344.206 8  83085618.800 7                  20018837.340    20018841.640
  20018840.980          49.850          47.100
 128248479.257 7  99748818.097 6                  23949501.340    23949506.120
  23949505.500          44.850          38.400
 127471985.036 7  99144934.357 5                  23913415.600    23913428.260
  23913426.780          45.300          34.050
 127959247.465 7  99523879.210 6                  23903859.520    23903864.400
  23903863.560          44.200          39.000
 130073171.924 7 101168033.145 5                  24367090.800    24367095.940
  24367095.000          44.450          33.950
 130727027.157 6 101676619.318 5                  24463779.120    24463790.680
  24463788.980          40.800          30.250
 124797791.390 7  97064951.750 7                  23329640.500    23329647.920
  23329645.800          46.050          42.300
 107287506.206 8  83445846.712 7                  20070342.800    20070347.600
  20070347.300          49.600          42.550
 15  1 27  9  6 45.0000000  0 24G11G06G28G08G04G17G03G23G31G09G19G20
                                G32G01R24R17R02R08R10R03R18R11R23R01
 114439382.575 8  89173527.06647                  21777091.220
  21777087.660          50.450          43.600
 131217657.499 7 102247524.929 6  97987208.576 8  24969891.740    24969894.180
  24969893.160          43.750          40.450
 131159293.754 7 102201999.95145                  24958795.020
  24958793.740          43.200          31.900
 131241256.807 7 102265928.83645                  24974376.760
  24974377.960          45.300          35.800
 118665333.116 8  92466495.14746                  22581259.680
  22581258.140          49.550          41.250
 115040320.658 8  89641763.794 7                  21891450.440    21891447.160
  21891446.720          50.550          46.700
 107051304.415 8  83416601.099 8  79940912.820 8  20371183.500    20371183.000
  20371182.400          50.600          49.550
 113347420.743 8  88322632.92647                  21569291.800
  21569286.520          51.100          44.550
 127399918.337 7  99272659.419 6                  24243395.380    24243394.640
  24243393.620          47.100          39.850
 123571051.563 7  96289150.320 7  92277110.407 8  23514780.940    23514782.300
  23514781.840          47.600          44.250
 137610563.893 6 107229025.61246                  26186421.400
  26186423.880          40.550          36.000
 115316789.843 8  89857200.56447                  21944058.580
  21944054.600          49.450          42.550
 117519082.856 8  91573327.65947                  22363127.300
  22363124.740          49.600          42.650
 108930850.068 8  84881197.081 8  81344469.362 8  20728849.660    20728848.900
  20728848.720          50.650          49.400
 105130297.266 7  81768022.876 7                  19659896.660    19659899.100
  19659897.180          47.800          42.800
 107929238.409 8  83944963.377 7                  20169163.560    20169165.360
  20169164.220          48.800          47.100
 106817496.656 8  83080292.926 7                  20017554.100    20017558.440
  20017557.760          48.900          47.150
 128266687.650 7  99762980.129 6                  23952901.640    23952906.500
  23952905.840          43.550          38.600
 127465212.380 7  99139666.752 5                  23912145.100    23912157.700
  23912156.200          44.450          34.750
 127942261.618 7  99510668.001 6                  23900686.420    23900691.240
  23900690.400          43.050          39.600
 130051871.328 7 101151465.977 5                  24363100.540    24363105.600
  24363104.720          43.000          34.100
 130710825.854 6 101664018.280 5                  24460747.300    24460759.100
  24460757.160          39.050          30.550
 124819503.987 7  97081839.272 7                  23333699.560    23333706.880
  23333704.900          44.850          42.550
 107298107.496 8  83454092.152 7                  20072326.020    20072330.820
  20072330.480          48.450          42.450
 15  1 27  9  6 50.0000000  0 24G11G06G28G08G04G17G03G23G31G09G19G20
                                G32G01R24R17R02R08R10R03R18R11R23R01
 114453418.975 8  89184464.51447                  21779762.260
  21779758.700          50.350          43.750
 131201496.581 7 102234932.018 6  97975140.382 8  24966816.420    24966818.900
  24966817.880          43.450          39.450
 131170734.623 7 102210914.91845                  24960972.160
  24960970.820          43.700          31.000
 131230278.273 7 102257374.14846                  24972287.520
  24972288.720          45.550          36.050
 118679160.163 8  92477269.46546                  22583890.860
  22583889.360          49.600          41.500
 115033342.886 8  89636326.567 7                  21890122.620    21890119.380
  21890118.900          50.350          46.850
 107053291.817 8  83418149.720 8  79942396.907 8  20371561.700    20371561.200
  20371560.580          50.550          49.550
 113335539.400 8  88313374.74047                  21567030.860
  21567025.560          51.050          44.500
 127397226.229 7  99270561.671 6                  24242883.120    24242882.340
  24242881.400          46.700          40.500
 123552883.841 7  96274993.665 7  92263543.619 8  23511323.740    23511325.040
  23511324.640          47.550          44.450
 137628917.622 6 107243327.13145                  26189914.020
  26189915.820          40.800          35.650
 115305537.012 8  89848432.13347                  21941917.240
  21941913.280          49.400          42.450
 117532450.292 8  91583743.84347                  22365671.060
  22365668.460          49.450          42.450
 108936760.753 8  84885802.806 8  81348883.180 8  20729974.400    20729973.680
  20729973.480          50.550          49.450
 105140674.732 8  81776094.236 7                  19661837.300    19661839.740
  19661837.800          48.000          42.850
 107917139.405 8  83935553.047 7                  20166902.560    20166904.380
  20166903.280          49.000          47.000
 106810662.651 8  83074977.601 7                  20016273.420    20016277.740
  20016277.060          49.000          47.150
 128284894.209 7  99777140.752 6                  23956301.640    23956306.460
  23956305.740          43.950          37.950
 127458457.776 7  99134413.174 5                  23910877.960    23910890.440
  23910889.080          44.000          33.900
 127925281.525 7  99497461.285 6                  23897514.440    23897519.280
  23897518.360          43.550          39.300
 130030572.576 7 101134900.244 5                  24359110.620    24359115.720
  24359114.780          42.550          33.600
 130694629.752 6 101651421.341 5                  24457716.460    24457728.100
  24457726.340          40.050          30.950
 124841222.289 7  97098731.237 7                  23337759.540    23337766.900
  23337765.020          44.500          42.250
 107308718.333 8  83462345.023 7                  20074311.040    20074315.780
  20074315.460          48.300          42.350
 15  1 27  9  6 55.0000000  0 24G11G06G28G08G04G17G03G23G31G09G19G20
                                G32G01R24R17R02R08R10R03R18R11R23R01
 114467463.464 8  89195408.27047                  21782434.840
  21782431.280          50.200          43.850
 131185333.836 7 102222337.653 6  97963070.784 8  24963740.760    24963743.180
  24963742.180          43.500          39.600
 131182176.727 7 102219830.79845                  24963149.560
  24963148.260          43.550          33.100
 131219304.472 7 102248823.17945                  24970199.200
  24970200.480          45.700          34.250
 118692992.733 8  92488048.08146                  22586523.120
  22586521.600          49.400          41.200
 115026379.015 8  89630900.174 7                  21888797.440    21888794.180
  21888793.720          50.150          46.900
 107055286.410 8  83419703.950 8  79943886.372 8  20371941.280    20371940.760
  20371940.120          50.450          49.650
 113323667.833 8  88304124.17947                  21564771.780
  21564766.460          50.900          44.750
 127394547.144 7  99268474.074 6                  24242373.360    24242372.560
  24242371.660          46.900          40.800
 123534719.698 7  96260839.812 7  92249979.508 8  23507867.220    23507868.500
  23507868.100          47.000          44.650
 137647268.022 6 107257626.08245                  26193406.120
  26193408.540          40.350          35.350
 115294289.465 8  89839667.82147                  21939776.900
  21939772.940          49.300          42.750
 117545819.683 8  91594161.54647                  22368215.200
  22368212.560          49.150          42.950
 108942680.588 8  84890415.664 8  81353303.827 8  20731100.860    20731100.220
  20731100.000          50.300          49.600
 105151070.617 8  81784179.919 7                  19663781.360    19663783.840
  19663781.880          48.000          42.750
 107905055.949 8  83926154.798 7                  20164644.480    20164646.340
  20164645.240          49.050          46.950
 106803840.741 8  83069671.675 7                  20014995.020    20014999.340
  20014998.640          48.950          47.000
 128303097.582 7  99791298.948 6                  23959701.020    23959705.740
  23959705.020          43.700          37.550
 127451719.894 7  99129172.603 5                  23909613.960    23909626.500
  23909625.080          44.300          34.550
 127908306.113 7  99484258.210 6                  23894343.340    23894348.100
  23894347.160          43.800          39.000
 130009274.224 7 101118334.811 5                  24355120.820    24355125.700
  24355124.920          42.300          34.150
 130678437.338 6 101638827.227 5                  24454686.320    24454697.840
  24454696.280          40.100          31.350
 124862944.898 7  97115626.543 6                  23341820.380    23341827.660
  23341825.840          46.200          41.550
 107319337.343 8  83470604.245 7                  20076297.560    20076302.320
  20076301.940          48.300          42.250
 15  1 27  9  7  0.0000000  0 24G11G06G28G08G04G17G03G23G31G09G19G20
                                G32G01R24R17R02R08R10R03R18R11R23R01
 114481516.745 8  89206358.86047                  21785109.100
  21785105.520          50.250          44.150
 131169169.857 7 102209742.342 6  97951000.286 8  24960664.880    24960667.240
  24960666.280          44.000          40.000
 131193620.751 7 102228748.18845                  24965327.280
  24965326.020          42.950          35.150
 131208336.038 7 102240276.37245                  24968111.960
  24968113.240          45.600          35.200
 118706831.430 8  92498831.45846                  22589156.540
  22589155.000          49.550          41.600
 115019429.712 8  89625485.124 7                  21887475.040    21887471.780
  21887471.320          50.100          46.950
 107057288.863 8  83421264.299 8  79945381.710 8  20372322.340    20372321.820
  20372321.180          50.600          49.700
 113311806.811 8  88294881.82247                  21562514.700
  21562509.380          50.800          44.650
 127391881.706 7  99266397.095 6                  24241866.260    24241865.340
  24241864.520          47.300          40.700
 123516559.830 7  96246689.284 7  92236418.587 8  23504411.500    23504412.780
  23504412.400          47.050          44.600
 137665615.715 6 107271922.91546                  26196897.660
  26196899.780          41.400          37.900
 115283047.870 8  89830908.13847                  21937637.680
  21937633.760          49.400          42.750
 117559191.704 8  91604581.28647                  22370759.820
  22370757.140          49.350          42.500
 108948610.259 8  84895036.175 8  81357731.819 8  20732229.200    20732228.600
  20732228.380          50.250          49.600
 105161485.759 8  81792280.562 7                  19665729.040    19665731.520
  19665729.560          48.100          42.800
 107892988.957 8  83916769.357 7                  20162389.480    20162391.320
  20162390.240          49.100          46.900
 106797031.785 8  83064375.812 7                  20013719.040    20013723.340
  20013722.600          49.000          46.900
 128321298.433 7  99805455.174 6                  23963099.920    23963104.640
  23963103.800          44.000          37.650
 127444999.384 7  99123945.565 5                  23908353.240    23908365.640
  23908364.360          43.700          33.600
 127891335.894 7  99471059.197 6                  23891173.220    23891177.900
  23891176.940          43.850          39.700
 129987977.057 7 101101770.330 5                  24351131.200    24351136.020
  24351135.320          43.400          35.850
 130662249.349 6 101626236.587 5                  24451657.000    24451668.500
  24451666.840          39.850          31.200
 124884672.401 7  97132525.696 6                  23345882.200    23345889.360
  23345887.580          46.900          41.650
 107329965.107 8  83478870.279 7                  20078285.740    20078290.500
  20078290.060          48.400          42.050
 15  1 27  9  7  5.0000000  0 24G11G06G28G08G04G17G03G23G31G09G19G20
                                G32G01R24R17R02R08R10R03R18R11R23R01
 114495580.340 8  89217317.49747                  21787785.320
  21787781.720          50.100          44.150
 131153006.211 7 102197147.273 6  97938930.053 8  24957589.080    24957591.340
  24957590.400          42.800          39.100
 131205068.252 7 102237668.30245                  24967505.660
  24967504.560          42.600          31.900
 131197374.581 7 102231734.98545                  24966026.080
  24966027.340          46.050          35.000
 118720677.886 8  92509620.89546                  22591791.420
  22591789.900          49.350          41.850
 115012496.533 8  89620082.650 7                  21886155.700    21886152.440
  21886151.980          50.000          46.900
 107059300.750 8  83422831.997 8  79946884.092 8  20372705.200    20372704.660
  20372704.020          50.500          49.700
 113299957.917 8  88285648.91847                  21560259.920
  21560254.580          50.600          45.250
 127389231.544 7  99264332.030 6                  24241362.020    24241361.080
  24241360.260          47.400          40.800
 123498405.819 7  96232543.314 7  92222862.042 8  23500956.880    23500958.160
  23500957.780          46.750          44.350
 137683962.334 6 107286218.85945                  26200388.960
  26200391.240          40.950          35.700
 115271813.810 8  89822154.33147                  21935499.900
  21935496.000          49.450          42.550
 117572567.979 8  91615004.35147                  22373305.200
  22373302.540          48.850          42.950
 108954551.308 8  84899665.556 8  81362168.315 8  20733359.700    20733359.160
  20733358.960          50.300          49.550
 105171921.448 8  81800397.201 7                  19667680.580    19667683.080
  19667681.080          48.500          42.600
 107880939.853 8  83907397.830 7                  20160137.820    20160139.680
  20160138.600          48.900          46.950
 106790237.209 8  83059091.142 7                  20012445.740    20012450.020
  20012449.300          49.050          46.950
 128339498.389 7  99819610.677 6                  23966498.600    23966503.480
  23966502.540          45.350          38.500
 127438297.918 7  99118733.307 5                  23907096.100    23907108.460
  23907107.180          44.450          33.200
 127874372.458 7  99457865.467 6                  23888004.320    23888009.000
  23888008.000          43.500          39.650
 129966682.629 7 101085208.001 5                  24347142.060    24347146.880
  24347146.280          43.750          34.250
 130646067.502 6 101613650.719 5                  24448628.800    24448640.300
  24448638.600          38.900          31.100
 124906406.527 7  97149429.995 6                  23349945.320    23349952.320
  23349950.660          46.750          41.850
 107340603.318 8  83487144.431 6                  20080275.880    20080280.580
  20080280.120          48.900          41.750
 15  1 27  9  7 10.0000000  0 24G11G06G28G08G04G17G03G23G31G09G19G20
                                G32G01R24R17R02R08R10R03R18R11R23R01
 114509652.024 8  89228282.43747                  21790463.060
  21790459.480          50.050          44.200
 131136840.729 7 102184550.790 6  97926858.413 7  24954512.960    24954515.080
  24954514.160          44.000          39.700
 131216516.951 7 102246589.34345                  24969684.280
  24969683.000          42.700          34.250
 131186417.927 7 102223197.34345                  24963941.100
  24963942.300          46.300          34.250
 118734529.902 8  92520414.66146                  22594427.400
  22594425.860          49.450          41.800
 115005577.231 8  89614690.981 7                  21884838.980    21884835.740
  21884835.280          49.950          46.800
 107061319.837 8  83424405.306 8  79948391.840 8  20373089.440    20373088.880
  20373088.240          50.400          49.750
 113288118.937 8  88276423.74447                  21558007.020
  21558001.680          50.750          44.900
 127386594.423 7  99262277.118 6                  24240860.240    24240859.280
  24240858.560          46.950          40.950
 123480255.407 7  96218400.150 7  92209308.190 8  23497502.960    23497504.240
  23497503.840          46.400          44.550
 137702305.640 6 107300512.26245                  26203879.800
  26203881.500          39.200          34.350
 115260585.037 8  89813404.64247                  21933363.120
  21933359.260          49.350          42.800
 117585946.203 8  91625428.92147                  22375851.000
  22375848.300          48.700          43.300
 108960501.519 8  84904302.082 8  81366611.644 8  20734491.960    20734491.460
  20734491.280          50.400          49.550
 105182375.623 8  81808528.217 7                  19669635.580    19669638.080
  19669636.080          48.250          42.700
 107868906.429 8  83898038.498 7                  20157889.100    20157890.940
  20157889.900          48.750          46.950
 106783454.779 8  83053815.921 7                  20011174.740    20011179.020
  20011178.280          49.350          47.100
 128357695.130 7  99833763.670 6                  23969896.640    23969901.700
  23969900.760          45.350          38.050
 127431613.222 7  99113534.111 5                  23905842.100    23905854.500
  23905853.160          43.800          33.700
 127857413.667 7  99444675.301 6                  23884836.300    23884840.960
  23884839.980          43.300          40.250
 129945388.758 7 101068646.064 5                  24343153.060    24343157.860
  24343157.240          43.550          32.400
 130629889.471 6 101601067.822 4                  24445601.380    24445613.000
  24445611.120          38.100          29.250
 124928144.884 7  97166337.560 6                  23354009.140    23354016.080
  23354014.500          45.650          40.950
 107351249.621 8  83495424.889 7                  20082267.540    20082272.140
  20082271.700          49.000          42.150
 15  1 27  9  7 15.0000000  0 24G11G06G28G08G04G17G03G23G31G09G19G20
                                G32G01R24R17R02R08R10R03R18R11R23R01
 114523732.857 8  89239254.50547                  21793142.540
  21793138.980          50.100          43.800
 131120674.453 7 102171953.681 6  97914786.156 7  24951436.700    24951438.680
  24951437.700          43.850          40.250
 131227967.881 7 102255512.13245                  24971863.340
  24971862.080          42.350          34.000
 131175467.053 7 102214664.20945                  24961857.200
  24961858.320          46.100          35.900
 118748388.387 8  92531213.46247                  22597064.600
  22597063.040          49.550          42.000
 114998672.868 8  89609310.952 7                  21883525.120    21883521.880
  21883521.420          49.900          46.800
 107063347.149 8  83425985.025 8  79949905.735 8  20373475.260    20373474.660
  20373474.020          50.400          49.800
 113276290.880 8  88267207.07647                  21555756.200
  21555750.860          50.700          45.050
 127383971.364 7  99260233.184 6                  24240361.080    24240360.120
  24240359.480          46.700          40.600
 123462109.683 7  96204260.651 7  92195757.832 8  23494049.920    23494051.200
  23494050.780          46.400          44.850
 137720646.657 6 107314803.96944                  26207370.020
  26207371.520          36.750          26.400
 115249362.559 8  89804659.86247                  21931227.560
  21931223.700          49.200          42.800
 117599327.402 8  91635855.81747                  22378397.320
  22378394.660          48.700          43.100
 108966461.925 8  84908946.549 8  81371062.589 8  20735626.160    20735625.680
  20735625.520          50.300          49.650
 105192849.242 7  81816674.357 7                  19671594.180    19671596.700
  19671594.700          47.950          42.550
 107856889.807 8  83888692.239 7                  20155643.500    20155645.340
  20155644.340          48.650          47.150
 106776685.612 8  83048551.021 7                  20009906.220    20009910.480
  20009909.740          49.150          47.050
 128375889.731 7  99847915.008 6                  23973294.300    23973299.500
  23973298.580          44.150          38.100
 127424946.375 7  99108348.815 5                  23904591.440    23904603.780
  23904602.540          43.100          34.150
 127840460.364 7  99431489.396 6                  23881669.260    23881673.940
  23881672.980          42.600          40.500
 129924096.423 7 101052085.265 5                  24339164.320    24339169.240
  24339168.380          42.800          32.550
 130613716.342 6 101588488.718 5                  24442574.820    24442586.400
  24442584.300          40.200          30.350
 124949888.757 7  97183249.401 6                  23358073.840    23358080.840
  23358079.300          45.400          40.800
 107361905.013 8  83503712.410 7                  20084260.900    20084265.420
  20084264.980          48.950          42.250
 15  1 27  9  7 20.0000000  0 24G11G06G28G08G04G17G03G23G31G09G19G20
                                G32G01R24R17R02R08R10R03R18R11R23R01
 114537823.003 8  89250233.83347                  21795823.800
  21795820.240          50.050          43.800
 131104507.552 7 102159356.080 6  97902713.443 7  24948360.320    24948362.180
  24948361.240          42.950          40.000
 131239421.205 7 102264436.77945                  24974042.860
  24974041.560          43.250          33.350
 131164522.214 7 102206135.79246                  24959774.460
  24959775.420          46.200          36.400
 118762253.585 8  92542017.50646                  22599703.100
  22599701.500          49.550          41.800
 114991783.677 8  89603942.745 7                  21882214.140    21882210.900
  21882210.420          49.800          46.800
 107065382.907 8  83427571.326 8  79951425.941 8  20373862.660    20373862.060
  20373861.420          50.350          49.800
 113264473.963 8  88257999.09347                  21553507.520
  21553502.140          50.750          45.050
 127381362.638 7  99258200.403 6                  24239864.640    24239863.700
  24239863.100          46.750          40.550
 123443968.856 7  96190124.969 7  92182211.136 8  23490597.800    23490599.140
  23490598.720          46.600          44.700
 137738996.75716 107329095.14355                  26210857.940
  26210861.400          39.150          33.950
 115238146.642 8  89795920.19147                  21929093.240
  21929089.380          49.150          42.800
 117612711.812 8  91646285.22147                  22380944.260
  22380941.640          48.650          43.600
 108972432.767 8  84913599.148 8  81375521.333 8  20736762.380    20736761.900
  20736761.760          50.100          49.650
 105203342.633 8  81824835.871 7                  19673556.500    19673559.020
  19673557.000          48.050          42.300
 107844890.087 8  83879359.123 7                  20153401.040    20153402.900
  20153401.920          48.550          46.950
 106769929.833 8  83043296.533 7                  20008640.200    20008644.440
  20008643.700          48.950          46.950
 128394082.453 7  99862064.882 6                  23976691.620    23976696.860
  23976695.960          43.650          38.200
 127418297.487 7  99103177.460 5                  23903344.120    23903356.500
  23903355.240          42.500          34.000
 127823512.938 7  99418308.069 6                  23878503.320    23878508.020
  23878507.100          42.550          40.550
 129902805.923 7 101035525.946 5                  24335175.900    24335180.900
  24335180.020          42.650          34.200
 130597548.312 6 101575913.595 5                  24439549.180    24439560.620
  24439558.460          39.000          30.500
 124971637.975 7  97200165.401 6                  23362139.640    23362146.640
  23362145.060          46.800          40.900
 107372569.651 8  83512007.126 7                  20086256.000    20086260.540
  20086260.040          48.950          42.250
 15  1 27  9  7 25.0000000  0 24G11G06G28G08G04G17G03G23G31G09G19G20
                                G32G01R24R17R02R08R10R03R18R11R23R01
 114551922.589 8  89261220.50547                  21798506.860
  21798503.320          50.250          44.050
 131088340.160 7 102146758.109 6  97890640.402 7  24945283.740    24945285.580
  24945284.660          42.700          39.650
 131250877.074 7 102273363.40245                  24976222.880
  24976221.680          43.150          34.300
 131153583.585 7 102197612.17045                  24957692.960
  24957693.780          46.350          34.650
 118776125.688 8  92552826.92346                  22602342.920
  22602341.280          49.550          41.950
 114984909.730 8  89598586.419 7                  21880906.040    21880902.800
  21880902.340          49.800          46.750
 107067427.224 8  83429164.294 8  79952952.537 8  20374251.700    20374251.080
  20374250.440          50.450          49.750
 113252668.337 8  88248799.90247                  21551260.960
  21551255.600          50.750          45.250
 127378768.322 7  99256178.853 6                  24239371.000    24239370.020
  24239369.380          46.600          40.000
 123425833.077 7  96175993.205 7  92168668.202 8  23487146.680    23487148.000
  23487147.580          46.800          44.400
 137757333.767 7 107343383.55446                  26214349.480
  26214351.640          45.050          37.050
 115226937.441 8  89787185.75547                  21926960.200
  21926956.360          49.050          42.600
 117626099.548 8  91656717.21347                  22383491.840
  22383489.260          48.650          42.950
 108978414.135 8  84918259.946 8  81379987.931 8  20737900.580    20737900.120
  20737900.020          50.200          49.650
 105213855.727 8  81833012.717 7                  19675522.520    19675525.000
  19675522.960          48.200          42.450
 107832907.603 8  83870039.422 7                  20151161.800    20151163.700
  20151162.740          48.850          46.950
 106763187.648 8  83038052.614 7                  20007376.740    20007380.960
  20007380.220          49.300          47.000
 128412273.266 7  99876213.255 6                  23980088.540    23980093.840
  23980093.040          43.650          38.050
 127411666.861 7  99098020.325 5                  23902100.220    23902112.600
  23902111.380          42.850          33.700
 127806571.674 7  99405131.566 6                  23875338.480    23875343.240
  23875342.380          42.900          40.600
 129881517.404 7 101018968.211 5                  24331187.820    24331193.000
  24331192.100          43.200          34.000
 130581385.676 6 101563342.677 5                  24436524.500    24436535.880
  24436533.720          38.750          30.000
 124993392.776 7  97217085.769 6                  23366206.600    23366213.500
  23366211.920          46.850          40.700
 107383243.792 8  83520309.232 7                  20088252.840    20088257.320
  20088256.860          48.700          42.350
 15  1 27  9  7 30.0000000  0 24G11G06G28G08G04G17G03G23G31G09G19G20
                                G32G01R24R17R02R08R10R03R18R11R23R01
 114566030.814 8  89272213.91747                  21801191.580
  21801188.020          50.300          43.700
 131072171.480 7 102134159.146 6  97878566.388 8  24942206.900    24942208.800
  24942207.820          42.000          39.700
 131262334.728 7 102282291.39445                  24978403.200
  24978401.920          42.900          34.300
 131142650.302 7 102189092.73746                  24955612.480
  24955613.220          45.850          36.400
 118790003.772 8  92563641.00046                  22604983.860
  22604982.200          49.600          41.700
 114978050.264 8  89593241.375 7                  21879600.720    21879597.520
  21879597.000          49.700          46.700
 107069479.281 8  83430763.291 8  79954484.907 8  20374642.220    20374641.580
  20374640.940          50.450          49.750
 113240873.184 8  88239608.87647                  21549016.420
  21549011.060          50.800          44.900
 127376187.655 7  99254167.936 6                  24238879.960    24238878.900
  24238878.300          47.150          40.250
 123407701.513 7  96161864.722 7  92155128.421 8  23483696.360    23483697.680
  23483697.240          47.050          44.700
 137775667.892 7 107357669.79345                  26217838.220
  26217840.780          43.800          34.150
 115215734.081 8  89778455.86647                  21924828.280
  21924824.460          48.900          42.950
 117639489.768 8  91667151.14047                  22386039.900
  22386037.380          48.600          43.600
 108984405.222 8  84922928.313 8  81384461.783 8  20739040.620    20739040.220
  20739040.100          50.150          49.650
 105224387.793 8  81841204.316 7                  19677492.060    19677494.600
  19677492.500          48.450          42.650
 107820941.419 8  83860732.384 7                  20148925.600    20148927.540
  20148926.560          48.750          46.950
 106756458.188 8  83032818.587 7                  20006115.660    20006119.860
  20006119.100          49.650          46.950
 128430461.461 7  99890359.584 6                  23983485.020    23983490.340
  23983489.560          43.750          37.800
 127405053.643 7  99092876.715 5                  23900859.660    23900871.920
  23900870.680          43.900          33.700
 127789635.292 7  99391958.849 6                  23872174.580    23872179.360
  23872178.500          43.050          40.150
 129860229.976 7 101002411.275 5                  24327200.000    24327204.920
  24327204.280          43.400          33.900
 130565227.429 6 101550775.177 5                  24433500.660    24433512.080
  24433509.800          39.450          30.800
 125015152.475 7  97234009.933 6                  23370274.440    23370281.320
  23370279.760          46.400          41.150
 107393926.487 8  83528617.995 7                  20090251.260    20090255.700
  20090255.300          48.700          42.300
 15  1 27  9  7 35.0000000  0 24G11G06G28G08G04G17G03G23G31G09G19G20
                                G32G01R24R17R02R08R10R03R18R11R23R01
 114580148.448 8  89283214.66347                  21803878.060
  21803874.540          49.800          44.200
 131056002.361 6 102121559.822 6  97866492.008 8  24939129.960    24939131.940
  24939130.900          41.150          38.650
 131273794.915 7 102291221.39445                  24980584.000
  24980582.800          42.250          34.950
 131131723.192 7 102180578.13246                  24953533.100
  24953533.960          44.450          36.500
 118803888.713 8  92574460.42546                  22607626.120
  22607624.440          49.150          41.550
 114971206.085 8  89587908.244 7                  21878298.300    21878295.100
  21878294.580          49.300          46.750
 107071539.870 8  83432368.941 8  79956023.649 8  20375034.340    20375033.720
  20375033.060          50.050          49.700
 113229089.345 8  88230426.66747                  21546774.040
  21546768.680          50.400          45.450
 127373621.403 7  99252168.251 6                  24238391.680    24238390.540
  24238389.920          46.850          40.400
 123389574.996 7  96147740.179 7  92141592.401 8  23480247.000    23480248.320
  23480247.860          46.700          44.700
 137793999.942 6 107371954.45645                  26221326.660
  26221329.660          41.800          32.950
 115204537.364 8  89769731.15347                  21922697.580
  21922693.780          48.100          43.950
 117652883.305 8  91677587.65347                  22388588.600
  22388586.080          48.150          43.750
 108990406.841 8  84927604.893 8  81388943.499 8  20740182.680    20740182.280
  20740182.200          49.750          49.650
 105234939.687 7  81849411.339 7                  19679465.360    19679467.880
  19679465.760          47.400          42.850
 107808992.386 7  83851438.687 7                  20146692.620    20146694.580
  20146693.600          47.550          46.650
 106749742.206 8  83027595.050 7                  20004857.120    20004861.220
  20004860.520          48.900          47.000
 128448647.773 7  99904504.458 6                  23986881.140    23986886.540
  23986885.700          42.050          37.900
 127398458.566 7  99087747.198 5                  23899622.480    23899634.460
  23899633.320          43.000          32.500
 127772705.039 6  99378790.908 6                  23869011.820    23869016.560
  23869015.800          41.750          39.750
 129838944.572 7 100985855.932 5                  24323212.580    24323217.500
  24323216.880          42.700          34.300
 130549074.441 6 101538211.752 5                  24430477.820    24430489.300
  24430487.140          37.600          30.700
 125036917.693 7  97250938.391 6                  23374343.300    23374350.140
  23374348.540          45.050          40.700
 107404618.606 7  83536934.085 7                  20092251.460    20092255.800
  20092255.480          47.850          42.350
 15  1 27  9  7 40.0000000  0 24G11G06G28G08G04G17G03G23G31G09G19G20
                                G32G01R24R17R02R08R10R03R18R11R23R01
 114594273.287 8  89294221.02347                  21806565.940
  21806562.420          50.150          43.400
 131039830.428 7 102108958.323 6  97854415.585 8  24936052.580    24936054.520
  24936053.500          43.000          39.100
 131285255.351 7 102300151.57145                  24982764.860
  24982763.660          43.600          34.000
 131120800.030 7 102172066.60446                  24951454.480
  24951455.460          44.650          37.100
 118817778.240 8  92585283.42446                  22610269.260
  22610267.540          49.450          41.900
 114964374.920 8  89582585.254 7                  21876998.380    21876995.160
  21876994.640          49.650          46.750
 107073606.744 8  83433979.487 8  79957567.088 8  20375427.660    20375427.020
  20375426.380          50.550          49.750
 113217314.526 8  88221251.49047                  21544533.360
  21544528.000          50.850          45.150
 127371067.317 7  99250178.048 6                  24237905.740    24237904.520
  24237903.800          47.150          39.900
 123371451.280 7  96133617.826 7  92128058.471 8  23476798.180    23476799.500
  23476799.040          47.350          45.000
 137812327.619 6 107386235.68945                  26224814.320
  26224816.920          41.650          33.550
 115193345.037 8  89761009.86447                  21920567.740
  21920563.960          48.850          42.650
 117666277.863 8  91688024.95647                  22391137.480
  22391135.020          48.950          42.700
 108996416.725 8  84932287.918 8  81393431.398 8  20741326.300    20741325.960
  20741325.880          50.200          49.700
 105245508.996 8  81857631.896 7                  19681441.900    19681444.420
  19681442.300          48.600          42.750
 107797058.189 8  83842156.538 7                  20144462.440    20144464.360
  20144463.380          49.150          46.750
 106743037.610 8  83022380.372 7                  20003600.700    20003604.780
  20003604.080          50.000          46.950
 128466829.932 7  99918646.113 6                  23990276.560    23990281.940
  23990281.060          44.100          37.950
 127391879.506 7  99082630.149 5                  23898388.320    23898400.240
  23898398.980          45.300          33.050
 127755778.482 7  99365625.862 6                  23865849.700    23865854.500
  23865853.740          43.800          39.700
 129817658.871 7 100969300.351 5                  24319225.100    24319230.060
  24319229.400          44.200          33.400
 130532924.600 6 101525650.779 4                  24427455.480    24427467.200
  24427464.900          41.200          29.150
 125058686.250 7  97267869.453 6                  23378412.740    23378419.660
  23378417.920          46.000          40.550
 107415317.891 8  83545255.749 7                  20094252.960    20094257.320
  20094257.000          49.250          42.450
 15  1 27  9  7 45.0000000  0 24G11G06G28G08G04G17G03G23G31G09G19G20
                                G32G01R24R17R02R08R10R03R18R11R23R01
 114608408.671 8  89305235.59147                  21809255.800
  21809252.300          49.450          44.500
 131023659.165 7 102096357.322 6  97842339.636 8  24932975.340    24932977.140
  24932976.180          42.600          37.750
 131296719.334 6 102309084.50245                  24984946.380
  24984945.200          41.550          34.400
 131109884.139 7 102163560.73246                  24949377.180
  24949378.380          43.200          38.150
 118831675.672 8  92596112.57647                  22612913.920
  22612912.120          48.850          42.100
 114957560.103 8  89577275.003 7                  21875701.560    21875698.360
  21875697.840          48.850          46.750
 107075683.192 8  83435597.501 8  79959117.686 8  20375822.820    20375822.160
  20375821.520          49.700          49.650
 113205552.070 8  88212085.94047                  21542295.040
  21542289.700          50.150          45.550
 127368528.712 7  99248199.900 6                  24237422.680    24237421.380
  24237420.580          46.250          39.350
 123353333.688 7  96119500.232 7  92114529.134 8  23473350.520    23473351.860
  23473351.400          46.650          44.900
 137830654.285 5 107400516.11844                  26228301.620
  26228303.600          35.000          29.350
 115182160.437 7  89752294.58947                  21918439.360
  21918435.600          47.850          43.850
 117679676.761 8  91698465.65047                  22393687.200
  22393684.760          48.000          43.400
 109002438.202 8  84936979.974 8  81397927.955 8  20742472.140    20742471.820
  20742471.740          49.400          49.600
 105256099.141 7  81865868.663 7                  19683422.360    19683424.800
  19683422.700          46.600          42.600
 107785142.202 7  83832888.548 7                  20142235.620    20142237.580
  20142236.560          47.750          46.650
 106736347.568 8  83017177.016 7                  20002347.000    20002351.040
  20002350.340          48.050          46.750
 128485011.226 6  99932787.103 6                  23993671.780    23993677.200
  23993676.220          41.250          36.600
 127385319.748 7  99077528.150 5                  23897157.760    23897169.560
  23897168.260          42.850          33.200
 127738858.975 6  99352466.269 6                  23862688.920    23862693.760
  23862693.000          41.350          40.250
 129796376.198 7 100952747.117 5                  24315238.140    24315242.960
  24315242.380          42.550          33.700
 130516781.252 6 101513094.823 4                  24424434.500    24424446.100
  24424443.680          38.100          29.050
 125080461.378 7  97284805.620 6                  23382483.340    23382490.360
  23382488.480          43.800          40.100
 107426027.520 7  83553585.444 7                  20096256.440    20096260.760
  20096260.480          47.600          42.300
 15  1 27  9  7 50.0000000  0 23G11G06G28G08G04G17G03G23G31G09G20G32
                                G01R24R17R02R08R10R03R18R11R23R01
 114622553.689 8  89316257.67747                  21811947.500
  21811944.020          50.100          44.500
 131007487.695 7 102083756.123 6  97830263.520 8  24929898.080    24929899.760
  24929898.720          43.450          38.500
 131308185.974 7 102318019.54045                  24987128.400
  24987127.340          42.900          33.500
 131098974.688 7 102155059.88546                  24947301.040
  24947302.380          43.400          37.100
 118845580.165 8  92606947.23646                  22615559.900
  22615558.080          49.600          41.100
 114950760.836 8  89571976.869 7                  21874407.700    21874404.480
  21874403.960          49.600          46.750
 107077768.445 8  83437222.368 8  79960674.846 8  20376219.640    20376218.980
  20376218.320          50.300          49.650
 113193801.217 8  88202929.43947                  21540058.960
  21540053.580          50.700          45.150
 127366004.808 7  99246233.213 6                  24236942.440    24236941.140
  24236940.260          47.250          39.850
 123335221.449 7  96105386.822 7  92101003.767 8  23469903.880    23469905.200
  23469904.760          47.250          44.950
 115170982.759 8  89743584.71847                  21916312.260
  21916308.540          48.450          43.150
 117693079.185 8  91708909.09547                  22396237.580
  22396235.140          48.950          42.850
 109008470.458 8  84941680.430 8  81402432.556 8  20743620.020    20743619.740
  20743619.660          50.050          49.600
 105266709.299 7  81874121.012 7                  19685406.560    19685408.980
  19685406.860          45.850          42.250
 107773243.855 7  83823634.272 7                  20140012.140    20140014.100
  20140013.060          46.800          46.750
 106729671.309 7  83011984.364 7                  20001095.920    20001099.900
  20001099.160          47.550          46.550
 128503190.933 6  99946926.885 6                  23997066.800    23997072.020
  23997071.140          40.650          37.500
 127378778.430 7  99072440.424 5                  23895930.600    23895942.400
  23895941.040          42.000          33.850
 127721945.689 6  99339311.520 6                  23859529.360    23859534.160
  23859533.400          39.900          39.850
 129775095.824 6 100936195.655 5                  24311251.660    24311256.380
  24311255.840          40.800          34.050
 130500643.560 6 101500543.323 5                  24421414.480    24421426.160
  24421423.780          36.800          30.650
 125102242.404 7  97301746.374 6                  23386555.120    23386561.940
  23386560.120          42.300          38.900
 107436746.949 7  83561922.771 6                  20098261.780    20098266.040
  20098265.780          46.550          41.950
 15  1 27  9  7 55.0000000  0 23G11G06G28G08G04G17G03G23G31G09G20G32
                                G01R24R17R02R08R10R03R18R11R23R01
 114636707.089 8  89327286.28647                  21814640.800
  21814637.360          49.450          45.300
 130991314.750 7 102071153.816 6  97818186.294 8  24926820.520    24926822.100
  24926821.040          42.350          39.000
 131319654.112 6 102326955.74145                  24989310.700
  24989309.580          41.800          33.150
 131088070.471 7 102146563.10346                  24945225.860
  24945227.420          42.650          36.750
 118859490.397 8  92617786.36547                  22618206.940
  22618205.140          48.600          42.600
 114943975.881 8  89566689.883 7                  21873116.560    21873113.340
  21873112.820          48.800          46.800
 107079861.200 8  83438853.082 8  79962237.606 8  20376617.900    20376617.200
  20376616.560          49.700          49.700
 113182060.676 8  88193780.96447                  21537824.820
  21537819.460          50.000          46.250
 127363494.351 7  99244277.011 6                  24236464.740    24236463.400
  24236462.560          45.700          40.050
 123317113.278 7  96091276.572 7  92087481.450 8  23466458.000    23466459.320
  23466458.900          46.550          44.950
 115159810.719 7  89734879.23747                  21914186.240
  21914182.560          47.700          44.050
 117706483.871 8  91719354.28547                  22398788.420
  22398785.980          48.400          43.350
 109014512.259 8  84946388.323 8  81406944.278 8  20744769.720    20744769.480
  20744769.400          49.350          49.600
 105277338.154 7  81882387.889 7                  19687394.220    19687396.660
  19687394.520          47.700          42.400
 107761361.674 8  83814392.576 7                  20137791.700    20137793.640
  20137792.600          48.700          46.750
 106723007.572 8  83006801.449 7                  19999847.200    19999851.100
  19999850.320          49.600          46.550
 128521367.802 7  99961064.416 6                  24000461.240    24000466.360
  24000465.480          43.200          37.150
 127372254.373 7  99067366.155 5                  23894706.700    23894718.460
  23894717.140          43.150          32.650
 127705037.341 7  99326160.605 6                  23856370.700    23856375.500
  23856374.740          42.750          40.350
 129753816.423 7 100919644.972 6                  24307265.320    24307270.120
  24307269.540          42.350          36.000
 130484510.181 6 101487995.130 5                  24418395.340    24418407.060
  24418404.600          39.600          30.900
 125124027.819 7  97318690.551 6                  23390627.760    23390634.480
  23390632.600          45.300          39.250
 107447474.750 8  83570266.602 7                  20100268.660    20100272.920
  20100272.640          48.500          42.000
 15  1 27  9  8  0.0000000  0 23G11G06G28G08G04G17G03G23G31G09G20G32
                                G01R24R17R02R08R10R03R18R11R23R01
 114650869.891 8  89338322.21947                  21817335.900
  21817332.500          50.600          44.000
 130975141.351 7 102058551.141 6  97806108.759 7  24923742.840    24923744.380
  24923743.360          42.750          39.350
 131331124.687 7 102335893.77445                  24991493.440
  24991492.520          42.300          30.500
 131077172.502 7 102138071.18845                  24943151.880
  24943153.560          44.250          35.700
 118873407.430 8  92628630.78646                  22620855.280
  22620853.500          49.650          41.250
 114937206.276 8  89561414.864 7                  21871828.340    21871825.100
  21871824.600          50.050          46.800
 107081962.484 8  83440490.438 8  79963806.744 8  20377017.760    20377017.080
  20377016.420          50.750          49.750
 113170331.477 8  88184641.32647                  21535592.820
  21535587.480          50.950          45.300
 127360998.383 7  99242332.096 6                  24235989.740    24235988.420
  24235987.620          46.900          40.700
 123299010.195 7  96077170.285 7  92073962.944 8  23463013.100    23463014.380
  23463014.000          47.650          45.000
 115148645.337 8  89726178.94347                  21912061.500
  21912057.860          48.800          42.700
 117719891.818 8  91729802.03147                  22401339.860
  22401337.440          49.600          42.850
 109020564.585 8  84951104.410 8  81411463.867 8  20745921.420    20745921.220
  20745921.140          50.400          49.700
 105287986.658 7  81890670.044 7                  19689385.580    19689387.980
  19689385.860          47.650          42.750
 107749496.644 8  83805164.219 7                  20135574.480    20135576.400
  20135575.340          48.900          46.850
 106716357.340 8  83001629.041 7                  19998601.000    19998604.840
  19998604.020          49.550          46.700
 128539542.641 7  99975200.373 6                  24003855.300    24003860.480
  24003859.420          43.000          36.950
 127365748.629 7  99062306.146 5                  23893486.280    23893498.000
  23893496.700          42.750          33.150
 127688135.079 6  99313014.418 6                  23853213.080    23853218.020
  23853217.260          41.600          40.850
 129732539.060 7 100903095.900 6                  24303279.320    24303284.260
  24303283.680          42.650          37.200
 130468382.145 6 101475451.092 4                  24415377.160    24415388.820
  24415386.360          38.250          29.600
 125145818.605 7  97335638.923 6                  23394701.460    23394708.140
  23394706.160          44.950          40.050
 107458211.807 8  83578617.636 6                  20102277.300    20102281.520
  20102281.220          48.300          41.800
 15  1 27  9  8  5.0000000  0 23G11G06G28G08G04G17G03G23G31G09G20G32
                                G01R24R17R02R08R10R03R18R11R23R01
 114665040.845 8  89349364.51747                  21820032.560
  21820029.160          50.350          44.200
 130958966.334 7 102045947.231 6  97794029.991 7  24920664.780    24920666.400
  24920665.320          42.350          39.600
 131342596.511 6 102344832.81845                  24993676.420
  24993675.500          41.150          33.000
 131066279.639 7 102129583.28345                  24941078.960
  24941080.660          44.200          35.650
 118887330.135 8  92639479.63646                  22623504.720
  22623502.900          49.450          41.400
 114930450.826 8  89556150.874 7                  21870542.820    21870539.580
  21870539.080          49.950          46.900
 107084071.106 8  83442133.516 8  79965381.363 8  20377419.040    20377418.340
  20377417.680          50.650          49.750
 113158612.432 8  88175509.60947                  21533362.780
  21533357.420          50.850          45.400
 127358515.696 7  99240397.525 6                  24235517.300    24235516.040
  24235515.240          46.650          41.050
 123280911.068 7  96063067.085 7  92060447.387 8  23459568.940    23459570.260
  23459569.860          47.150          45.050
 115137485.444 8  89717482.93147                  21909937.780
  21909934.220          48.850          42.700
 117733301.844 8  91740251.38846                  22403891.700
  22403889.300          49.550          41.750
 109026626.277 8  84955827.797 8  81415990.449 8  20747074.900    20747074.740
  20747074.640          50.300          49.700
 105298653.884 7  81898966.769 7                  19691380.360    19691382.860
  19691380.740          47.600          42.800
 107737647.739 8  83795948.406 7                  20133360.240    20133362.180
  20133361.080          48.800          46.600
 106709719.438 8  82996466.234 7                  19997357.100    19997360.880
  19997360.080          49.600          46.750
 128557714.430 7  99989333.958 6                  24007248.840    24007253.900
  24007252.740          42.800          36.700
 127359259.924 7  99057259.395 5                  23892269.000    23892280.860
  23892279.520          42.050          33.650
 127671237.715 6  99299872.064 6                  23850056.420    23850061.500
  23850060.720          40.150          40.750
 129711262.578 6 100886547.519 5                  24299293.580    24299298.380
  24299298.000          41.600          35.700
 130452258.472 6 101462910.485 4                  24412359.860    24412371.400
  24412368.900          38.850          29.800
 125167613.900 7  97352590.774 6                  23398775.920    23398782.620
  23398780.580          43.350          39.600
 107468957.104 8  83586975.085 6                  20104287.460    20104291.660
  20104291.320          48.700          41.950
 15  1 27  9  8 10.0000000  0 23G11G06G28G08G04G17G03G23G31G09G20G32
                                G01R24R17R02R08R10R03R18R11R23R01
 114679220.965 8  89360413.94847                  21822731.000
  21822727.540          50.450          44.100
 130942790.683 6 102033342.828 6  97781950.742 7  24917586.580    24917588.320
  24917587.320          41.700          39.950
 131354070.590 6 102353773.63445                  24995859.780
  24995859.160          41.000          30.450
 131055392.876 7 102121100.09246                  24939007.220
  24939008.900          44.400          36.200
 118901259.502 8  92650333.68146                  22626155.380
  22626153.620          49.300          41.750
 114923710.520 8  89550898.690 7                  21869260.180    21869256.960
  21869256.440          50.000          46.800
 107086188.039 8  83443783.074 8  79966962.178 8  20377821.900    20377821.180
  20377820.520          50.700          49.650
 113146904.544 8  88166386.58647                  21531134.860
  21531129.500          50.950          45.350
 127356047.249 7  99238474.070 6                  24235047.560    24235046.320
  24235045.560          46.650          40.600
 123262816.848 7  96048967.720 7  92046935.476 8  23456125.700    23456127.040
  23456126.620          47.350          44.850
 115126332.015 8  89708791.96047                  21907815.300
  21907811.780          48.950          42.700
 117746714.943 8  91750703.15047                  22406444.120
  22406441.740          49.700          42.600
 109032698.286 8  84960559.233 8  81420524.730 8  20748230.320    20748230.220
  20748230.120          50.150          49.550
 105309340.502 8  81907278.583 7                  19693378.840    19693381.320
  19693379.260          48.000          42.950
 107725815.927 8  83786745.885 7                  20131149.220    20131151.140
  20131150.000          49.000          46.550
 106703094.876 8  82991313.805 7                  19996115.700    19996119.400
  19996118.620          49.550          46.750
 128575884.171 7 100003465.981 6                  24010641.860    24010647.060
  24010645.740          42.800          36.100
 127352789.298 7  99052226.708 5                  23891055.160    23891066.900
  23891065.740          42.600          34.000
 127654346.023 6  99286734.087 6                  23846900.900    23846906.060
  23846905.180          40.850          40.150
 129689987.941 6 100870000.571 5                  24295308.140    24295312.920
  24295312.600          41.700          34.300
 130436140.050 6 101450373.984 5                  24409343.620    24409354.960
  24409352.520          39.900          30.100
 125189414.473 7  97369546.712 6                  23402851.160    23402858.020
  23402855.960          42.700          39.300
 107479711.403 8  83595339.543 6                  20106299.340    20106303.480
  20106303.140          48.800          41.700
 15  1 27  9  8 15.0000000  0 23G11G06G28G08G04G17G03G23G31G09G20G32
                                G01R24R17R02R08R10R03R18R11R23R01
 114693410.695 8  89371470.86947                  21825431.260
  21825427.780          50.450          44.150
 130926614.843 6 102020738.286 6  97769871.391 7  24914508.300    24914510.180
  24914509.340          41.400          39.900
 131365547.393 6 102362716.56145                  24998043.680
  24998043.260          40.200          32.400
 131044512.691 7 102112622.04345                  24936936.800
  24936938.500          44.900          35.850
 118915196.014 8  92661193.28446                  22628807.400
  22628805.660          49.250          41.750
 114916985.877 8  89545658.701 7                  21867980.520    21867977.300
  21867976.760          49.900          46.750
 107088313.775 8  83445439.485 8  79968549.580 8  20378226.420    20378225.700
  20378225.040          50.700          49.650
 113135208.286 8  88157272.61447                  21528909.160
  21528903.800          50.800          45.400
 127353593.586 7  99236562.131 6                  24234580.620    24234579.360
  24234578.640          46.350          40.100
 123244728.041 7  96034872.562 7  92033427.632 8  23452683.480    23452684.840
  23452684.420          47.100          44.800
 115115185.573 8  89700106.42247                  21905694.160
  21905690.680          48.750          43.150
 117760131.587 8  91761157.66947                  22408997.220
  22408994.840          49.450          42.300
 109038781.134 8  84965299.109 8  81425067.123 8  20749387.820    20749387.760
  20749387.660          50.050          49.450
 105320047.045 8  81915605.890 7                  19695381.000    19695383.460
  19695381.460          48.050          42.950
 107714001.599 8  83777556.960 7                  20128941.440    20128943.360
  20128942.160          48.850          46.750
 106696484.167 8  82986172.137 7                  19994876.900    19994880.540
  19994879.780          49.350          46.850
 128594052.351 7 100017596.804 6                  24014034.600    24014039.940
  24014038.440          43.350          37.300
 127346337.281 7  99047208.506 5                  23889844.820    23889856.620
  23889855.460          43.050          33.700
 127637460.651 6  99273601.022 6                  23843746.560    23843751.680
  23843750.760          40.850          39.100
 129668715.676 6 100853455.391 6                  24291323.160    24291327.860
  24291327.600          41.050          36.250
 130420027.458 6 101437841.961 5                  24406328.300    24406339.640
  24406337.180          39.000          30.800
 125211220.788 7  97386507.106 6                  23406927.660    23406934.460
  23406932.440          44.600          38.850
 107490475.409 8  83603711.538 6                  20108313.040    20108317.160
  20108316.780          49.050          41.900
