     2.11           OBSERVATION DATA    M (MIXED)           RINEX VERSION / TYPE
teqc  2011Oct11     IGN-E (SPG)         20150127 07:00:49UTCPGM / RUN BY / DATE
Linux 2.4.21-27.ELsmp|Opteron|gcc -static|Linux x86_64|=+   COMMENT
BIT 2 OF LLI FLAGS DATA COLLECTED UNDER A/S CONDITION       COMMENT
VALE                                                        MARKER NAME
13439M001                                                   MARKER NUMBER
Programas GeodesicosInstituto Geografico Nacional           OBSERVER / AGENCY
1700071             LEICA GR10          3.03/6.214          REC # / TYPE / VERS
10190012            LEIAR25.R3      LEIT                    ANT # / TYPE
  4929534.0457   -29050.6755  4033709.9250                  APPROX POSITION XYZ
        3.0390        0.0000        0.0000                  ANTENNA: DELTA H/E/N
     1     1                                                WAVELENGTH FACT L1/2
     8    L1    L2    L5    C1    C2    P2    S1    S2      # / TYPES OF OBSERV
     5.0000                                                 INTERVAL
Forced Modulo Decimation to 5 seconds                       COMMENT
DefaultJobName                                              COMMENT
DefaultUserDiscription                                      COMMENT
Project creator:                                            COMMENT
 SNR is mapped to RINEX snr flag value [0-9]                COMMENT
  L1 & L2: min(max(int(snr_dBHz/6), 0), 9)                  COMMENT
  2015     1    27     6     0    0.0000000     GPS         TIME OF FIRST OBS
    15                                                      LEAP SECONDS
                                                            END OF HEADER
 15  1 27  6  0  0.0000000  0 22G11G14G28G04G16G03G18G22G27G19G32G01
                                R24R14R08R07R22R15R13R23R01E11
 110732787.416 8  86285280.21647                  21071742.200
  21071736.900          49.550          45.250
 123081336.421 7  95907522.72046                  23421598.760
  23421594.000          47.100          38.400
 129739097.496 7 101095371.31945                  24688527.080
  24688521.780          45.250          33.300
 107235806.916 8  83560382.77047                  20406284.640
  20406279.760          50.550          47.000
 130497697.639 7 101686515.62445                  24832886.080
  24832881.340          43.100          33.600
 126596646.332 7  98646738.346 7  94536461.211 8  24090538.200    24090537.100
  24090536.280          46.750          42.700
 133873451.347 7 104316969.55245                  25475261.620
  25475255.760          42.100          32.500
 117091709.828 8  91240303.68247                  22281796.680
  22281789.140          49.150          45.050
 112195983.524 8  87425451.786 8  83782719.215 8  21350180.780    21350178.920
  21350178.240          50.250          49.450
 107543912.023 8  83800431.90548                  20464919.860
  20464912.620          50.100          49.950
 110059161.243 8  85760408.72747                  20943545.700
  20943541.820          50.050          45.900
 116448000.751 8  90738722.352 7  86957932.473 8  22159311.660    22159310.180
  22159310.040          48.700          47.400
 122452072.323 7  95240519.322 6                  22899152.900    22899154.200
  22899152.280          44.950          37.350
 123523407.027 6  96073775.619 6                  23172678.860    23172684.880
  23172683.840          40.200          36.000
 104693419.895 8  81428236.203 7                  19550744.620    19550745.800
  19550745.000          49.000          47.750
 111184776.766 8  86477080.287 7                  20770242.620    20770243.540
  20770242.580          48.950          46.200
 111262736.979 8  86537714.914 7                  20843251.740    20843254.380
  20843253.180          49.800          46.650
 130757557.254 6 101700339.424 5                  24469495.080    24469499.580
  24469497.440          39.600          35.850
 127754348.422 6  99364494.802 6                  23924284.640    23924289.340
  23924287.560          36.450          39.750
 107277851.918 8  83438353.164 7                  20054457.080    20054459.980
  20054459.080          49.150          47.750
 121193167.408 7  94261363.023 6                  22671683.300    22671687.220
  22671686.920          45.600          38.050
 144412400.094 7                 107840531.354 7  27480715.840
                        46.750
 15  1 27  6  0  5.0000000  0 22G11G14G28G04G16G03G18G22G27G19G32G01
                                R24R14R08R07R22R15R13R23R01E11
 110723143.955 8  86277765.84047                  21069907.080
  21069901.820          49.700          44.950
 123073707.802 7  95901578.34346                  23420147.080
  23420142.360          46.800          38.500
 129726175.978 7 101085302.60045                  24686068.220
  24686062.840          45.050          33.650
 107231607.354 8  83557110.38847                  20405485.500
  20405480.620          50.400          47.250
 130516208.071 7 101700939.33745                  24836408.520
  24836403.700          43.400          34.050
 126578723.280 7  98632772.337 7  94523077.115 8  24087127.600    24087126.460
  24087125.640          46.600          42.750
 133889261.415 6 104329289.06344                  25478270.220
  25478264.220          41.700          29.550
 117104104.342 8  91249961.73647                  22284155.280
  22284147.740          49.350          44.800
 112206564.446 8  87433696.659 8  83790620.553 8  21352194.220    21352192.400
  21352191.760          50.300          49.450
 107546595.901 8  83802523.23648                  20465430.580
  20465423.340          50.100          50.100
 110047424.557 8  85751263.26347                  20941312.260
  20941308.400          50.250          45.450
 116437474.671 8  90730520.216 7  86950072.079 8  22157308.600    22157307.120
  22157306.980          48.550          47.350
 122435551.554 7  95227669.877 6                  22896063.440    22896064.660
  22896062.840          45.050          36.900
 123528156.537 6  96077469.686 5                  23173569.820    23173575.940
  23173574.820          40.200          35.650
 104685530.242 8  81422099.811 8                  19549271.240    19549272.460
  19549271.660          48.900          48.000
 111197507.963 8  86486982.331 7                  20772620.960    20772621.800
  20772620.840          49.200          46.400
 111272160.665 8  86545044.454 7                  20845017.120    20845019.760
  20845018.560          50.000          46.950
 130748980.995 6 101693669.027 6                  24467890.140    24467894.580
  24467892.520          39.100          36.300
 127770963.143 6  99377417.369 6                  23927396.080    23927400.660
  23927399.020          36.850          39.950
 107270640.925 8  83432744.622 7                  20053109.080    20053111.940
  20053111.060          49.050          47.850
 121171321.310 7  94244371.627 6                  22667596.540    22667600.540
  22667600.200          46.000          38.350
 144423470.118 7                 107848797.938 7  27482822.400
                        46.650
 15  1 27  6  0 10.0000000  0 22G11G14G28G04G16G03G18G22G27G19G32G01
                                R24R14R08R07R22R15R13R23R01E11
 110713506.370 8  86270256.03947                  21068073.080
  21068067.880          49.850          45.350
 123066089.059 7  95895641.66946                  23418697.280
  23418692.540          46.700          39.000
 129713261.991 7 101075239.76145                  24683610.780
  24683605.400          44.950          35.900
 107227415.010 8  83553843.62747                  20404687.720
  20404682.840          50.400          47.200
 130534716.282 7 101715361.31845                  24839930.540
  24839925.660          43.650          33.300
 126560802.781 7  98618808.310 7  94509694.923 8  24083717.440    24083716.320
  24083715.540          46.550          43.000
 133905071.119 7 104341608.32245                  25481278.800
  25481272.940          42.600          30.800
 117116505.642 8  91259625.08947                  22286515.160
  22286507.640          49.350          44.600
 112217154.380 8  87441948.558 8  83798528.607 8  21354209.380    21354207.600
  21354206.960          50.200          49.600
 107549290.182 8  83804622.67148                  20465943.300
  20465936.060          50.200          50.150
 110035700.103 8  85742127.33347                  20939081.200
  20939077.300          50.400          45.800
 116426952.411 8  90722321.052 7  86942214.547 8  22155306.260    22155304.780
  22155304.620          48.600          47.400
 122419028.887 7  95214818.901 6                  22892973.640    22892974.800
  22892972.940          44.900          36.800
 123532924.179 6  96081177.865 5                  23174464.160    23174470.380
  23174469.220          39.900          35.750
 104677660.438 8  81415978.845 8                  19547801.600    19547802.840
  19547802.040          49.000          48.000
 111210254.933 8  86496896.638 7                  20775002.240    20775003.060
  20775002.080          49.150          46.400
 111281592.732 8  86552380.508 7                  20846784.100    20846786.720
  20846785.540          50.050          46.900
 130740421.213 6 101687011.431 5                  24466288.220    24466292.740
  24466290.740          39.950          35.650
 127787582.627 6  99390343.618 6                  23930508.380    23930513.060
  23930511.340          36.200          39.950
 107263437.309 8  83427141.810 8                  20051762.460    20051765.280
  20051764.440          49.100          48.000
 121149479.619 7  94227383.650 6                  22663510.660    22663514.600
  22663514.300          45.450          38.350
 144434541.660 7                 107857065.595 7  27484929.240
                        46.350
 15  1 27  6  0 15.0000000  0 22G11G14G28G04G16G03G18G22G27G19G32G01
                                R24R14R08R07R22R15R13R23R01E11
 110703877.040 8  86262752.66747                  21066240.660
  21066235.500          49.800          45.450
 123058482.577 7  95889714.53846                  23417249.800
  23417245.120          46.400          38.850
 129700357.803 7 101065184.55945                  24681155.220
  24681149.840          45.250          34.700
 107223232.176 8  83550584.27547                  20403891.760
  20403886.880          50.450          47.150
 130553224.627 7 101729783.40745                  24843452.580
  24843447.640          43.650          35.500
 126542887.191 7  98604848.109 7  94496316.392 8  24080308.240    24080307.120
  24080306.340          46.200          43.050
 133920882.798 7 104353929.10144                  25484287.740
  25484282.020          42.550          29.400
 117128916.066 8  91269295.54447                  22288876.760
  22288869.240          49.250          44.700
 112227755.668 8  87450209.291 8  83806445.151 8  21356226.700    21356224.960
  21356224.340          50.200          49.600
 107551997.192 8  83806732.02648                  20466458.440
  20466451.160          50.200          50.100
 110023990.163 8  85733002.70547                  20936852.880
  20936849.000          50.050          46.450
 116416436.349 8  90714126.716 7  86934361.649 8  22153305.080    22153303.600
  22153303.460          48.550          47.500
 122402506.755 7  95201968.350 6                  22889883.880    22889885.060
  22889883.220          44.000          37.650
 123537712.320 6  96084901.964 6                  23175362.380    23175368.620
  23175367.460          39.900          36.200
 104669812.746 8  81409875.092 7                  19546336.100    19546337.340
  19546336.540          49.050          47.950
 111223019.803 8  86506824.877 7                  20777386.840    20777387.680
  20777386.680          48.800          46.600
 111291035.486 8  86559724.872 7                  20848553.100    20848555.680
  20848554.500          49.850          46.700
 130731880.182 6 101680368.393 5                  24464689.820    24464694.460
  24464692.380          40.400          35.150
 127804209.088 5  99403275.314 6                  23933622.040    23933626.680
  23933624.980          35.700          39.800
 107256243.555 8  83421546.670 8                  20050417.680    20050420.500
  20050419.640          48.850          48.050
 121127644.746 7  94210400.975 6                  22659426.020    22659430.000
  22659429.660          45.400          38.650
 144445616.987 7                 107865336.137 7  27487036.760
                        46.400
 15  1 27  6  0 20.0000000  0 22G11G14G28G04G16G03G18G22G27G19G32G01
                                R24R14R08R07R22R15R13R23R01E11
 110694252.992 8  86255253.40947                  21064409.260
  21064404.120          49.900          45.000
 123050885.348 7  95883794.61546                  23415804.080
  23415799.440          46.550          37.550
 129687460.524 7 101055134.71745                  24678700.980
  24678695.520          45.600          34.400
 107219055.870 8  83547330.01147                  20403097.060
  20403092.140          50.700          47.000
 130571730.119 7 101744203.27945                  24846974.040
  24846969.140          44.150          33.600
 126524973.521 7  98590889.402 7  94482939.312 8  24076899.440    24076898.240
  24076897.440          45.950          42.950
 133936693.523 7 104366249.14745                  25487296.480
  25487290.700          42.600          31.000
 117141332.608 8  91278970.76847                  22291239.500
  22291232.020          49.300          44.700
 112238365.353 8  87458476.576 8  83814367.962 8  21358245.620    21358243.920
  21358243.320          50.250          49.550
 107554713.922 8  83808848.96048                  20466975.420
  20466968.140          50.350          50.100
 110012291.857 8  85723887.14447                  20934626.780
  20934622.920          49.950          46.200
 116405923.470 8  90705934.856 7  86926511.118 8  22151304.540    22151303.020
  22151302.900          48.300          47.450
 122385982.238 7  95189115.963 6                  22886793.700    22886794.900
  22886793.080          44.250          37.500
 123542517.958 6  96088639.680 6                  23176263.860    23176270.120
  23176268.980          39.900          36.200
 104661984.215 8  81403786.242 7                  19544874.200    19544875.420
  19544874.600          49.000          47.900
 111235799.544 8  86516764.667 7                  20779774.200    20779775.080
  20779774.060          48.600          46.300
 111300486.095 8  86567075.338 7                  20850323.540    20850326.120
  20850324.920          49.950          46.550
 130723354.885 6 101673737.600 5                  24463094.440    24463099.000
  24463096.920          40.400          35.550
 127820839.562 5  99416210.129 6                  23936736.300    23936741.080
  23936739.380          35.350          39.100
 107249056.602 8  83415956.824 7                  20049074.200    20049076.980
  20049076.120          49.000          47.950
 121105813.698 7  94193421.265 6                  22655342.120    22655346.000
  22655345.780          45.550          38.700
 144456693.161 7                 107873607.289 7  27489144.500
                        46.300
 15  1 27  6  0 25.0000000  0 22G11G14G28G04G16G03G18G22G27G19G32G01
                                R24R14R08R07R22R15R13R23R01E11
 110684636.766 8  86247760.25047                  21062579.340
  21062574.240          49.950          45.150
 123043299.978 7  95877883.94346                  23414360.620
  23414356.000          46.950          37.550
 129674572.683 7 101045092.24845                  24676248.520
  24676243.020          45.100          34.250
 107214888.638 8  83544082.81247                  20402304.060
  20402299.140          50.800          46.800
 130590235.311 7 101758622.90946                  24850495.480
  24850490.580          44.000          36.450
 126507064.360 7  98576934.197 7  94469565.590 8  24073491.460    24073490.220
  24073489.420          45.600          42.850
 133952505.804 6 104378570.42345                  25490305.440
  25490299.700          41.800          30.800
 117153757.819 8  91288652.74347                  22293603.920
  22293596.420          49.550          44.600
 112248985.964 8  87466752.373 8  83822298.934 8  21360266.620    21360264.940
  21360264.360          50.250          49.550
 107557442.928 8  83810975.46048                  20467494.740
  20467487.440          50.400          50.000
 110000607.656 8  85714782.56847                  20932403.360
  20932399.500          49.850          46.250
 116395416.352 8  90697747.495 7  86918664.896 8  22149305.040    22149303.560
  22149303.460          48.100          47.400
 122369457.890 7  95176263.704 6                  22883703.580    22883704.720
  22883702.960          44.550          37.550
 123547343.663 6  96092392.992 5                  23177169.020    23177175.320
  23177174.220          40.100          35.950
 104654177.465 8  81397714.328 7                  19543416.340    19543417.560
  19543416.740          49.050          47.800
 111248596.931 8  86526718.191 7                  20782164.820    20782165.760
  20782164.740          48.700          46.400
 111309946.990 8  86574433.807 7                  20852095.940    20852098.480
  20852097.260          49.800          46.450
 130714848.014 6 101667121.139 6                  24461502.460    24461507.040
  24461505.000          39.350          36.750
 127837476.497 5  99429149.984 6                  23939851.840    23939856.640
  23939854.980          34.600          38.800
 107241879.000 8  83410374.236 7                  20047732.440    20047735.200
  20047734.340          49.200          47.950
 121083989.030 7  94176446.527 6                  22651259.320    22651263.300
  22651263.060          45.350          38.150
 144467772.752 7                 107881881.000 7  27491252.840
                        46.100
 15  1 27  6  0 30.0000000  0 22G11G14G28G04G16G03G18G22G27G19G32G01
                                R24R14R08R07R22R15R13R23R01E11
 110675028.729 8  86240273.46847                  21060751.000
  21060745.920          49.800          45.450
 123035726.838 7  95871982.79646                  23412919.500
  23412914.860          46.950          37.800
 129661694.609 7 101035057.39245                  24673797.900
  24673792.340          44.650          34.550
 107210730.832 8  83540842.95847                  20401512.860
  20401507.920          50.750          46.650
 130608740.533 7 101773042.54845                  24854016.860
  24854012.080          44.950          33.700
 126489160.076 7  98562982.805 7  94456195.500 8  24070084.380    24070083.100
  24070082.340          45.250          42.550
 133968320.045 7 104390893.19445                  25493314.820
  25493309.020          42.000          31.950
 117166192.047 8  91298341.75647                  22295970.060
  22295962.560          49.450          44.350
 112259617.865 8  87475036.963 8  83830238.344 8  21362289.780    21362288.120
  21362287.520          50.150          49.350
 107560184.661 8  83813111.87448                  20468016.480
  20468009.180          50.300          50.100
 109988937.999 8  85705689.32247                  20930182.720
  20930178.860          50.050          46.300
 116384915.362 8  90689564.910 7  86910823.255 8  22147306.720    22147305.260
  22147305.160          48.050          47.450
 122352934.052 7  95163411.830 6                  22880613.540    22880614.760
  22880612.880          44.800          37.650
 123552189.683 6  96096162.121 5                  23178078.140    23178084.340
  23178083.360          40.000          35.350
 104646392.732 8  81391659.535 7                  19541962.600    19541963.780
  19541962.980          49.050          47.750
 111261412.086 8  86536685.529 7                  20784558.800    20784559.720
  20784558.720          49.000          46.200
 111319418.586 8  86581800.594 7                  20853870.320    20853872.860
  20853871.600          49.800          46.500
 130706360.025 6 101660519.371 5                  24459913.880    24459918.680
  24459916.620          38.400          35.800
 127854120.343 5  99442095.207 6                  23942968.740    23942973.460
  23942971.820          34.700          38.200
 107234711.200 8  83404799.279 7                  20046392.480    20046395.220
  20046394.400          49.200          47.950
 121062171.170 7  94159477.086 6                  22647177.780    22647181.860
  22647181.580          45.100          37.400
 144478856.103 7                 107890157.502 7  27493361.860
                        46.250
 15  1 27  6  0 35.0000000  0 22G11G14G28G04G16G03G18G22G27G19G32G01
                                R24R14R08R07R22R15R13R23R01E11
 110665427.499 8  86232791.99247                  21058923.940
  21058918.880          49.900          45.100
 123028164.538 7  95866090.09646                  23411480.480
  23411475.740          46.700          37.400
 129648825.014 7 101025029.15645                  24671348.880
  24671343.380          45.450          33.950
 107206581.112 8  83537609.41447                  20400723.200
  20400718.240          50.700          46.850
 130627244.374 7 101787461.14445                  24857538.020
  24857533.280          44.750          34.200
 126471259.239 7  98549034.099 7  94442828.004 8  24066677.940    24066676.720
  24066675.960          45.150          42.950
 133984134.730 7 104403216.29745                  25496324.300
  25496318.460          42.050          31.500
 117178633.911 8  91308036.71347                  22298337.700
  22298330.160          49.650          44.350
 112270259.688 8  87483329.288 8  83838185.156 8  21364314.860    21364313.180
  21364312.600          50.300          49.300
 107562937.721 8  83815257.11448                  20468540.380
  20468533.060          50.400          49.950
 109977281.474 8  85696606.31147                  20927964.580
  20927960.700          50.300          46.000
 116374419.117 8  90681386.020 7  86902985.152 8  22145309.300    22145307.880
  22145307.760          48.300          47.500
 122336409.404 7  95150559.316 6                  22877523.320    22877524.600
  22877522.640          43.900          37.850
 123557054.725 6  96099946.032 5                  23178990.780    23178997.000
  23178996.040          40.300          35.650
 104638628.827 8  81385620.940 7                  19540512.740    19540513.940
  19540513.120          48.850          47.900
 111274243.711 8  86546665.682 7                  20786955.860    20786956.740
  20786955.740          49.000          46.200
 111328899.675 8  86589174.774 7                  20855646.480    20855648.960
  20855647.740          49.800          46.650
 130697889.560 6 101653931.226 6                  24458328.680    24458333.580
  24458331.460          39.200          36.700
 127870769.605 5  99455044.648 6                  23946086.680    23946091.280
  23946089.660          33.850          38.650
 107227551.912 8  83399230.949 8                  20045054.160    20045056.880
  20045056.060          49.350          48.050
 121040358.768 7  94142511.876 6                  22643097.320    22643101.360
  22643101.080          45.000          37.700
 144489941.821 7                 107898435.814 7  27495471.340
                        46.200
 15  1 27  6  0 40.0000000  0 22G11G14G28G04G16G03G18G22G27G19G32G01
                                R24R14R08R07R22R15R13R23R01E11
 110655834.140 8  86225316.65147                  21057098.400
  21057093.340          49.850          45.650
 123020614.150 7  95860206.67346                  23410043.680
  23410038.900          46.850          38.100
 129635964.939 7 101015008.32045                  24668901.720
  24668896.120          45.750          35.500
 107202440.446 8  83534382.92347                  20399935.260
  20399930.300          50.700          46.950
 130645747.906 7 101801879.45845                  24861059.180
  24861054.500          45.200          35.200
 126453362.979 7  98535088.965 7  94429463.908 8  24063272.380    24063271.200
  24063270.480          45.500          43.650
 133999950.957 6 104415540.65244                  25499334.080
  25499328.160          41.850          29.450
 117191084.449 8  91317738.43447                  22300706.960
  22300699.420          49.700          44.450
 112280912.446 8  87491630.137 8  83846140.124 8  21366342.020    21366340.340
  21366339.740          50.600          49.350
 107565703.144 8  83817411.98348                  20469066.620
  20469059.300          50.400          50.050
 109965639.126 8  85687534.36047                  20925749.120
  20925745.260          50.450          45.850
 116363928.642 8  90673211.624 7  86895151.356 8  22143312.980    22143311.620
  22143311.480          48.400          47.700
 122319884.900 7  95137706.936 6                  22874433.120    22874434.360
  22874432.500          43.100          37.950
 123561939.778 6  96103745.524 5                  23179907.260    23179913.360
  23179912.420          40.150          34.400
 104630886.722 8  81379599.303 8                  19539066.980    19539068.160
  19539067.360          48.750          48.100
 111287092.721 8  86556659.354 7                  20789356.140    20789357.040
  20789356.020          48.900          46.200
 111338391.112 8  86596557.001 7                  20857424.580    20857427.060
  20857425.820          49.650          46.850
 130689437.480 6 101647357.384 6                  24456747.000    24456751.960
  24456749.760          39.700          36.600
 127887425.447 5  99467999.164 6                  23949205.700    23949210.320
  23949208.680          33.900          37.900
 107220401.947 8  83393669.853 7                  20043717.560    20043720.280
  20043719.460          49.350          47.950
 121018552.846 7  94125551.719 6                  22639018.020    22639022.140
  22639021.800          44.550          37.600
 144501030.978 7                 107906716.656 7  27497581.500
                        46.450
 15  1 27  6  0 45.0000000  0 22G11G14G28G04G16G03G18G22G27G19G32G01
                                R24R14R08R07R22R15R13R23R01E11
 110646248.887 8  86217847.62747                  21055274.400
  21055269.340          49.750          45.300
 123013075.920 7  95854332.73146                  23408609.220
  23408604.340          46.950          37.400
 129623114.643 7 101004995.09545                  24666456.420
  24666450.760          45.700          33.150
 107198309.158 8  83531163.74247                  20399149.080
  20399144.140          50.650          46.850
 130664251.367 7 101816297.75246                  24864580.300
  24864575.660          44.550          37.350
 126435471.546 7  98521147.605 7  94416103.410 8  24059867.740    24059866.660
  24059865.940          45.550          43.600
 134015769.071 6 104427866.44745                  25502344.220
  25502338.320          41.200          31.250
 117203543.949 8  91327447.13647                  22303077.940
  22303070.360          49.750          44.250
 112291576.408 8  87499939.715 8  83854103.467 8  21368371.320    21368369.620
  21368369.000          50.650          49.350
 107568481.208 8  83819576.70448                  20469595.260
  20469587.960          50.300          49.850
 109954011.249 8  85678473.68347                  20923536.420
  20923532.560          50.350          46.050
 116353444.223 8  90665041.949 7  86887322.085 8  22141317.820    22141316.480
  22141316.360          48.400          47.550
 122303360.955 7  95124855.002 6                  22871343.020    22871344.380
  22871342.460          43.400          37.750
 123566845.121 6  96107560.804 5                  23180827.500    23180833.440
  23180832.620          40.850          34.900
 104623166.637 8  81373594.792 8                  19537625.340    19537626.500
  19537625.700          48.950          48.250
 111299959.619 8  86566666.941 7                  20791759.840    20791760.680
  20791759.600          48.900          46.350
 111347893.175 8  86603947.488 7                  20859204.700    20859207.120
  20859205.920          49.950          46.800
 130681004.162 6 101640798.126 6                  24455168.900    24455173.860
  24455171.620          40.900          36.400
 127904088.206 5  99480959.092 6                  23952326.140    23952330.720
  23952329.020          34.150          38.150
 107213261.822 8  83388116.416 7                  20042382.800    20042385.540
  20042384.720          49.000          47.950
 120996753.744 7  94108596.874 6                  22634940.020    22634944.120
  22634943.820          44.900          37.350
 144512123.838 7                 107915000.266 7  27499692.320
                        46.250
 15  1 27  6  0 50.0000000  0 22G11G14G28G04G16G03G18G22G27G19G32G01
                                R24R14R08R07R22R15R13R23R01E11
 110636667.851 8  86210381.88947                  21053451.200
  21053446.140          49.850          45.400
 123005545.964 7  95848465.22346                  23407176.340
  23407171.420          46.600          38.750
 129610270.144 7 100994986.40445                  24664012.200
  24664006.480          45.100          33.700
 107194183.306 8  83527948.79447                  20398363.960
  20398359.000          50.450          46.950
 130682750.789 7 101830712.88045                  24868100.640
  24868095.960          44.900          35.750
 126417581.020 7  98507206.952 7  94402743.604 8  24056463.280    24056462.240
  24056461.560          45.350          43.500
 134031585.033 6 104440190.55345                  25505353.920
  25505348.220          40.600          30.200
 117216008.449 8  91337159.73747                  22305449.880
  22305442.260          49.650          44.500
 112302247.635 8  87508254.957 8  83862072.244 8  21370402.020    21370400.260
  21370399.640          50.700          49.300
 107571267.964 8  83821748.20448                  20470125.560
  20470118.240          50.300          50.050
 109942393.932 8  85669421.23847                  20921325.740
  20921321.880          50.250          46.100
 116342961.946 8  90656873.945 7  86879494.406 8  22139323.080    22139321.780
  22139321.640          48.300          47.450
 122286833.486 7  95112000.331 6                  22868252.160    22868253.700
  22868251.780          43.300          38.050
 123571766.795 6  96111388.776 5                  23181750.820    23181756.760
  23181755.840          40.500          34.900
 104615464.579 8  81367604.303 8                  19536187.080    19536188.180
  19536187.400          49.000          48.000
 111312840.121 8  86576685.116 7                  20794166.040    20794166.840
  20794165.780          48.700          46.300
 111357401.870 8  86611343.148 7                  20860986.040    20860988.440
  20860987.240          49.800          46.700
 130672585.608 6 101634250.370 5                  24453593.500    24453598.400
  24453596.220          41.150          35.400
 127920753.451 5  99493920.945 6                  23955447.000    23955451.560
  23955449.900          34.300          39.300
 107206127.309 8  83382567.348 7                  20041049.100    20041051.820
  20041051.000          48.950          47.950
 120974957.407 7  94091644.156 6                  22630862.560    22630866.540
  22630866.340          44.650          36.950
 144523216.429 7                 107923283.699 7  27501803.140
                        46.550
 15  1 27  6  0 55.0000000  0 22G11G14G28G04G16G03G18G22G27G19G32G01
                                R24R14R08R07R22R15R13R23R01E11
 110627096.973 8  86202924.06047                  21051629.940
  21051624.820          49.900          45.600
 122998030.225 7  95842608.81546                  23405746.140
  23405741.180          46.950          37.600
 129597437.455 7 100984986.92445                  24661570.240
  24661564.480          45.000          34.300
 107190068.876 8  83524742.73947                  20397580.980
  20397576.060          50.400          47.100
 130701252.142 7 101845129.52545                  24871621.360
  24871616.740          44.900          35.200
 126399697.298 7  98493271.601 7  94389388.892 8  24053060.060    24053059.080
  24053058.440          45.450          43.200
 134047404.816 6 104452517.63345                  25508364.320
  25508358.680          40.650          30.050
 117228483.830 8  91346880.80747                  22307823.880
  22307816.240          49.700          44.300
 112312932.084 8  87516580.498 8  83870050.887 8  21372435.240    21372433.440
  21372432.800          50.750          49.300
 107574069.371 8  83823931.11248                  20470658.640
  20470651.340          50.250          49.950
 109930793.118 8  85660381.63947                  20919118.180
  20919114.320          50.300          46.100
 116332487.720 8  90648712.212 7  86871672.744 8  22137329.900    22137328.620
  22137328.460          48.300          47.450
 122270308.528 7  95099147.588 6                  22865161.880    22865163.520
  22865161.580          43.200          37.850
 123576710.706 6  96115234.040 5                  23182678.320    23182684.260
  23182683.260          40.750          34.800
 104607786.688 8  81361632.601 7                  19534753.300    19534754.360
  19534753.600          49.100          47.950
 111325740.301 8  86586718.593 7                  20796575.900    20796576.700
  20796575.680          48.750          46.300
 111366923.235 8  86618748.647 7                  20862769.780    20862772.120
  20862770.940          49.850          46.850
 130664187.906 6 101627718.816 6                  24452022.080    24452026.800
  24452024.660          40.400          36.000
 127937427.640 5  99506889.772 6                  23958569.600    23958574.180
  23958572.500          34.500          39.650
 107199004.740 8  83377027.579 7                  20039717.600    20039720.320
  20039719.520          48.500          47.750
 120953169.851 7  94074698.264 6                  22626786.720    22626790.800
  22626790.520          44.250          37.350
 144534314.739 7                 107931571.360 7  27503915.060
                        46.350
 15  1 27  6  1  0.0000000  0 22G11G14G28G04G16G03G18G22G27G19G32G01
                                R24R14R08R07R22R15R13R23R01E11
 110617532.504 8  86195471.22547                  21049809.900
  21049804.740          49.950          45.450
 122990524.973 7  95836760.56746                  23404317.960
  23404312.940          47.200          37.450
 129584612.848 7 100974993.71845                  24659129.840
  24659123.980          45.650          35.550
 107185962.027 8  83521542.59847                  20396799.460
  20396794.540          50.550          47.100
 130719751.612 7 101859544.68245                  24875141.700
  24875137.140          45.100          34.500
 126381816.701 7  98479338.670 7  94376036.516 8  24049657.480    24049656.560
  24049655.860          45.900          43.200
 134063224.577 6 104464844.73145                  25511374.740
  25511368.980          41.350          30.250
 117240966.360 8  91356607.45247                  22310199.220
  22310191.580          49.850          44.100
 112323625.994 8  87524913.415 8  83878036.587 8  21374470.260    21374468.420
  21374467.760          50.800          49.200
 107576881.651 8  83826122.50348                  20471193.780
  20471186.520          50.350          49.900
 109919205.092 8  85651352.00247                  20916913.080
  20916909.180          50.250          46.000
 116322017.803 8  90640553.839 7  86863854.309 8  22135337.520    22135336.260
  22135336.100          48.600          47.550
 122253782.246 7  95086293.826 6                  22862071.340    22862073.040
  22862071.100          43.150          38.100
 123581673.113 6  96119093.688 5                  23183609.340    23183615.180
  23183614.080          39.850          34.150
 104600129.161 8  81355676.752 7                  19533323.360    19533324.340
  19533323.620          48.950          47.900
 111338656.492 8  86596764.524 7                  20798988.720    20798989.600
  20798988.580          48.650          46.400
 111376453.469 8  86626161.046 7                  20864555.180    20864557.480
  20864556.320          49.650          46.950
 130655807.207 6 101621200.486 6                  24450453.800    24450458.400
  24450456.280          40.400          36.000
 127954106.689 5  99519862.380 6                  23961693.080    23961697.680
  23961696.020          34.900          39.100
 107191890.193 8  83371494.038 7                  20038387.620    20038390.320
  20038389.500          48.350          47.600
 120931387.357 7  94057756.326 6                  22622711.860    22622715.920
  22622715.620          44.100          37.250
 144545414.974 7                 107939860.494 7  27506027.340
                        46.600
 15  1 27  6  1  5.0000000  0 22G11G14G28G04G16G03G18G22G27G19G32G01
                                R24R14R08R07R22R15R13R23R01E11
 110607976.256 8  86188024.80047                  21047991.440
  21047986.200          49.950          45.700
 122983031.952 7  95830921.83746                  23402892.120
  23402887.100          47.000          37.800
 129571798.092 7 100965008.19645                  24656691.260
  24656685.400          45.400          34.700
 107181864.615 8  83518349.81847                  20396019.700
  20396014.840          50.300          47.200
 130738251.010 7 101873959.79545                  24878662.040
  24878657.460          45.050          35.800
 126363941.004 7  98465409.564 7  94362687.787 8  24046255.840    24046254.900
  24046254.200          46.000          43.450
 134079046.149 6 104477173.21245                  25514385.480
  25514379.640          41.700          30.950
 117253457.802 8  91366341.04747                  22312576.260
  22312568.620          49.800          44.100
 112334331.127 8  87533255.077 8  83886030.688 8  21376507.420    21376505.540
  21376504.880          50.650          49.300
 107579706.611 8  83828323.77248                  20471731.340
  20471724.080          50.150          50.100
 109907631.591 8  85642333.69247                  20914710.740
  20914706.820          50.150          46.000
 116311553.973 8  90632400.214 7  86856040.426 8  22133346.280    22133345.040
  22133344.920          48.450          47.600
 122237256.588 7  95073440.550 6                  22858981.000    22858982.660
  22858980.720          43.150          37.950
 123586655.758 6  96122969.087 5                  23184544.100    23184549.760
  23184548.680          39.950          34.200
 104592493.746 8  81349738.106 7                  19531897.520    19531898.500
  19531897.800          49.050          47.950
 111351590.332 8  86606824.177 7                  20801404.880    20801405.760
  20801404.760          48.600          46.400
 111385994.515 8  86633581.866 7                  20866342.560    20866344.820
  20866343.700          49.800          46.950
 130647445.417 6 101614696.893 6                  24448889.040    24448893.560
  24448891.480          40.600          36.700
 127970792.482 5  99532840.206 6                  23964817.720    23964822.340
  23964820.740          35.250          38.500
 107184785.331 8  83365968.045 7                  20037059.420    20037062.160
  20037061.320          48.400          47.700
 120909611.807 7  94040819.785 6                  22618638.300    22618642.280
  22618642.040          44.200          37.250
 144556518.937 7                 107948152.417 7  27508140.360
                        46.700
 15  1 27  6  1 10.0000000  0 22G11G14G28G04G16G03G18G22G27G19G32G01
                                R24R14R08R07R22R15R13R23R01E11
 110598425.297 8  86180582.50047                  21046173.980
  21046168.680          50.000          45.450
 122975548.290 7  95825090.41846                  23401468.060
  23401463.000          47.250          38.600
 129558990.275 7 100955028.08745                  24654254.040
  24654248.180          44.950          35.650
 107177773.638 8  83515162.05247                  20395241.200
  20395236.360          50.350          47.050
 130756747.416 7 101888372.57946                  24882181.840
  24882177.160          44.550          36.550
 126346067.291 7  98451482.007 7  94349340.548 8  24042854.540    24042853.660
  24042852.960          46.100          44.000
 134094866.670 6 104489500.87645                  25517396.080
  25517389.940          41.850          31.750
 117265955.265 8  91376079.33247                  22314954.440
  22314946.820          49.800          44.250
 112345044.599 8  87541603.233 8  83894031.000 8  21378546.140    21378544.220
  21378543.580          50.550          49.300
 107582541.350 8  83830532.66748                  20472270.760
  20472263.520          50.050          50.050
 109896069.704 8  85633324.43347                  20912510.600
  20912506.660          50.050          46.300
 116301093.347 8  90624249.083 7  86848228.921 8  22131355.660    22131354.440
  22131354.300          48.250          47.650
 122220728.480 7  95060585.380 6                  22855890.160    22855891.740
  22855889.920          43.150          37.950
 123591655.778 6  96126857.999 5                  23185482.120    23185487.800
  23185486.640          40.400          34.500
 104584877.539 8  81343814.389 7                  19530475.300    19530476.240
  19530475.520          49.250          47.900
 111364538.893 8  86616895.278 7                  20803823.800    20803824.620
  20803823.680          48.650          46.300
 111395543.224 8  86641008.639 7                  20868131.380    20868133.640
  20868132.540          49.700          47.050
 130639099.567 6 101608205.666 6                  24447327.260    24447331.720
  24447329.640          40.750          37.250
 127987481.997 5  99545820.969 6                  23967943.200    23967947.860
  23967946.200          34.650          38.800
 107177687.493 8  83360447.512 7                  20035732.520    20035735.280
  20035734.460          48.900          47.800
 120887840.137 7  94023886.256 6                  22614565.440    22614569.440
  22614569.180          44.600          37.050
 144567623.734 7                 107956444.930 7  27510253.560
                        46.750
 15  1 27  6  1 15.0000000  0 22G11G14G28G04G16G03G18G22G27G19G32G01
                                R24R14R08R07R22R15R13R23R01E11
 110588884.181 8  86173147.86547                  21044358.400
  21044353.020          50.100          45.600
 122968078.543 7  95819269.83746                  23400046.660
  23400041.640          47.200          37.900
 129546193.964 7 100945056.94245                  24651818.960
  24651813.080          45.000          35.300
 107173693.771 8  83511982.93547                  20394464.800
  20394459.980          50.450          46.950
 130775245.330 7 101902786.53645                  24885701.920
  24885697.200          44.100          35.900
 126328200.137 7  98437559.559 7  94335998.178 8  24039454.540    24039453.640
  24039452.980          46.300          44.050
 134110690.559 6 104501831.17744                  25520407.340
  25520401.120          41.750          28.550
 117278463.247 8  91385825.80647                  22317334.600
  22317327.020          49.850          44.000
 112355770.923 8  87549961.403 8  83902040.913 8  21380587.320    21380585.380
  21380584.740          50.650          49.350
 107585390.376 8  83832752.68448                  20472812.880
  20472805.680          50.100          50.100
 109884523.991 8  85624327.78047                  20910313.540
  20910309.580          50.200          45.950
 116290640.422 8  90616103.947 7  86840423.166 8  22129366.500    22129365.300
  22129365.160          48.100          47.550
 122204202.511 7  95047731.857 6                  22852799.700    22852801.340
  22852799.520          43.350          37.950
 123596677.682 6  96130763.929 5                  23186424.240    23186429.860
  23186428.780          40.050          35.250
 104577285.091 8  81337909.154 7                  19529057.500    19529058.420
  19529057.680          49.050          47.900
 111377506.725 8  86626981.370 7                  20806246.340    20806247.120
  20806246.200          48.250          46.550
 111405104.358 8  86648445.083 7                  20869922.540    20869924.760
  20869923.700          49.600          46.800
 130630774.278 6 101601730.465 6                  24445769.260    24445773.700
  24445771.700          41.750          37.050
 128004179.770 5  99558808.129 6                  23971070.240    23971074.780
  23971073.160          35.100          38.950
 107170601.078 8  83354935.856 7                  20034407.760    20034410.580
  20034409.720          48.400          47.850
 120866077.101 7  94006959.431 6                  22610494.220    22610498.160
  22610497.960          44.050          37.900
 144578733.872 7                 107964741.466 7  27512367.800
                        46.900
 15  1 27  6  1 20.0000000  0 22G11G14G28G04G16G03G18G22G27G19G32G01
                                R24R14R08R07R22R15R13R23R01E11
 110579350.152 8  86165718.74747                  21042544.160
  21042538.740          50.200          45.600
 122960619.964 7  95813457.96746                  23398627.380
  23398622.380          47.350          37.750
 129533406.429 7 100935092.64645                  24649385.600
  24649379.720          45.600          35.000
 107169622.206 8  83508810.28347                  20393689.980
  20393685.180          50.400          46.750
 130793742.020 7 101917199.52946                  24889221.740
  24889217.060          43.600          36.200
 126310336.776 7  98423640.060 7  94322658.658 8  24036055.220    24036054.400
  24036053.740          46.200          44.400
 134126515.176 6 104514162.02945                  25523418.680
  25523412.480          41.600          30.250
 117290979.021 8  91395578.35047                  22319716.280
  22319708.700          49.850          44.000
 112366507.354 8  87558327.451 8  83910058.374 8  21382630.420    21382628.480
  21382627.840          50.750          49.350
 107588250.949 8  83834981.70248                  20473357.220
  20473350.020          50.200          50.050
 109872991.734 8  85615341.61047                  20908119.020
  20908115.040          50.200          46.100
 116280192.476 8  90607962.688 7  86832621.126 8  22127378.320    22127377.140
  22127376.980          48.250          47.450
 122187676.176 7  95034878.064 6                  22849709.180    22849710.860
  22849709.040          43.350          37.950
 123601718.750 6  96134684.750 5                  23187370.000    23187375.480
  23187374.440          39.600          34.600
 104569713.721 8  81332020.319 8                  19527643.620    19527644.500
  19527643.780          49.150          48.000
 111390491.114 8  86637080.333 7                  20808671.920    20808672.720
  20808671.780          48.300          46.350
 111414674.940 8  86655888.867 7                  20871715.460    20871717.680
  20871716.620          49.650          47.000
 130622466.675 6 101595269.007 6                  24444214.540    24444219.080
  24444217.060          40.850          37.200
 128020883.065 5  99571799.576 6                  23974198.340    23974202.740
  23974201.160          34.800          38.900
 107163523.313 8  83349430.924 7                  20033084.660    20033087.460
  20033086.600          48.900          47.900
 120844319.859 7  93990037.126 6                  22606424.080    22606428.020
  22606427.840          44.050          38.250
 144589846.632 7                 107973039.925 7  27514482.540
                        46.950
 15  1 27  6  1 25.0000000  0 22G11G14G28G04G16G03G18G22G27G19G32G01
                                R24R14R08R07R22R15R13R23R01E11
 110569821.469 8  86158293.79947                  21040730.960
  21040725.460          50.350          45.550
 122953170.838 7  95807653.45746                  23397209.880
  23397204.900          47.100          37.850
 129520625.936 7 100925133.83045                  24646953.560
  24646947.740          45.750          34.800
 107165557.134 8  83505642.69247                  20392916.400
  20392911.640          50.450          46.850
 130812235.722 7 101931610.18746                  24892741.000
  24892736.340          43.050          36.500
 126292475.475 7  98409722.179 7  94309320.687 8  24032656.320    24032655.560
  24032654.940          46.350          44.350
 134142338.708 6 104526492.07044                  25526429.820
  25526423.460          41.950          26.150
 117303500.856 8  91405335.62047                  22322099.080
  22322091.520          49.900          43.950
 112377252.131 8  87566700.003 8  83918082.075 8  21384675.100    21384673.160
  21384672.520          50.850          49.350
 107591121.336 8  83837218.37048                  20473903.420
  20473896.260          50.300          49.900
 109861471.189 8  85606364.56347                  20905926.720
  20905922.760          50.300          45.800
 116269747.794 8  90599823.974 7  86824821.534 8  22125390.720    22125389.600
  22125389.440          48.450          47.450
 122171147.333 7  95022022.305 6                  22846618.260    22846620.000
  22846618.020          42.900          37.900
 123606777.134 6  96138619.061 5                  23188318.960    23188324.540
  23188323.320          40.100          34.650
 104562161.602 8  81326146.457 8                  19526233.340    19526234.220
  19526233.460          49.250          48.050
 111403490.329 8  86647190.831 7                  20811100.240    20811101.080
  20811100.160          48.400          46.350
 111424253.417 8  86663338.781 7                  20873509.840    20873512.080
  20873511.020          49.600          46.900
 130614174.971 6 101588819.887 6                  24442662.860    24442667.400
  24442665.400          40.900          37.400
 128037590.213 5  99584794.009 6                  23977327.020    23977331.480
  23977329.840          34.750          37.600
 107156452.633 8  83343931.508 8                  20031762.860    20031765.700
  20031764.820          48.850          48.250
 120822566.702 7  93973118.002 6                  22602354.760    22602358.680
  22602358.500          44.550          38.000
 144600960.255 7                 107981339.054 7  27516597.420
                        47.150
 15  1 27  6  1 30.0000000  0 22G11G14G28G04G16G03G18G22G27G19G32G01
                                R24R14R08R07R22R15R13R23R01E11
 110560300.969 8  86150875.22747                  21038919.320
  21038913.760          50.600          45.050
 122945734.038 7  95801858.54246                  23395794.740
  23395789.820          46.800          38.200
 129507855.354 7 100915182.70645                  24644523.420
  24644517.500          45.450          35.150
 107161501.503 8  83502482.45847                  20392144.620
  20392139.860          50.550          46.750
 130830729.248 7 101946020.71346                  24896260.200
  24896255.520          42.150          36.900
 126274619.122 7  98395808.155 7  94295986.398 8  24029258.360    24029257.640
  24029256.980          46.900          44.050
 134158164.027 7 104538823.48745                  25529441.320
  25529435.020          42.650          33.650
 117316031.559 8  91415099.80547                  22324483.600
  22324476.020          49.950          43.800
 112388008.135 8  87575081.302 8  83926114.148 8  21386721.920    21386719.980
  21386719.360          50.750          49.400
 107594004.403 8  83839464.91448                  20474452.040
  20474444.900          50.450          49.850
 109849965.223 8  85597398.87447                  20903737.220
  20903733.240          50.350          46.150
 116259309.168 8  90591689.984 7  86817026.450 8  22123404.300    22123403.200
  22123403.060          48.750          47.600
 122154619.139 7  95009167.046 6                  22843527.380    22843529.200
  22843527.160          43.550          37.800
 123611855.820 6  96142569.174 5                  23189271.780    23189277.380
  23189276.020          40.300          35.150
 104554631.676 8  81320289.846 7                  19524827.200    19524828.040
  19524827.300          49.250          47.950
 111416507.029 8  86657314.933 7                  20813531.860    20813532.680
  20813531.800          48.750          46.250
 111433842.650 8  86670797.071 7                  20875306.220    20875308.480
  20875307.460          49.700          46.800
 130605902.313 6 101582385.565 6                  24441114.840    24441119.280
  24441117.340          41.000          36.300
 128054303.805 5  99597793.497 6                  23980456.880    23980461.420
  23980459.700          34.350          38.500
 107149391.812 8  83338439.746 8                  20030442.900    20030445.720
  20030444.880          49.100          48.050
 120800820.507 7  93956204.288 6                  22598286.680    22598290.660
  22598290.440          45.100          38.400
 144612077.592 7                 107989640.935 7  27518713.020
                        47.350
 15  1 27  6  1 35.0000000  0 22G11G14G28G04G16G03G18G22G27G19G32G01
                                R24R14R08R07R22R15R13R23R01E11
 110550788.359 8  86143462.80847                  21037109.180
  21037103.560          50.600          45.100
 122938309.227 7  95796072.98946                  23394381.860
  23394376.980          47.050          38.150
 129495094.349 7 100905239.09545                  24642095.080
  24642089.180          45.300          33.250
 107157454.965 8  83499329.31647                  20391374.560
  20391369.840          50.550          46.900
 130849222.251 7 101960430.82645                  24899779.300
  24899774.600          43.150          35.650
 126256767.396 7  98381897.706 7  94282655.573 8  24025861.280    24025860.560
  24025859.840          46.800          43.550
 134173990.809 7 104551156.01844                  25532453.120
  25532446.900          42.450          27.000
 117328570.825 8  91424870.65947                  22326869.740
  22326862.140          50.100          43.900
 112398775.041 8  87583471.093 8  83934154.364 8  21388770.800    21388768.860
  21388768.260          50.800          49.550
 107596899.839 8  83841721.10148                  20475003.000
  20474995.880          50.450          49.900
 109838473.509 8  85588444.29147                  20901550.420
  20901546.420          50.400          45.900
 116248876.354 8  90583560.531 7  86809235.722 8  22121418.980    22121417.920
  22121417.780          48.450          47.650
 122138091.184 7  94996311.988 6                  22840436.540    22840438.420
  22840436.340          43.400          37.400
 123616954.405 6  96146534.730 5                  23190228.280    23190233.980
  23190232.560          39.350          35.750
 104547123.583 8  81314450.215 8                  19523425.140    19523425.920
  19523425.200          48.950          48.000
 111429541.146 8  86667452.580 7                  20815966.720    20815967.580
  20815966.680          48.750          46.200
 111443442.316 8  86678263.466 7                  20877104.540    20877106.840
  20877105.820          49.700          46.900
 130597648.372 6 101575965.839 6                  24439570.260    24439574.660
  24439572.740          40.100          36.200
 128071023.761 5  99610797.905 6                  23983588.080    23983592.600
  23983590.820          33.650          39.050
 107142340.614 8  83332955.485 8                  20029124.740    20029127.580
  20029126.740          48.800          48.000
 120779080.965 7  93939295.761 6                  22594219.860    22594223.760
  22594223.640          45.100          38.300
 144623198.343 7                 107997945.389 7  27520829.280
                        47.050
 15  1 27  6  1 40.0000000  0 22G11G14G28G04G16G03G18G22G27G19G32G01
                                R24R14R08R07R22R15R13R23R01E11
 110541281.900 8  86136055.17847                  21035300.240
  21035294.540          50.650          45.350
 122930894.693 7  95790295.41646                  23392970.920
  23392966.040          47.050          38.550
 129482341.240 7 100895301.62145                  24639668.260
  24639662.440          45.700          35.150
 107153415.766 8  83496181.88447                  20390605.920
  20390601.180          50.550          46.850
 130867713.047 7 101974839.23745                  24903298.020
  24903293.120          43.250          35.800
 126238918.563 7  98367989.506 7  94269326.891 8  24022464.780    24022464.000
  24022463.280          46.600          43.450
 134189817.389 7 104563488.41444                  25535464.840
  25535458.600          42.300          26.650
 117341116.833 8  91434646.77847                  22329257.200
  22329249.540          49.900          43.650
 112409551.100 8  87591868.016 8  83942201.414 8  21390821.460    21390819.480
  21390818.900          50.750          49.450
 107599805.871 8  83843985.54048                  20475556.000
  20475548.880          50.600          49.800
 109826994.335 8  85579499.47547                  20899366.020
  20899362.000          50.350          45.750
 116238447.562 8  90575434.198 7  86801447.982 8  22119434.420    22119433.380
  22119433.260          48.400          47.450
 122121561.691 7  94983455.716 6                  22837345.400    22837347.380
  22837345.240          43.250          37.750
 123622071.041 6  96150514.330 5                  23191188.180    23191193.760
  23191192.480          39.700          35.250
 104539635.592 8  81308626.212 7                  19522026.840    19522027.540
  19522026.840          48.800          47.850
 111442590.661 8  86677602.204 7                  20818404.520    20818405.320
  20818404.400          48.900          46.350
 111453050.531 8  86685736.512 7                  20878904.420    20878906.800
  20878905.780          49.250          46.850
 130589411.216 6 101569559.164 6                  24438028.780    24438033.200
  24438031.220          39.350          36.200
 128087748.004 5  99623805.638 6                  23986720.000    23986724.420
  23986722.680          34.500          38.400
 107135297.128 8  83327477.214 7                  20027808.060    20027810.900
  20027810.060          49.250          47.950
 120757346.308 7  93922391.041 6                  22590153.940    22590157.840
  22590157.760          45.600          37.950
 144634320.741 7                 108006251.053 7  27522945.800
                        47.100
 15  1 27  6  1 45.0000000  0 22G11G14G28G04G16G03G18G22G27G19G32G01
                                R24R14R08R07R22R15R13R23R01E11
 110531784.140 8  86128654.33247                  21033492.940
  21033487.180          50.750          45.100
 122923492.954 7  95784527.83146                  23391562.440
  23391557.520          46.900          37.950
 129469598.554 7 100885372.26645                  24637243.420
  24637237.640          46.000          32.900
 107149386.423 8  83493042.13847                  20389839.140
  20389834.440          50.550          46.600
 130886204.033 7 101989247.80545                  24906816.740
  24906811.820          43.150          34.600
 126221075.180 7  98354085.559 7  94256002.296 8  24019069.320    24019068.500
  24019067.740          46.350          43.650
 134205646.196 7 104575822.56244                  25538476.980
  25538470.760          42.250          28.900
 117353672.141 8  91444430.13447                  22331646.420
  22331638.720          49.700          43.700
 112420338.847 8  87600274.047 8  83950257.201 8  21392874.300    21392872.340
  21392871.740          50.800          49.350
 107602725.051 8  83846260.22548                  20476111.480
  20476104.380          50.600          49.600
 109815530.271 8  85570566.45047                  20897184.500
  20897180.440          50.550          45.950
 116228025.350 8  90567313.002 7  86793665.163 8  22117451.120    22117450.100
  22117450.000          48.650          47.300
 122105033.364 7  94970600.375 6                  22834254.500    22834256.520
  22834254.380          42.750          37.650
 123627208.392 6  96154510.058 5                  23192151.940    23192157.580
  23192156.260          39.950          35.550
 104532170.249 8  81302819.835 7                  19520632.780    19520633.420
  19520632.700          48.900          47.800
 111455658.221 8  86687765.871 7                  20820845.660    20820846.420
  20820845.520          48.900          46.300
 111462669.893 8  86693218.237 7                  20880706.360    20880708.840
  20880707.820          49.250          46.700
 130581193.500 6 101563167.576 6                  24436490.980    24436495.300
  24436493.360          38.600          36.550
 128104479.488 5  99636819.039 6                  23989853.320    23989857.680
  23989855.900          34.100          38.800
 107128264.027 8  83322007.020 7                  20026493.300    20026496.140
  20026495.300          49.100          47.900
 120735619.205 7  93905492.191 6                  22586089.460    22586093.380
  22586093.280          45.800          37.900
 144645447.354 7                 108014559.887 7  27525063.160
                        47.150
 15  1 27  6  1 50.0000000  0 22G11G14G28G04G16G03G18G22G27G19G32G01
                                R24R14R08R07R22R15R13R23R01E11
 110522292.143 8  86121257.97347                  21031686.740
  21031680.920          50.700          45.400
 122916101.111 7  95778767.96046                  23390155.800
  23390150.940          47.000          37.600
 129456863.340 7 100875448.72545                  24634819.960
  24634814.200          45.650          35.550
 107145363.980 8  83489907.76947                  20389073.680
  20389068.980          50.500          47.000
 130904692.409 7 102003654.30745                  24910334.960
  24910330.080          43.750          32.600
 126203234.290 7  98340183.571 7  94242679.540 8  24015674.300    24015673.540
  24015672.740          46.250          44.300
 134221474.232 7 104588156.06845                  25541488.980
  25541482.780          42.250          30.000
 117366233.840 8  91454218.46947                  22334036.880
  22334029.100          49.700          43.950
 112431135.315 8  87608686.879 8  83958319.496 8  21394928.840    21394926.840
  21394926.260          50.800          49.450
 107605654.447 8  83848542.87048                  20476668.920
  20476661.820          50.400          49.750
 109804078.308 8  85561642.85147                  20895005.260
  20895001.200          50.600          45.850
 116217606.754 8  90559194.611 7  86785885.043 8  22115468.500    22115467.480
  22115467.400          48.650          47.550
 122088503.179 7  94957743.590 6                  22831163.200    22831165.440
  22831163.160          42.850          37.350
 123632363.454 6  96158519.557 5                  23193119.040    23193124.760
  23193123.420          40.050          35.500
 104524724.605 8  81297028.782 7                  19519242.360    19519243.020
  19519242.260          49.150          47.750
 111468740.876 8  86697941.276 7                  20823289.640    20823290.340
  20823289.440          49.150          46.200
 111472297.445 8  86700706.329 7                  20882509.820    20882512.380
  20882511.380          49.150          46.700
 130572992.294 6 101556788.876 5                  24434956.240    24434960.540
  24434958.580          39.200          35.600
 128121214.948 5  99649835.498 6                  23992987.320    23992991.600
  23992989.900          35.200          38.700
 107121238.434 8  83316542.661 7                  20025179.960    20025182.820
  20025181.960          49.050          47.950
 120713896.565 7  93888596.813 6                  22582025.780    22582029.660
  22582029.600          46.250          38.050
 144656575.217 7                 108022869.630 7  27527180.780
                        47.050
 15  1 27  6  1 55.0000000  0 22G11G14G28G04G16G03G18G22G27G19G32G01
                                R24R14R08R07R22R15R13R23R01E11
 110512808.304 8  86113867.96947                  21029882.080
  21029876.200          50.700          45.450
 122908721.531 7  95773017.63346                  23388751.520
  23388746.680          47.150          37.800
 129444138.004 7 100865532.87545                  24632398.400
  24632392.760          45.400          33.950
 107141350.893 8  83486780.69047                  20388310.020
  20388305.320          50.650          46.800
 130923180.548 6 102018060.65645                  24913853.120
  24913848.300          41.950          33.200
 126185398.271 7  98326285.378 7  94229360.443 8  24012280.220    24012279.440
  24012278.660          46.000          44.300
 134237303.957 7 104600490.92745                  25544501.320
  25544494.940          42.400          35.400
 117378804.271 8  91464013.61347                  22336428.980
  22336421.140          49.650          44.150
 112441942.897 8  87617108.373 8  83966390.082 8  21396985.480    21396983.460
  21396982.880          50.800          49.450
 107608596.447 8  83850835.33348                  20477228.760
  20477221.640          50.300          49.900
 109792640.878 8  85552730.57247                  20892828.800
  20892824.720          50.600          46.000
 116207194.169 8  90551080.913 7  86778109.407 8  22113487.060    22113486.000
  22113485.920          48.650          47.600
 122071973.378 7  94944887.076 6                  22828072.080    22828074.340
  22828071.960          44.050          37.600
 123637538.604 6  96162544.661 5                  23194089.760    23194095.680
  23194094.300          39.950          35.400
 104517301.005 8  81291254.877 7                  19517856.040    19517856.700
  19517855.940          49.100          47.800
 111481840.991 8  86708130.256 7                  20825736.840    20825737.540
  20825736.640          48.950          46.200
 111481935.610 8  86708202.673 7                  20884315.260    20884317.940
  20884316.920          49.050          46.400
 130564809.929 6 101550424.840 5                  24433425.020    24433429.220
  24433427.280          39.900          35.600
 128137956.707 5  99662856.878 6                  23996122.500    23996126.660
  23996125.040          34.900          38.700
 107114222.654 8  83311085.944 7                  20023868.460    20023871.300
  20023870.440          48.850          47.900
 120692180.885 7  93871706.842 6                  22577963.400    22577967.300
  22577967.260          46.550          38.100
 144667706.712 7                 108031182.102 7  27529299.080
                        46.800
 15  1 27  6  2  0.0000000  0 22G11G14G28G04G16G03G18G22G27G19G32G01
                                R24R14R08R07R22R15R13R23R01E11
 110503331.988 8  86106483.82947                  21028078.860
  21028072.920          50.700          45.600
 122901353.600 7  95767276.39546                  23387349.480
  23387344.660          47.300          38.350
 129431421.906 7 100855624.24545                  24629978.580
  24629972.960          45.450          35.650
 107137346.538 8  83483660.41947                  20387548.000
  20387543.320          50.700          46.800
 130941667.787 7 102032466.27245                  24917371.040
  24917366.260          42.400          35.150
 126167566.588 7  98312390.556 7  94216044.576 8  24008886.940    24008886.180
  24008885.480          45.650          44.100
 134253134.683 7 104612826.55544                  25547513.800
  25547507.620          42.550          28.800
 117391382.801 8  91473815.07047                  22338822.600
  22338814.760          49.750          43.700
 112452760.992 8  87625538.060 8  83974468.545 8  21399044.140    21399042.060
  21399041.520          50.700          49.600
 107611550.433 8  83853137.14148                  20477790.860
  20477783.760          50.300          49.950
 109781217.393 8  85543829.15747                  20890655.020
  20890650.900          50.550          46.200
 116196786.989 8  90542971.424 7  86770337.829 8  22111506.640    22111505.580
  22111505.500          48.800          47.600
 122055443.605 7  94932030.586 6                  22824980.980    22824983.140
  22824980.780          43.300          37.000
 123642733.192 6  96166584.902 5                  23195064.220    23195070.080
  23195068.760          39.700          34.700
 104509898.969 8  81285497.745 7                  19516473.760    19516474.420
  19516473.660          49.100          47.800
 111494957.701 8  86718332.141 7                  20828187.160    20828187.860
  20828186.920          48.750          46.150
 111491583.812 8  86715706.835 7                  20886122.580    20886125.360
  20886124.340          48.900          46.450
 130556645.674 6 101544074.901 6                  24431897.200    24431901.420
  24431899.480          40.300          36.600
 128154704.499 5  99675882.947 6                  23999258.800    23999262.920
  23999261.280          35.550          38.650
 107107216.110 8  83305636.412 7                  20022558.700    20022561.520
  20022560.660          48.850          47.900
 120670471.521 7  93854821.779 6                  22573902.240    22573906.220
  22573906.080          46.250          38.300
 144678841.223 7                 108039496.830 7  27531417.940
                        47.000
 15  1 27  6  2  5.0000000  0 22G11G14G28G04G16G03G18G22G27G19G32G01
                                R24R14R08R07R22R15R13R23R01E11
 110493863.221 8  86099105.56447                  21026277.060
  21026271.080          50.600          46.100
 122893997.373 7  95761544.26646                  23385949.660
  23385944.820          47.500          37.950
 129418715.036 7 100845722.78245                  24627560.540
  24627554.860          45.550          34.250
 107133350.900 8  83480546.93447                  20386787.660
  20386783.000          50.750          46.950
 130960154.108 7 102046871.19445                  24920888.780
  24920883.920          43.400          33.450
 126149739.190 7  98298499.071 7  94202731.899 8  24005494.500    24005493.760
  24005493.020          45.700          44.250
 134268966.399 7 104625162.96445                  25550526.520
  25550520.260          42.050          30.150
 117403969.446 8  91483622.84847                  22341217.760
  22341209.900          49.750          44.500
 112463589.576 8  87633975.913 8  83982554.811 8  21401104.780    21401102.680
  21401102.140          50.700          49.650
 107614516.441 8  83855448.31048                  20478355.260
  20478348.160          50.250          50.150
 109769807.865 8  85534938.61347                  20888483.900
  20888479.740          50.550          46.400
 116186385.235 8  90534866.161 7  86762570.278 8  22109527.260    22109526.160
  22109526.080          48.900          47.600
 122038913.783 7  94919174.076 6                  22821889.820    22821891.920
  22821889.660          43.550          37.700
 123647947.296 6  96170640.337 5                  23196042.360    23196048.180
  23196046.780          39.400          33.950
 104502518.492 8  81279757.376 7                  19515095.500    19515096.180
  19515095.400          49.050          47.900
 111508091.473 8  86728547.291 7                  20830640.620    20830641.360
  20830640.420          48.600          46.450
 111501242.008 8  86723218.755 7                  20887931.780    20887934.680
  20887933.640          49.100          46.800
 130548499.657 6 101537739.112 6                  24430372.700    24430377.120
  24430375.100          40.800          36.450
 128171457.931 5  99688913.389 6                  24002396.080    24002400.240
  24002398.600          34.850          39.100
 107100218.839 8  83300194.098 8                  20021250.640    20021253.480
  20021252.620          48.800          48.050
 120648768.607 7  93837941.734 6                  22569842.220    22569846.280
  22569846.100          46.150          38.250
 144689978.766 7                 108047813.795 7  27533537.420
                        47.150
 15  1 27  6  2 10.0000000  0 22G11G14G28G04G16G03G18G22G27G19G32G01
                                R24R14R08R07R22R15R13R23R01E11
 110484401.800 8  86091733.02747                  21024476.680
  21024470.640          50.400          46.050
 122886652.599 7  95755821.06146                  23384552.060
  23384547.140          47.450          38.500
 129406017.273 7 100835828.42545                  24625144.240
  24625138.620          45.050          34.500
 107129363.726 8  83477440.04547                  20386028.920
  20386024.260          50.400          47.400
 130978639.260 7 102061275.22145                  24924406.320
  24924401.540          42.700          35.800
 126131915.878 7  98284610.768 7  94189422.292 8  24002102.800    24002102.040
  24002101.280          45.300          43.900
 134284798.994 6 104637500.03445                  25553539.380
  25553532.940          41.250          32.800
 117416563.966 8  91493436.75147                  22343614.420
  22343606.560          49.550          44.600
 112474428.433 8  87642421.772 8  83990648.763 8  21403167.360    21403165.260
  21403164.700          50.650          49.750
 107617494.204 8  83857768.63848                  20478921.880
  20478914.800          50.100          50.050
 109758412.050 8  85526058.75547                  20886315.380
  20886311.200          50.350          46.850
 116175988.660 8  90526764.929 7  86754806.609 8  22107548.900    22107547.740
  22107547.660          48.800          47.600
 122022383.574 7  94906317.263 6                  22818798.560    22818800.640
  22818798.480          43.900          37.750
 123653180.586 6  96174710.672 5                  23197024.100    23197029.780
  23197028.380          40.000          34.650
 104495159.312 8  81274033.571 7                  19513721.200    19513721.880
  19513721.140          49.100          47.850
 111521241.732 8  86738775.260 7                  20833097.160    20833097.960
  20833097.020          48.350          46.350
 111510910.002 8  86730738.293 7                  20889742.780    20889745.840
  20889744.780          48.600          46.650
 130540371.718 6 101531417.328 5                  24428851.720    24428856.040
  24428854.080          39.850          35.900
 128188216.707 5  99701948.002 6                  24005534.320    24005538.620
  24005536.900          35.250          38.500
 107093230.501 8  83294758.720 7                  20019944.240    20019947.100
  20019946.200          49.150          47.850
 120627071.981 7  93821066.577 6                  22565783.420    22565787.460
  22565787.320          46.250          38.550
 144701119.115 7                 108056132.895 7  27535657.440
                        46.950
 15  1 27  6  2 15.0000000  0 22G11G14G28G04G16G03G18G22G27G19G32G01
                                R24R14R08R07R22R15R13R23R01E11
 110474948.506 8  86084366.81947                  21022677.820
  21022671.740          50.350          45.900
 122879320.083 7  95750107.41046                  23383156.780
  23383151.760          47.650          38.850
 129393329.289 7 100825941.69945                  24622729.780
  24622724.140          45.000          34.300
 107125385.783 8  83474340.34947                  20385271.960
  20385267.280          50.550          47.300
 130997123.934 7 102075678.84445                  24927923.820
  24927919.060          44.000          34.200
 126114097.390 7  98270726.224 7  94176116.292 8  23998712.040    23998711.200
  23998710.500          45.350          43.700
 134300633.112 6 104649838.29645                  25556552.500
  25556545.960          41.400          31.700
 117429167.076 8  91503257.35247                  22346012.680
  22346004.860          49.700          43.950
 112485278.316 8  87650876.226 8  83998750.934 8  21405232.060    21405229.940
  21405229.380          50.600          49.600
 107620484.482 8  83860098.72148                  20479490.880
  20479483.820          50.000          50.050
 109747030.697 8  85517190.16447                  20884149.600
  20884145.380          50.300          46.650
 116165598.009 8  90518668.317 7  86747047.354 8  22105571.660    22105570.460
  22105570.340          48.850          47.450
 122005853.905 7  94893460.864 6                  22815707.440    22815709.520
  22815707.340          43.700          36.900
 123658433.856 6  96178796.542 5                  23198009.620    23198015.200
  23198013.820          40.650          35.150
 104487822.167 8  81268326.897 7                  19512351.040    19512351.740
  19512351.000          49.100          47.950
 111534409.218 8  86749016.636 7                  20835556.940    20835557.800
  20835556.860          48.600          46.400
 111520588.583 8  86738266.075 7                  20891555.800    20891558.960
  20891557.900          48.850          47.000
 130532262.602 6 101525110.231 5                  24427334.140    24427338.520
  24427336.600          40.050          35.350
 128204981.844 5  99714987.557 6                  24008673.780    24008678.140
  24008676.440          35.050          38.850
 107086252.017 8  83289331.010 7                  20018639.700    20018642.560
  20018641.640          49.250          47.900
 120605382.166 7  93804196.715 6                  22561725.880    22561729.900
  22561729.800          45.900          38.150
 144712263.007 7                 108064454.599 7  27537778.100
                        46.650
 15  1 27  6  2 20.0000000  0 22G11G14G28G04G16G03G18G22G27G19G32G01
                                R24R14R08R07R22R15R13R23R01E11
 110465501.818 8  86077005.76647                  21020880.220
  21020874.080          50.200          45.950
 122871998.313 7  95744402.12846                  23381763.520
  23381758.460          47.100          38.950
 129380649.690 7 100816061.48645                  24620316.940
  24620311.260          44.950          33.750
 107121415.622 8  83471246.71947                  20384516.460
  20384511.800          50.550          47.100
 131015606.756 7 102090081.05545                  24931440.980
  24931436.200          43.300          33.000
 126096282.307 7  98256844.339 7  94162812.828 8  23995321.920    23995321.060
  23995320.380          44.950          43.850
 134316467.283 6 104662176.59645                  25559565.640
  25559559.120          41.850          30.900
 117441777.322 8  91513083.51647                  22348412.320
  22348404.520          49.600          44.050
 112496137.715 8  87659338.087 8  84006860.234 8  21407298.560    21407296.400
  21407295.840          50.600          49.450
 107623485.793 8  83862437.40748                  20480062.020
  20480054.940          49.950          49.950
 109735662.355 8  85508331.72247                  20881986.320
  20881982.040          50.350          46.500
 116155211.805 8  90510575.168 7  86739291.426 8  22103595.300    22103594.020
  22103593.900          48.900          47.550
 121989323.168 7  94880603.617 6                  22812616.120    22812618.100
  22812615.980          44.100          36.800
 123663705.585 6  96182896.780 5                  23198998.540    23199004.020
  23199002.740          40.200          34.850
 104480505.564 8  81262636.208 7                  19510984.700    19510985.420
  19510984.680          49.050          47.700
 111547592.448 8  86759270.271 7                  20838019.660    20838020.520
  20838019.600          48.700          46.200
 111530276.077 8  86745800.786 7                  20893370.440    20893373.740
  20893372.700          48.750          46.650
 130524170.855 6 101518816.686 5                  24425819.900    24425824.260
  24425822.300          40.850          34.750
 128221751.661 5  99728030.744 6                  24011814.100    24011818.600
  24011816.820          34.300          38.800
 107079281.781 8  83283909.720 7                  20017336.680    20017339.580
  20017338.640          49.350          47.900
 120583697.814 7  93787331.112 6                  22557669.380    22557673.480
  22557673.280          45.450          38.100
 144723408.968 7                 108072777.872 7  27539899.100
                        46.450
 15  1 27  6  2 25.0000000  0 22G11G14G28G04G16G03G18G22G27G19G32G01
                                R24R14R08R07R22R15R13R23R01E11
 110456062.600 8  86069650.53347                  21019084.020
  21019077.860          50.250          46.150
 122864688.201 7  95738705.95046                  23380372.500
  23380367.400          47.200          38.650
 129367979.334 7 100806188.47945                  24617905.840
  24617900.120          45.200          35.650
 107117454.040 8  83468159.77047                  20383762.600
  20383757.940          50.600          47.050
 131034088.516 7 102104482.43545                  24934957.920
  24934953.200          43.150          34.600
 126078471.447 7  98242965.763 7  94149512.514 8  23991932.600    23991931.760
  23991931.140          45.250          44.250
 134332302.389 7 104674515.62145                  25562578.980
  25562572.400          42.250          33.600
 117454395.529 8  91522915.88547                  22350813.480
  22350805.700          49.550          44.250
 112507007.515 8  87667808.061 8  84014977.292 8  21409367.040    21409364.880
  21409364.280          50.600          49.450
 107626498.994 8  83864785.35648                  20480635.400
  20480628.340          50.050          49.950
 109724307.921 8  85499484.11947                  20879825.660
  20879821.360          50.350          46.550
 116144830.924 8  90502486.170 7  86731539.475 8  22101619.940    22101618.580
  22101618.480          49.000          47.600
 121972792.264 7  94867746.278 6                  22809524.780    22809526.720
  22809524.640          43.150          36.550
 123668996.579 6  96187012.002 5                  23199991.040    23199996.660
  23199995.300          40.150          35.100
 104473210.419 8  81256962.218 7                  19509622.360    19509623.120
  19509622.360          49.050          47.550
 111560792.331 8  86769536.857 7                  20840485.500    20840486.380
  20840485.460          48.900          46.150
 111539973.486 8  86753343.215 7                  20895187.020    20895190.400
  20895189.360          48.950          46.550
 130516097.363 6 101512537.307 5                  24424309.120    24424313.360
  24424311.340          40.850          34.750
 128238527.048 5  99741078.281 6                  24014955.640    24014960.100
  24014958.260          35.250          38.950
 107072320.854 8  83278495.669 7                  20016035.420    20016038.300
  20016037.340          49.250          47.700
 120562019.919 7  93770470.533 6                  22553614.060    22553618.200
  22553617.980          45.400          37.950
 144734557.852 7                 108081103.323 7  27542020.720
                        46.550
 15  1 27  6  2 30.0000000  0 22G11G14G28G04G16G03G18G22G27G19G32G01
                                R24R14R08R07R22R15R13R23R01E11
 110446629.136 8  86062299.79047                  21017288.900
  21017282.740          50.300          45.900
 122857388.079 7  95733017.54346                  23378983.340
  23378978.280          47.150          38.900
 129355316.556 7 100796321.37345                  24615496.220
  24615490.420          44.950          33.800
 107113499.447 8  83465078.27747                  20383010.060
  20383005.400          50.500          47.300
 131052567.528 7 102118881.67345                  24938474.340
  24938469.480          43.900          33.450
 126060663.196 7  98229089.222 7  94136214.146 8  23988543.760    23988543.020
  23988542.440          45.750          44.450
 134348136.720 7 104686854.06544                  25565592.200
  25565585.660          42.350          29.700
 117467020.047 8  91532753.17847                  22353215.820
  22353208.080          49.850          44.150
 112517886.053 8  87676284.852 8  84023100.872 8  21411437.160    21411435.000
  21411434.400          50.650          49.550
 107629522.468 8  83867141.31848                  20481210.740
  20481203.680          50.100          50.150
 109712965.686 8  85490646.02147                  20877667.340
  20877662.980          50.250          46.600
 116134453.710 8  90494400.036 7  86723790.247 8  22099645.300    22099643.860
  22099643.780          49.000          47.700
 121956259.504 7  94854887.485 6                  22806433.080    22806434.960
  22806432.960          43.800          36.550
 123674305.183 6  96191140.934 5                  23200986.860    23200992.540
  23200991.260          40.100          35.700
 104465935.052 8  81251303.605 7                  19508263.740    19508264.500
  19508263.720          49.100          47.550
 111574007.167 8  86779815.072 7                  20842954.120    20842955.040
  20842954.120          49.050          46.100
 111549679.199 8  86760892.096 7                  20897005.160    20897008.620
  20897007.560          49.450          46.550
 130508040.375 6 101506270.734 5                  24422801.460    24422805.500
  24422803.440          40.100          35.000
 128255306.293 5  99754128.811 6                  24018097.880    24018102.340
  24018100.440          35.350          38.550
 107065367.308 8  83273087.360 7                  20014735.520    20014738.400
  20014737.460          49.600          47.750
 120540346.579 7  93753613.499 6                  22549559.540    22549563.860
  22549563.520          44.850          37.950
 144745708.026 7                 108089429.718 7  27544142.560
                        46.750
 15  1 27  6  2 35.0000000  0 22G11G14G28G04G16G03G18G22G27G19G32G01
                                R24R14R08R07R22R15R13R23R01E11
 110437204.180 8  86054955.66047                  21015495.400
  21015489.220          50.250          45.700
 122850100.680 7  95727339.04046                  23377596.560
  23377591.480          46.850          39.000
 129342664.086 7 100786462.33045                  24613088.520
  24613082.820          44.850          35.000
 107109554.489 8  83462004.27847                  20382259.360
  20382254.700          50.350          47.000
 131071046.539 7 102133280.91545                  24941990.720
  24941985.860          43.600          32.650
 126042860.263 7  98215216.807 7  94122919.737 8  23985155.980    23985155.220
  23985154.680          46.050          43.950
 134363972.979 7 104699194.00245                  25568605.820
  25568599.420          42.350          34.050
 117479653.602 8  91542597.49447                  22355619.900
  22355612.180          49.800          43.900
 112528776.029 8  87684770.533 8  84031232.989 8  21413509.460    21413507.300
  21413506.700          50.700          49.450
 107632558.922 8  83869507.38048                  20481788.560
  20481781.520          50.100          50.050
 109701638.389 8  85481819.54747                  20875511.860
  20875507.460          50.250          46.750
 116124082.853 8  90486318.842 7  86716045.772 8  22097671.860    22097670.360
  22097670.280          48.900          47.650
 121939727.752 7  94842029.447 5                  22803341.540    22803343.380
  22803341.420          44.050          35.850
 123679634.319 6  96195285.810 5                  23201986.600    23201992.300
  23201991.040          39.900          35.950
 104458682.210 8  81245662.500 7                  19506909.300    19506910.100
  19506909.280          49.100          47.600
 111587239.562 8  86790106.922 7                  20845426.000    20845426.960
  20845426.040          48.800          46.050
 111559395.822 8  86768449.462 7                  20898825.360    20898828.860
  20898827.780          49.200          46.300
 130500002.840 6 101500019.304 5                  24421297.340    24421301.380
  24421299.240          40.200          34.400
 128272092.044 5  99767184.404 6                  24021241.260    24021245.720
  24021243.800          34.950          38.050
 107058424.159 8  83267687.122 7                  20013437.580    20013440.460
  20013439.480          49.450          47.550
 120518680.675 7  93736762.238 6                  22545506.460    22545510.780
  22545510.460          45.050          37.600
 144756862.167 7                 108097759.107 7  27546265.120
                        46.400
 15  1 27  6  2 40.0000000  0 22G11G14G28G04G16G03G18G22G27G19G32G01
                                R24R14R08R07R22R15R13R23R01E11
 110427787.953 8  86047618.34647                  21013703.560
  21013697.340          50.400          45.400
 122842826.181 7  95721670.60246                  23376212.220
  23376207.260          46.850          38.650
 129330022.126 7 100776611.44045                  24610682.820
  24610677.140          45.400          34.250
 107105619.371 8  83458937.95847                  20381510.540
  20381505.880          50.400          47.150
 131089525.669 7 102147680.23745                  24945507.200
  24945502.340          43.400          34.050
 126025062.851 7  98201348.700 7  94109629.463 8  23981769.260    23981768.460
  23981767.980          46.200          43.650
 134379811.380 7 104711535.60745                  25571619.780
  25571613.160          42.250          31.250
 117492296.313 8  91552448.96847                  22358025.720
  22358018.000          49.650          44.000
 112539677.626 8  87693265.288 8  84039373.786 8  21415583.980    21415581.800
  21415581.200          50.650          49.350
 107635608.514 8  83871883.68948                  20482368.900
  20482361.840          50.150          50.050
 109690326.247 8  85473004.88947                  20873359.240
  20873354.840          50.100          46.400
 116113718.547 8  90478242.763 7  86708306.198 8  22095699.620    22095698.060
  22095698.020          48.850          47.650
 121923197.141 7  94829172.312 6                  22800250.220    22800252.040
  22800250.060          44.200          36.400
 123684983.915 6  96199446.594 6                  23202990.120    23202995.880
  23202994.720          40.000          36.200
 104451452.039 8  81240039.038 7                  19505559.120    19505559.920
  19505559.100          49.050          47.800
 111600489.881 8  86800412.722 7                  20847901.280    20847902.220
  20847901.320          48.700          46.100
 111569123.631 8  86776015.540 7                  20900647.720    20900651.180
  20900650.120          49.350          46.400
 130491984.733 6 101493782.994 5                  24419796.900    24419800.920
  24419798.800          39.850          35.250
 128288884.626 5  99780245.280 6                  24024385.900    24024390.440
  24024388.500          35.150          38.850
 107051491.320 8  83262294.915 7                  20012141.600    20012144.440
  20012143.440          49.600          47.800
 120497022.545 7  93719917.018 6                  22541454.880    22541459.180
  22541458.840          44.550          38.000
 144768020.491 7                 108106091.605 7  27548388.500
                        46.550
 15  1 27  6  2 45.0000000  0 22G11G14G28G04G16G03G18G22G27G19G32G01
                                R24R14R08R07R22R15R13R23R01E11
 110418377.918 8  86040285.85247                  21011912.920
  21011906.660          50.600          45.550
 122835562.017 7  95716010.22846                  23374829.860
  23374824.940          46.800          38.750
 129317388.136 7 100766766.77645                  24608278.640
  24608272.920          45.350          33.650
 107101691.600 8  83455877.36647                  20380763.080
  20380758.460          50.550          47.250
 131108002.371 7 102162077.65545                  24949023.200
  24949018.300          43.350          35.750
 126007268.394 7  98187482.904 7  94096341.403 8  23978383.060    23978382.300
  23978381.820          46.650          43.550
 134395649.356 6 104723876.82945                  25574633.660
  25574627.140          41.800          30.100
 117504945.670 8  91562305.60347                  22360432.800
  22360425.080          49.800          43.850
 112550588.307 8  87701767.118 8  84047521.370 8  21417660.200    21417658.020
  21417657.440          50.650          49.550
 107638668.742 8  83874268.28248                  20482951.240
  20482944.180          50.150          50.150
 109679026.686 8  85464200.04047                  20871209.020
  20871204.600          50.100          46.800
 116103358.265 8  90470169.825 7  86700569.629 8  22093728.140    22093726.560
  22093726.540          48.750          47.550
 121906665.122 7  94816314.085 5                  22797158.640    22797160.460
  22797158.440          44.500          35.700
 123690351.418 6  96203621.319 6                  23203997.020    23204002.740
  23204001.740          39.800          36.350
 104444242.085 8  81234431.298 7                  19504212.740    19504213.520
  19504212.700          48.900          47.950
 111613755.385 8  86810730.338 7                  20850379.360    20850380.340
  20850379.460          48.400          46.150
 111578860.158 8  86783588.398 7                  20902471.700    20902475.100
  20902474.100          49.450          46.450
 130483983.381 6 101487559.763 5                  24418299.600    24418303.580
  24418301.520          39.350          35.250
 128305681.511 5  99793309.543 6                  24027531.460    24027535.960
  24027533.960          34.700          38.900
 107044566.524 8  83256908.960 8                  20010847.100    20010849.940
  20010848.940          49.650          48.000
 120475369.476 7  93703075.746 6                  22537404.200    22537408.480
  22537408.200          44.100          38.400
 144779180.434 7                 108114425.316 7  27550512.200
                        46.750
 15  1 27  6  2 50.0000000  0 22G11G14G28G04G16G03G18G22G27G19G32G01
                                R24R14R08R07R22R15R13R23R01E11
 110408975.667 8  86032959.41847                  21010123.740
  21010117.440          50.600          45.850
 122828309.861 7  95710359.19946                  23373449.740
  23373444.920          46.850          37.700
 129304763.701 7 100756929.55245                  24605876.260
  24605870.520          44.950          35.000
 107097772.757 8  83452823.71847                  20380017.340
  20380012.720          50.650          46.800
 131126478.225 7 102176474.40345                  24952539.060
  24952534.240          43.750          35.850
 125989478.517 7  98173620.664 7  94083056.774 8  23974997.740    23974996.980
  23974996.480          46.750          43.250
 134411488.469 7 104736219.01345                  25577647.740
  25577641.460          42.300          30.750
 117517603.219 8  91572168.62247                  22362841.460
  22362833.720          49.850          43.700
 112561509.626 8  87710277.231 8  84055676.909 8  21419738.440    21419736.280
  21419735.700          50.650          49.550
 107641741.143 8  83876662.35948                  20483535.900
  20483528.840          50.400          50.100
 109667741.297 8  85455406.22547                  20869061.480
  20869057.080          50.300          46.300
 116093003.570 8  90462101.227 7  86692837.232 8  22091757.700    22091756.140
  22091756.100          48.550          47.650
 121890133.220 7  94803455.950 5                  22794067.100    22794068.800
  22794066.780          44.350          35.700
 123695738.541 6  96207811.303 6                  23205007.660    23205013.420
  23205012.440          39.600          36.400
 104437053.947 8  81228840.516 8                  19502870.440    19502871.180
  19502870.360          48.950          48.000
 111627037.860 8  86821061.158 7                  20852860.640    20852861.640
  20852860.760          48.250          46.550
 111588606.736 8  86791169.065 7                  20904297.620    20904300.960
  20904299.960          49.450          46.700
 130476000.646 6 101481350.926 5                  24416805.700    24416809.800
  24416807.720          38.900          35.950
 128322484.145 5  99806378.253 6                  24030678.080    24030682.580
  24030680.540          34.800          39.550
 107037651.138 8  83251530.327 8                  20009554.380    20009557.200
  20009556.220          49.350          48.100
 120453723.002 7  93686239.608 6                  22533354.800    22533359.080
  22533358.800          44.100          37.950
 144790343.564 7                 108122761.416 7  27552636.480
                        46.650
 15  1 27  6  2 55.0000000  0 22G11G14G28G04G16G03G18G22G27G19G32G01
                                R24R14R08R07R22R15R13R23R01E11
 110399580.932 8  86025638.85047                  21008335.980
  21008329.660          50.700          45.350
 122821069.457 7  95704717.33046                  23372071.860
  23372067.220          46.800          37.900
 129292148.579 7 100747099.59745                  24603475.680
  24603469.820          45.000          33.950
 107093862.527 8  83449776.78547                  20379273.240
  20379268.640          50.550          46.850
 131144953.017 7 102190870.36545                  24956054.740
  24956049.940          43.600          35.850
 125971692.965 7  98159761.803 7  94069775.355 8  23971613.300    23971612.500
  23971612.020          46.850          43.200
 134427328.543 7 104748561.89845                  25580662.020
  25580655.700          42.800          30.350
 117530268.724 8  91582037.84947                  22365251.620
  22365243.880          49.700          43.700
 112572441.372 8  87718795.466 8  84063840.210 8  21421818.660    21421816.540
  21421815.940          50.700          49.500
 107644825.515 8  83879065.76448                  20484122.840
  20484115.780          50.300          50.050
 109656469.893 8  85446623.32047                  20866916.600
  20866912.200          50.400          46.150
 116082654.227 8  90454036.812 7  86685108.827 8  22089788.240    22089786.740
  22089786.700          48.600          47.550
 121873601.366 7  94790597.843 5                  22790975.520    22790977.100
  22790975.160          44.600          35.500
 123701144.955 6  96212016.290 6                  23206021.820    23206027.640
  23206026.720          39.100          36.200
 104429887.286 8  81223266.442 8                  19501532.120    19501532.840
  19501532.040          49.100          48.000
 111640336.769 8  86831404.756 7                  20855344.980    20855346.020
  20855345.140          48.300          46.750
 111598363.296 8  86798757.505 7                  20906125.400    20906128.680
  20906127.700          49.600          46.700
 130468036.373 6 101475156.508 5                  24415315.260    24415319.260
  24415317.380          39.000          35.550
 128339292.273 5  99819451.238 6                  24033825.580    24033830.240
  24033828.200          35.450          39.400
 107030745.062 8  83246158.939 7                  20008263.360    20008266.180
  20008265.220          49.400          47.950
 120432083.115 7  93669408.574 6                  22529306.660    22529310.940
  22529310.580          44.750          38.500
 144801509.681 7                 108131099.729 7  27554761.340
                        46.550
 15  1 27  6  3  0.0000000  0 22G11G14G28G04G16G03G18G22G27G19G32G01
                                R24R14R08R07R22R15R13R23R01E11
 110390192.551 8  86018323.23247                  21006549.440
  21006543.080          50.800          45.600
 122813839.611 7  95699083.68646                  23370696.000
  23370691.500          46.850          38.400
 129279541.583 7 100737275.97045                  24601076.600
  24601070.880          45.250          34.200
 107089959.710 8  83446735.62947                  20378530.540
  20378525.960          50.350          47.000
 131163425.507 7 102205264.51245                  24959570.000
  24959565.100          43.750          35.150
 125953910.572 7  98145905.400 7  94056496.313 8  23968229.460    23968228.620
  23968228.140          47.400          43.400
 134443168.279 7 104760904.56345                  25583676.240
  25583670.040          43.100          34.000
 117542940.985 8  91591912.33647                  22367663.060
  22367655.300          49.700          43.850
 112583382.319 8  87727320.879 8  84072010.405 8  21423900.660    21423898.520
  21423897.940          50.600          49.550
 107647920.644 8  83881477.54948                  20484711.840
  20484704.760          50.300          49.900
 109645211.271 8  85437850.37047                  20864774.140
  20864769.760          50.400          46.200
 116072309.067 8  90445975.644 7  86677383.549 8  22087819.560    22087818.140
  22087818.080          48.650          47.550
 121857068.133 7  94777738.662 5                  22787883.740    22787885.200
  22787883.240          44.850          35.450
 123706569.325 6  96216235.230 6                  23207039.320    23207045.220
  23207044.380          38.800          36.300
 104422740.903 8  81217708.150 7                  19500197.620    19500198.300
  19500197.480          49.050          47.800
 111653651.197 8  86841760.420 7                  20857832.240    20857833.300
  20857832.420          48.450          46.700
 111608128.616 8  86806352.750 7                  20907954.820    20907958.040
  20907957.100          49.800          46.800
 130460089.270 6 101468975.424 5                  24413828.100    24413832.180
  24413830.200          40.250          35.500
 128356104.524 5  99832527.452 6                  24036973.940    24036978.700
  24036976.620          35.000          39.750
 107023847.094 8  83240793.854 8                  20006973.840    20006976.680
  20006975.760          49.200          48.300
 120410448.578 7  93652581.708 6                  22525259.480    22525263.720
  22525263.380          44.700          38.350
 144812677.562 7                 108139439.382 7  27556886.500
                        46.550
 15  1 27  6  3  5.0000000  0 22G11G14G28G04G16G03G18G22G27G19G32G01
                                R24R14R08R07R22R15R13R23R01E11
 110380812.358 8  86011013.98647                  21004764.480
  21004758.100          50.750          45.450
 122806622.114 7  95693459.66446                  23369322.500
  23369318.120          46.900          39.050
 129266944.561 7 100727460.13445                  24598679.440
  24598673.760          45.500          32.200
 107086066.167 8  83443701.70447                  20377789.620
  20377785.060          50.450          46.750
 131181897.474 7 102219658.25646                  24963085.140
  24963080.200          43.650          36.900
 125936133.162 7  98132052.877 7  94043220.969 8  23964846.580    23964845.720
  23964845.200          47.200          43.250
 134459009.521 7 104773248.39245                  25586690.740
  25586684.600          43.400          31.600
 117555621.803 8  91601793.49147                  22370076.120
  22370068.380          49.700          43.850
 112594334.291 8  87735854.883 8  84080188.820 8  21425984.740    21425982.600
  21425982.020          50.750          49.400
 107651028.359 8  83883899.14548                  20485303.220
  20485296.140          50.400          49.850
 109633967.250 8  85429088.79647                  20862634.460
  20862630.100          50.300          46.100
 116061969.879 8  90437919.137 7  86669662.727 8  22085852.040    22085850.680
  22085850.620          48.650          47.400
 121840535.448 7  94764879.911 5                  22784792.060    22784793.240
  22784791.460          44.800          34.900
 123712013.687 6  96220469.719 6                  23208060.540    23208066.660
  23208065.740          38.750          36.300
 104415616.712 8  81212167.123 7                  19498867.240    19498867.900
  19498867.080          49.100          47.800
 111666982.664 8  86852129.337 7                  20860322.680    20860323.780
  20860322.840          48.450          46.450
 111617904.535 8  86813956.240 7                  20909786.240    20909789.420
  20909788.480          49.750          46.700
 130452161.102 6 101462809.055 5                  24412344.480    24412348.620
  24412346.480          39.950          35.800
 128372922.967 5  99845608.465 6                  24040123.420    24040128.280
  24040126.160          34.100          39.350
 107016959.171 8  83235436.583 8                  20005686.220    20005689.080
  20005688.180          49.200          48.100
 120388821.255 7  93635760.459 6                  22521213.720    22521217.860
  22521217.540          45.000          37.950
 144823849.034 7                 108147781.693 7  27559012.360
                        46.550
 15  1 27  6  3 10.0000000  0 22G11G14G28G04G16G03G18G22G27G19G32G01
                                R24R14R08R07R22R15R13R23R01E11
 110371440.724 8  86003711.41347                  21002981.120
  21002974.740          50.600          45.250
 122799417.397 7  95687845.60046                  23367951.420
  23367947.120          46.850          38.350
 129254357.884 7 100717652.32145                  24596284.240
  24596278.500          45.150          33.450
 107082182.273 8  83440675.28947                  20377050.520
  20377045.980          50.500          46.850
 131200369.349 7 102234051.91545                  24966600.200
  24966595.200          43.050          35.200
 125918361.126 7  98118204.548 7  94029949.637 8  23961464.660    23961463.820
  23961463.260          47.050          42.950
 134474852.654 7 104785593.66245                  25589705.620
  25589699.540          43.650          32.750
 117568311.542 8  91611681.59747                  22372490.900
  22372483.140          49.600          43.650
 112605297.680 8  87744397.777 8  84088375.768 8  21428071.000    21428068.880
  21428068.280          50.700          49.300
 107654149.057 8  83886330.85548                  20485897.080
  20485889.980          50.300          49.850
 109622738.212 8  85420338.89647                  20860497.620
  20860493.280          50.200          46.100
 116051637.045 8  90429867.585 7  86661946.655 8  22083885.700    22083884.400
  22083884.320          48.550          47.250
 121824003.829 7  94752021.977 5                  22781700.560    22781701.660
  22781699.840          44.550          35.700
 123717478.338 6  96224720.011 6                  23209085.560    23209091.860
  23209090.960          39.000          36.450
 104408515.046 8  81206643.607 8                  19497541.060    19497541.720
  19497540.900          48.900          48.050
 111680331.751 8  86862511.951 7                  20862816.380    20862817.520
  20862816.560          48.000          46.350
 111627691.367 8  86821568.209 7                  20911619.720    20911622.860
  20911621.900          49.850          46.650
 130444252.236 6 101456657.712 6                  24410864.480    24410868.640
  24410866.420          40.300          36.750
 128389747.740 5  99858694.396 6                  24043274.120    24043279.060
  24043276.900          34.550          39.350
 107010081.390 8  83230087.200 8                  20004400.500    20004403.380
  20004402.460          49.000          48.050
 120367201.288 7  93618944.921 6                  22517169.320    22517173.400
  22517173.020          45.100          37.600
 144835024.487 7                 108156126.976 7  27561138.960
                        46.700
 15  1 27  6  3 15.0000000  0 22G11G14G28G04G16G03G18G22G27G19G32G01
                                R24R14R08R07R22R15R13R23R01E11
 110362074.609 8  85996413.14547                  21001198.800
  21001192.420          50.400          45.500
 122792222.379 7  95682239.09046                  23366582.240
  23366577.980          46.900          38.050
 129241778.528 7 100707850.23545                  24593890.440
  24593884.700          44.750          34.750
 107078304.992 8  83437654.03347                  20376312.680
  20376308.160          50.450          46.800
 131218838.032 7 102248443.10346                  24970114.700
  24970109.700          43.100          37.900
 125900591.405 7  98104358.016 7  94016680.050 8  23958083.180    23958082.360
  23958081.780          46.750          42.850
 134490694.610 7 104797938.06045                  25592720.260
  25592714.160          43.200          32.650
 117581007.169 8  91621574.29647                  22374906.780
  22374899.060          49.550          44.300
 112616269.421 8  87752947.184 8  84096568.946 8  21430158.840    21430156.740
  21430156.140          50.600          49.300
 107657279.684 8  83888770.30948                  20486492.820
  20486485.700          50.200          49.850
 109611521.097 8  85411598.28947                  20858363.040
  20858358.740          50.000          46.400
 116041307.537 8  90421818.620 7  86654233.073 8  22081919.980    22081918.740
  22081918.660          48.500          47.250
 121807470.069 7  94739162.400 5                  22778608.680    22778609.700
  22778607.920          44.950          35.650
 123722960.163 6  96228983.655 5                  23210113.920    23210120.220
  23210119.360          38.800          35.750
 104401432.934 8  81201135.296 7                  19496218.540    19496219.200
  19496218.380          49.000          47.900
 111693695.199 7  86872905.745 7                  20865312.760    20865313.940
  20865312.960          47.700          46.700
 111637486.164 8  86829186.386 7                  20913454.680    20913457.760
  20913456.780          49.750          46.700
 130436359.564 6 101450518.994 6                  24409387.520    24409391.540
  24409389.320          40.250          36.200
 128406575.909 5  99871782.949 6                  24046425.500    24046430.380
  24046428.320          34.650          40.000
 107003210.981 8  83224743.546 8                  20003116.140    20003119.020
  20003118.100          48.800          48.100
 120345586.030 7  93602133.045 6                  22513125.780    22513129.760
  22513129.400          45.000          37.900
 144846200.852 7                 108164472.957 7  27563265.760
                        46.600
 15  1 27  6  3 20.0000000  0 22G11G14G28G04G16G03G18G22G27G19G32G01
                                R24R14R08R07R22R15R13R23R01E11
 110352716.715 8  85989121.27647                  20999418.060
  20999411.680          50.350          45.850
 122785039.804 7  95676642.27646                  23365215.440
  23365211.140          47.250          37.850
 129229209.216 7 100698055.99145                  24591498.560
  24591492.940          44.900          35.300
 107074436.994 8  83434640.00247                  20375576.600
  20375572.100          50.350          46.650
 131237306.232 7 102262833.89145                  24973629.100
  24973624.140          42.900          35.350
 125882826.705 7  98090515.385 7  94003414.207 8  23954702.660    23954701.820
  23954701.200          46.800          42.700
 134506538.092 7 104810283.57945                  25595735.180
  25595729.080          42.800          30.750
 117593711.330 8  91631473.63847                  22377324.300
  22377316.600          49.350          44.000
 112627252.190 8  87761505.178 8  84104770.353 8  21432248.800    21432246.700
  21432246.080          50.550          49.300
 107660422.918 8  83891219.57648                  20487090.940
  20487083.820          50.150          49.800
 109600318.649 8  85402869.10447                  20856231.280
  20856226.980          50.000          46.150
 116030984.051 8  90413774.344 7  86646523.969 8  22079955.420    22079954.260
  22079954.140          48.350          47.100
 121790936.913 7  94726303.292 5                  22775516.860    22775517.720
  22775516.100          45.100          35.350
 123728461.805 6  96233262.708 6                  23211145.900    23211152.500
  23211151.460          39.000          36.050
 104394373.050 8  81195644.273 7                  19494900.160    19494900.820
  19494900.000          49.200          47.850
 111707075.759 7  86883312.830 7                  20867812.340    20867813.500
  20867812.540          47.900          46.400
 111647291.567 8  86836812.800 7                  20915291.680    20915294.680
  20915293.660          50.000          46.600
 130428485.987 6 101444395.116 6                  24407914.040    24407918.180
  24407915.900          39.850          37.100
 128423410.161 5  99884876.254 6                  24049578.060    24049582.920
  24049580.880          34.150          39.900
 106996350.492 8  83219407.606 8                  20001833.640    20001836.540
  20001835.620          48.850          48.200
 120323977.778 7  93585326.618 6                  22509083.500    22509087.520
  22509087.100          45.650          37.800
 144857380.811 7                 108172821.629 7  27565393.280
                        46.550
 15  1 27  6  3 25.0000000  0 22G11G14G28G04G16G03G18G22G27G19G32G01
                                R24R14R08R07R22R15R13R23R01E11
 110343366.312 8  85981835.24247                  20997638.740
  20997632.360          50.300          45.700
 122777868.990 7  95671054.62946                  23363850.900
  23363846.560          47.250          37.850
 129216649.250 7 100688268.98846                  24589108.480
  24589102.880          45.400          36.000
 107070577.576 8  83431632.66147                  20374842.140
  20374837.680          50.150          46.900
 131255773.199 7 102277223.72246                  24977143.280
  24977138.260          42.700          36.400
 125865066.364 7  98076676.146 7  93990151.607 8  23951323.020    23951322.080
  23951321.440          46.850          42.700
 134522382.387 6 104822629.80345                  25598750.220
  25598744.040          41.950          30.900
 117606423.316 8  91641379.08647                  22379743.280
  22379735.620          49.200          44.100
 112638245.317 8  87770071.243 8  84112979.498 8  21434340.720    21434338.620
  21434338.020          50.550          49.350
 107663578.067 8  83893678.12548                  20487691.360
  20487684.220          50.100          50.100
 109589130.131 8  85394150.77747                  20854102.160
  20854097.880          50.200          46.350
 116020665.873 8  90405734.207 7  86638818.836 8  22077991.880    22077990.760
  22077990.660          48.100          47.150
 121774403.773 7  94713444.175 5                  22772425.080    22772426.000
  22772424.220          44.900          34.900
 123733982.610 6  96237556.663 5                  23212181.560    23212188.220
  23212187.200          39.250          35.900
 104387334.634 8  81190169.945 7                  19493585.820    19493586.440
  19493585.640          49.300          47.800
 111720472.662 8  86893732.639 7                  20870315.020    20870316.120
  20870315.200          48.300          46.300
 111657106.830 8  86844446.888 7                  20917130.480    20917133.380
  20917132.380          50.050          46.300
 130420630.796 6 101438285.504 6                  24406444.020    24406448.260
  24406446.060          40.800          38.050
 128440249.616 5  99897973.622 6                  24052731.660    24052736.460
  24052734.380          34.950          39.250
 106989499.271 8  83214078.883 8                  20000552.840    20000555.780
  20000554.880          48.850          48.000
 120302376.202 7  93568525.384 6                  22505042.460    22505046.500
  22505046.040          45.400          37.550
 144868563.703 7                 108181172.458 7  27567521.300
                        46.250
 15  1 27  6  3 30.0000000  0 22G11G14G28G04G16G03G18G22G27G19G32G01
                                R24R14R08R07R22R15R13R23R01E11
 110334022.783 8  85974554.57447                  20995860.720
  20995854.360          50.450          45.400
 122770709.286 7  95665475.63846                  23362488.480
  23362484.140          47.250          38.150
 129204097.992 7 100678488.80445                  24586720.040
  24586714.480          45.300          34.050
 107066726.181 8  83428631.57647                  20374109.240
  20374104.780          50.200          46.800
 131274238.285 7 102291612.09246                  24980657.100
  24980652.120          42.950          36.600
 125847309.715 7  98062839.791 7  93976891.775 8  23947944.080    23947943.060
  23947942.460          46.750          43.100
 134538226.815 6 104834976.07645                  25601765.320
  25601759.100          41.800          31.650
 117619142.470 8  91651290.10647                  22382163.620
  22382155.980          49.350          44.000
 112649248.114 8  87778644.848 8  84121195.872 8  21436434.480    21436432.360
  21436431.780          50.600          49.400
 107666744.512 8  83896145.48748                  20488293.920
  20488286.760          50.100          50.050
 109577954.928 8  85385442.83347                  20851975.580
  20851971.320          50.250          46.200
 116010352.351 8  90397697.704 7  86631117.190 8  22076029.240    22076028.160
  22076028.040          48.300          47.450
 121757869.754 7  94700584.394 5                  22769333.140    22769334.080
  22769332.240          44.900          35.300
 123739522.048 6  96241865.123 5                  23213220.740    23213227.440
  23213226.380          38.600          35.650
 104380317.039 8  81184711.822 7                  19492275.300    19492275.920
  19492275.160          49.200          47.850
 111733885.375 8  86904164.754 7                  20872820.640    20872821.740
  20872820.840          48.600          46.300
 111666931.350 8  86852088.184 7                  20918971.020    20918973.840
  20918972.860          49.850          46.250
 130412793.214 6 101432189.613 6                  24404977.320    24404981.620
  24404979.540          41.550          38.350
 128457093.885 5  99911074.716 6                  24055886.060    24055890.820
  24055888.800          34.300          39.300
 106982656.751 8  83208756.925 7                  19999273.700    19999276.680
  19999275.760          48.700          47.950
 120280780.434 7  93551728.682 6                  22501002.520    22501006.480
  22501006.060          45.100          37.650
 144879748.867 7                 108189524.995 7  27569649.760
                        46.400
 15  1 27  6  3 35.0000000  0 22G11G14G28G04G16G03G18G22G27G19G32G01
                                R24R14R08R07R22R15R13R23R01E11
 110324686.803 8  85967279.77847                  20994084.140
  20994077.780          50.350          45.450
 122763561.352 7  95659905.83046                  23361128.300
  23361123.940          47.150          38.700
 129191556.122 7 100668715.91045                  24584333.420
  24584327.940          45.250          35.550
 107062883.436 8  83425637.22447                  20373377.960
  20373373.520          50.250          46.800
 131292702.175 7 102305999.52545                  24984170.680
  24984165.720          43.000          35.650
 125829557.457 7  98049006.861 7  93963635.224 8  23944565.940    23944564.940
  23944564.300          46.550          43.600
 134554072.066 6 104847323.03645                  25604780.560
  25604774.500          41.850          33.700
 117631869.472 8  91661207.25147                  22384585.440
  22384577.860          49.400          44.100
 112660261.278 8  87787226.537 8  84129419.990 8  21438530.240    21438528.100
  21438527.500          50.450          49.350
 107669922.894 8  83898622.14748                  20488898.740
  20488891.580          50.150          50.000
 109566793.714 8  85376745.78247                  20849851.660
  20849847.420          50.100          46.000
 116000044.173 8  90389665.362 7  86623419.534 8  22074067.640    22074066.580
  22074066.460          48.650          47.550
 121741335.844 7  94687724.714 5                  22766241.220    22766242.120
  22766240.300          45.150          35.100
 123745080.788 6  96246188.586 5                  23214263.620    23214270.120
  23214269.120          39.050          35.000
 104373321.018 8  81179270.479 7                  19490968.860    19490969.460
  19490968.700          49.000          47.800
 111747314.627 8  86914609.721 7                  20875329.360    20875330.440
  20875329.540          48.750          46.350
 111676765.955 8  86859737.322 7                  20920813.440    20920816.180
  20920815.220          49.850          46.350
 130404974.002 6 101426108.006 6                  24403514.140    24403518.500
  24403516.400          41.250          37.350
 128473943.350 5  99924179.866 6                  24059041.340    24059046.120
  24059044.180          33.200          39.900
 106975823.666 8  83203442.299 8                  19997996.300    19997999.280
  19997998.400          48.750          48.100
 120259191.324 7  93534937.163 6                  22496963.780    22496967.760
  22496967.380          45.300          37.650
 144890936.977 7                 108197879.730 7  27571778.760
                        46.250
 15  1 27  6  3 40.0000000  0 22G11G14G28G04G16G03G18G22G27G19G32G01
                                R24R14R08R07R22R15R13R23R01E11
 110315358.434 8  85960010.91347                  20992309.000
  20992302.660          50.200          45.750
 122756425.277 7  95654345.24446                  23359770.340
  23359766.000          46.900          39.300
 129179023.664 7 100658950.38045                  24581948.600
  24581943.100          45.300          34.550
 107059049.315 8  83422649.59547                  20372648.340
  20372643.920          50.200          46.900
 131311164.946 6 102320386.12245                  24987683.940
  24987679.120          41.900          34.700
 125811809.641 7  98035177.400 7  93950381.978 8  23941188.620    23941187.660
  23941187.040          46.600          43.600
 134569918.237 7 104859670.70344                  25607795.960
  25607789.960          42.000          29.850
 117644604.362 8  91671130.54447                  22387008.780
  22387001.220          49.400          44.100
 112671284.874 8  87795816.347 8  84137651.886 8  21440627.960    21440625.820
  21440625.200          50.400          49.300
 107673113.295 8  83901108.17348                  20489505.860
  20489498.680          50.150          50.050
 109555646.596 8  85368059.72147                  20847730.400
  20847726.180          49.900          46.600
 115989741.406 8  90381637.230 7  86615725.903 8  22072107.120    22072106.020
  22072105.900          48.800          47.350
 121724801.982 7  94674865.021 5                  22763149.280    22763150.240
  22763148.260          45.050          34.800
 123750658.620 6  96250526.885 5                  23215310.020    23215316.340
  23215315.380          40.000          34.900
 104366346.656 8  81173845.974 7                  19489666.420    19489667.040
  19489666.280          49.200          47.700
 111760760.117 8  86925067.328 7                  20877841.100    20877842.200
  20877841.260          48.900          46.400
 111686610.430 8  86867394.130 7                  20922657.720    20922660.420
  20922659.440          49.850          46.300
 130397173.337 6 101420040.830 6                  24402054.340    24402058.660
  24402056.620          41.650          36.200
 128490798.041 5  99937289.053 6                  24062197.700    24062202.480
  24062200.600          34.350          39.350
 106968999.821 8  83198134.864 8                  19996720.640    19996723.600
  19996722.760          48.850          48.000
 120237608.869 7  93518150.819 6                  22492926.360    22492930.360
  22492929.940          45.550          37.550
 144902128.063 7                 108206236.699 7  27573908.360
                        46.650
 15  1 27  6  3 45.0000000  0 22G11G14G28G04G16G03G18G22G27G19G32G01
                                R24R14R08R07R22R15R13R23R01E11
 110306037.938 8  85952748.19047                  20990535.360
  20990529.020          50.200          45.750
 122749301.369 7  95648794.14946                  23358414.720
  23358410.380          47.050          38.850
 129166500.954 7 100649192.41845                  24579565.600
  24579560.080          45.100          35.850
 107055224.128 8  83419668.93747                  20371920.400
  20371916.000          50.100          47.000
 131329626.753 7 102334771.91546                  24991197.120
  24991192.360          42.400          36.550
 125794066.563 7  98021351.619 7  93937132.292 8  23937812.220    23937811.280
  23937810.600          46.550          43.600
 134585765.530 7 104872019.22045                  25610811.600
  25610805.780          42.200          33.250
 117657347.424 8  91681060.20047                  22389433.720
  22389426.180          49.550          43.950
 112682319.150 8  87804414.483 8  84145891.770 8  21442727.720    21442725.580
  21442724.940          50.550          49.350
 107676315.968 8  83903603.76548                  20490115.300
  20490108.120          50.150          50.100
 109544513.806 8  85359384.82547                  20845611.860
  20845607.700          49.950          46.250
 115979444.305 8  90373613.519 7  86608036.514 8  22070147.680    22070146.560
  22070146.420          49.000          47.550
 121708268.335 7  94662005.523 5                  22760057.400    22760058.240
  22760056.320          45.000          35.300
 123756255.908 6  96254880.346 5                  23216360.060    23216366.400
  23216365.340          39.300          35.150
 104359394.147 8  81168438.470 7                  19488368.080    19488368.700
  19488367.920          49.350          47.650
 111774222.231 8  86935537.870 7                  20880355.940    20880357.060
  20880356.120          49.050          46.650
 111696465.179 8  86875058.935 7                  20924503.900    20924506.540
  20924505.560          50.000          46.350
 130389391.467 7 101413988.273 6                  24400598.100    24400602.440
  24400600.320          42.250          36.350
 128507658.423 5  99950402.682 6                  24065355.140    24065359.920
  24065358.060          34.700          39.800
 106962185.756 8  83192835.038 7                  19995446.800    19995449.780
  19995448.940          49.100          47.900
 120216033.364 7  93501369.873 6                  22488890.240    22488894.280
  22488893.780          45.950          37.550
 144913322.435 7                 108214596.114 7  27576038.600
                        46.650
 15  1 27  6  3 50.0000000  0 22G11G14G28G04G16G03G18G22G27G19G32G01
                                R24R14R08R07R22R15R13R23R01E11
 110296724.417 8  85945490.90047                  20988763.040
  20988756.700          50.150          45.900
 122742188.676 7  95643251.79146                  23357061.200
  23357056.940          47.000          38.900
 129153987.064 7 100639441.35646                  24577184.280
  24577178.800          45.150          36.750
 107051406.993 8  83416694.54747                  20371193.980
  20371189.620          50.000          47.150
 131348086.773 6 102349156.33146                  24994709.900
  24994705.320          41.950          37.400
 125776327.313 7  98007528.817 7  93923885.432 8  23934436.580    23934435.540
  23934434.920          46.650          43.750
 134601613.066 7 104884367.95445                  25613827.240
  25613821.520          43.050          30.800
 117670097.727 8  91690995.49547                  22391860.040
  22391852.460          49.650          43.750
 112693363.177 8  87813020.212 8  84154138.923 8  21444829.340    21444827.180
  21444826.540          50.600          49.450
 107679529.993 8  83906108.19348                  20490726.900
  20490719.720          50.100          49.900
 109533394.437 8  85350720.38647                  20843495.900
  20843491.740          50.100          46.250
 115969151.953 8  90365593.498 7  86600350.661 8  22068189.200    22068187.980
  22068187.840          49.250          47.700
 121691734.115 7  94649145.582 5                  22756965.400    22756966.320
  22756964.340          44.750          34.800
 123761871.794 6  96259248.266 5                  23217413.540    23217419.840
  23217418.860          39.350          35.400
 104352462.632 8  81163047.289 7                  19487073.660    19487074.300
  19487073.480          49.400          47.550
 111787700.334 8  86946020.833 7                  20882873.800    20882874.920
  20882873.980          49.100          46.650
 111706329.325 8  86882731.040 7                  20926351.840    20926354.460
  20926353.440          50.300          46.550
 130381627.284 7 101407949.441 5                  24399145.100    24399149.460
  24399147.320          42.200          35.950
 128524523.371 5  99963519.847 6                  24068513.440    24068518.120
  24068516.340          34.300          39.300
 106955380.448 8  83187542.010 8                  19994174.600    19994177.560
  19994176.760          48.950          48.000
 120194463.950 7  93484593.662 6                  22484855.240    22484859.180
  22484858.740          46.250          37.300
 144924519.147 7                 108222957.264 7  27578169.280
                        46.450
 15  1 27  6  3 55.0000000  0 22G11G14G28G04G16G03G18G22G27G19G32G01
                                R24R14R08R07R22R15R13R23R01E11
 110287418.004 8  85938239.15647                  20986992.040
  20986985.740          50.100          45.450
 122735087.368 7  95637718.30846                  23355709.860
  23355705.640          47.000          39.100
 129141482.156 7 100629697.27646                  24574804.640
  24574799.140          44.800          36.200
 107047598.012 8  83413726.51647                  20370469.120
  20370464.760          50.050          46.950
 131366545.043 7 102363539.37445                  24998222.360
  24998217.900          42.300          34.850
 125758592.012 7  97993709.094 7  93910641.550 8  23931061.640    23931060.600
  23931059.960          46.550          43.950
 134617460.895 7 104896716.88545                  25616843.000
  25616837.360          42.900          33.350
 117682855.384 8  91700936.52947                  22394287.780
  22394280.180          49.650          44.050
 112704417.076 8  87821633.646 8  84162393.458 8  21446932.860    21446930.660
  21446930.000          50.700          49.350
 107682755.505 8  83908621.58748                  20491340.700
  20491333.540          50.200          50.100
 109522288.626 8  85342066.50647                  20841382.520
  20841378.380          50.200          46.350
 115958864.499 8  90357577.302 7  86592668.469 8  22066231.640    22066230.380
  22066230.200          49.450          47.650
 121675199.430 7  94636285.286 5                  22753873.300    22753874.260
  22753872.220          45.450          35.100
 123767506.204 6  96263630.585 5                  23218470.580    23218476.800
  23218475.900          38.900          35.350
 104345552.181 8  81157672.504 7                  19485783.220    19485783.820
  19485782.980          49.550          47.750
 111801194.187 8  86956516.050 7                  20885394.580    20885395.700
  20885394.780          49.100          46.600
 111716202.872 8  86890410.467 7                  20928201.540    20928204.080
  20928203.080          50.350          46.650
 130373880.924 7 101401924.468 6                  24397695.560    24397699.800
  24397697.620          42.000          36.250
 128541393.016 5  99976640.699 6                  24071672.620    24071677.260
  24071675.520          33.800          39.600
 106948584.063 8  83182255.939 8                  19992904.060    19992907.020
  19992906.260          48.850          48.150
 120172900.680 7  93467822.236 6                  22480821.400    22480825.460
  22480824.900          46.200          37.450
 144935718.340 7                 108231320.284 7  27580300.420
                        46.550
 15  1 27  6  4  0.0000000  0 22G11G14G28G04G16G03G18G22G27G19G32G01
                                R24R14R08R07R22R15R13R23R01E11
 110278119.590 8  85930993.63847                  20985222.560
  20985216.320          50.000          45.950
 122727998.325 7  95632194.37546                  23354360.860
  23354356.680          47.000          38.300
 129128987.139 7 100619960.89945                  24572426.880
  24572421.380          45.050          35.750
 107043798.057 8  83410765.51247                  20369745.980
  20369741.640          50.000          47.200
 131385002.419 7 102377921.75446                  25001734.740
  25001730.180          43.200          36.900
 125740861.562 7  97979893.160 7  93897401.283 8  23927687.640    23927686.620
  23927686.000          46.200          43.950
 134633309.874 7 104909066.73745                  25619858.960
  25619853.300          42.450          31.550
 117695621.256 8  91710883.95547                  22396717.080
  22396709.440          49.750          43.700
 112715481.769 8  87830255.478 8  84170656.055 8  21449038.420    21449036.200
  21449035.520          50.650          49.300
 107685993.421 8  83911144.63148                  20491956.860
  20491949.700          50.250          50.000
 109511197.304 8  85333423.90947                  20839271.920
  20839267.740          50.150          46.150
 115948582.804 8  90349565.588 7  86584990.570 8  22064275.180    22064273.840
  22064273.660          49.550          47.550
 121658665.097 7  94623425.244 5                  22750781.320    22750782.400
  22750780.180          44.950          35.650
 123773160.287 6  96268028.213 5                  23219531.300    23219537.460
  23219536.560          39.350          35.850
 104338663.787 8  81152314.867 7                  19484496.860    19484497.440
  19484496.620          49.350          47.850
 111814704.829 8  86967024.323 7                  20887918.500    20887919.600
  20887918.700          49.100          46.700
 111726086.871 8  86898098.013 7                  20930053.220    20930055.740
  20930054.680          50.200          46.550
 130366153.407 6 101395914.152 5                  24396249.460    24396253.700
  24396251.460          41.850          35.500
 128558268.366 5  99989765.946 6                  24074832.880    24074837.580
  24074835.820          34.900          39.550
 106941797.464 8  83176977.469 7                  19991635.360    19991638.320
  19991637.560          49.000          47.950
 120151344.523 7  93451056.336 6                  22476788.880    22476793.000
  22476792.360          46.000          37.550
 144946920.877 7                 108239685.823 7  27582432.180
                        46.550
 15  1 27  6  4  5.0000000  0 22G11G14G28G04G16G03G18G22G27G19G32G01
                                R24R14R08R07R22R15R13R23R01E11
 110268829.152 8  85923754.34247                  20983454.580
  20983448.400          49.950          45.450
 122720921.545 7  95626680.01746                  23353014.180
  23353010.000          47.000          38.700
 129116501.974 7 100610232.21945                  24570051.020
  24570045.560          45.400          35.300
 107040007.261 8  83407811.64947                  20369024.600
  20369020.260          50.050          47.100
 131403458.953 6 102392303.47245                  25005246.900
  25005242.400          41.750          35.700
 125723135.965 7  97966081.011 7  93884164.640 8  23924314.520    23924313.580
  23924312.960          46.050          44.050
 134649160.076 7 104921417.52945                  25622875.160
  25622869.440          42.200          31.150
 117708395.317 8  91720837.77947                  22399147.940
  22399140.260          49.600          44.150
 112726557.200 8  87838885.683 8  84178926.666 8  21451146.040    21451143.780
  21451143.080          50.650          49.200
 107689243.705 8  83913677.32048                  20492575.340
  20492568.200          50.200          50.050
 109500120.435 8  85324792.59147                  20837164.040
  20837159.880          50.050          46.100
 115938306.884 8  90341558.378 7  86577316.997 8  22062319.820    22062318.380
  22062318.220          49.550          47.550
 121642131.236 7  94610565.588 5                  22747689.340    22747690.340
  22747688.220          44.950          35.550
 123778833.903 6  96272441.040 6                  23220595.600    23220601.880
  23220600.940          39.800          36.050
 104331797.418 8  81146974.357 8                  19483214.620    19483215.200
  19483214.400          49.350          48.000
 111828232.235 8  86977545.642 7                  20890445.540    20890446.600
  20890445.740          48.900          46.650
 111735981.246 8  86905793.641 7                  20931906.820    20931909.260
  20931908.220          50.100          46.700
 130358444.742 6 101389918.546 5                  24394806.980    24394811.160
  24394808.880          41.650          35.250
 128575149.361 5 100002895.613 6                  24077994.120    24077998.960
  24077997.200          33.600          39.900
 106935020.856 8  83171706.784 7                  19990368.520    19990371.480
  19990370.740          48.700          47.950
 120129795.508 7  93434296.005 6                  22472757.640    22472761.820
  22472761.160          46.050          37.100
 144958126.799 7                 108248053.842 7  27584564.580
                        46.450
 15  1 27  6  4 10.0000000  0 22G11G14G28G04G16G03G18G22G27G19G32G01
                                R24R14R08R07R22R15R13R23R01E11
 110259545.480 8  85916520.31847                  20981687.880
  20981681.800          49.800          45.850
 122713855.832 7  95621174.27546                  23351669.660
  23351665.440          47.000          39.450
 129104025.429 7 100600510.23046                  24567676.820
  24567671.300          45.100          37.000
 107036224.208 8  83404863.81347                  20368304.680
  20368300.340          50.000          47.200
 131421913.386 7 102406683.49946                  25008758.620
  25008754.240          42.000          36.950
 125705413.986 7  97952271.680 7  93870930.708 8  23920942.080    23920941.220
  23920940.620          45.900          44.400
 134665010.237 6 104933768.29045                  25625891.300
  25625885.940          41.700          30.650
 117721176.341 8  91730797.01247                  22401580.100
  22401572.380          49.300          44.000
 112737642.159 8  87847523.311 8  84187204.393 8  21453255.440    21453253.160
  21453252.440          50.500          49.250
 107692505.122 8  83916218.68248                  20493195.980
  20493188.840          50.050          50.100
 109489056.783 8  85316171.57347                  20835058.660
  20835054.520          50.000          46.450
 115928035.494 8  90333554.691 7  86569646.810 8  22060365.340    22060363.800
  22060363.620          49.350          47.400
 121625596.689 7  94597705.384 5                  22744597.320    22744598.260
  22744596.200          45.300          35.650
 123784525.854 6  96276868.078 5                  23221663.400    23221669.680
  23221668.780          39.950          35.950
 104324951.794 8  81141649.985 7                  19481936.260    19481936.840
  19481936.020          49.550          47.900
 111841775.129 8  86988079.003 7                  20892975.440    20892976.540
  20892975.680          48.400          46.600
 111745884.665 8  86913496.306 7                  20933762.100    20933764.540
  20933763.480          49.900          46.550
 130350753.610 6 101383936.557 5                  24393367.680    24393371.840
  24393369.580          40.750          35.400
 128592034.655 5 100016028.619 6                  24081156.280    24081161.040
  24081159.340          33.300          39.800
 106928252.611 8  83166442.583 8                  19989103.260    19989106.260
  19989105.460          48.700          48.050
 120108252.463 7  93417540.300 6                  22468727.560    22468731.700
  22468731.080          46.000          37.250
 144969334.812 7                 108256423.460 7  27586697.380
                        46.400
 15  1 27  6  4 15.0000000  0 22G11G14G28G04G16G03G18G22G27G19G32G01
                                R24R14R08R07R22R15R13R23R01E11
 110250270.613 8  85909293.15947                  20979922.860
  20979916.840          49.950          45.900
 122706803.225 7  95615678.74346                  23350327.600
  23350323.420          47.150          38.350
 129091559.571 7 100590796.58746                  24565304.620
  24565299.060          44.800          36.100
 107032450.993 8  83401923.65847                  20367586.660
  20367582.300          50.200          47.100
 131440367.731 7 102421063.49245                  25012270.380
  25012265.980          43.250          35.850
 125687697.693 7  97938466.791 7  93857701.005 8  23917570.780    23917569.940
  23917569.340          45.850          44.400
 134680862.317 7 104946120.54845                  25628907.820
  25628902.400          42.750          32.050
 117733966.324 8  91740763.24047                  22404013.960
  22404006.240          49.400          43.850
 112748738.663 8  87856169.941 8  84195490.745 8  21455367.060    21455364.740
  21455364.020          50.400          49.350
 107695779.708 8  83918770.30948                  20493819.100
  20493811.980          50.100          50.100
 109478008.426 8  85307562.47047                  20832956.200
  20832952.080          50.050          46.250
 115917770.642 8  90325556.107 7  86561981.494 8  22058412.080    22058410.500
  22058410.280          49.400          47.600
 121609063.186 7  94584846.017 5                  22741505.500    22741506.500
  22741504.320          44.850          35.650
 123790238.069 6  96281310.907 6                  23222735.000    23222741.180
  23222740.440          39.250          36.050
 104318128.993 8  81136343.375 8                  19480662.140    19480662.740
  19480661.940          49.250          48.000
 111855335.413 7  86998625.895 7                  20895508.600    20895509.720
  20895508.860          47.950          46.500
 111755799.240 8  86921207.649 7                  20935619.480    20935621.860
  20935620.800          49.750          46.400
 130343082.231 6 101377969.893 5                  24391932.000    24391936.020
  24391933.900          40.250          35.950
 128608926.353 5 100029166.626 6                  24084319.580    24084324.260
  24084322.580          33.850          38.700
 106921495.110 8  83161186.753 7                  19987839.960    19987843.020
  19987842.200          48.750          47.950
 120086717.397 7  93400790.806 6                  22464698.960    22464703.060
  22464702.460          45.500          37.400
 144980546.992 7                 108264796.169 7  27588830.980
                        46.250
 15  1 27  6  4 20.0000000  0 22G11G14G28G04G16G03G18G22G27G19G32G01
                                R24R14R08R07R22R15R13R23R01E11
 110241001.345 8  85902070.35747                  20978158.940
  20978152.980          49.900          45.550
 122699760.492 7  95610190.89946                  23348987.440
  23348983.240          47.100          38.600
 129079101.190 7 100581088.76646                  24562933.840
  24562928.340          44.700          37.600
 107028684.425 8  83398988.66647                  20366869.920
  20366865.520          50.400          47.050
 131458818.736 7 102435440.90845                  25015781.480
  25015777.180          42.850          35.300
 125669983.838 7  97924663.789 7  93844473.132 8  23914199.920    23914199.100
  23914198.540          45.550          44.200
 134696713.136 7 104958471.84745                  25631924.120
  25631918.760          42.900          31.400
 117746762.026 8  91750733.91647                  22406448.880
  22406441.220          49.350          43.900
 112759843.483 8  87864823.048 8  84203783.307 8  21457480.240    21457477.920
  21457477.160          50.300          49.450
 107699064.271 8  83921329.70948                  20494444.140
  20494437.000          50.100          50.050
 109466972.121 8  85298962.75047                  20830856.060
  20830851.920          50.000          46.650
 115907509.163 8  90317560.149 7  86554318.705 8  22056459.440    22056457.800
  22056457.580          49.250          47.550
 121592527.856 7  94571985.205 5                  22738413.280    22738414.300
  22738412.080          44.600          35.600
 123795967.430 6  96285767.083 5                  23223809.780    23223816.040
  23223815.300          39.550          35.750
 104311325.748 8  81131051.958 8                  19479391.680    19479392.280
  19479391.480          49.100          48.000
 111868909.880 7  87009183.811 7                  20898044.400    20898045.560
  20898044.680          47.850          46.650
 111765721.798 8  86928925.181 7                  20937478.300    20937480.700
  20937479.620          49.650          46.350
 130335427.212 6 101372016.006 5                  24390499.420    24390503.560
  24390501.380          40.250          35.950
 128625821.066 5 100042306.958 6                  24087483.400    24087488.080
  24087486.380          33.200          38.900
 106914744.924 8  83155936.615 7                  19986578.060    19986581.140
  19986580.320          48.750          47.950
 120065186.933 7  93384044.892 6                  22460671.220    22460675.440
  22460674.740          45.100          37.300
 144991760.100 7                 108273169.584 7  27590964.740
                        46.600
 15  1 27  6  4 25.0000000  0 22G11G14G28G04G16G03G18G22G27G19G32G01
                                R24R14R08R07R22R15R13R23R01E11
 110231738.224 8  85894852.33847                  20976396.180
  20976390.260          49.950          45.600
 122692728.193 7  95604711.19046                  23347649.260
  23347645.100          47.300          38.800
 129066650.860 7 100571387.19846                  24560564.560
  24560559.140          44.500          37.200
 107024924.967 8  83396059.21647                  20366154.520
  20366150.120          50.550          46.800
 131477266.953 7 102449816.11245                  25019292.100
  25019287.740          44.150          34.950
 125652273.028 7  97910863.165 7  93831247.523 8  23910829.640    23910828.840
  23910828.280          45.500          44.050
 134712563.245 7 104970822.58845                  25634940.300
  25634934.780          42.800          31.200
 117759564.028 8  91760709.50047                  22408885.020
  22408877.360          49.250          44.550
 112770957.179 8  87873483.068 8  84212082.484 8  21459595.100    21459592.780
  21459592.020          50.450          49.450
 107702359.314 8  83923897.26948                  20495071.160
  20495064.020          50.100          50.100
 109455948.433 8  85290372.86347                  20828758.300
  20828754.160          50.050          46.600
 115897251.562 8  90309567.216 7  86546658.802 8  22054507.560    22054505.860
  22054505.600          49.250          47.650
 121575991.038 7  94559123.222 5                  22735320.840    22735321.860
  22735319.560          45.200          35.300
 123801714.344 6  96290236.926 5                  23224887.920    23224894.140
  23224893.420          39.100          35.350
 104304542.691 8  81125776.245 8                  19478124.980    19478125.580
  19478124.820          49.100          48.000
 111882499.248 8  87019753.324 7                  20900583.000    20900584.160
  20900583.280          48.050          46.550
 111775652.841 8  86936649.324 7                  20939338.700    20939341.120
  20939340.020          49.450          46.400
 130327789.239 6 101366075.389 5                  24389070.220    24389074.320
  24389072.060          39.350          35.200
 128642719.424 5 100055450.092 6                  24090647.980    24090652.600
  24090650.860          33.050          38.150
 106908002.709 8  83150692.670 8                  19985317.660    19985320.740
  19985319.920          48.950          48.100
 120043661.812 7  93367303.139 6                  22456644.480    22456648.760
  22456648.020          45.200          37.300
 145002974.677 7                 108281544.094 7  27593098.800
                        46.650
 15  1 27  6  4 30.0000000  0 22G11G14G28G04G16G03G18G22G27G19G32G01
                                R24R14R08R07R22R15R13R23R01E11
 110222486.232 8  85887642.99647                  20974635.560
  20974629.640          49.950          45.850
 122685711.318 7  95599243.48646                  23346314.040
  23346309.800          47.000          38.950
 129054213.552 7 100561695.81046                  24558197.760
  24558192.340          44.500          36.500
 107021177.754 8  83393139.30847                  20365441.460
  20365437.040          50.400          47.150
 131495717.430 7 102464193.14045                  25022803.160
  25022798.780          43.800          35.950
 125634570.212 7  97897068.774 7  93818027.905 8  23907460.860    23907460.100
  23907459.560          45.450          43.850
 134728417.621 7 104983176.62944                  25637957.280
  25637951.780          43.250          29.100
 117772377.326 8  91770693.89047                  22411323.340
  22411315.680          49.300          44.600
 112782084.740 8  87882153.895 8  84220392.028 8  21461712.580    21461710.280
  21461709.520          50.400          49.550
 107705669.874 8  83926476.92648                  20495701.140
  20495694.000          50.150          50.200
 109444942.337 8  85281796.68447                  20826663.900
  20826659.760          50.000          46.250
 115887002.864 8  90301581.219 7  86539005.555 8  22052557.320    22052555.620
  22052555.340          49.250          47.850
 121559457.842 7  94546264.099 5                  22732229.020    22732230.020
  22732227.800          44.400          35.150
 123807483.868 6  96294724.331 5                  23225970.300    23225976.320
  23225975.800          39.150          35.550
 104297784.853 8  81120520.151 7                  19476863.000    19476863.620
  19476862.860          49.150          47.800
 111896108.435 8  87030338.253 7                  20903125.320    20903126.480
  20903125.600          48.700          46.450
 111785597.312 8  86944383.908 7                  20941201.620    20941204.040
  20941202.940          49.600          46.100
 130320173.402 6 101360151.967 6                  24387645.040    24387649.120
  24387646.860          40.050          36.000
 128659626.347 5 100068599.933 6                  24093814.080    24093818.680
  24093816.980          32.750          38.200
 106901273.581 8  83145458.908 7                  19984059.680    19984062.800
  19984061.980          48.700          47.850
 120022147.134 7  93350569.507 6                  22452619.680    22452624.000
  22452623.260          45.850          37.150
 145014195.752 7                 108289923.458 7  27595234.100
                        46.750
 15  1 27  6  4 35.0000000  0 22G11G14G28G04G16G03G18G22G27G19G32G01
                                R24R14R08R07R22R15R13R23R01E11
 110213238.775 8  85880437.18547                  20972875.820
  20972869.900          49.100          46.700
 122678703.281 7  95593782.67946                  23344980.480
  23344976.200          46.150          38.950
 129041782.658 7 100552009.39746                  24555832.200
  24555826.800          43.300          37.600
 107017436.103 8  83390223.73647                  20364729.440
  20364725.020          49.550          47.850
 131514163.448 7 102478566.63846                  25026313.360
  25026308.920          42.950          38.000
 125616868.861 7  97883275.518 7  93804809.354 8  23904092.400    23904091.660
  23904091.120          44.750          43.850
 134744269.751 7 104995528.94645                  25640973.840
  25640968.460          42.700          30.950
 117785195.306 8  91780681.92047                  22413762.520
  22413754.860          48.600          44.850
 112793219.566 8  87890830.379 8  84228706.982 8  21463831.440    21463829.160
  21463828.400          49.600          49.550
 107708989.354 8  83929063.53148                  20496332.820
  20496325.680          49.400          49.250
 109433947.284 8  85273229.10447                  20824571.580
  20824567.440          49.100          47.250
 115876756.446 8  90293596.993 7  86531354.002 8  22050607.500    22050605.780
  22050605.540          48.050          47.900
 121542921.477 7  94533402.493 5                  22729136.600    22729137.620
  22729135.360          45.350          34.600
 123813269.395 6  96299224.187 5                  23227055.680    23227061.580
  23227061.080          39.650          34.550
 104291045.528 8  81115278.453 7                  19475604.480    19475605.080
  19475604.320          49.400          47.800
 111909730.668 8  87040933.315 7                  20905670.080    20905671.240
  20905670.340          49.050          46.650
 111795548.677 8  86952123.848 7                  20943065.820    20943068.240
  20943067.160          49.850          46.350
 130312572.846 6 101354240.407 6                  24386222.700    24386226.960
  24386224.580          41.000          37.300
 128676535.264 5 100081751.317 6                  24096980.700    24096985.180
  24096983.460          33.600          37.800
 106894550.893 8  83140230.149 7                  19982802.900    19982806.060
  19982805.240          49.250          47.900
 120000635.965 7  93333838.600 6                  22448595.560    22448599.880
  22448599.120          46.700          37.350
 145025416.700 7                 108298302.710 7  27597369.400
                        45.800
 15  1 27  6  4 40.0000000  0 22G11G14G28G04G16G03G18G22G27G19G32G01
                                R24R14R08R07R22R15R13R23R01E11
 110204001.534 8  85873239.34147                  20971118.000
  20971112.080          49.600          46.450
 122671709.777 7  95588333.20346                  23343649.660
  23343645.360          46.600          39.100
 129029363.914 7 100542332.47546                  24553468.940
  24553463.560          44.050          37.350
 107013705.616 8  83387316.86547                  20364019.580
  20364015.140          49.800          47.750
 131532610.719 7 102492941.11846                  25029823.800
  25029819.320          43.800          36.750
 125599174.605 7  97869487.790 7  93791596.103 8  23900725.320    23900724.600
  23900723.980          45.350          43.800
 134760125.205 7 105007883.81244                  25643991.020
  25643985.780          42.750          29.700
 117798023.586 8  91790677.98747                  22416203.680
  22416196.000          49.050          44.600
 112804367.307 8  87899516.932 8  84237031.598 8  21465952.760    21465950.500
  21465949.740          49.950          49.550
 107712323.390 8  83931661.48448                  20496967.260
  20496960.140          49.850          49.850
 109422968.929 8  85264674.55247                  20822482.440
  20822478.320          49.550          46.900
 115866517.963 8  90285618.960 8  86523708.395 8  22048659.180    22048657.440
  22048657.220          48.350          48.100
 121526388.025 7  94520543.120 6                  22726044.780    22726045.760
  22726043.500          46.350          36.050
 123819076.635 6  96303740.953 5                  23228145.120    23228150.940
  23228150.360          40.150          34.700
 104284330.431 8  81110055.613 7                  19474350.460    19474351.080
  19474350.320          49.900          47.800
 111923371.588 8  87051542.917 7                  20908218.340    20908219.520
  20908218.600          49.600          46.850
 111805512.650 8  86959873.601 7                  20944932.400    20944934.820
  20944933.760          50.200          46.450
 130304993.416 6 101348345.292 6                  24384804.360    24384808.660
  24384806.300          41.950          37.550
 128693451.791 5 100094908.614 6                  24100148.700    24100153.240
  24100151.380          35.650          37.400
 106887840.250 8  83135010.774 7                  19981548.380    19981551.580
  19981550.760          49.350          47.900
 119979134.440 7  93317115.189 6                  22444573.220    22444577.500
  22444576.820          47.100          37.650
 145036643.164 7                 108306686.112 7  27599505.720
                        46.150
 15  1 27  6  4 45.0000000  0 22G11G14G28G04G16G03G18G22G27G19G32G01
                                R24R14R08R07R22R15R13R23R01E11
 110194769.821 8  85866045.79347                  20969361.260
  20969355.340          49.650          46.250
 122664726.153 7  95582891.40846                  23342320.720
  23342316.400          46.500          40.050
 129016952.618 7 100532661.34646                  24551107.100
  24551101.780          44.250          36.950
 107009981.688 8  83384415.10347                  20363310.960
  20363306.500          49.850          47.600
 131551054.506 7 102507312.89046                  25033333.560
  25033329.020          44.250          36.650
 125581482.763 7  97855701.948 7  93778384.669 8  23897358.700    23897357.980
  23897357.340          45.450          43.700
 134775979.261 7 105020237.63244                  25647007.920
  25647002.700          42.650          26.850
 117810857.528 8  91800678.46547                  22418645.940
  22418638.220          48.950          44.900
 112815523.258 8  87908209.876 8  84245362.343 8  21468075.660    21468073.420
  21468072.640          50.050          49.450
 107715667.303 8  83934267.12648                  20497603.600
  20497596.460          50.050          49.950
 109412002.576 8  85256129.34747                  20820395.600
  20820391.500          49.850          46.750
 115856282.775 8  90277643.491 7  86516065.231 8  22046711.480    22046709.800
  22046709.540          48.500          47.800
 121509852.332 7  94507682.054 6                  22722952.520    22722953.500
  22722951.280          45.500          36.250
 123824900.744 6  96308270.796 5                  23229237.760    23229243.600
  23229242.840          39.850          34.550
 104277634.834 8  81104847.926 7                  19473100.060    19473100.720
  19473099.960          49.650          47.750
 111937026.667 8  87062163.532 7                  20910769.220    20910770.400
  20910769.500          49.000          46.550
 111815484.425 8  86967629.424 7                  20946800.420    20946802.900
  20946801.800          50.200          46.300
 130297430.257 7 101342462.838 6                  24383389.080    24383393.320
  24383391.040          42.400          36.800
 128710371.150 5 100108068.091 6                  24103317.160    24103321.720
  24103319.800          34.300          37.550
 106881137.039 8  83129797.157 8                  19980295.240    19980298.520
  19980297.680          49.450          48.050
 119957637.541 7  93300395.383 6                  22440551.780    22440556.040
  22440555.400          47.050          37.250
 145047870.479 7                 108315070.127 7  27601642.200
                        46.150
 15  1 27  6  4 50.0000000  0 22G11G14G28G04G16G03G18G22G27G19G32G01
                                R24R14R08R07R22R15R13R23R01E11
 110185545.663 8  85858858.13747                  20967605.940
  20967600.020          49.700          46.100
 122657754.390 7  95577458.88346                  23340994.020
  23340989.720          46.550          39.350
 129004550.790 7 100522997.57345                  24548747.060
  24548741.720          44.300          35.900
 107006266.281 8  83381519.98247                  20362603.940
  20362599.500          49.950          47.550
 131569496.854 7 102521683.56745                  25036843.020
  25036838.440          44.750          34.800
 125563795.375 7  97841919.578 7  93765176.555 8  23893992.900    23893992.180
  23893991.540          45.350          43.650
 134791833.984 7 105032591.94145                  25650024.940
  25650019.840          43.300          31.850
 117823699.106 8  91810684.88547                  22421089.640
  22421081.920          48.850          44.900
 112826689.460 8  87916910.812 8  84253700.730 8  21470200.500    21470198.280
  21470197.520          50.150          49.400
 107719023.142 8  83936882.06848                  20498242.200
  20498235.060          50.000          50.000
 109401050.263 8  85247595.07647                  20818311.440
  20818307.300          49.950          46.600
 115846052.858 8  90269672.125 7  86508426.016 8  22044764.780    22044763.100
  22044762.880          48.600          47.850
 121493316.740 7  94494821.045 6                  22719860.260    22719861.320
  22719859.100          45.650          36.050
 123830743.757 6  96312815.358 5                  23230333.840    23230339.740
  23230338.960          39.050          34.500
 104270960.858 8  81099657.056 7                  19471853.720    19471854.400
  19471853.620          49.600          47.700
 111950697.902 8  87072796.721 7                  20913323.100    20913324.320
  20913323.400          48.800          46.500
 111825466.015 8  86975392.885 7                  20948670.300    20948672.800
  20948671.700          50.150          46.200
 130289885.609 7 101336594.793 6                  24381977.240    24381981.400
  24381979.220          43.300          36.750
 128727295.487 5 100121231.472 6                  24106486.380    24106491.140
  24106489.160          34.550          37.350
 106874443.061 8  83124590.738 7                  19979043.840    19979047.140
  19979046.320          49.400          47.950
 119936147.332 7  93283680.785 6                  22436531.580    22436535.860
  22436535.200          47.250          36.850
 145059100.655 7                 108323456.287 7  27603779.220
                        46.250
 15  1 27  6  4 55.0000000  0 22G11G14G28G04G16G03G18G22G27G19G32G01
                                R24R14R08R07R22R15R13R23R01E11
 110176330.761 8  85851677.69047                  20965852.400
  20965846.480          50.350          45.650
 122650796.244 7  95572036.94646                  23339669.900
  23339665.620          47.350          37.250
 128992160.178 7 100513342.54745                  24546389.180
  24546383.860          45.350          35.300
 107002561.218 8  83378632.92047                  20361898.900
  20361894.480          50.500          46.700
 131587939.422 7 102536054.40945                  25040352.560
  25040347.920          45.600          32.400
 125546114.152 7  97828142.011 7  93751973.050 8  23890628.280    23890627.520
  23890626.920          46.700          43.400
 134807691.043 7 105044948.08145                  25653042.400
  25653037.240          44.550          30.250
 117836550.016 8  91820698.57647                  22423535.120
  22423527.380          49.700          44.050
 112837867.614 8  87925621.058 8  84262048.049 8  21472327.620    21472325.420
  21472324.660          50.900          49.450
 107722392.597 8  83939507.61948                  20498883.400
  20498876.260          50.600          49.800
 109390113.727 8  85239073.09947                  20816230.280
  20816226.140          50.600          45.900
 115835829.948 8  90261706.222 7  86500792.023 8  22042819.400    22042817.740
  22042817.540          49.450          47.700
 121476782.913 7  94481961.406 6                  22716768.360    22716769.500
  22716767.160          44.050          36.400
 123836607.480 6  96317376.030 5                  23231433.780    23231439.740
  23231438.980          37.200          35.000
 104264310.242 8  81094484.349 7                  19470611.760    19470612.400
  19470611.640          48.450          47.650
 111964386.847 7  87083443.678 7                  20915880.260    20915881.520
  20915880.600          47.400          46.300
 111835459.363 8  86983165.481 7                  20950542.360    20950544.880
  20950543.780          48.850          46.200
 130282361.118 6 101330742.406 6                  24380569.280    24380573.280
  24380571.140          41.650          37.550
 128744226.512 5 100134400.057 6                  24109657.120    24109661.740
  24109659.760          31.850          37.050
 106867760.491 8  83119393.186 8                  19977794.540    19977797.920
  19977797.100          48.250          48.100
 119914665.858 7  93266972.974 6                  22432513.040    22432517.360
  22432516.660          46.550          37.050
 145070335.435 7                 108331845.874 7  27605917.140
                        47.200
 15  1 27  6  5  0.0000000  0 22G11G14G28G04G16G03G18G22G27G19G32G01
                                R24R14R08R07R22R15R13R23R01E11
 110167122.888 8  85844502.72647                  20964100.180
  20964094.280          49.800          46.050
 122643849.469 7  95566623.87246                  23338347.960
  23338343.640          46.800          38.650
 128979778.518 7 100503694.51945                  24544032.980
  24544027.760          44.200          34.800
 106998864.188 8  83375752.12347                  20361195.380
  20361190.960          49.950          47.200
 131606380.029 7 102550423.71646                  25043861.760
  25043857.020          44.950          36.950
 125528436.882 7  97814367.512 7  93738772.489 8  23887264.440    23887263.620
  23887262.960          46.450          43.550
 134823548.236 7 105057304.30645                  25656059.900
  25656054.860          43.750          30.350
 117849407.985 8  91830717.77247                  22425981.940
  22425974.160          49.400          44.000
 112849055.469 8  87934338.869 8  84270402.618 8  21474456.600    21474454.400
  21474453.680          50.350          49.450
 107725773.446 8  83942142.04248                  20499526.780
  20499519.620          50.000          50.100
 109379190.760 8  85230561.69847                  20814151.680
  20814147.560          49.950          46.050
 115825611.776 8  90253744.016 7  86493161.573 8  22040874.920    22040873.300
  22040873.120          48.850          47.750
 121460248.482 7  94469101.305 6                  22713676.320    22713677.500
  22713675.160          43.700          36.350
 123842489.583 6  96321951.007 5                  23232537.160    23232543.280
  23232542.440          37.700          35.050
 104257680.661 8  81089328.006 7                  19469373.760    19469374.360
  19469373.600          48.300          47.650
 111978091.335 7  87094102.727 7                  20918440.300    20918441.640
  20918440.720          47.250          46.350
 111845461.977 8  86990945.289 7                  20952416.160    20952418.720
  20952417.600          48.850          46.200
 130274854.645 7 101324904.014 6                  24379164.620    24379168.600
  24379166.420          42.050          36.700
 128761161.947 5 100147572.060 6                  24112828.380    24112833.240
  24112831.160          32.000          36.750
 106861086.696 7  83114202.459 8                  19976546.880    19976550.320
  19976549.540          47.800          48.000
 119893190.547 7  93250269.950 6                  22428495.660    22428499.940
  22428499.280          46.650          37.050
 145081572.529 7                 108340237.189 7  27608055.520
                        46.650
 15  1 27  6  5  5.0000000  0 22G11G14G28G04G16G03G18G22G27G19G32G01
                                R24R14R08R07R22R15R13R23R01E11
 110157921.132 8  85837332.52647                  20962349.160
  20962343.240          49.850          46.050
 122636913.155 7  95561218.96146                  23337028.000
  23337023.680          46.950          38.550
 128967404.920 7 100494052.75845                  24541678.340
  24541673.220          44.300          35.950
 106995174.217 8  83372876.81847                  20360493.200
  20360488.780          50.050          47.200
 131624817.679 7 102564790.71645                  25047370.360
  25047365.480          44.400          33.900
 125510762.635 7  97800595.360 7  93725574.178 8  23883901.180    23883900.280
  23883899.600          46.650          43.400
 134839404.551 7 105069659.86345                  25659077.220
  25659072.300          43.650          30.500
 117862272.101 8  91840741.76947                  22428429.900
  22428422.120          49.250          44.150
 112860252.110 8  87943063.520 8  84278763.744 8  21476587.260    21476585.080
  21476584.360          50.300          49.450
 107729164.780 8  83944784.64148                  20500172.120
  20500164.980          49.950          50.000
 109368280.392 8  85222060.11647                  20812075.460
  20812071.400          49.850          46.450
 115815397.459 8  90245784.814 7  86485534.012 8  22038931.180    22038929.600
  22038929.440          48.900          47.900
 121443712.626 7  94456240.092 6                  22710584.020    22710585.200
  22710582.940          43.450          36.750
 123848389.197 6  96326539.620 5                  23233643.820    23233650.080
  23233649.200          38.150          35.200
 104251071.207 8  81084187.317 7                  19468139.500    19468140.100
  19468139.340          48.700          47.750
 111991810.423 8  87104773.125 7                  20921003.100    20921004.460
  20921003.540          48.000          46.350
 111855473.040 8  86998731.659 7                  20954291.540    20954294.080
  20954292.980          49.100          46.050
 130267365.152 6 101319078.886 5                  24377763.160    24377767.000
  24377764.820          41.750          35.650
 128778100.656 5 100160746.620 6                  24116000.180    24116005.340
  24116003.180          31.350          36.550
 106854420.955 8  83109017.993 7                  19975300.760    19975304.220
  19975303.460          48.350          47.950
 119871720.534 7  93233571.055 6                  22424479.300    22424483.440
  22424482.880          47.100          36.800
 145092811.040 7                 108348629.582 7  27610194.160
                        46.600
 15  1 27  6  5 10.0000000  0 22G11G14G28G04G16G03G18G22G27G19G32G01
                                R24R14R08R07R22R15R13R23R01E11
 110148726.777 8  85830168.09647                  20960599.520
  20960593.620          50.000          45.900
 122629988.572 7  95555823.18346                  23335710.300
  23335705.940          46.800          38.900
 128955040.623 7 100484418.27046                  24539325.480
  24539320.400          44.500          37.900
 106991492.616 8  83370008.04347                  20359792.580
  20359788.200          50.100          46.950
 131643253.633 7 102579156.39645                  25050878.620
  25050873.700          44.850          35.050
 125493092.702 7  97786826.575 7  93712379.088 8  23880538.740    23880537.780
  23880537.060          46.650          43.550
 134855261.319 7 105082015.80045                  25662094.660
  25662089.740          43.400          31.300
 117875143.630 8  91850771.52847                  22430879.260
  22430871.460          49.250          43.950
 112871458.812 8  87951796.017 8  84287132.380 8  21478719.820    21478717.640
  21478716.960          50.400          49.500
 107732567.867 8  83947436.40348                  20500819.720
  20500812.560          50.050          50.000
 109357383.921 8  85213569.36247                  20810001.900
  20809997.880          49.900          46.300
 115805188.278 8  90237829.612 7  86477910.254 8  22036988.440    22036986.860
  22036986.700          49.000          47.800
 121427176.617 7  94443378.762 6                  22707491.640    22707492.960
  22707490.700          43.550          36.700
 123854307.502 6  96331142.744 5                  23234754.100    23234760.320
  23234759.480          38.100          34.550
 104244483.113 8  81079063.255 7                  19466909.240    19466909.820
  19466909.060          48.850          47.700
 112005545.263 8  87115455.770 7                  20923568.860    20923570.260
  20923569.320          48.100          46.200
 111865493.757 8  87006525.554 7                  20956168.720    20956171.280
  20956170.140          49.100          45.950
 130259893.943 6 101313267.951 5                  24376365.140    24376368.740
  24376366.520          41.400          35.800
 128795043.986 5 100173924.801 6                  24119173.000    24119178.240
  24119176.040          31.100          36.400
 106847764.393 7  83103840.672 7                  19974056.380    19974059.860
  19974059.080          47.900          47.850
 119850257.299 7  93216877.442 6                  22420464.160    22420468.280
  22420467.740          47.200          37.000
 145104052.276 7                 108357023.985 7  27612333.320
                        46.700
 15  1 27  6  5 15.0000000  0 22G11G14G28G04G16G03G18G22G27G19G32G01
                                R24R14R08R07R22R15R13R23R01E11
 110139541.700 8  85823010.89347                  20958851.640
  20958845.760          50.050          45.900
 122623077.651 7  95550438.04846                  23334395.160
  23334390.780          47.150          38.900
 128942687.643 7 100474792.56146                  24536974.760
  24536969.780          44.350          36.350
 106987821.324 8  83367147.29747                  20359093.940
  20359089.580          50.150          46.950
 131661689.848 7 102593522.28245                  25054386.940
  25054382.040          45.050          34.000
 125475428.995 7  97773062.650 7  93699188.680 8  23877177.460    23877176.440
  23877175.740          46.650          43.800
 134871120.451 7 105094373.53444                  25665112.540
  25665107.560          43.850          29.200
 117888024.476 8  91860808.54447                  22433330.400
  22433322.600          49.500          43.450
 112882677.483 8  87960537.830 8  84295509.954 8  21480854.660    21480852.500
  21480851.820          50.650          49.450
 107735984.636 8  83950098.81948                  20501469.920
  20501462.760          50.200          49.850
 109346503.228 8  85205090.90247                  20807931.360
  20807927.360          50.100          46.150
 115794986.120 8  90229879.875 7  86470291.770 8  22035047.040    22035045.440
  22035045.280          49.050          47.750
 121410642.378 7  94430518.814 6                  22704399.600    22704400.940
  22704398.760          44.150          36.000
 123860246.434 6  96335761.901 5                  23235868.260    23235874.420
  23235873.640          38.250          34.600
 104237918.507 8  81073957.449 7                  19465683.300    19465683.920
  19465683.160          48.850          47.650
 112019297.868 8  87126152.246 7                  20926137.940    20926139.320
  20926138.420          48.400          46.050
 111875526.178 8  87014328.546 7                  20958048.080    20958050.660
  20958049.520          49.200          45.950
 130252442.844 6 101307472.638 5                  24374970.760    24374974.440
  24374972.040          40.350          35.700
 128811993.925 5 100187108.083 6                  24122347.160    24122352.440
  24122350.140          32.600          36.800
 106841119.111 8  83098672.114 7                  19972814.120    19972817.600
  19972816.780          48.050          47.500
 119828802.796 7  93200190.613 6                  22416450.640    22416454.760
  22416454.240          47.350          36.850
 145115298.099 7                 108365421.827 7  27614473.340
                        46.800
 15  1 27  6  5 20.0000000  0 22G11G14G28G04G16G03G18G22G27G19G32G01
                                R24R14R08R07R22R15R13R23R01E11
 110130362.945 8  85815858.61947                  20957104.980
  20957099.100          50.050          45.700
 122616177.448 7  95545061.26446                  23333082.100
  23333077.720          47.400          38.050
 128930342.936 7 100465173.32146                  24534625.640
  24534620.600          44.550          36.100
 106984157.385 8  83364292.28147                  20358396.700
  20358392.340          50.000          47.000
 131680123.285 7 102607885.99845                  25057894.740
  25057889.760          45.450          32.950
 125457768.563 7  97759301.270 7  93686000.698 8  23873816.760    23873815.760
  23873815.060          46.350          43.800
 134886978.915 7 105106730.81445                  25668130.280
  25668125.380          43.600          33.000
 117900911.668 8  91870850.51847                  22435782.760
  22435774.960          49.650          43.850
 112893905.131 8  87969286.648 8  84303894.241 8  21482991.220    21482989.080
  21482988.400          50.700          49.450
 107739412.091 8  83952769.56348                  20502122.120
  20502115.000          50.200          50.000
 109335635.418 8  85196622.48247                  20805863.260
  20805859.280          50.200          46.400
 115784788.012 8  90221933.297 7  86462676.303 8  22033106.420    22033104.800
  22033104.660          49.150          47.900
 121394106.942 7  94417657.910 6                  22701307.380    22701308.760
  22701306.560          44.250          36.450
 123866203.084 6  96340394.845 5                  23236985.660    23236991.960
  23236991.100          38.200          34.950
 104231374.198 8  81068867.436 7                  19464461.200    19464461.800
  19464461.060          49.050          47.700
 112033065.187 8  87136860.167 7                  20928709.800    20928711.180
  20928710.280          48.450          46.250
 111885567.206 8  87022138.221 7                  20959929.060    20959931.660
  20959930.520          49.550          45.850
 130245009.038 6 101301690.807 5                  24373579.700    24373583.280
  24373580.920          39.850          35.200
 128828947.549 5 100200294.259 6                  24125522.040    24125527.320
  24125525.000          33.100          36.050
 106834482.031 8  83093509.941 7                  19971573.380    19971576.840
  19971576.020          48.300          47.650
 119807353.818 7  93183508.093 6                  22412438.180    22412442.300
  22412441.760          47.350          37.050
 145126545.541 7                 108373820.888 7  27616613.700
                        47.150
 15  1 27  6  5 25.0000000  0 22G11G14G28G04G16G03G18G22G27G19G32G01
                                R24R14R08R07R22R15R13R23R01E11
 110121192.181 8  85808712.57047                  20955359.820
  20955353.960          50.000          45.800
 122609289.578 7  95539694.10346                  23331771.360
  23331766.900          47.050          39.100
 128918008.167 7 100455561.80946                  24532278.420
  24532273.380          44.800          36.550
 106980502.361 8  83361444.21947                  20357701.120
  20357696.820          49.950          47.050
 131698555.609 7 102622248.84745                  25061402.320
  25061397.280          45.700          32.500
 125440113.013 7  97745543.709 7  93672816.359 8  23870457.000    23870455.980
  23870455.260          46.350          43.350
 134902838.363 7 105119088.77845                  25671148.200
  25671143.340          42.650          31.900
 117913806.805 8  91880898.68347                  22438236.620
  22438228.840          49.650          43.800
 112905143.385 8  87978043.730 8  84312286.438 8  21485129.800    21485127.660
  21485127.000          50.700          49.300
 107742851.883 8  83955449.92448                  20502776.700
  20502769.580          50.200          49.950
 109324782.065 8  85188165.33047                  20803797.940
  20803793.980          50.250          46.100
 115774595.574 8  90213991.143 7  86455065.070 8  22031166.860    22031165.220
  22031165.080          49.150          47.750
 121377572.139 7  94404797.529 6                  22698215.240    22698216.640
  22698214.500          44.100          37.000
 123872179.010 6  96345042.794 5                  23238106.620    23238113.200
  23238112.180          38.800          34.950
 104224851.893 8  81063794.540 7                  19463243.180    19463243.820
  19463243.060          49.100          47.600
 112046848.807 8  87147580.769 7                  20931284.720    20931286.060
  20931285.200          48.350          46.200
 111895618.588 8  87029955.968 7                  20961812.000    20961814.620
  20961813.500          49.550          46.300
 130237594.127 6 101295923.636 5                  24372192.120    24372195.540
  24372193.260          38.700          33.600
 128845906.199 5 100213484.332 5                  24128697.840    24128703.160
  24128700.840          33.750          35.950
 106827854.949 8  83088355.546 7                  19970334.500    19970337.980
  19970337.120          48.200          47.800
 119785912.056 7  93166831.179 6                  22408427.080    22408431.020
  22408430.600          47.350          37.150
 145137796.233 7                 108382222.363 7  27618754.680
                        47.100
 15  1 27  6  5 30.0000000  0 22G11G14G28G04G16G03G18G22G27G19G32G01
                                R24R14R08R07R22R15R13R23R01E11
 110112027.409 8  85801571.18847                  20953615.800
  20953609.960          49.800          45.800
 122602412.095 7  95534335.03046                  23330462.600
  23330458.120          46.900          38.650
 128905681.391 7 100445956.52045                  24529932.740
  24529927.600          44.800          35.350
 106976854.360 8  83358601.61447                  20357006.900
  20357002.620          49.950          46.600
 131716984.792 7 102636609.26245                  25064909.340
  25064904.220          45.250          34.150
 125422460.419 7  97731788.429 7  93659634.235 8  23867097.800    23867096.800
  23867096.080          46.300          43.250
 134918696.838 7 105131446.06445                  25674165.960
  25674161.080          42.100          31.550
 117926707.901 8  91890951.48147                  22440691.620
  22440683.880          49.450          44.100
 112916390.262 8  87986807.522 8  84320685.070 8  21487269.980    21487267.880
  21487267.240          50.600          49.350
 107746301.992 8  83958138.30648                  20503433.240
  20503426.120          50.000          50.000
 109313941.229 8  85179717.92147                  20801734.980
  20801731.040          50.050          46.300
 115764406.859 8  90206051.879 7  86447456.607 8  22029228.000    22029226.360
  22029226.200          49.200          47.750
 121361035.622 7  94391935.798 6                  22695122.800    22695124.140
  22695122.100          44.150          37.000
 123878172.077 6  96349704.053 5                  23239230.860    23239237.600
  23239236.540          39.700          35.550
 104218349.660 8  81058737.254 7                  19462028.920    19462029.580
  19462028.800          49.150          47.600
 112060646.888 8  87158312.608 7                  20933862.300    20933863.660
  20933862.800          48.550          46.200
 111905678.158 8  87037780.064 7                  20963696.500    20963699.120
  20963698.020          49.800          46.150
 130230196.065 6 101290169.597 5                  24370807.660    24370811.020
  24370808.780          39.700          32.800
 128862867.985 5 100226676.840 5                  24131874.140    24131879.380
  24131877.220          33.400          35.900
 106821235.763 8  83083207.280 7                  19969097.100    19969100.600
  19969099.700          48.200          47.650
 119764475.735 7  93150158.479 6                  22404416.960    22404420.880
  22404420.480          47.100          36.950
 145149048.212 7                 108390624.786 7  27620895.900
                        46.950
 15  1 27  6  5 35.0000000  0 22G11G14G28G04G16G03G18G22G27G19G32G01
                                R24R14R08R07R22R15R13R23R01E11
 110102872.110 8  85794437.19347                  20951873.580
  20951867.780          49.600          46.000
 122595548.456 7  95528986.73246                  23329156.500
  23329152.000          46.550          37.900
 128893366.034 7 100436360.15545                  24527589.160
  24527584.100          44.450          35.250
 106973216.750 8  83355767.11247                  20356314.640
  20356310.420          49.850          46.950
 131735414.320 7 102650969.93345                  25068416.380
  25068411.140          44.900          33.750
 125404814.223 7  97718038.142 7  93646456.888 8  23863739.820    23863738.840
  23863738.100          45.300          43.350
 134934557.733 7 105143805.18545                  25677184.160
  25677179.200          42.400          32.850
 117939618.425 8  91901011.62647                  22443148.400
  22443140.700          49.150          44.100
 112927649.243 8  87995580.742 8  84329092.745 8  21489412.480    21489410.400
  21489409.780          50.350          49.350
 107749765.878 8  83960837.43448                  20504092.400
  20504085.280          49.900          49.950
 109303116.376 8  85171282.97347                  20799675.080
  20799671.160          49.850          46.550
 115754225.320 8  90198118.208 7  86439853.513 8  22027290.520    22027288.860
  22027288.680          49.000          47.600
 121344501.239 7  94379075.716 6                  22692030.780    22692032.200
  22692030.140          43.850          37.100
 123884186.007 6  96354381.544 5                  23240359.140    23240365.880
  23240364.860          39.400          35.750
 104211870.878 8  81053698.201 7                  19460819.020    19460819.720
  19460818.940          49.100          47.800
 112074462.793 8  87169058.307 7                  20936443.220    20936444.600
  20936443.740          48.600          46.450
 111915749.649 8  87045613.447 7                  20965583.220    20965585.880
  20965584.780          49.700          46.600
 130222818.386 6 101284431.411 5                  24369427.120    24369430.440
  24369428.100          39.300          33.000
 128879836.338 5 100239874.427 6                  24135051.960    24135056.860
  24135054.820          33.200          36.950
 106814627.963 8  83078067.884 7                  19967861.840    19967865.340
  19967864.420          48.600          47.750
 119743048.228 7  93133492.640 6                  22400408.520    22400412.460
  22400412.020          47.100          37.400
 145160304.945 7                 108399030.768 7  27623038.020
                        46.450
 15  1 27  6  5 40.0000000  0 22G11G14G28G04G16G03G18G22G27G19G32G01
                                R24R14R08R07R22R15R13R23R01E11
 110093724.412 8  85787309.12347                  20950132.780
  20950127.040          49.650          45.900
 122588696.778 7  95523647.76446                  23327852.660
  23327848.160          46.600          38.250
 128881060.265 7 100426771.25845                  24525247.420
  24525242.360          44.550          35.650
 106969587.662 8  83352939.25747                  20355624.020
  20355619.840          49.800          47.000
 131753842.210 7 102665329.33245                  25071923.120
  25071917.840          45.400          32.950
 125387172.540 7  97704291.387 7  93633282.917 8  23860382.640    23860381.760
  23860381.000          44.900          43.550
 134950419.214 7 105156164.76845                  25680202.500
  25680197.600          42.850          33.600
 117952536.427 8  91911077.60547                  22445606.580
  22445598.940          49.000          44.200
 112938918.399 8  88004361.900 8  84337508.021 8  21491556.900    21491554.860
  21491554.260          50.400          49.400
 107753241.668 8  83963545.84648                  20504753.840
  20504746.720          49.950          49.900
 109292305.628 8  85162859.02447                  20797617.880
  20797613.940          49.850          46.650
 115744049.046 8  90190188.648 7  86432254.348 8  22025354.040    22025352.380
  22025352.200          49.050          47.600
 121327966.781 7  94366215.611 6                  22688938.720    22688940.240
  22688938.140          44.800          37.250
 123890218.719 6  96359073.664 5                  23241490.920    23241497.680
  23241496.620          39.550          35.200
 104205413.713 8  81048675.964 7                  19459613.140    19459613.880
  19459613.120          49.100          47.850
 112088294.438 8  87179816.251 7                  20939027.060    20939028.440
  20939027.600          48.450          46.550
 111925830.873 8  87053454.389 7                  20967471.760    20967474.440
  20967473.360          50.050          46.350
 130215459.362 6 101278707.703 5                  24368049.940    24368053.340
  24368050.960          39.200          33.950
 128896809.514 5 100253075.755 6                  24138230.400    24138235.380
  24138233.360          32.850          36.050
 106808029.744 8  83072935.940 7                  19966628.360    19966631.840
  19966630.920          48.650          47.900
 119721627.693 7  93116832.243 6                  22396401.360    22396405.260
  22396404.880          47.000          37.350
 145171564.505 7                 108407438.871 7  27625180.620
                        46.350
 15  1 27  6  5 45.0000000  0 22G11G14G28G04G16G03G18G22G27G19G32G01
                                R24R14R08R07R22R15R13R23R01E11
 110084583.018 8  85780185.96047                  20948393.200
  20948387.500          49.550          45.900
 122581855.797 7  95518317.12746                  23326550.820
  23326546.260          46.400          38.300
 128868762.786 7 100417188.80745                  24522907.260
  24522902.260          44.700          34.050
 106965965.871 8  83350117.08447                  20354934.780
  20354930.620          49.700          47.000
 131772267.253 7 102679686.52045                  25075429.320
  25075424.040          44.500          32.550
 125369534.100 7  97690547.166 7  93620111.366 8  23857026.060    23857025.260
  23857024.540          45.100          43.700
 134966279.934 7 105168523.75445                  25683220.700
  25683215.720          43.000          31.950
 117965460.658 8  91921148.42947                  22448065.940
  22448058.380          48.900          44.400
 112950196.467 8  88013150.001 8  84345929.957 8  21493703.000    21493701.020
  21493700.400          50.350          49.350
 107756728.090 8  83966262.53448                  20505417.300
  20505410.180          50.000          49.950
 109281507.731 8  85154445.07447                  20795563.120
  20795559.160          49.900          46.950
 115733876.787 8  90182262.214 7  86424658.182 8  22023418.340    22023416.660
  22023416.460          49.050          47.600
 121311431.061 7  94353354.506 6                  22685846.400    22685847.940
  22685845.920          44.550          37.700
 123896268.887 6  96363779.354 5                  23242626.020    23242632.720
  23242631.600          39.350          34.900
 104198976.883 8  81043669.537 8                  19458411.080    19458411.860
  19458411.100          48.750          48.000
 112102140.772 8  87190585.614 7                  20941613.660    20941615.060
  20941614.200          48.450          46.450
 111935920.755 8  87061302.069 7                  20969361.940    20969364.660
  20969363.540          49.900          46.350
 130208117.619 6 101272997.442 5                  24366675.940    24366679.640
  24366676.980          38.150          34.550
 128913785.982 5 100266279.699 6                  24141409.460    24141414.580
  24141412.580          33.100          36.950
 106801439.583 8  83067810.251 7                  19965396.400    19965399.900
  19965398.940          48.800          47.750
 119700212.750 7  93100176.178 6                  22392395.240    22392399.260
  22392398.780          46.800          37.950
 145182825.628 7                 108415848.132 7  27627323.540
                        46.550
 15  1 27  6  5 50.0000000  0 22G11G14G28G04G16G03G18G22G27G19G32G01
                                R24R14R08R07R22R15R13R23R01E11
 110075450.544 8  85773069.74947                  20946655.300
  20946649.660          49.700          46.100
 122575028.079 7  95512996.84646                  23325251.500
  23325247.000          46.900          38.250
 128856476.208 7 100407614.85646                  24520569.200
  24520564.180          44.800          36.950
 106962353.946 8  83347302.59947                  20354247.400
  20354243.300          49.750          46.950
 131790692.009 7 102694043.44945                  25078935.400
  25078930.160          44.600          33.400
 125351901.538 7  97676807.513 7  93606944.211 8  23853670.640    23853669.900
  23853669.160          45.450          43.950
 134982142.510 7 105180884.18345                  25686239.220
  25686234.300          42.750          33.900
 117978393.731 8  91931226.14847                  22450526.980
  22450519.460          49.050          43.800
 112961486.041 8  88021947.074 8  84354360.481 8  21495851.300    21495849.380
  21495848.760          50.350          49.400
 107760227.726 8  83968989.52748                  20506083.260
  20506076.160          50.050          50.150
 109270725.244 8  85146043.13047                  20793511.320
  20793507.340          50.050          46.550
 115723711.113 8  90174340.912 7  86417066.934 8  22021483.900    22021482.200
  22021481.980          49.200          47.700
 121294896.873 7  94340494.580 6                  22682754.420    22682755.880
  22682753.960          44.050          37.550
 123902339.260 6  96368500.761 5                  23243764.820    23243771.520
  23243770.340          39.950          34.950
 104192563.045 8  81038680.998 7                  19457213.340    19457214.160
  19457213.360          48.950          47.750
 112116004.334 8  87201368.395 7                  20944203.500    20944204.920
  20944204.000          48.400          46.450
 111946021.749 8  87069158.396 7                  20971254.200    20971256.920
  20971255.800          49.650          46.400
 130200795.734 6 101267302.651 5                  24365305.580    24365309.260
  24365306.680          37.300          34.250
 128930768.441 5 100279488.280 6                  24144589.740    24144594.860
  24144592.940          32.200          37.050
 106794860.370 8  83062693.081 7                  19964166.500    19964169.960
  19964169.000          48.800          47.650
 119678806.130 7  93083526.585 6                  22388390.720    22388394.740
  22388394.240          47.000          37.850
 145194090.926 7                 108424260.522 7  27629467.240
                        46.650
 15  1 27  6  5 55.0000000  0 22G11G14G28G04G16G03G18G22G27G19G32G01
                                R24R14R08R07R22R15R13R23R01E11
 110066324.418 8  85765958.48247                  20944918.620
  20944913.020          49.600          45.850
 122568211.131 7  95507684.93046                  23323954.260
  23323949.740          47.100          38.150
 128844197.954 7 100398047.38045                  24518232.740
  24518227.660          45.000          34.250
 106958749.228 8  83344493.73047                  20353561.400
  20353557.340          49.950          46.750
 131809113.833 7 102708398.13745                  25082440.960
  25082435.700          44.400          34.150
 125334272.263 7  97663070.418 7  93593779.498 8  23850315.880    23850315.160
  23850314.460          45.850          43.800
 134998004.352 7 105193244.04945                  25689257.560
  25689252.960          42.400          33.150
 117991333.032 8  91941308.72047                  22452989.220
  22452981.740          49.100          43.700
 112972784.535 8  88030751.087 8  84362797.659 8  21498001.320    21497999.420
  21497998.780          50.450          49.400
 107763738.047 8  83971724.84148                  20506751.260
  20506744.140          50.200          50.000
 109259955.632 8  85137651.22047                  20791461.960
  20791457.960          50.150          46.450
 115713549.456 8  90166422.736 7  86409478.688 8  22019550.200    22019548.460
  22019548.260          49.300          47.400
 121278361.410 7  94327633.670 6                  22679662.200    22679663.620
  22679661.720          44.350          37.350
 123908427.165 6  96373235.803 5                  23244906.960    23244913.640
  23244912.340          39.750          34.800
 104186169.513 8  81033708.245 7                  19456019.360    19456020.200
  19456019.400          49.000          47.700
 112129882.377 8  87212162.430 7                  20946796.040    20946797.420
  20946796.520          48.350          46.600
 111956131.452 8  87077021.494 7                  20973148.100    20973150.800
  20973149.700          49.450          46.600
 130193491.053 6 101261621.199 5                  24363938.580    24363942.240
  24363939.720          39.950          34.200
 128947754.200 5 100292699.439 6                  24147770.460    24147775.720
  24147773.900          31.650          37.200
 106788289.566 8  83057582.445 7                  19962938.180    19962941.600
  19962940.640          48.700          47.650
 119657405.331 7  93066881.511 6                  22384387.240    22384391.220
  22384390.820          46.450          37.800
 145205357.820 7                 108432674.092 7  27631611.300
                        46.800
 15  1 27  6  6  0.0000000  0 22G11G14G28G04G16G03G18G22G27G19G32G01
                                R24R14R08R07R22R15R13R23R01E11
 110057206.969 8  85758853.98247                  20943183.580
  20943178.020          49.350          45.950
 122561407.258 7  95502383.21746                  23322659.500
  23322655.000          46.900          38.950
 128831930.392 7 100388488.26745                  24515898.300
  24515893.140          45.000          34.550
 106955154.150 8  83341692.37747                  20352877.260
  20352873.240          50.050          46.550
 131827535.110 7 102722752.36245                  25085946.420
  25085941.140          43.950          34.650
 125316648.627 7  97649337.721 7  93580618.996 8  23846962.180    23846961.520
  23846960.840          45.900          43.650
 135013867.811 6 105205605.16845                  25692276.320
  25692271.740          41.800          32.900
 118004280.903 8  91951397.97047                  22455453.080
  22455445.620          49.100          43.650
 112984094.276 8  88039563.872 8  84371243.244 8  21500153.460    21500151.580
  21500150.960          50.400          49.250
 107767261.336 8  83974470.26048                  20507421.740
  20507414.620          50.150          50.000
 109249201.184 8  85129271.13547                  20789415.500
  20789411.440          50.200          46.200
 115703394.173 8  90158509.533 7  86401895.194 8  22017617.740    22017616.000
  22017615.760          49.300          47.300
 121261827.195 7  94314773.728 6                  22676570.240    22676571.720
  22676569.760          44.100          37.150
 123914534.987 6  96377986.317 5                  23246052.900    23246059.380
  23246058.120          39.400          35.150
 104179798.743 8  81028753.216 7                  19454829.660    19454830.540
  19454829.700          49.100          47.550
 112143777.438 8  87222969.702 7                  20949391.780    20949393.120
  20949392.240          48.650          46.700
 111966252.028 8  87084893.047 7                  20975044.040    20975046.720
  20975045.620          49.750          46.550
 130186205.881 6 101255954.998 5                  24362575.240    24362579.020
  24362576.420          40.100          34.900
 128964745.793 5 100305915.118 6                  24150952.460    24150957.720
  24150955.840          32.850          36.400
 106781729.230 8  83052479.979 7                  19961711.780    19961715.240
  19961714.260          48.650          47.650
 119636012.409 7  93050242.584 6                  22380385.320    22380389.220
  22380388.840          46.350          37.700
 145216628.607 7                 108441090.585 7  27633756.040
                        46.800
 15  1 27  6  6  5.0000000  0 22G11G14G28G04G16G03G18G22G27G19G32G01
                                R24R14R08R07R22R15R13R23R01E11
 110048096.634 8  85751755.02047                  20941449.940
  20941444.400          49.600          45.700
 122554614.933 7  95497090.50446                  23321366.940
  23321362.420          47.250          38.550
 128819671.929 7 100378936.21345                  24513565.620
  24513560.380          44.950          35.800
 106951567.208 8  83338897.35047                  20352194.660
  20352190.660          50.100          46.600
 131845954.280 7 102737104.97745                  25089451.460
  25089446.000          43.200          32.900
 125299029.076 7  97635608.209 7  93567461.544 8  23843609.260    23843608.680
  23843608.000          46.000          43.750
 135029731.292 7 105217966.29745                  25695295.000
  25695290.460          42.100          31.950
 118017235.764 8  91961492.66347                  22457918.280
  22457910.860          49.200          43.700
 112995413.719 8  88048384.212 8  84379696.068 8  21502307.440    21502305.580
  21502304.980          50.500          49.350
 107770796.088 8  83977224.60948                  20508094.380
  20508087.260          50.150          49.900
 109238460.401 8  85120901.70047                  20787371.620
  20787367.560          50.550          46.100
 115693243.699 8  90150600.070 7  86394315.296 8  22015686.180    22015684.420
  22015684.180          49.300          47.600
 121245292.537 7  94301913.440 6                  22673478.200    22673479.620
  22673477.720          44.150          36.850
 123920660.995 6  96382750.998 6                  23247202.220    23247208.620
  23247207.400          40.050          36.100
 104173449.145 8  81023814.648 7                  19453643.900    19453644.780
  19453643.960          48.900          47.700
 112157687.738 8  87233788.820 7                  20951990.360    20951991.680
  20951990.860          48.700          46.750
 111976382.072 8  87092771.963 7                  20976941.760    20976944.400
  20976943.320          49.850          46.450
 130178938.852 6 101250302.862 6                  24361215.340    24361219.120
  24361216.540          38.400          36.050
 128981741.460 5 100319133.954 5                  24154135.180    24154140.500
  24154138.540          33.050          35.350
 106775178.088 8  83047384.637 7                  19960487.120    19960490.580
  19960489.600          48.650          47.750
 119614626.166 7  93033608.845 6                  22376384.580    22376388.560
  22376388.120          46.650          38.100
 145227901.788 7                 108449508.848 7  27635901.220
                        46.700
 15  1 27  6  6 10.0000000  0 22G11G14G28G04G16G03G18G22G27G19G32G01
                                R24R14R08R07R22R15R13R23R01E11
 110038993.010 8  85744661.29647                  20939717.540
  20939712.040          49.700          45.750
 122547833.777 7  95491806.48546                  23320076.540
  23320071.960          47.300          37.750
 128807422.212 7 100369390.98445                  24511234.560
  24511229.400          44.850          34.950
 106947987.916 8  83336108.29647                  20351513.540
  20351509.540          49.950          46.750
 131864370.975 7 102751455.63645                  25092956.040
  25092950.620          43.600          31.250
 125281413.233 7  97621881.582 7  93554306.867 8  23840257.040    23840256.520
  23840255.820          46.200          43.700
 135045594.426 7 105230327.17445                  25698313.640
  25698309.040          42.200          33.250
 118030197.206 8  91971592.49647                  22460384.740
  22460377.320          49.100          43.850
 113006742.454 8  88057211.797 8  84388155.841 8  21504463.240    21504461.360
  21504460.780          50.600          49.300
 107774341.907 8  83979987.58348                  20508769.140
  20508762.000          50.150          49.950
 109227732.874 8  85112542.59447                  20785330.280
  20785326.180          50.600          46.000
 115683097.647 8  90142694.060 7  86386738.703 8  22013755.440    22013753.700
  22013753.440          49.350          47.550
 121228757.068 7  94289052.528 6                  22670385.980    22670387.360
  22670385.500          44.400          37.200
 123926804.874 6  96387529.568 5                  23248354.840    23248361.220
  23248360.080          40.500          35.750
 104167120.282 8  81018892.204 7                  19452461.980    19452462.880
  19452462.100          49.050          47.700
 112171612.998 8  87244619.578 7                  20954591.740    20954593.080
  20954592.260          48.950          46.800
 111986520.995 8  87100657.801 7                  20978841.160    20978843.740
  20978842.700          49.700          46.350
 130171689.478 6 101244664.416 5                  24359858.680    24359862.580
  24359859.980          39.250          35.850
 128998740.737 5 100332355.616 6                  24157318.580    24157323.740
  24157321.880          32.800          36.400
 106768635.581 8  83042296.026 7                  19959264.060    19959267.580
  19959266.560          48.750          47.750
 119593246.020 7  93016979.847 6                  22372385.000    22372388.940
  22372388.580          46.450          38.100
 145239176.952 7                 108457928.594 7  27638046.820
                        46.850
 15  1 27  6  6 15.0000000  0 22G11G14G28G04G16G03G18G22G27G19G32G01
                                R24R14R08R07R22R15R13R23R01E11
 110029897.784 8  85737574.11047                  20937986.760
  20937981.300          49.800          45.800
 122541065.457 7  95486532.47546                  23318788.600
  23318783.940          47.550          38.200
 128795182.962 7 100359853.91645                  24508905.500
  24508900.320          45.050          34.800
 106944417.919 8  83333326.48447                  20350834.180
  20350830.180          49.900          46.600
 131882786.773 7 102765805.60545                  25096460.480
  25096455.140          43.600          31.300
 125263802.787 7  97608159.170 7  93541156.217 8  23836905.900    23836905.360
  23836904.660          46.550          43.850
 135061458.839 6 105242689.07145                  25701332.520
  25701327.940          41.800          31.750
 118043166.902 8  91981698.74647                  22462852.820
  22462845.360          49.200          43.600
 113018082.158 8  88066047.936 8  84396623.806 8  21506621.120    21506619.260
  21506618.660          50.600          49.250
 107777900.394 8  83982760.43448                  20509446.300
  20509439.160          50.150          49.950
 109217020.329 8  85104195.16147                  20783291.780
  20783287.660          50.450          46.100
 115672957.673 8  90134792.785 7  86379166.650 8  22011825.860    22011824.140
  22011823.860          49.400          47.550
 121212222.498 7  94276192.332 6                  22667293.940    22667295.360
  22667293.460          44.450          37.350
 123932968.295 6  96392323.340 5                  23249511.140    23249517.480
  23249516.380          40.800          35.050
 104160813.918 8  81013987.252 7                  19451284.300    19451285.200
  19451284.440          49.000          47.750
 112185554.865 8  87255463.244 7                  20957196.200    20957197.540
  20957196.740          48.900          46.550
 111996670.701 8  87108552.015 7                  20980742.580    20980745.100
  20980744.120          49.950          46.450
 130164459.504 6 101239041.114 6                  24358505.580    24358509.640
  24358507.080          39.950          36.000
 129015745.264 5 100345581.352 6                  24160503.020    24160508.100
  24160506.200          32.650          37.100
 106762103.563 8  83037215.579 7                  19958042.960    19958046.500
  19958045.520          49.100          47.850
 119571873.769 7  93000357.002 6                  22368386.820    22368390.840
  22368390.480          46.350          37.650
 145250455.751 7                 108466351.052 7  27640193.140
                        46.850
 15  1 27  6  6 20.0000000  0 22G11G14G28G04G16G03G18G22G27G19G32G01
                                R24R14R08R07R22R15R13R23R01E11
 110020810.625 8  85730493.20747                  20936257.500
  20936252.080          49.850          45.750
 122534309.586 7  95481268.15646                  23317503.020
  23317498.320          47.500          38.300
 128782953.745 7 100350324.66246                  24506578.360
  24506573.140          45.100          36.100
 106940856.917 8  83330551.67647                  20350156.540
  20350152.560          49.800          46.750
 131901201.308 6 102780154.59946                  25099964.620
  25099959.340          41.900          36.450
 125246197.364 7  97594440.659 7  93528009.301 8  23833555.720    23833555.180
  23833554.500          46.400          43.950
 135077324.175 6 105255051.66045                  25704351.600
  25704346.920          41.600          30.800
 118056144.441 8  91991811.11047                  22465322.360
  22465314.900          49.300          43.600
 113029432.454 8  88074892.319 8  84405099.668 8  21508781.020    21508779.180
  21508778.540          50.650          49.300
 107781471.180 8  83985542.86448                  20510125.820
  20510118.640          50.150          49.900
 109206322.377 8  85095859.09647                  20781256.040
  20781251.900          50.200          46.350
 115662823.418 8  90126895.961 7  86371598.864 8  22009897.380    22009895.640
  22009895.380          49.250          47.700
 121195688.524 7  94263332.572 6                  22664202.000    22664203.320
  22664201.480          44.950          37.550
 123939150.902 6  96397132.037 5                  23250670.980    23250677.400
  23250676.220          40.800          34.700
 104154529.628 8  81009099.459 7                  19450110.740    19450111.640
  19450110.880          48.900          47.600
 112199512.867 8  87266319.459 7                  20959803.680    20959805.040
  20959804.240          48.750          46.500
 112006830.640 8  87116454.186 7                  20982645.900    20982648.400
  20982647.460          49.850          46.600
 130157248.517 6 101233432.605 5                  24357156.040    24357160.200
  24357157.680          39.900          35.900
 129032754.799 5 100358811.026 6                  24163688.380    24163693.420
  24163691.540          33.550          37.050
 106755581.496 8  83032142.857 8                  19956823.740    19956827.260
  19956826.300          49.100          48.000
 119550509.056 7  92983740.003 6                  22364390.060    22364394.120
  22364393.740          46.900          37.500
 145261737.816 7                 108474775.939 7  27642340.060
                        46.750
 15  1 27  6  6 25.0000000  0 22G11G14G28G04G16G03G18G22G27G19G32G01
                                R24R14R08R07R22R15R13R23R01E11
 110011730.286 8  85723417.62247                  20934529.560
  20934524.160          49.950          45.500
 122527564.948 7  95476012.58646                  23316219.580
  23316214.820          47.350          38.000
 128770733.368 7 100340802.27446                  24504252.900
  24504247.720          45.200          36.600
 106937303.667 8  83327782.91647                  20349480.380
  20349476.380          49.850          46.750
 131919613.392 7 102794501.64745                  25103468.300
  25103463.120          42.800          33.950
 125228595.731 7  97580725.107 7  93514865.232 8  23830206.240    23830205.680
  23830205.080          46.200          44.150
 135093189.122 6 105267413.93246                  25707370.620
  25707365.760          41.650          36.000
 118069128.608 8  92001928.64847                  22467793.180
  22467785.720          49.400          43.400
 113040792.117 8  88083744.004 8  84413582.536 8  21510942.700    21510940.840
  21510940.220          50.550          49.400
 107785053.120 8  83988333.98648                  20510807.440
  20510800.280          50.150          50.100
 109195637.776 8  85087533.43147                  20779222.840
  20779218.680          50.100          46.300
 115652693.654 8  90119002.639 7  86364034.428 8  22007969.760    22007967.980
  22007967.740          49.150          47.700
 121179153.975 7  94250472.374 6                  22661109.920    22661111.320
  22661109.440          44.500          37.800
 123945351.384 6  96401954.644 5                  23251834.280    23251840.600
  23251839.340          40.250          34.750
 104148266.143 8  81004227.858 7                  19448941.080    19448941.980
  19448941.200          48.800          47.700
 112213485.788 8  87277187.282 7                  20962414.000    20962415.320
  20962414.540          48.800          46.650
 112016999.676 8  87124363.429 7                  20984550.940    20984553.420
  20984552.480          49.750          46.650
 130150055.265 6 101227837.837 5                  24355809.800    24355814.040
  24355811.560          41.200          35.900
 129049768.123 5 100372043.597 6                  24166874.560    24166879.440
  24166877.580          33.650          36.450
 106749068.147 8  83027076.924 8                  19955606.160    19955609.660
  19955608.720          49.150          48.050
 119529150.642 7  92967127.911 6                  22360394.520    22360398.560
  22360398.220          46.750          38.050
 145273021.922 7                 108483202.376 7  27644487.380
                        46.400
 15  1 27  6  6 30.0000000  0 22G11G14G28G04G16G03G18G22G27G19G32G01
                                R24R14R08R07R22R15R13R23R01E11
 110002658.135 8  85716348.40547                  20932803.180
  20932797.780          49.850          45.300
 122520832.935 7  95470766.87446                  23314938.580
  23314933.720          47.550          38.350
 128758523.204 7 100331287.86646                  24501929.400
  24501924.200          45.050          36.350
 106933759.493 8  83325021.21947                  20348805.940
  20348801.940          49.950          46.400
 131938024.312 7 102808847.81045                  25106971.760
  25106966.740          42.450          31.150
 125210999.245 7  97567013.567 7  93501725.009 8  23826857.720    23826857.220
  23826856.620          46.150          44.050
 135109055.172 6 105279777.06444                  25710389.800
  25710385.120          41.900          28.850
 118082120.740 8  92012052.38547                  22470265.480
  22470258.060          49.300          43.550
 113052162.466 8  88092604.004 8  84422073.367 8  21513106.400    21513104.540
  21513103.920          50.400          49.150
 107788647.557 8  83991134.83848                  20511491.440
  20511484.260          50.050          50.000
 109184967.910 8  85079219.24647                  20777192.460
  20777188.260          50.050          46.200
 115642569.705 8  90111113.839 7  86356474.334 8  22006043.260    22006041.460
  22006041.220          49.050          47.700
 121162620.031 7  94237612.637 6                  22658018.040    22658019.440
  22658017.520          45.400          37.650
 123951571.161 6  96406792.245 5                  23253001.100    23253007.440
  23253006.140          40.550          34.200
 104142024.997 8  80999373.636 7                  19447775.580    19447776.500
  19447775.700          48.950          47.550
 112227475.044 8  87288067.817 7                  20965027.380    20965028.620
  20965027.880          49.300          46.550
 112027179.134 8  87132280.783 7                  20986457.940    20986460.420
  20986459.480          49.850          46.600
 130142881.258 6 101222258.059 5                  24354467.260    24354471.580
  24354469.060          41.300          35.550
 129066786.472 5 100385280.101 6                  24170061.600    24170066.440
  24170064.500          33.550          36.900
 106742565.102 8  83022018.997 8                  19954390.500    19954394.000
  19954393.060          49.200          48.000
 119507799.827 7  92950521.726 6                  22356400.380    22356404.400
  22356404.120          47.150          37.750
 145284309.404 7                 108491631.344 7  27646635.340
                        46.350
 15  1 27  6  6 35.0000000  0 22G11G14G28G04G16G03G18G22G27G19G32G01
                                R24R14R08R07R22R15R13R23R01E11
 109993592.237 8  85709284.07547                  20931078.000
  20931072.600          49.850          45.750
 122514111.637 7  95465529.49646                  23313659.600
  23313654.720          47.550          37.850
 128746321.324 7 100321779.92545                  24499607.440
  24499602.260          45.250          35.500
 106930222.468 8  83322265.10047                  20348132.880
  20348128.860          49.850          46.550
 131956432.160 6 102823191.58745                  25110474.640
  25110469.700          41.950          33.700
 125193406.032 7  97553304.583 7  93488587.232 8  23823509.840    23823509.340
  23823508.740          46.300          43.950
 135124920.313 7 105292139.52045                  25713408.800
  25713404.000          42.300          33.750
 118095118.897 8  92022180.81747                  22472738.940
  22472731.540          49.300          43.650
 113063541.612 8  88101470.867 8  84430570.779 8  21515271.800    21515269.900
  21515269.300          50.550          49.200
 107792252.590 8  83993943.95748                  20512177.460
  20512170.280          50.150          49.900
 109174310.859 8  85070915.05047                  20775164.500
  20775160.280          50.200          46.000
 115632449.676 8  90103228.106 7  86348917.179 8  22004117.500    22004115.680
  22004115.460          49.150          47.600
 121146084.891 7  94224752.008 6                  22654925.860    22654927.360
  22654925.380          45.000          37.600
 123957808.298 6  96411643.345 5                  23254171.140    23254177.440
  23254176.180          40.550          34.500
 104135804.069 8  80994535.144 7                  19446613.860    19446614.780
  19446613.960          49.000          47.650
 112241478.520 8  87298959.418 7                  20967643.380    20967644.600
  20967643.860          49.550          46.550
 112037367.114 8  87140204.759 7                  20988366.500    20988369.000
  20988368.080          49.900          46.650
 130135724.654 6 101216691.806 5                  24353128.040    24353132.240
  24353129.820          39.900          35.950
 129083807.845 5 100398518.955 6                  24173249.200    24173253.980
  24173252.080          33.200          38.500
 106736070.213 8  83016967.423 8                  19953176.340    19953179.900
  19953178.940          49.350          48.100
 119486454.806 7  92933920.048 6                  22352407.360    22352411.420
  22352411.080          47.450          37.550
 145295598.390 7                 108500061.403 7  27648783.560
                        46.700
 15  1 27  6  6 40.0000000  0 22G11G14G28G04G16G03G18G22G27G19G32G01
                                R24R14R08R07R22R15R13R23R01E11
 109984536.124 8  85702227.37447                  20929354.660
  20929349.280          49.850          45.450
 122507404.527 7  95460303.18146                  23312383.320
  23312378.460          47.500          38.150
 128734131.276 7 100312281.18845                  24497287.760
  24497282.640          45.150          35.600
 106926696.110 8  83319517.28947                  20347461.860
  20347457.800          49.800          46.750
 131974840.480 7 102837535.71345                  25113977.600
  25113972.680          42.250          33.750
 125175819.583 7  97539600.858 7  93475454.484 8  23820163.260    23820162.740
  23820162.160          46.250          43.900
 135140788.085 7 105304504.03745                  25716428.340
  25716423.620          42.700          30.700
 118108126.600 8  92032316.68747                  22475214.180
  22475206.860          49.150          43.400
 113074933.037 8  88110347.302 8  84439077.355 8  21517439.520    21517437.620
  21517437.020          50.500          49.250
 107795871.693 8  83996764.03548                  20512866.160
  20512858.960          50.100          50.000
 109163670.134 8  85062623.58047                  20773139.660
  20773135.420          50.400          46.150
 115622337.104 8  90095348.184 7  86341365.579 8  22002193.160    22002191.340
  22002191.120          49.250          47.600
 121129552.019 7  94211893.116 6                  22651834.120    22651835.600
  22651833.660          44.800          37.900
 123964066.267 6  96416510.654 5                  23255345.160    23255351.300
  23255350.140          40.850          34.550
 104129607.016 8  80989715.218 7                  19445456.600    19445457.540
  19445456.700          49.000          47.800
 112255499.905 8  87309864.943 7                  20970262.720    20970263.900
  20970263.200          49.650          46.550
 112047567.118 8  87148138.094 7                  20990277.340    20990279.800
  20990278.880          49.950          46.700
 130128588.809 6 101211141.672 6                  24351792.600    24351796.880
  24351794.440          39.850          37.100
 129100835.846 5 100411762.968 6                  24176438.060    24176442.860
  24176441.080          33.750          39.300
 106729587.229 8  83011925.099 8                  19951964.400    19951967.960
  19951967.020          49.200          48.300
 119465119.077 7  92917325.593 6                  22348416.040    22348420.160
  22348419.740          47.450          37.600
 145306892.341 7                 108508495.180 7  27650932.720
                        46.750
 15  1 27  6  6 45.0000000  0 22G11G14G28G04G16G03G18G22G27G19G32G01
                                R24R14R08R07R22R15R13R23R01E11
 109975487.239 8  85695176.28947                  20927632.700
  20927627.340          50.100          45.750
 122500709.087 7  95455085.94746                  23311109.220
  23311104.380          47.700          38.750
 128721950.479 7 100302789.65645                  24494969.820
  24494964.800          45.200          35.300
 106923177.914 8  83316775.83147                  20346792.380
  20346788.320          50.150          46.750
 131993246.539 7 102851878.05945                  25117480.180
  25117475.380          43.750          33.550
 125158237.320 7  97525900.391 7  93462324.870 8  23816817.460    23816816.940
  23816816.380          46.600          44.050
 135156655.811 7 105316868.46945                  25719447.840
  25719442.980          43.200          32.050
 118121141.263 8  92042457.97447                  22477690.760
  22477683.480          49.350          43.450
 113086334.157 8  88119231.287 8  84447591.172 8  21519609.080    21519607.200
  21519606.580          50.650          49.300
 107799502.295 8  83999593.06748                  20513557.060
  20513549.840          50.350          49.800
 109153043.131 8  85054342.79647                  20771117.400
  20771113.140          50.650          46.250
 115612229.356 8  90087472.010 7  86333817.586 8  22000269.740    22000267.920
  22000267.680          49.750          47.800
 121113018.879 7  94199034.003 6                  22648742.360    22648743.820
  22648741.860          44.250          37.200
 123970342.554 6  96421392.213 5                  23256522.660    23256528.680
  23256527.520          40.500          34.750
 104123431.136 8  80984911.752 7                  19444303.300    19444304.280
  19444303.400          48.750          47.900
 112269536.433 8  87320782.239 7                  20972884.880    20972886.060
  20972885.320          49.100          46.550
 112057776.544 8  87156078.746 7                  20992189.920    20992192.360
  20992191.420          49.750          46.350
 130121471.008 6 101205605.590 6                  24350460.520    24350464.740
  24350462.420          40.350          36.750
 129117867.833 5 100425010.067 6                  24179627.520    24179632.540
  24179630.800          33.000          38.700
 106723113.323 8  83006889.831 8                  19950754.200    19950757.700
  19950756.820          48.750          48.300
 119443789.967 7  92900736.298 6                  22344425.940    22344430.180
  22344429.680          47.050          37.250
 145318188.699 7                 108516930.751 7  27653082.360
                        47.100
 15  1 27  6  6 50.0000000  0 22G11G14G28G04G16G03G18G22G27G19G32G01
                                R24R14R08R07R22R15R13R23R01E11
 109966443.507 8  85688129.23147                  20925911.720
  20925906.400          49.850          45.850
 122494023.179 7  95449876.15846                  23309836.940
  23309832.120          47.500          38.100
 128709776.853 7 100293303.71846                  24492653.280
  24492648.280          45.000          36.350
 106919665.698 8  83314039.04747                  20346124.020
  20346119.960          50.200          46.450
 132011648.349 7 102866217.15545                  25120981.840
  25120977.160          44.050          33.550
 125140657.158 7  97512201.572 7  93449196.837 8  23813472.020    23813471.520
  23813470.980          46.050          43.950
 135172521.518 7 105329231.34945                  25722467.000
  25722462.080          43.250          32.300
 118134160.758 8  92052603.03547                  22480168.280
  22480161.020          49.150          43.900
 113097742.876 8  88128121.200 8  84456110.670 8  21521780.100    21521778.200
  21521777.580          50.650          49.250
 107803142.292 8  84002429.43548                  20514249.720
  20514242.500          50.300          49.700
 109142427.799 8  85046071.11747                  20769097.360
  20769093.080          50.550          45.950
 115602124.367 8  90079597.999 7  86326271.650 8  21998346.840    21998345.020
  21998344.780          49.600          47.900
 121096483.223 7  94186172.956 6                  22645650.080    22645651.580
  22645649.580          44.550          37.050
 123976634.929 6  96426286.284 5                  23257703.080    23257709.160
  23257707.960          40.200          33.850
 104117274.480 8  80980123.246 8                  19443153.600    19443154.540
  19443153.720          48.800          48.000
 112283586.131 8  87331709.780 7                  20975509.500    20975510.680
  20975509.920          48.850          46.400
 112067993.264 8  87164025.086 7                  20994103.880    20994106.300
  20994105.360          49.800          46.600
 130114369.195 6 101200081.978 6                  24349131.480    24349135.820
  24349133.460          39.850          36.550
 129134901.548 5 100438258.524 6                  24182817.480    24182822.540
  24182820.740          33.600          38.150
 106716646.512 8  83001860.099 8                  19949545.300    19949548.760
  19949547.940          48.650          48.050
 119422465.565 7  92884150.650 6                  22340436.800    22340441.000
  22340440.500          47.150          37.150
 145329485.333 7                 108525366.553 7  27655232.040
                        47.100
 15  1 27  6  6 55.0000000  0 22G11G14G28G04G16G03G18G22G27G19G32G01
                                R24R14R08R07R22R15R13R23R01E11
 109957409.646 8  85681089.85547                  20924192.620
  20924187.300          49.650          45.900
 122487351.661 7  95444677.57246                  23308567.380
  23308562.560          47.400          37.550
 128697615.159 7 100283827.08545                  24490338.980
  24490333.960          45.300          35.750
 106916164.304 8  83311310.68747                  20345457.740
  20345453.660          50.350          46.200
 132030050.637 7 102880556.58145                  25124483.660
  25124478.960          45.050          31.000
 125123083.888 7  97498508.128 7  93436073.943 8  23810127.900    23810127.460
  23810126.900          46.350          43.800
 135188389.899 7 105341596.29245                  25725486.680
  25725481.840          42.900          33.000
 118147189.872 8  92062755.58147                  22482647.640
  22482640.380          49.050          44.500
 113109163.978 8  88137020.760 8  84464639.413 8  21523953.460    21523951.520
  21523950.940          50.400          49.200
 107806796.463 8  84005276.84048                  20514945.100
  20514937.860          50.150          49.950
 109131828.915 8  85037812.24947                  20767080.460
  20767076.160          50.350          46.050
 115592026.918 8  90071729.866 7  86318731.354 8  21996425.360    21996423.560
  21996423.340          49.250          47.950
 121079950.110 7  94173313.870 6                  22642558.280    22642559.740
  22642557.800          44.900          37.150
 123982948.072 6  96431196.508 5                  23258887.420    23258893.440
  23258892.220          40.050          33.650
 104111141.809 8  80975353.389 8                  19442008.360    19442009.340
  19442008.520          48.950          48.000
 112297653.713 8  87342651.224 7                  20978137.440    20978138.620
  20978137.840          48.600          46.350
 112078222.140 8  87171980.874 7                  20996020.120    20996022.520
  20996021.580          50.000          46.350
 130107288.350 6 101194574.632 6                  24347806.300    24347810.700
  24347808.440          38.100          37.100
 129151942.121 5 100451512.312 6                  24186008.800    24186013.760
  24186011.880          32.800          37.550
 106710191.612 8  82996839.617 8                  19948338.640    19948342.120
  19948341.300          48.800          48.100
 119401150.544 7  92867572.294 6                  22336449.420    22336453.580
  22336453.060          46.850          37.050
 145340787.091 7                 108533806.138 7  27657382.700
                        47.000
 15  1 27  6  7  0.0000000  0 22G11G14G28G04G16G03G18G22G27G19G32G01
                                R24R14R08R07R22R15R13R23R01E11
 109948382.620 8  85674055.81147                  20922474.820
  20922469.500          49.400          45.650
 122480691.424 7  95439487.78746                  23307299.980
  23307295.180          47.400          37.850
 128685462.406 7 100274357.42245                  24488026.400
  24488021.360          45.300          35.600
 106912670.531 8  83308588.27047                  20344792.900
  20344788.820          50.250          46.550
 132048450.290 7 102894894.00445                  25127984.980
  25127980.240          44.650          32.550
 125105514.447 7  97484817.660 7  93422953.913 8  23806784.560    23806784.060
  23806783.500          46.700          44.000
 135204257.864 7 105353960.93945                  25728506.260
  25728501.420          42.000          32.200
 118160225.489 8  92072913.20747                  22485128.240
  22485121.000          49.150          44.000
 113120594.368 8  88145927.554 8  84473175.096 8  21526128.600    21526126.660
  21526126.060          50.550          49.300
 107810461.721 8  84008132.88448                  20515642.600
  20515635.340          50.150          50.000
 109121243.419 8  85029563.81647                  20765066.080
  20765061.800          50.300          46.200
 115581933.892 8  90063865.172 8  86311194.366 8  21994504.700    21994502.920
  21994502.740          49.150          48.050
 121063416.323 7  94160454.260 6                  22639466.360    22639467.860
  22639465.860          44.300          37.500
 123989279.050 6  96436120.630 5                  23260075.120    23260080.800
  23260079.840          39.900          34.100
 104105029.911 8  80970599.692 8                  19440867.000    19440868.000
  19440867.200          49.000          48.050
 112311736.061 8  87353604.164 7                  20980768.120    20980769.320
  20980768.520          48.700          46.300
 112088460.017 8  87179943.676 7                  20997938.020    20997940.420
  20997939.480          49.500          46.600
 130100225.391 6 101189081.233 6                  24346484.440    24346489.040
  24346486.780          38.600          37.000
 129168986.097 5 100464768.742 6                  24189200.560    24189205.500
  24189203.680          33.200          37.900
 106703745.527 8  82991825.992 8                  19947133.620    19947137.080
  19947136.280          48.800          48.100
 119379841.900 7  92850998.919 6                  22332463.160    22332467.280
  22332466.840          46.900          37.300
 145352090.822 7                 108542247.226 7  27659533.760
                        46.950
 15  1 27  6  7  5.0000000  0 22G11G14G28G04G16G03G18G22G27G19G32G01
                                R24R14R08R07R22R15R13R23R01E11
 109939363.523 8  85667027.95047                  20920758.520
  20920753.240          49.450          45.950
 122474043.644 7  95434307.69646                  23306034.960
  23306030.180          47.650          38.500
 128673319.682 7 100264895.56545                  24485715.760
  24485710.720          45.050          35.950
 106909185.591 8  83305872.72847                  20344129.740
  20344125.660          50.200          46.700
 132066848.529 7 102909230.28245                  25131486.040
  25131481.340          44.500          32.850
 125087949.990 7  97471131.067 7  93409837.602 8  23803442.140    23803441.640
  23803441.060          46.650          43.750
 135220126.640 6 105366326.21445                  25731525.980
  25731521.140          41.850          30.800
 118173268.737 8  92083076.77347                  22487610.320
  22487603.040          49.100          44.200
 113132035.201 8  88154842.484 8  84481718.571 8  21528305.740    21528303.760
  21528303.180          50.550          49.300
 107814139.216 8  84010998.46048                  20516342.420
  20516335.140          50.250          49.950
 109110672.437 8  85021326.68147                  20763054.480
  20763050.200          50.200          46.350
 115571846.494 8  90056004.854 8  86303661.565 8  21992585.120    21992583.360
  21992583.200          49.100          48.150
 121046882.994 7  94147595.008 6                  22636374.560    22636376.020
  22636374.040          44.350          37.500
 123995629.025 6  96441059.488 5                  23261266.260    23261272.100
  23261271.020          39.700          34.600
 104098940.053 8  80965863.136 8                  19439729.740    19439730.740
  19439729.980          48.950          48.050
 112325834.305 8  87364569.469 7                  20983401.740    20983403.020
  20983402.180          48.600          46.450
 112098708.117 8  87187914.412 7                  20999857.820    20999860.240
  20999859.240          49.150          46.550
 130093181.236 6 101183602.461 5                  24345166.000    24345170.820
  24345168.620          38.400          35.650
 129186034.653 5 100478028.697 6                  24192393.340    24192398.180
  24192396.300          33.850          37.200
 106697309.419 8  82986820.126 7                  19945930.460    19945933.940
  19945933.140          48.650          47.950
 119358540.801 7  92834431.394 6                  22328478.340    22328482.440
  22328482.020          46.450          37.400
 145363397.717 7                 108550690.659 7  27661685.400
                        46.650
 15  1 27  6  7 10.0000000  0 22G11G14G28G04G16G03G18G22G27G19G32G01
                                R24R14R08R07R22R15R13R23R01E11
 109930351.986 8  85660005.98147                  20919043.620
  20919038.400          49.450          46.000
 122467407.943 7  95429137.02046                  23304772.260
  23304767.460          47.350          38.300
 128661186.615 7 100255441.23146                  24483406.940
  24483401.900          44.950          36.200
 106905709.159 8  83303163.82647                  20343468.200
  20343464.120          50.150          46.900
 132085244.947 7 102923565.15745                  25134986.800
  25134981.980          44.550          34.700
 125070390.127 7  97457448.062 7  93396724.724 8  23800100.640    23800100.060
  23800099.520          46.700          43.700
 135235995.730 6 105378691.68044                  25734545.780
  25734541.040          41.350          26.500
 118186319.247 8  92093246.01247                  22490093.800
  22490086.440          49.200          44.400
 113143486.083 8  88163765.254 8  84490269.549 8  21530484.780    21530482.800
  21530482.220          50.700          49.250
 107817828.553 8  84013873.27248                  20517044.500
  20517037.200          50.350          49.950
 109100115.617 8  85013100.59047                  20761045.580
  20761041.280          50.150          46.600
 115561764.309 8  90048148.620 8  86296132.664 8  21990666.520    21990664.820
  21990664.660          49.050          48.150
 121030349.830 7  94134735.903 6                  22633282.760    22633284.240
  22633282.260          44.650          37.650
 124001997.507 6  96446012.746 5                  23262460.940    23262466.680
  23262465.800          39.300          34.850
 104092871.791 8  80961143.385 7                  19438596.520    19438597.580
  19438596.780          49.300          47.950
 112339948.002 8  87375546.794 7                  20986038.300    20986039.580
  20986038.700          48.850          46.450
 112108966.045 8  87195892.804 7                  21001779.480    21001781.860
  21001780.860          49.800          46.300
 130086155.755 6 101178138.246 6                  24343851.220    24343856.060
  24343853.900          38.600          36.300
 129203087.514 5 100491292.052 6                  24195586.720    24195591.540
  24195589.700          32.650          36.950
 106690882.991 8  82981821.795 8                  19944729.120    19944732.580
  19944731.780          48.700          48.000
 119337246.869 7  92817869.456 6                  22324494.840    22324498.900
  22324498.520          46.800          37.800
 145374707.363 7                 108559136.160 7  27663837.580
                        46.600
 15  1 27  6  7 15.0000000  0 22G11G14G28G04G16G03G18G22G27G19G32G01
                                R24R14R08R07R22R15R13R23R01E11
 109921347.181 8  85652989.24547                  20917330.020
  20917324.840          49.450          45.900
 122460783.458 7  95423975.08246                  23303511.680
  23303506.840          47.400          38.400
 128649062.402 7 100245993.79045                  24481099.780
  24481094.680          44.950          34.550
 106902240.321 8  83300460.83347                  20342808.100
  20342804.040          50.050          46.700
 132103638.596 7 102937897.84645                  25138487.020
  25138482.200          44.750          35.150
 125052834.028 7  97443767.975 7  93383614.657 8  23796759.840    23796759.220
  23796758.660          46.600          43.550
 135251864.305 6 105391056.84645                  25737565.460
  25737560.740          41.700          32.150
 118199376.144 8  92103420.21447                  22492578.500
  22492571.080          49.200          44.500
 113154946.157 8  88172695.169 8  84498827.394 8  21532665.580    21532663.560
  21532663.000          50.600          49.350
 107821528.923 8  84016756.67248                  20517748.680
  20517741.360          50.350          50.000
 109089572.072 8  85004884.83647                  20759039.200
  20759034.920          50.100          46.350
 115551686.494 8  90040295.775 8  86288607.029 8  21988748.760    21988747.080
  21988746.940          49.100          48.150
 121013815.832 7  94121876.125 6                  22630190.820    22630192.240
  22630190.260          44.600          37.400
 124008383.582 6  96450979.685 5                  23263658.860    23263664.700
  23263663.880          38.850          34.850
 104086824.291 8  80956439.776 7                  19437467.160    19437468.220
  19437467.420          49.150          47.950
 112354076.386 8  87386535.522 7                  20988677.600    20988678.900
  20988677.960          48.900          46.350
 112119232.949 8  87203878.163 7                  21003702.820    21003705.180
  21003704.140          49.700          46.150
 130079148.021 6 101172687.758 5                  24342539.620    24342544.580
  24342542.480          37.550          35.750
 129220143.624 5 100504557.903 6                  24198780.720    24198785.480
  24198783.640          33.300          36.850
 106684465.263 8  82976830.214 7                  19943529.440    19943532.840
  19943532.040          48.850          47.750
 119315959.214 7  92801312.392 6                  22320512.540    22320516.480
  22320516.240          46.300          37.750
 145386018.897 7                 108567583.071 7  27665990.120
                        46.400
 15  1 27  6  7 20.0000000  0 22G11G14G28G04G16G03G18G22G27G19G32G01
                                R24R14R08R07R22R15R13R23R01E11
 109912350.741 8  85645979.03947                  20915618.020
  20915612.880          49.450          46.000
 122454171.785 7  95418823.13146                  23302253.560
  23302248.700          47.050          39.000
 128636948.602 7 100236554.47046                  24478794.620
  24478789.560          45.050          36.850
 106898780.592 8  83297764.94747                  20342149.740
  20342145.680          50.000          46.800
 132122031.050 7 102952229.64045                  25141987.000
  25141982.220          44.850          34.850
 125035283.287 7  97430092.081 7  93370508.578 8  23793420.020    23793419.380
  23793418.820          46.650          43.450
 135267733.921 7 105403422.76545                  25740585.380
  25740580.580          42.400          30.250
 118212440.996 8  92113600.61947                  22495064.700
  22495057.220          49.250          44.100
 113166416.988 8  88181633.479 8  84507393.272 8  21534848.420    21534846.400
  21534845.840          50.550          49.350
 107825241.892 8  84019649.89448                  20518455.260
  20518447.920          50.250          50.100
 109079043.400 8  84996680.68947                  20757035.640
  20757031.360          50.100          46.350
 115541614.593 8  90032447.545 8  86281085.802 8  21986832.120    21986830.480
  21986830.360          49.150          48.300
 120997282.794 7  94109017.104 6                  22627099.040    22627100.440
  22627098.440          44.700          36.600
 124014788.866 6  96455961.583 5                  23264860.340    23264866.380
  23264865.560          38.800          34.150
 104080799.215 8  80951753.608 7                  19436341.980    19436343.100
  19436342.280          48.900          47.800
 112368220.905 8  87397536.812 7                  20991319.960    20991321.220
  20991320.260          49.100          45.950
 112129510.368 8  87211871.708 7                  21005628.100    21005630.480
  21005629.380          49.300          45.700
 130072159.521 6 101167252.236 5                  24341231.760    24341236.780
  24341234.540          38.650          34.300
 129237204.738 5 100517827.648 6                  24201975.580    24201980.420
  24201978.520          33.150          37.550
 106678057.996 8  82971846.786 7                  19942331.660    19942335.080
  19942334.260          48.300          47.750
 119294679.399 7  92784761.439 6                  22316531.700    22316535.620
  22316535.420          46.250          37.750
 145397333.924 7                 108576032.591 7  27668143.340
                        46.350
 15  1 27  6  7 25.0000000  0 22G11G14G28G04G16G03G18G22G27G19G32G01
                                R24R14R08R07R22R15R13R23R01E11
 109903362.495 8  85638975.21447                  20913907.580
  20913902.480          49.550          46.200
 122447572.780 7  95413681.05546                  23300997.820
  23300992.940          46.800          39.250
 128624845.081 7 100227123.14245                  24476491.360
  24476486.300          45.150          33.550
 106895329.975 8  83295076.15747                  20341493.100
  20341489.040          49.950          46.800
 132140422.226 7 102966560.41345                  25145486.740
  25145482.000          45.000          33.600
 125017737.761 7  97416420.241 7  93357406.404 8  23790081.220    23790080.520
  23790079.960          46.750          43.400
 135283604.465 6 105415789.40145                  25743605.480
  25743600.720          41.950          33.300
 118225513.674 8  92123787.12447                  22497552.340
  22497544.860          49.400          43.750
 113177898.441 8  88190580.060 8  84515967.083 8  21537033.280    21537031.240
  21537030.680          50.350          49.350
 107828967.344 8  84022552.84448                  20519164.200
  20519156.860          50.200          50.100
 109068529.527 8  84988488.07147                  20755034.920
  20755030.620          50.200          46.550
 115531548.533 8  90024603.870 8  86273568.947 8  21984916.600    21984914.980
  21984914.880          49.100          48.250
 120980750.472 7  94096158.631 6                  22624007.440    22624008.780
  22624006.740          45.000          37.100
 124021213.271 6  96460958.359 5                  23266065.500    23266071.560
  23266070.780          39.000          33.950
 104074796.364 8  80947084.730 7                  19435220.920    19435222.120
  19435221.280          49.000          47.800
 112382381.428 8  87408550.554 7                  20993965.340    20993966.520
  20993965.520          49.000          46.100
 112139798.146 8  87219873.305 7                  21007555.320    21007557.760
  21007556.580          49.250          45.850
 130065190.218 6 101161831.690 5                  24339927.540    24339932.540
  24339930.200          37.700          34.300
 129254270.559 5 100531101.062 6                  24205171.740    24205176.280
  24205174.360          33.450          37.750
 106671660.930 8  82966871.292 7                  19941135.820    19941139.240
  19941138.380          48.250          47.650
 119273407.565 7  92768216.690 6                  22312552.320    22312556.220
  22312556.080          46.600          37.200
 145408652.311 7                 108584484.629 7  27670297.180
                        46.100
 15  1 27  6  7 30.0000000  0 22G11G14G28G04G16G03G18G22G27G19G32G01
                                R24R14R08R07R22R15R13R23R01E11
 109894381.100 8  85631976.72947                  20912198.440
  20912193.400          49.700          46.000
 122440985.125 7  95408547.81146                  23299744.220
  23299739.360          47.050          38.550
 128612750.511 7 100217698.81946                  24474189.820
  24474184.780          44.900          36.700
 106891887.076 8  83292393.36847                  20340837.920
  20340833.880          49.850          46.600
 132158810.754 7 102980889.14045                  25148985.960
  25148981.240          44.400          33.450
 125000196.151 7  97402751.439 7  93344307.151 8  23786743.220    23786742.480
  23786741.880          46.800          43.700
 135299474.580 7 105428155.71945                  25746625.500
  25746620.620          42.100          32.500
 118238592.790 8  92133978.63747                  22500041.220
  22500033.740          49.550          43.850
 113189389.207 8  88199533.895 8  84524547.844 8  21539219.900    21539217.880
  21539217.300          50.350          49.200
 107832703.919 8  84025464.45448                  20519875.260
  20519867.900          50.100          50.050
 109058029.094 8  84980305.90947                  20753036.760
  20753032.440          50.150          46.500
 115521486.956 8  90016763.682 8  86266055.428 8  21983001.920    21983000.340
  21983000.260          48.900          48.100
 120964217.624 7  94083299.743 6                  22620915.720    22620917.080
  22620914.960          45.450          37.150
 124027655.520 6  96465969.011 5                  23267274.080    23267280.160
  23267279.300          39.250          33.950
 104068814.454 8  80942432.136 7                  19434103.780    19434105.040
  19434104.200          48.900          47.900
 112396556.754 8  87419575.807 7                  20996613.440    20996614.620
  20996613.560          49.000          46.300
 112150094.913 8  87227881.887 7                  21009484.220    21009486.700
  21009485.440          49.550          45.900
 130058238.798 6 101156425.017 5                  24338626.640    24338631.540
  24338629.260          36.750          35.300
 129271339.907 5 100544377.230 6                  24208368.220    24208372.840
  24208370.880          32.950          37.650
 106665272.845 8  82961902.786 7                  19939941.640    19939945.000
  19939944.160          48.250          47.900
 119252142.148 7  92751676.921 6                  22308574.180    22308578.120
  22308577.940          46.700          37.250
 145419972.722 7                 108592938.157 7  27672451.420
                        46.350
 15  1 27  6  7 35.0000000  0 22G11G14G28G04G16G03G18G22G27G19G32G01
                                R24R14R08R07R22R15R13R23R01E11
 109885408.125 8  85624984.80647                  20910490.920
  20910485.920          49.650          45.850
 122434410.411 7  95403424.67246                  23298493.100
  23298488.220          47.300          38.750
 128600666.455 7 100208282.68346                  24471890.300
  24471885.300          44.850          37.050
 106888453.549 8  83289717.89647                  20340184.540
  20340180.500          49.850          46.950
 132177198.191 7 102995216.98545                  25152484.980
  25152480.280          44.600          34.250
 124982659.971 7  97389086.892 7  93331211.964 8  23783406.200    23783405.460
  23783404.880          46.350          43.850
 135315345.801 6 105440522.89245                  25749645.700
  25749641.100          41.750          31.700
 118251679.946 8  92144176.42547                  22502531.600
  22502524.160          49.450          43.450
 113200890.793 8  88208496.172 8  84533136.688 8  21541408.580    21541406.560
  21541405.980          50.300          49.150
 107836453.145 8  84028385.93548                  20520588.720
  20520581.360          50.150          49.850
 109047543.662 8  84972135.44247                  20751041.460
  20751037.140          50.050          46.750
 115511431.396 8  90008928.184 8  86258546.415 8  21981088.380    21981086.820
  21981086.760          48.800          48.150
 120947685.609 7  94070441.524 6                  22617824.140    22617825.640
  22617823.400          45.250          37.100
 124034117.065 6  96470994.666 5                  23268486.220    23268492.140
  23268491.420          39.300          33.650
 104062855.022 8  80937797.032 7                  19432990.840    19432992.160
  19432991.320          48.600          47.850
 112410748.275 8  87430613.668 7                  20999264.580    20999265.720
  20999264.660          48.800          46.250
 112160402.392 8  87235898.812 7                  21011415.120    21011417.660
  21011416.360          49.100          45.850
 130051306.919 6 101151033.556 5                  24337329.440    24337334.360
  24337332.100          38.500          35.600
 129288414.291 5 100557657.324 6                  24211565.760    24211570.440
  24211568.380          33.000          38.850
 106658895.170 8  82956942.381 7                  19938749.440    19938752.740
  19938751.900          48.650          47.850
 119230884.833 7  92735143.460 6                  22304597.560    22304601.520
  22304601.320          47.000          37.400
 145431296.680 7                 108601394.357 7  27674606.340
                        46.250
 15  1 27  6  7 40.0000000  0 22G11G14G28G04G16G03G18G22G27G19G32G01
                                R24R14R08R07R22R15R13R23R01E11
 109876442.293 8  85617998.45047                  20908784.760
  20908779.800          49.550          46.300
 122427847.313 7  95398310.56746                  23297244.180
  23297239.300          47.250          37.850
 128588591.660 7 100198873.74846                  24469592.540
  24469587.520          44.550          37.650
 106885027.964 8  83287048.61447                  20339532.660
  20339528.640          49.800          46.950
 132195583.211 7 103009543.01145                  25155983.580
  25155978.760          44.300          32.550
 124965127.977 7  97375425.606 7  93318119.894 8  23780069.960    23780069.260
  23780068.640          46.000          43.850
 135331216.794 6 105452889.90344                  25752665.860
  25752661.140          40.750          28.300
 118264773.842 8  92154379.45447                  22505023.280
  22505015.860          49.600          43.400
 113212401.937 8  88217465.897 8  84541732.681 8  21543599.060    21543597.080
  21543596.480          50.150          49.200
 107840213.764 8  84031316.28448                  20521304.360
  20521296.980          50.100          50.050
 109037071.947 8  84963975.66147                  20749048.780
  20749044.440          50.100          46.600
 115501380.607 8  90001096.407 8  86251040.958 8  21979175.720    21979174.200
  21979174.140          48.650          48.000
 120931153.357 7  94057583.112 6                  22614732.540    22614734.020
  22614731.760          45.250          37.400
 124040596.578 6  96476034.268 5                  23269701.640    23269707.600
  23269706.900          39.700          33.700
 104056916.870 8  80933178.457 7                  19431881.900    19431883.260
  19431882.400          48.400          47.800
 112424954.716 8  87441663.126 7                  21001918.480    21001919.600
  21001918.580          48.450          46.550
 112170719.222 8  87243923.018 7                  21013347.760    21013350.360
  21013349.020          49.050          46.100
 130044393.100 6 101145656.133 5                  24336035.600    24336040.480
  24336038.320          39.400          35.500
 129305492.102 5 100570940.048 6                  24214764.040    24214768.520
  24214766.500          32.900          38.600
 106652526.758 8  82951989.180 7                  19937558.940    19937562.220
  19937561.380          48.550          47.800
 119209634.231 7  92718615.208 6                  22300622.180    22300626.200
  22300625.900          46.800          36.850
 145442622.955 7                 108609852.272 7  27676761.660
                        45.950
 15  1 27  6  7 45.0000000  0 22G11G14G28G04G16G03G18G22G27G19G32G01
                                R24R14R08R07R22R15R13R23R01E11
 109867485.535 8  85611019.16047                  20907080.360
  20907075.400          49.600          46.200
 122421297.844 7  95393207.08746                  23295997.880
  23295992.980          47.200          38.300
 128576528.075 7 100189473.56246                  24467296.960
  24467291.940          44.400          38.100
 106881612.202 8  83284386.98747                  20338882.640
  20338878.640          49.900          46.800
 132213967.745 7 103023868.60645                  25159481.980
  25159477.240          43.700          31.900
 124947602.124 7  97361769.105 7  93305032.410 8  23776734.880    23776734.160
  23776733.600          46.000          43.850
 135347089.584 6 105465258.32345                  25755686.340
  25755681.620          40.600          34.000
 118277876.398 8  92164589.23247                  22507516.620
  22507509.200          49.750          43.400
 113223924.580 8  88226444.576 8  84550337.236 8  21545791.720    21545789.740
  21545789.160          50.300          49.250
 107843987.686 8  84034257.00248                  20522022.520
  20522015.140          50.250          49.950
 109026615.895 8  84955828.08447                  20747059.080
  20747054.740          50.100          46.800
 115491336.482 8  89993269.822 8  86243540.485 8  21977264.340    21977262.880
  21977262.780          48.900          48.000
 120914622.784 7  94044725.996 6                  22611641.300    22611642.720
  22611640.460          45.300          37.700
 124047095.978 6  96481089.362 5                  23270920.940    23270926.960
  23270926.160          40.150          34.750
 104051001.733 8  80928577.799 7                  19430777.240    19430778.620
  19430777.780          48.400          47.750
 112439178.065 8  87452725.722 7                  21004575.520    21004576.640
  21004575.680          48.600          46.750
 112181047.287 8  87251955.934 7                  21015282.500    21015285.180
  21015283.800          49.550          46.050
 130037499.547 6 101140294.483 5                  24334745.500    24334750.440
  24334748.320          38.700          34.400
 129322575.622 5 100584227.224 6                  24217963.160    24217967.740
  24217965.680          33.050          37.600
 106646169.416 8  82947044.576 7                  19936370.520    19936373.780
  19936372.900          48.950          47.850
 119188392.506 7  92702093.872 6                  22296648.480    22296652.460
  22296652.200          47.250          37.350
 145453953.452 7                 108618313.335 7  27678917.780
                        46.200
 15  1 27  6  7 50.0000000  0 22G11G14G28G04G16G03G18G22G27G19G32G01
                                R24R14R08R07R22R15R13R23R01E11
 109858533.821 8  85604043.80247                  20905376.900
  20905371.960          49.650          46.400
 122414757.921 7  95388111.04746                  23294753.380
  23294748.440          47.250          38.550
 128564471.649 7 100180078.94945                  24465002.720
  24464997.620          44.700          35.600
 106878202.270 8  83281729.90547                  20338233.740
  20338229.760          49.800          46.700
 132232347.721 7 103038190.68145                  25162979.580
  25162974.860          44.050          32.950
 124930078.362 7  97348114.230 7  93291946.498 8  23773400.200    23773399.460
  23773398.920          45.950          43.650
 135362960.088 6 105477624.92145                  25758706.400
  25758701.560          40.350          30.750
 118290983.526 8  92174802.58447                  22510010.840
  22510003.420          49.750          43.300
 113235454.656 8  88235429.048 8  84558947.358 8  21547985.800    21547983.840
  21547983.240          50.400          49.200
 107847770.723 8  84037204.82548                  20522742.400
  20522735.020          50.200          50.000
 109016171.415 8  84947689.54247                  20745071.580
  20745067.240          50.500          46.250
 115481295.008 8  89985445.301 7  86236041.985 8  21975353.480    21975352.020
  21975351.940          48.850          47.800
 120898089.743 7  94031866.974 6                  22608549.540    22608550.900
  22608548.740          45.300          37.500
 124053611.232 6  96486156.781 5                  23272143.280    23272149.220
  23272148.460          39.800          34.850
 104045105.730 8  80923992.034 7                  19429676.140    19429677.580
  19429676.740          48.600          47.800
 112453414.137 8  87463798.217 7                  21007234.900    21007236.040
  21007235.140          48.750          46.650
 112191382.565 8  87259994.486 7                  21017218.600    21017221.320
  21017219.960          49.650          46.300
 130030621.953 6 101134945.236 5                  24333458.500    24333463.280
  24333461.280          39.450          35.150
 129339660.526 5 100597515.493 6                  24221162.760    24221167.200
  24221165.160          33.600          38.200
 106639819.290 8  82942105.587 7                  19935183.440    19935186.700
  19935185.800          48.900          47.800
 119167155.415 7  92685576.141 6                  22292675.620    22292679.580
  22292679.320          46.750          36.850
 145465284.116 7                 108626774.536 7  27681073.920
                        46.350
 15  1 27  6  7 55.0000000  0 22G11G14G28G04G16G03G18G22G27G19G32G01
                                R24R14R08R07R22R15R13R23R01E11
 109849591.119 8  85597075.46447                  20903675.160
  20903670.240          49.850          46.150
 122408231.527 7  95383025.54346                  23293511.440
  23293506.500          47.200          38.000
 128552426.364 7 100170693.02946                  24462710.620
  24462705.520          45.100          37.550
 106874802.238 8  83279080.53447                  20337586.720
  20337582.760          49.700          47.050
 132250727.110 7 103052512.26045                  25166477.060
  25166472.220          43.500          33.550
 124912560.659 7  97334464.063 7  93278865.091 8  23770066.680    23770065.960
  23770065.420          45.950          43.750
 135378832.284 6 105489992.81145                  25761726.760
  25761722.040          40.250          32.150
 118304099.193 8  92185022.58347                  22512506.700
  22512499.260          49.700          43.550
 113246996.117 8  88244422.388 8  84567565.971 8  21550182.040    21550180.100
  21550179.500          50.400          49.150
 107851567.063 8  84040163.01048                  20523464.820
  20523457.460          50.200          49.750
 109005742.556 8  84939563.16247                  20743087.060
  20743082.700          50.550          46.300
 115471260.134 8  89977625.921 7  86228548.412 8  21973443.860    21973442.420
  21973442.320          48.650          47.750
 120881558.328 7  94019009.213 6                  22605458.080    22605459.560
  22605457.340          45.150          37.200
 124060146.270 6  96491239.586 5                  23273369.280    23273375.160
  23273374.460          39.450          34.350
 104039232.697 8  80919424.115 7                  19428579.400    19428580.820
  19428579.980          48.850          47.850
 112467666.984 8  87474883.760 7                  21009897.420    21009898.600
  21009897.740          48.650          46.450
 112201729.094 8  87268041.780 7                  21019156.800    21019159.580
  21019158.240          49.100          46.350
 130023764.387 6 101129611.584 5                  24332175.260    24332179.980
  24332177.860          39.450          34.250
 129356750.860 5 100610807.975 6                  24224363.280    24224367.740
  24224365.680          33.400          39.500
 106633480.120 8  82937175.128 7                  19933998.400    19934001.680
  19934000.740          48.900          47.900
 119145926.888 7  92669065.056 6                  22288704.360    22288708.280
  22288708.040          46.600          37.050
 145476618.925 7                 108635238.807 7  27683230.880
                        46.250
 15  1 27  6  8  0.0000000  0 22G11G14G28G04G16G03G18G22G27G19G32G01
                                R24R14R08R07R22R15R13R23R01E11
 109840655.694 8  85590112.79847                  20901974.800
  20901969.880          49.950          46.050
 122401716.941 7  95377949.25346                  23292271.740
  23292266.800          47.100          39.400
 128540390.517 7 100161314.44946                  24460420.240
  24460415.160          45.450          36.450
 106871410.341 8  83276437.50047                  20336941.240
  20336937.300          49.850          46.800
 132269104.137 7 103066832.03445                  25169974.140
  25169969.140          43.600          32.550
 124895047.287 7  97320817.284 7  93265786.929 8  23766733.980    23766733.300
  23766732.720          46.050          43.950
 135394704.514 6 105502360.76645                  25764747.060
  25764742.340          40.400          32.950
 118317221.668 8  92195247.88647                  22515003.860
  22514996.400          49.650          44.000
 113258547.218 8  88253423.249 8  84576191.802 8  21552380.120    21552378.220
  21552377.600          50.300          49.250
 107855374.970 8  84043130.21048                  20524189.420
  20524182.060          50.200          50.000
 108995327.553 8  84931447.58847                  20741105.160
  20741100.800          50.550          46.350
 115461230.126 8  89969810.340 7  86221058.481 8  21971535.160    21971533.740
  21971533.660          48.750          47.700
 120865026.688 7  94006151.279 6                  22602366.560    22602367.900
  22602365.860          45.000          37.550
 124066699.264 6  96496336.376 5                  23274598.680    23274604.580
  23274603.840          39.550          34.000
 104033381.044 8  80914872.833 7                  19427486.620    19427488.080
  19427487.220          48.750          47.950
 112481934.675 8  87485980.857 7                  21012562.760    21012563.880
  21012563.060          48.650          46.300
 112212085.050 8  87276096.411 7                  21021096.800    21021099.580
  21021098.280          49.050          46.550
 130016925.278 6 101124292.242 5                  24330895.460    24330899.940
  24330897.920          38.050          34.700
 129373844.995 5 100624103.414 6                  24227564.500    24227568.920
  24227566.920          31.900          38.800
 106627150.450 8  82932252.051 7                  19932815.160    19932818.400
  19932817.460          49.100          47.750
 119124705.423 7  92652559.466 6                  22284734.440    22284738.320
  22284738.140          45.950          37.800
 145487956.117 7                 108643704.872 7  27685388.280
                        46.600
 15  1 27  6  8  5.0000000  0 22G11G14G28G04G16G03G18G22G27G19G32G01
                                R24R14R08R07R22R15R13R23R01E11
 109831727.485 8  85583155.75347                  20900275.840
  20900270.900          49.950          46.250
 122395214.084 7  95372882.09446                  23291034.280
  23291029.340          47.300          39.550
 128528363.969 7 100151943.11345                  24458131.660
  24458126.640          45.300          35.400
 106868026.435 8  83273800.68947                  20336297.280
  20336293.380          50.000          46.750
 132287478.760 7 103081149.92645                  25173470.720
  25173465.760          42.550          33.500
 124877538.160 7  97307173.810 7  93252711.947 8  23763402.080    23763401.400
  23763400.800          46.150          44.100
 135410576.482 6 105514728.50044                  25767767.400
  25767762.620          40.250          29.750
 118330350.878 8  92205478.43747                  22517502.300
  22517494.780          49.650          43.600
 113270107.868 8  88262431.545 8  84584824.753 8  21554580.000    21554578.120
  21554577.500          50.400          49.300
 107859194.306 8  84046106.31648                  20524916.220
  20524908.880          50.300          49.950
 108984926.335 8  84923342.74147                  20739125.900
  20739121.540          50.300          47.000
 115451204.903 8  89961998.480 7  86213572.110 8  21969627.360    21969625.980
  21969625.860          48.750          47.800
 120848494.771 7  93993293.117 6                  22599275.020    22599276.360
  22599274.360          44.750          37.100
 124073270.299 6  96501447.198 5                  23275831.400    23275837.260
  23275836.540          39.850          33.550
 104027550.660 8  80910338.093 8                  19426397.820    19426399.260
  19426398.440          48.850          48.000
 112496217.306 8  87497089.579 7                  21015230.900    21015232.000
  21015231.180          48.650          46.250
 112222450.366 8  87284158.315 7                  21023038.560    21023041.360
  21023040.100          49.400          46.600
 130010104.367 6 101118987.078 5                  24329619.060    24329623.600
  24329621.420          39.450          35.200
 129390942.656 5 100637401.598 6                  24230766.500    24230770.680
  24230768.800          33.250          37.800
 106620829.922 8  82927336.087 7                  19931633.620    19931636.820
  19931635.860          49.350          47.700
 119103490.866 7  92636059.266 6                  22280765.800    22280769.780
  22280769.580          45.950          37.850
 145499295.612 7                 108652172.672 6  27687546.120
                        46.650
 15  1 27  6  8 10.0000000  0 22G11G14G28G04G16G03G18G22G27G19G32G01
                                R24R14R08R07R22R15R13R23R01E11
 109822808.442 8  85576205.85147                  20898578.640
  20898573.660          49.950          46.000
 122388724.927 7  95367825.61046                  23289799.420
  23289794.480          47.450          39.100
 128516348.696 7 100142580.56046                  24455845.240
  24455840.200          44.850          37.250
 106864652.565 8  83271171.69847                  20335655.240
  20335651.340          49.950          46.750
 132305852.902 7 103095467.41145                  25176967.180
  25176962.340          43.100          32.400
 124860035.255 7  97293535.192 7  93239641.591 8  23760071.360    23760070.740
  23760070.160          46.300          44.250
 135426450.181 6 105527097.60445                  25770788.040
  25770783.460          40.100          34.100
 118343488.742 8  92215715.73247                  22520002.400
  22519994.800          49.800          43.200
 113281680.058 8  88271448.828 8  84593466.309 8  21556782.100    21556780.260
  21556779.620          50.400          49.200
 107863027.113 8  84049092.91548                  20525645.560
  20525638.240          50.150          50.000
 108974540.877 8  84915250.17047                  20737149.620
  20737145.280          49.950          46.750
 115441186.412 8  89954191.866 7  86206090.773 8  21967720.880    21967719.500
  21967719.380          48.650          47.800
 120831964.668 7  93980436.385 6                  22596183.820    22596185.240
  22596183.200          44.350          36.950
 124079861.247 6  96506573.499 5                  23277067.880    23277073.680
  23277072.960          39.850          34.150
 104021743.496 8  80905821.413 8                  19425313.380    19425314.800
  19425314.020          48.600          48.150
 112510516.770 8  87508211.384 7                  21017902.160    21017903.260
  21017902.440          48.400          46.200
 112232826.964 8  87292229.004 7                  21024982.420    21024985.240
  21024984.020          49.000          46.650
 130003303.652 6 101113697.636 5                  24328346.400    24328350.860
  24328348.800          38.650          35.550
 129408045.835 5 100650704.079 6                  24233969.400    24233973.540
  24233971.640          33.300          38.000
 106614520.765 8  82922428.962 7                  19930454.200    19930457.400
  19930456.420          48.850          47.900
 119082285.283 7  92619566.032 6                  22276798.860    22276802.720
  22276802.660          45.700          37.900
 145510639.394 7                 108660643.647 7  27689704.800
                        46.500
 15  1 27  6  8 15.0000000  0 22G11G14G28G04G16G03G18G22G27G19G32G01
                                R24R14R08R07R22R15R13R23R01E11
 109813896.509 8  85569261.48847                  20896882.800
  20896877.800          50.050          46.000
 122382247.436 7  95362778.21646                  23288566.800
  23288561.860          47.350          38.350
 128504342.750 7 100133225.28646                  24453560.620
  24453555.540          44.650          36.000
 106861286.589 8  83268548.85747                  20335014.720
  20335010.840          49.800          46.850
 132324224.477 7 103109782.90745                  25180463.180
  25180458.360          43.000          32.800
 124842536.544 7  97279899.843 7  93226574.385 8  23756741.480    23756740.880
  23756740.300          46.650          44.300
 135442323.649 6 105539466.51845                  25773808.680
  25773804.240          41.150          34.350
 118356633.168 8  92225958.14847                  22522503.720
  22522496.100          49.700          43.600
 113293261.733 8  88280473.505 8  84602114.957 8  21558986.000    21558984.160
  21558983.540          50.350          49.100
 107866871.306 8  84052088.38648                  20526377.080
  20526369.760          50.200          49.950
 108964169.142 8  84907168.29347                  20735175.960
  20735171.620          49.850          47.050
 115431172.661 8  89946388.937 7  86198612.973 8  21965815.280    21965813.920
  21965813.800          48.400          47.650
 120815434.165 7  93967579.335 6                  22593092.540    22593093.920
  22593091.920          45.250          37.100
 124086470.025 6  96511713.643 5                  23278307.700    23278313.500
  23278312.780          40.600          34.350
 104015957.451 8  80901321.158 8                  19424232.880    19424234.300
  19424233.540          48.900          48.050
 112524831.019 8  87519344.695 7                  21020576.200    21020577.240
  21020576.460          49.000          46.200
 112243212.859 8  87300306.922 7                  21026928.020    21026930.860
  21026929.680          49.100          46.450
 129996521.029 5 101108422.287 5                  24327077.040    24327081.560
  24327079.640          35.850          35.800
 129425152.338 5 100664009.123 6                  24237172.840    24237177.000
  24237175.120          33.200          39.400
 106608220.754 8  82917528.958 7                  19929276.480    19929279.660
  19929278.660          49.050          47.900
 119061086.501 7  92603078.086 6                  22272833.180    22272837.060
  22272837.040          45.700          38.550
 145521985.404 7                 108669116.306 7  27691863.920
                        46.450
 15  1 27  6  8 20.0000000  0 22G11G14G28G04G16G03G18G22G27G19G32G01
                                R24R14R08R07R22R15R13R23R01E11
 109804992.188 8  85562323.05847                  20895188.400
  20895183.360          50.200          46.050
 122375782.093 7  95357740.28846                  23287336.500
  23287331.560          47.450          38.350
 128492346.537 7 100123877.60245                  24451277.880
  24451272.820          45.050          35.900
 106857929.071 8  83265932.61547                  20334375.800
  20334371.920          49.700          46.850
 132342593.985 7 103124096.83045                  25183958.760
  25183953.920          42.900          34.550
 124825042.542 7  97266268.161 7  93213510.684 8  23753412.500    23753411.900
  23753411.320          46.950          44.300
 135458197.295 6 105551835.55845                  25776829.320
  25776824.960          41.400          30.550
 118369784.687 8  92236206.08547                  22525006.360
  22524998.740          49.450          44.050
 113304853.335 8  88289505.923 8  84610771.023 8  21561191.800    21561189.980
  21561189.360          50.450          49.200
 107870727.332 8  84055093.08248                  20527110.840
  20527103.540          50.200          49.800
 108953811.583 8  84899097.47147                  20733204.980
  20733200.660          49.950          46.900
 115421164.070 8  89938590.033 7  86191139.024 8  21963910.680    21963909.340
  21963909.200          48.450          47.750
 120798903.880 7  93954722.437 6                  22590001.320    22590002.560
  22590000.700          45.400          37.250
 124093097.183 6  96516868.095 5                  23279550.900    23279556.740
  23279556.020          40.200          34.150
 104010193.046 8  80896837.728 7                  19423156.440    19423157.840
  19423157.060          48.800          47.950
 112539160.316 8  87530489.703 7                  21023253.080    21023254.080
  21023253.320          49.100          46.200
 112253608.532 8  87308392.440 7                  21028875.480    21028878.320
  21028877.160          49.450          46.300
 129989757.068 6 101103161.375 6                  24325811.280    24325815.800
  24325813.920          36.350          36.300
 129442262.822 5 100677317.254 6                  24240376.960    24240381.240
  24240379.420          33.400          39.450
 106601930.471 8  82912636.516 7                  19928100.600    19928103.720
  19928102.720          49.050          47.650
 119039894.976 7  92586595.808 6                  22268868.840    22268872.820
  22268872.820          45.700          38.600
 145533334.124 7                 108677590.981 7  27694023.540
                        46.550
 15  1 27  6  8 25.0000000  0 22G11G14G28G04G16G03G18G22G27G19G32G01
                                R24R14R08R07R22R15R13R23R01E11
 109796096.059 8  85555391.00547                  20893495.580
  20893490.500          50.300          45.950
 122369329.471 7  95352712.27246                  23286108.620
  23286103.660          47.600          38.150
 128480360.676 7 100114537.97645                  24448997.060
  24448992.060          45.100          35.650
 106854580.546 8  83263323.38047                  20333738.600
  20333734.720          49.600          46.800
 132360961.971 7 103138409.51945                  25187454.060
  25187449.200          42.600          34.950
 124807553.784 7  97252640.555 7  93200450.907 8  23750084.540    23750083.880
  23750083.340          46.800          44.500
 135474071.659 6 105564205.20345                  25779850.080
  25779845.600          41.200          33.300
 118382943.853 8  92246459.97447                  22527510.460
  22527502.840          49.450          43.550
 113316455.476 8  88298546.544 8  84619434.957 8  21563399.620    21563397.800
  21563397.180          50.450          49.200
 107874595.800 8  84058107.46948                  20527846.980
  20527839.680          50.200          49.900
 108943468.801 8  84891038.16047                  20731236.820
  20731232.500          50.150          46.650
 115411161.236 8  89930795.615 7  86183669.373 8  21962007.160    21962005.820
  21962005.700          48.550          47.750
 120782374.438 7  93941866.221 6                  22586910.260    22586911.460
  22586909.640          45.450          36.850
 124099743.196 6  96522037.222 5                  23280797.720    23280803.580
  23280802.720          40.600          34.400
 104004450.969 8  80892371.670 8                  19422084.140    19422085.520
  19422084.780          48.850          48.000
 112553505.393 8  87541646.976 7                  21025932.920    21025933.880
  21025933.120          49.000          46.250
 112264014.586 8  87316486.021 7                  21030824.880    21030827.720
  21030826.560          49.550          46.200
 129983012.414 6 101097915.545 6                  24324549.160    24324553.700
  24324551.800          36.750          36.100
 129459377.808 5 100690628.931 6                  24243582.200    24243586.300
  24243584.560          32.800          38.400
 106595650.459 8  82907752.060 7                  19926926.620    19926929.720
  19926928.700          48.800          47.700
 119018711.470 7  92570119.747 6                  22264906.060    22264909.920
  22264910.020          45.600          38.150
 145544686.114 7                 108686068.115 7  27696183.800
                        46.600
 15  1 27  6  8 30.0000000  0 22G11G14G28G04G16G03G18G22G27G19G32G01
                                R24R14R08R07R22R15R13R23R01E11
 109787207.006 8  85548464.46947                  20891804.120
  20891798.980          50.550          46.000
 122362888.522 7  95347693.34446                  23284882.940
  23284878.000          47.400          39.400
 128468384.095 7 100105205.58646                  24446718.040
  24446712.920          45.900          37.000
 106851239.847 8  83260720.23747                  20333102.880
  20333099.000          49.800          46.800
 132379327.321 7 103152720.17445                  25190948.900
  25190944.060          43.300          33.250
 124790069.175 7  97239016.186 7  93187394.220 8  23746757.340    23746756.660
  23746756.100          46.900          44.550
 135489945.697 6 105576574.55644                  25782870.820
  25782866.320          41.000          28.550
 118396109.546 8  92256718.95647                  22530015.780
  22530008.180          49.600          43.650
 113328067.000 8  88307594.482 8  84628105.885 8  21565609.220    21565607.400
  21565606.800          50.600          49.200
 107878475.551 8  84061130.64948                  20528585.260
  20528577.980          50.100          49.950
 108933139.682 8  84882989.50447                  20729271.260
  20729266.960          50.300          46.600
 115401163.050 8  89923004.821 7  86176203.195 8  21960104.500    21960103.220
  21960103.080          48.700          47.650
 120765844.502 7  93929009.606 6                  22583819.060    22583820.200
  22583818.460          45.300          36.700
 124106406.945 6  96527220.137 5                  23282047.900    23282053.500
  23282052.740          40.450          34.300
 103998729.920 8  80887921.969 8                  19421015.780    19421017.160
  19421016.420          48.750          48.100
 112567865.053 8  87552815.604 7                  21028615.420    21028616.380
  21028615.640          48.800          46.050
 112274429.850 8  87324586.784 7                  21032776.000    21032778.820
  21032777.660          49.200          46.300
 129976285.889 6 101092683.880 5                  24323290.340    24323294.920
  24323293.020          37.300          35.250
 129476496.009 5 100703943.093 6                  24246787.860    24246792.080
  24246790.260          34.550          37.850
 106589379.643 8  82902874.756 7                  19925754.380    19925757.460
  19925756.440          48.600          47.750
 118997534.776 7  92553648.981 6                  22260944.500    22260948.460
  22260948.520          45.500          38.300
 145556040.278 7                 108694546.866 7  27698344.440
                        46.700
 15  1 27  6  8 35.0000000  0 22G11G14G28G04G16G03G18G22G27G19G32G01
                                R24R14R08R07R22R15R13R23R01E11
 109778325.526 8  85541543.83047                  20890114.080
  20890108.920          50.550          46.250
 122356459.658 7  95342683.84646                  23283659.580
  23283654.620          47.700          38.350
 128456417.216 7 100095880.72645                  24444440.860
  24444435.620          46.300          34.500
 106847907.524 8  83258123.62047                  20332468.760
  20332464.880          49.850          46.850
 132397690.496 7 103167029.13145                  25194443.300
  25194438.480          43.150          32.550
 124772589.216 7  97225395.445 7  93174341.008 8  23743431.060    23743430.340
  23743429.760          47.100          44.700
 135505819.843 6 105588944.01045                  25785891.580
  25785887.100          41.100          31.900
 118409282.214 8  92266983.37147                  22532522.440
  22532514.820          49.750          43.200
 113339688.408 8  88316650.117 8  84636784.213 8  21567820.740    21567818.880
  21567818.320          50.700          49.450
 107882367.081 8  84064163.01248                  20529325.780
  20529318.500          50.100          50.050
 108922824.746 8  84874951.89447                  20727308.400
  20727304.100          50.100          46.900
 115391169.985 8  89915218.013 7  86168740.842 8  21958202.840    21958201.600
  21958201.440          48.650          47.850
 120749314.776 7  93916153.163 6                  22580727.960    22580729.000
  22580727.300          45.350          36.350
 124113088.816 6  96532417.133 5                  23283301.440    23283307.140
  23283306.160          41.550          33.900
 103993030.537 8  80883489.116 8                  19419951.480    19419952.840
  19419952.120          48.700          48.150
 112582239.960 8  87563996.083 7                  21031300.780    21031301.760
  21031301.000          48.950          45.900
 112284854.737 8  87332695.021 7                  21034728.960    21034731.780
  21034730.580          49.250          46.000
 129969578.043 6 101087466.650 5                  24322035.000    24322039.680
  24322037.660          37.000          34.350
 129493618.032 5 100717260.239 6                  24249994.200    24249998.500
  24249996.620          33.250          38.500
 106583118.506 8  82898004.981 7                  19924583.920    19924586.980
  19924585.960          48.800          47.700
 118976365.360 7  92537183.893 6                  22256984.360    22256988.240
  22256988.360          45.750          38.050
 145567397.085 7                 108703027.577 7  27700505.600
                        46.900
 15  1 27  6  8 40.0000000  0 22G11G14G28G04G16G03G18G22G27G19G32G01
                                R24R14R08R07R22R15R13R23R01E11
 109769451.744 8  85534629.20247                  20888425.520
  20888420.300          50.400          46.600
 122350043.016 7  95337683.87146                  23282438.560
  23282433.580          47.900          38.600
 128444460.187 7 100086563.56645                  24442165.580
  24442160.220          46.300          35.250
 106844583.648 8  83255533.59547                  20331836.240
  20331832.360          49.850          47.100
 132416051.645 7 103181336.54945                  25197937.280
  25197932.240          43.300          34.850
 124755114.037 7  97211778.429 7  93161291.373 8  23740105.660    23740104.940
  23740104.360          47.050          44.950
 135521694.175 6 105601313.61444                  25788912.280
  25788908.080          40.900          28.200
 118422462.006 8  92277253.34247                  22535030.440
  22535022.860          49.550          43.800
 113351319.809 8  88325713.548 8  84645469.996 8  21570034.140    21570032.260
  21570031.700          50.650          49.550
 107886270.508 8  84067204.64448                  20530068.560
  20530061.280          49.850          50.000
 108912524.086 8  84866925.41047                  20725348.220
  20725343.940          49.750          47.550
 115381182.165 8  89907435.306 8  86161282.413 8  21956302.200    21956300.980
  21956300.820          48.750          48.100
 120732785.278 7  93903296.885 6                  22577636.840    22577637.960
  22577636.180          44.850          37.150
 124119789.139 6  96537628.510 5                  23284558.440    23284564.140
  23284562.980          41.550          33.500
 103987352.866 8  80879073.158 8                  19418891.220    19418892.560
  19418891.880          48.800          48.050
 112596630.036 8  87575188.370 7                  21033988.940    21033989.960
  21033989.160          48.900          45.700
 112295289.459 8  87340810.917 7                  21036683.740    21036686.500
  21036685.340          49.450          46.100
 129962888.974 6 101082264.026 5                  24320783.220    24320787.900
  24320785.840          38.700          34.950
 129510743.920 5 100730580.355 6                  24253201.220    24253205.700
  24253203.760          33.600          38.150
 106576867.174 8  82893142.834 7                  19923415.300    19923418.360
  19923417.340          48.600          47.800
 118955203.458 7  92520724.644 6                  22253025.580    22253029.460
  22253029.600          45.850          38.250
 145578756.659 7                 108711510.367 7  27702667.280
                        46.950
 15  1 27  6  8 45.0000000  0 22G11G14G28G04G16G03G18G22G27G19G32G01
                                R24R14R08R07R22R15R13R23R01E11
 109760586.098 8  85527720.91147                  20886738.500
  20886733.240          50.350          46.600
 122343639.090 7  95332693.80146                  23281219.980
  23281214.960          47.650          38.750
 128432513.515 7 100077254.45546                  24439892.240
  24439886.800          46.000          36.450
 106841268.690 8  83252950.51147                  20331205.440
  20331201.540          49.950          46.850
 132434411.141 7 103195642.64844                  25201431.020
  25201426.000          43.700          27.500
 124737644.063 7  97198165.470 7  93148245.623 8  23736781.260    23736780.540
  23736779.920          46.900          44.750
 135537569.246 6 105613683.77645                  25791933.180
  25791928.840          40.550          32.450
 118435649.297 8  92287529.14747                  22537539.900
  22537532.340          49.450          43.700
 113362961.644 8  88334785.104 8  84654163.572 8  21572249.540    21572247.640
  21572247.100          50.600          49.350
 107890186.285 8  84070255.90048                  20530813.680
  20530806.420          49.950          49.800
 108902238.160 8  84858910.40147                  20723390.840
  20723386.600          49.600          47.650
 115371200.049 8  89899657.036 8  86153828.241 8  21954402.640    21954401.440
  21954401.300          48.700          48.000
 120716256.526 7  93890441.180 6                  22574545.880    22574547.040
  22574545.180          44.450          36.050
 124126508.193 6  96542854.443 5                  23285818.960    23285824.400
  23285823.340          41.600          33.450
 103981697.317 8  80874674.397 7                  19417835.100    19417836.440
  19417835.720          48.800          47.850
 112611035.790 8  87586392.846 7                  21036680.060    21036681.100
  21036680.220          48.950          45.450
 112305734.533 8  87348934.854 7                  21038640.480    21038643.220
  21038642.020          49.650          45.900
 129956219.052 6 101077076.303 5                  24319535.060    24319539.660
  24319537.700          37.000          35.600
 129527874.001 5 100743903.752 6                  24256409.060    24256413.640
  24256411.640          33.700          37.750
 106570626.190 8  82888288.738 7                  19922248.580    19922251.620
  19922250.660          48.500          47.750
 118934049.547 7  92504271.598 6                  22249068.340    22249072.280
  22249072.340          46.200          38.100
 145590119.459 7                 108719995.552 7  27704829.580
                        46.900
 15  1 27  6  8 50.0000000  0 22G11G14G28G04G16G03G18G22G27G19G32G01
                                R24R14R08R07R22R15R13R23R01E11
 109751729.037 8  85520819.31047                  20885053.120
  20885047.800          50.400          46.200
 122337248.344 7  95327714.00146                  23280003.900
  23279998.820          47.450          38.050
 128420577.616 7 100067953.76945                  24437620.940
  24437615.480          45.750          34.750
 106837963.039 8  83250374.68147                  20330576.400
  20330572.480          50.000          46.800
 132452769.498 7 103209947.86445                  25204924.500
  25204919.200          43.350          34.700
 124720179.836 7  97184556.990 7  93135204.133 8  23733457.940    23733457.220
  23733456.580          46.850          44.300
 135553445.507 6 105626054.88044                  25794954.320
  25794950.100          40.150          29.750
 118448844.531 8  92297811.15247                  22540050.860
  22540043.320          49.550          43.600
 113374614.367 8  88343865.146 8  84662865.273 8  21574467.000    21574465.080
  21574464.560          50.750          49.200
 107894114.894 8  84073317.15248                  20531561.240
  20531554.000          49.950          49.850
 108891967.427 8  84850907.23247                  20721436.380
  20721432.160          49.850          46.750
 115361224.097 8  89891883.573 7  86146378.655 8  21952504.260    21952503.060
  21952502.960          48.700          47.800
 120699729.006 7  93877586.447 6                  22571455.160    22571456.340
  22571454.400          44.350          36.200
 124133246.489 6  96548095.347 5                  23287083.080    23287088.480
  23287087.380          41.100          33.250
 103976064.544 8  80870293.348 7                  19416783.240    19416784.540
  19416783.820          49.050          47.800
 112625457.505 8  87597609.733 7                  21039374.160    21039375.160
  21039374.240          49.200          45.700
 112316190.255 8  87357067.080 7                  21040599.200    21040601.960
  21040600.740          49.600          45.900
 129949568.746 6 101071903.831 5                  24318290.460    24318295.120
  24318293.220          36.950          35.700
 129545008.878 5 100757230.891 6                  24259618.000    24259622.400
  24259620.360          34.700          37.800
 106564395.975 8  82883443.024 7                  19921083.900    19921086.940
  19921086.000          48.400          47.800
 118912904.133 7  92487825.160 6                  22245112.680    22245116.580
  22245116.660          46.200          38.000
 145601485.940 7                 108728483.475 7  27706992.580
                        47.050
 15  1 27  6  8 55.0000000  0 22G11G14G28G04G16G03G18G22G27G19G32G01
                                R24R14R08R07R22R15R13R23R01E11
 109742878.966 8  85513923.14947                  20883369.060
  20883363.680          50.350          46.200
 122330869.199 7  95322743.23646                  23278790.020
  23278784.880          47.350          38.250
 128408650.867 7 100058660.20445                  24435351.360
  24435345.880          45.250          34.200
 106834665.234 8  83247804.95847                  20329948.860
  20329944.920          49.950          46.550
 132471125.058 7 103224250.89645                  25208417.440
  25208412.260          43.250          33.250
 124702719.686 7  97170951.680 7  93122165.718 8  23730135.380    23730134.680
  23730134.000          46.600          43.950
 135569321.287 6 105638425.62044                  25797975.360
  25797971.060          41.750          27.000
 118462046.152 8  92308098.12547                  22542563.040
  22542555.500          49.650          43.350
 113386276.386 8  88352952.427 8  84671573.926 8  21576686.240    21576684.300
  21576683.780          50.850          49.200
 107898054.739 8  84076387.16148                  20532310.940
  20532303.720          50.050          49.900
 108881710.352 8  84842914.69847                  20719484.500
  20719480.300          50.100          46.650
 115351252.689 8  89884113.644 7  86138932.487 8  21950606.740    21950605.560
  21950605.480          48.700          47.750
 120683201.021 7  93864731.368 6                  22568364.300    22568365.500
  22568363.580          44.000          36.600
 124140002.430 6  96553349.973 5                  23288350.400    23288355.800
  23288354.760          40.750          33.700
 103970452.788 8  80865928.646 7                  19415735.300    19415736.580
  19415735.840          48.950          47.700
 112639893.703 8  87608837.889 7                  21042070.960    21042071.960
  21042070.960          48.800          45.750
 112326655.118 8  87365206.408 7                  21042559.640    21042562.400
  21042561.180          49.250          46.000
 129942936.631 6 101066745.556 5                  24317049.280    24317054.000
  24317052.140          38.800          35.900
 129562146.997 5 100770560.518 6                  24262827.440    24262831.820
  24262829.700          34.150          38.400
 106558174.819 8  82878604.338 7                  19919920.920    19919923.920
  19919923.040          48.800          47.800
 118891765.441 7  92471383.962 6                  22241158.300    22241162.100
  22241162.200          46.000          38.200
 145612854.469 7                 108736972.945 7  27709155.960
                        46.850
 15  1 27  6  9  0.0000000  0 22G11G14G28G04G16G03G18G22G27G19G32G01
                                R24R14R08R07R22R15R13R23R01E11
 109734035.118 8  85507031.83847                  20881686.200
  20881680.740          50.350          46.350
 122324500.850 7  95317780.89546                  23277578.180
  23277572.920          47.200          38.950
 128396732.530 7 100049373.20546                  24433083.360
  24433077.940          44.850          36.900
 106831374.431 8  83245240.70047                  20329322.640
  20329318.700          50.000          46.700
 132489477.042 7 103238551.15045                  25211909.700
  25211904.520          43.050          34.000
 124685262.839 7  97157348.951 7  93109129.776 8  23726813.440    23726812.720
  23726812.120          46.450          44.050
 135585195.777 6 105650795.32845                  25800996.180
  25800991.800          40.700          32.200
 118475253.360 8  92318389.46047                  22545076.260
  22545068.780          49.350          43.750
 113397946.872 8  88362046.312 8  84680288.902 8  21578907.100    21578905.140
  21578904.640          50.750          49.250
 107902004.991 8  84079465.28348                  20533062.620
  20533055.440          50.000          49.750
 108871466.047 8  84834932.12947                  20717535.060
  20717530.860          50.250          46.250
 115341285.053 8  89876346.661 7  86131489.124 8  21948709.920    21948708.780
  21948708.700          48.750          47.800
 120666671.828 7  93851875.335 6                  22565273.240    22565274.440
  22565272.480          44.200          36.650
 124146775.108 6  96558617.613 5                  23289620.920    23289626.460
  23289625.360          41.000          34.150
 103964861.238 8  80861579.678 7                  19414691.120    19414692.400
  19414691.640          48.950          47.950
 112654343.518 8  87620076.631 7                  21044770.360    21044771.260
  21044770.260          48.750          46.050
 112337128.306 8  87373352.218 7                  21044521.660    21044524.440
  21044523.220          49.650          46.450
 129936321.751 6 101061600.683 5                  24315811.520    24315815.980
  24315814.260          39.400          35.700
 129579287.331 5 100783891.881 6                  24266037.320    24266041.640
  24266039.520          33.700          38.950
 106551962.069 8  82873772.206 8                  19918759.520    19918762.520
  19918761.680          48.550          48.250
 118870632.870 7  92454947.515 6                  22237205.060    22237208.840
  22237208.900          46.650          38.550
 145624224.269 7                 108745463.368 7  27711319.560
                        46.700
