     2.11           OBSERVATION DATA    M (MIXED)           RINEX VERSION / TYPE
teqc  2011Oct11     IGN-E (SPG)         20150127 17:00:42UTCPGM / RUN BY / DATE
Linux 2.4.21-27.ELsmp|Opteron|gcc -static|Linux x86_64|=+   COMMENT
BIT 2 OF LLI FLAGS DATA COLLECTED UNDER A/S CONDITION       COMMENT
VALE                                                        MARKER NAME
13439M001                                                   MARKER NUMBER
Programas GeodesicosInstituto Geografico Nacional           OBSERVER / AGENCY
1700071             LEICA GR10          3.03/6.214          REC # / TYPE / VERS
10190012            LEIAR25.R3      LEIT                    ANT # / TYPE
  4929534.0457   -29050.6755  4033709.9250                  APPROX POSITION XYZ
        3.0390        0.0000        0.0000                  ANTENNA: DELTA H/E/N
     1     1                                                WAVELENGTH FACT L1/2
     8    L1    L2    L5    C1    C2    P2    S1    S2      # / TYPES OF OBSERV
     5.0000                                                 INTERVAL
Forced Modulo Decimation to 5 seconds                       COMMENT
DefaultJobName                                              COMMENT
DefaultUserDiscription                                      COMMENT
Project creator:                                            COMMENT
 SNR is mapped to RINEX snr flag value [0-9]                COMMENT
  L1 & L2: min(max(int(snr_dBHz/6), 0), 9)                  COMMENT
  2015     1    27    16     0    0.0000000     GPS         TIME OF FIRST OBS
    15                                                      LEAP SECONDS
                                                            END OF HEADER
 15  1 27 16  0  0.0000000  0 16G30G21G07G13G02G15G28G24G10G05R14R05
                                R16R06R04R15
 117754714.849 8  91757011.164 7  87933815.974 8  22407943.460    22407943.540
  22407942.740          48.650          47.550
 134773664.967 6 105018445.93845                  25646576.740
  25646576.340          38.300          33.800
 130704467.909 7 101847703.113 6                  24872212.820    24872211.160
  24872210.600          43.550          38.700
 108335843.638 8  84417606.72547                  20615600.600
  20615597.080          49.800          46.850
 132197133.016 7 103010661.77945                  25156341.320
  25156356.360          43.200          35.700
 120169737.300 8  93638779.799 7                  22867527.040    22867525.480
  22867524.880          48.450          45.400
 113126123.499 8  88150357.52947                  21527119.060
  21527115.260          49.700          46.400
 131593036.464 7 102540085.531 6  98267593.165 7  25041311.220    25041318.240
  25041317.340          42.150          40.950
 128640688.253 7 100239497.93646                  24479515.560
  24479517.000          45.400          37.350
 109294291.458 8  85164398.742 8                  20797997.780    20797995.700
  20797995.000          49.900          49.550
 112302906.890 7  87346798.552 6                  21067699.100    21067706.400
  21067705.980          42.000          39.000
 103383566.010 8  80409489.053 7                  19340017.920    19340020.980
  19340020.480          49.300          47.200
 117972780.966 7  91756652.464 6                  22084746.300    22084752.740
  22084752.000          45.400          41.950
 122284308.702 7  95110065.619 6                  22916019.740    22916025.400
  22916025.480          44.100          38.800
 108890724.554 8  84692825.729 7                  20334564.720    20334567.140
  20334566.240          48.600          46.050
 102354833.259 7  79609467.459 7                  19154255.200    19154260.940
  19154258.960          47.500          46.450
 15  1 27 16  0  5.0000000  0 16G30G21G07G13G02G15G28G24G10G05R14R05
                                R16R06R04R15
 117768518.545 8  91767767.286 7  87944123.935 8  22410570.160    22410570.320
  22410569.500          48.750          45.950
 134769425.078 6 105015142.12045                  25645769.900
  25645769.420          38.400          31.750
 130720199.120 7 101859961.192 6                  24875206.380    24875204.700
  24875204.180          43.800          37.000
 108330461.554 8  84413412.89547                  20614576.460
  20614572.900          50.000          45.150
 132211493.625 7 103021851.64946                  25159074.220
  25159089.440          45.250          36.100
 120156437.328 8  93628416.203 7                  22864996.140    22864994.580
  22864993.960          48.750          43.650
 113124873.407 8  88149383.43747                  21526881.140
  21526877.380          49.900          44.000
 131577064.373 7 102527639.814 6  98255666.041 7  25038271.860    25038278.740
  25038277.920          42.700          38.600
 128659336.837 7 100254029.27345                  24483064.260
  24483065.620          45.450          35.500
 109301593.115 8  85170088.349 8                  20799387.300    20799385.180
  20799384.480          49.700          48.300
 112319380.362 7  87359611.251 6                  21070789.460    21070796.760
  21070796.340          42.700          38.100
 103377250.031 8  80404576.625 7                  19338836.400    19338839.420
  19338838.920          49.400          46.100
 117955385.921 7  91743122.994 6                  22081489.880    22081496.380
  22081495.620          45.400          41.050
 122264305.048 7  95094507.259 6                  22912270.980    22912276.520
  22912276.780          44.950          37.150
 108903858.389 8  84703040.934 7                  20337017.400    20337019.800
  20337018.860          48.500          44.950
 102355565.616 7  79610037.073 7                  19154392.280    19154397.980
  19154396.000          47.600          45.400
 15  1 27 16  0 10.0000000  0 16G30G21G07G13G02G15G28G24G10G05R14R05
                                R16R06R04R15
 117782327.099 8  91778527.195 7  87954435.506 8  22413197.820    22413198.000
  22413197.180          48.800          46.050
 134765197.491 6 105011847.88745                  25644965.440
  25644964.700          37.450          32.250
 130735930.169 7 101872219.156 6                  24878199.940    24878198.260
  24878197.740          44.600          37.050
 108325086.958 8  84409224.90547                  20613553.740
  20613550.160          50.150          45.300
 132225850.276 7 103033038.44145                  25161806.400
  25161821.760          44.800          34.700
 120143140.696 8  93618055.201 7                  22862465.860    22862464.300
  22862463.680          48.650          43.450
 113123638.913 8  88148421.50047                  21526646.180
  21526642.480          50.000          44.400
 131561095.999 7 102515196.971 6  98243741.663 7  25035233.180    25035239.940
  25035239.100          43.100          37.950
 128677987.599 7 100268562.31646                  24486613.420
  24486614.640          46.100          36.100
 109308909.779 8  85175789.640 8                  20800779.660    20800777.520
  20800776.820          49.600          48.300
 112335861.953 7  87372430.262 6                  21073881.320    21073888.640
  21073888.200          42.800          38.600
 103370951.831 8  80399678.026 7                  19337658.200    19337661.180
  19337660.680          49.300          46.400
 117938001.043 7  91729601.444 6                  22078235.340    22078241.880
  22078241.140          45.600          41.700
 122244304.594 7  95078951.348 6                  22908522.900    22908528.460
  22908528.600          44.800          37.650
 108917007.801 8  84713268.257 7                  20339472.960    20339475.380
  20339474.400          48.650          45.300
 102356316.600 7  79610621.178 7                  19154532.800    19154538.520
  19154536.540          47.550          45.800
 15  1 27 16  0 15.0000000  0 16G30G21G07G13G02G15G28G24G10G05R14R05
                                R16R06R04R15
 117796140.357 8  91789290.764 7  87964750.613 8  22415826.380    22415826.580
  22415825.740          49.000          46.200
 134760982.191 6 105008563.24945                  25644163.180
  25644162.460          37.800          31.550
 130751660.954 7 101884476.939 6                  24881193.440    24881191.740
  24881191.240          44.900          37.550
 108319719.775 8  84405042.67847                  20612532.440
  20612528.800          50.200          45.500
 132240202.803 7 103044222.00745                  25164537.840
  25164553.140          43.250          31.800
 120129847.235 8  93607696.658 7                  22859936.180    22859934.660
  22859934.040          48.400          44.000
 113122419.881 8  88147471.60347                  21526414.200
  21526410.500          50.050          44.500
 131545131.301 7 102502756.987 6  98231820.032 8  25032195.240    25032201.780
  25032201.020          43.350          38.500
 128696640.379 7 100283096.94045                  24490162.980
  24490164.180          46.150          35.950
 109316241.274 8  85181502.486 8                  20802174.820    20802172.660
  20802171.960          49.850          48.600
 112352351.393 7  87385255.376 6                  21076974.680    21076981.940
  21076981.540          42.900          39.600
 103364671.285 8  80394793.146 7                  19336483.320    19336486.260
  19336485.740          49.300          47.550
 117920626.217 7  91716087.711 7                  22074982.700    22074989.240
  22074988.520          46.100          43.000
 122224307.035 7  95063397.716 6                  22904775.320    22904780.940
  22904781.000          44.500          38.700
 108930172.566 8  84723507.510 7                  20341931.400    20341933.780
  20341932.800          48.900          46.150
 102357086.170 7  79611219.733 7                  19154676.780    19154682.560
  19154680.560          47.550          46.900
 15  1 27 16  0 20.0000000  0 16G30G21G07G13G02G15G28G24G10G05R14R05
                                R16R06R04R15
 117809956.965 8  91800056.962 7  87975068.199 8  22418455.620    22418455.800
  22418454.940          48.650          46.100
 134756777.724 6 105005287.02345                  25643363.040
  25643362.220          37.900          30.900
 130767390.122 7 101896733.446 6                  24884186.600    24884184.860
  24884184.420          43.800          37.650
 108314358.685 8  84400865.21347                  20611512.300
  20611508.600          50.050          45.850
 132254549.880 7 103055401.30045                  25167268.200
  25167283.460          44.000          31.950
 120116555.655 8  93597339.605 7                  22857406.860    22857405.400
  22857404.760          48.250          44.100
 113121214.949 8  88146532.70347                  21526184.880
  21526181.220          49.950          44.500
 131529168.878 7 102490318.804 6  98219900.120 8  25029157.680    25029164.160
  25029163.380          43.650          38.850
 128715293.842 7 100297632.07345                  24493712.660
  24493713.900          46.150          35.850
 109323586.276 8  85187225.875 8                  20803572.580    20803570.400
  20803569.680          49.700          48.650
 112368847.222 7  87398085.471 6                  21080069.280    21080076.440
  21080076.080          42.900          39.450
 103358406.904 8  80389920.850 7                  19335311.440    19335314.380
  19335313.880          49.100          47.600
 117903260.036 7  91702580.702 7                  22071731.720    22071738.220
  22071737.500          45.950          42.950
 122204311.119 7  95047845.368 6                  22901028.060    22901033.680
  22901033.720          44.900          38.150
 108943351.457 8  84733757.763 7                  20344392.460    20344394.820
  20344393.840          48.650          46.050
 102357872.989 7  79611831.707 7                  19154824.020    19154829.820
  19154827.800          47.300          46.850
 15  1 27 16  0 25.0000000  0 16G30G21G07G13G02G15G28G24G10G05R14R05
                                R16R06R04R15
 117823779.163 8  91810827.504 7  87985389.979 8  22421085.940    22421086.060
  22421085.200          48.800          45.350
 134752586.360 6 105002021.05445                  25642565.440
  25642564.520          37.000          33.300
 130783119.964 7 101908990.437 6                  24887179.880    24887178.140
  24887177.680          44.950          36.600
 108309005.893 8  84396694.20947                  20610493.740
  20610490.000          50.050          44.950
 132268893.720 7 103066578.09745                  25169997.920
  25170013.200          45.500          34.550
 120103268.214 8  93586985.763 7                  22854878.340    22854876.860
  22854876.240          48.000          43.200
 113120026.402 8  88145606.57047                  21525958.700
  21525955.060          50.100          43.550
 131513211.036 7 102477884.176 6  98207983.594 8  25026121.000    25026127.340
  25026126.600          42.550          38.150
 128733950.214 7 100312169.48945                  24497262.860
  24497264.340          45.800          35.300
 109330947.025 8  85192961.518 7                  20804973.300    20804971.100
  20804970.380          49.850          47.850
 112385351.924 7  87410922.457 6                  21083165.480    21083172.640
  21083172.300          42.800          39.050
 103352161.107 8  80385063.018 7                  19334143.060    19334145.960
  19334145.500          49.050          47.250
 117885904.840 7  91689082.239 7                  22068482.760    22068489.280
  22068488.540          45.800          42.250
 122184319.007 7  95032295.948 6                  22897281.560    22897287.080
  22897287.140          44.800          37.650
 108956546.721 8  84744020.736 7                  20346856.620    20346858.940
  20346857.900          48.550          45.500
 102358679.188 7  79612458.755 7                  19154974.880    19154980.700
  19154978.640          47.350          46.300
 15  1 27 16  0 30.0000000  0 16G30G21G07G13G02G15G28G24G10G05R14R05
                                R16R06R04R15
 117837606.092 8  91821601.736 7  87995715.269 8  22423717.140    22423717.240
  22423716.360          49.050          45.650
 134748407.282 6 104998764.66244                  25641770.080
  25641769.280          36.750          27.050
 130798849.497 7 101921247.252 6                  24890173.200    24890171.340
  24890170.860          45.750          36.700
 108303660.526 8  84392528.98847                  20609476.560
  20609472.800          50.000          45.050
 132283233.419 7 103077751.65945                  25172726.840
  25172742.220          44.550          34.600
 120089984.002 8  93576634.450 7                  22852350.420    22852348.980
  22852348.360          48.000          43.750
 113118853.330 8  88144692.49147                  21525735.460
  21525731.820          50.200          43.600
 131497256.719 7 102465452.297 6  98196069.743 8  25023084.940    25023091.260
  25023090.540          42.200          38.250
 128752608.601 7 100326708.44945                  24500813.420
  24500815.000          45.650          35.950
 109338322.596 8  85198708.724 8                  20806376.860    20806374.620
  20806373.920          49.900          48.100
 112401864.536 7  87423765.590 6                  21086263.180    21086270.360
  21086270.020          42.900          38.600
 103345932.905 8  80380218.865 7                  19332977.960    19332980.840
  19332980.420          49.150          47.150
 117868559.724 7  91675591.621 7                  22065235.680    22065242.180
  22065241.460          45.900          42.350
 122164329.922 7  95016748.900 6                  22893535.560    22893541.140
  22893541.140          44.950          37.650
 108969757.346 8  84754295.664 7                  20349323.640    20349325.900
  20349324.820          48.700          45.450
 102359503.835 7  79613100.151 7                  19155129.200    19155135.040
  19155132.960          47.650          46.200
 15  1 27 16  0 35.0000000  0 16G30G21G07G13G02G15G28G24G10G05R14R05
                                R16R06R04R15
 117851435.706 8  91832378.065 7  88006042.582 8  22426348.860    22426348.940
  22426348.040          48.600          46.200
 134744238.358 6 104995516.11545                  25640976.680
  25640975.800          37.350          30.850
 130814576.819 7 101933502.338 6                  24893166.020    24893164.160
  24893163.700          44.800          37.800
 108298320.614 8  84388368.02547                  20608460.440
  20608456.640          50.000          45.950
 132297566.986 6 103088920.47545                  25175454.600
  25175470.000          39.800          30.300
 120076701.061 8  93566284.121 7                  22849822.740    22849821.340
  22849820.740          48.250          44.350
 113117693.781 8  88143788.94847                  21525514.780
  21525511.160          50.150          44.350
 131481304.163 7 102453021.803 6  98184157.179 7  25020049.240    25020055.440
  25020054.740          42.400          39.300
 128771267.001 7 100341247.42345                  24504364.040
  24504365.640          46.300          35.650
 109345711.079 8  85204465.983 8                  20807782.860    20807780.620
  20807779.920          49.800          48.800
 112418383.014 7  87436613.297 6                  21089362.020    21089369.200
  21089368.820          42.800          39.600
 103339720.417 8  80375386.936 7                  19331815.800    19331818.660
  19331818.280          49.200          47.700
 117851222.627 7  91662107.232 7                  22061990.100    22061996.600
  22061995.860          45.700          43.150
 122144341.722 7  95001202.541 6                  22889789.760    22889795.320
  22889795.360          44.850          38.700
 108982981.406 8  84764581.044 7                  20351793.160    20351795.380
  20351794.260          48.700          46.050
 102360345.056 7  79613754.440 7                  19155286.620    19155292.460
  19155290.340          47.650          46.900
 15  1 27 16  0 40.0000000  0 16G30G21G07G13G02G15G28G24G10G05R14R05
                                R16R06R04R15
 117865271.465 8  91843159.168 7  88016374.480 8  22428981.740    22428981.800
  22428980.880          48.750          46.450
 134740083.135 6 104992278.24445                  25640185.920
  25640185.280          37.550          32.200
 130830305.337 7 101945758.305 6                  24896159.020    24896157.260
  24896156.820          44.650          37.950
 108292989.570 8  84384213.95947                  20607445.980
  20607442.160          50.050          45.950
 132311897.799 6 103100087.11344                  25178181.860
  25178197.500          36.750          29.300
 120063422.793 8  93555937.424 7                  22847295.940    22847294.580
  22847293.980          48.150          44.350
 113116551.134 8  88142898.57847                  21525297.320
  21525293.700          50.150          44.700
 131465356.591 7 102440595.195 6  98172248.370 7  25017014.500    25017020.700
  25017019.940          42.250          39.300
 128789928.812 7 100355789.07746                  24507915.400
  24507916.840          46.250          36.950
 109353115.839 8  85210235.910 8                  20809191.940    20809189.700
  20809189.020          50.050          48.850
 112434910.701 7  87449468.154 6                  21092462.540    21092469.780
  21092469.360          42.700          39.450
 103333526.966 8  80370569.810 7                  19330657.180    19330660.040
  19330659.640          49.150          47.600
 117833897.087 7  91648631.835 7                  22058746.700    22058753.140
  22058752.440          45.250          42.850
 122124357.951 7  94985659.637 6                  22886044.820    22886050.380
  22886050.400          45.250          38.750
 108996222.386 8  84774879.582 7                  20354265.840    20354268.040
  20354266.880          48.750          46.100
 102361206.160 7  79614424.190 7                  19155447.740    19155453.600
  19155451.460          47.400          46.900
 15  1 27 16  0 45.0000000  0 16G30G21G07G13G02G15G28G24G10G05R14R05
                                R16R06R04R15
 117879109.805 8  91853942.286 7  88026708.298 8  22431615.080    22431615.180
  22431614.220          48.750          46.850
 134735938.084 6 104989048.29445                  25639397.080
  25639396.360          37.900          33.100
 130846031.480 7 101958012.461 6                  24899151.600    24899149.880
  24899149.400          44.950          38.000
 108287663.867 8  84380064.06947                  20606432.560
  20606428.700          50.100          46.550
 132326222.471 6 103111248.93345                  25180907.940
  25180923.800          38.300          35.750
 120050145.673 8  93545591.632 7                  22844769.340    22844768.000
  22844767.420          48.300          44.700
 113115421.900 8  88142018.66247                  21525082.440
  21525078.800          50.200          45.400
 131449410.559 6 102428169.790 6  98160340.687 7  25013980.040    25013986.200
  25013985.420          41.850          39.350
 128808590.562 7 100370330.67646                  24511466.680
  24511467.980          46.100          38.000
 109360533.324 8  85216015.775 8                  20810603.460    20810601.240
  20810600.540          50.000          49.250
 112451444.233 7  87462327.564 6                  21095564.240    21095571.460
  21095571.000          42.650          38.600
 103327349.077 8  80365764.791 7                  19329501.480    19329504.300
  19329503.900          49.300          47.000
 117816579.476 7  91635162.615 6                  22055504.780    22055511.160
  22055510.480          45.500          41.950
 122104375.184 7  94970117.497 6                  22882300.060    22882305.600
  22882305.620          45.650          38.000
 109009476.530 8  84785188.359 7                  20356740.960    20356743.160
  20356741.940          48.850          45.600
 102362083.547 7  79615106.609 7                  19155611.940    19155617.820
  19155615.640          47.350          46.300
 15  1 27 16  0 50.0000000  0 16G30G21G07G13G02G15G28G24G10G05R14R05
                                R16R06R04R15
 117892952.838 8  91864729.058 7  88037045.619 8  22434249.340    22434249.420
  22434248.460          48.950          47.050
 134731805.406 6 104985828.09945                  25638610.640
  25638610.080          37.250          33.100
 130861757.347 7 101970266.396 6                  24902144.120    24902142.440
  24902142.000          44.400          38.500
 108282345.726 8  84375920.06147                  20605420.560
  20605416.680          50.100          46.450
 132340542.929 6 103122407.54145                  25183633.220
  25183648.980          38.300          32.750
 120036871.850 8  93535248.404 7                  22842243.400    22842242.060
  22842241.480          48.150          44.950
 113114308.153 8  88141150.80747                  21524870.480
  21524866.860          50.250          45.100
 131433468.243 7 102415747.230 6  98148435.754 8  25010946.360    25010952.400
  25010951.600          42.350          39.750
 128827254.301 7 100384873.82746                  24515018.320
  24515019.600          45.800          38.550
 109367965.629 8  85221807.179 8                  20812017.800    20812015.580
  20812014.880          49.950          49.300
 112467985.587 7  87475193.047 6                  21098667.400    21098674.520
  21098674.080          42.650          38.750
 103321188.966 8  80360973.592 7                  19328349.120    19328351.940
  19328351.480          49.250          47.150
 117799272.076 7  91621701.313 7                  22052264.760    22052271.160
  22052270.440          45.350          42.350
 122084395.431 7  94954577.700 6                  22878555.900    22878561.360
  22878561.420          45.450          38.800
 109022746.113 8  84795509.133 7                  20359218.960    20359221.140
  20359219.900          48.850          45.850
 102362979.431 7  79615803.407 7                  19155779.600    19155785.460
  19155783.300          47.350          46.650
 15  1 27 16  0 55.0000000  0 16G30G21G07G13G02G15G28G24G10G05R14R05
                                R16R06R04R15
 117906801.430 8  91875520.169 8  88047387.107 8  22436884.680    22436884.740
  22436883.780          48.950          48.000
 134727686.021 6 104982618.25945                  25637826.680
  25637826.220          37.900          35.200
 130877483.885 7 101982520.840 6                  24905136.760    24905135.100
  24905134.720          44.350          39.950
 108277035.991 8  84371782.61347                  20604410.180
  20604406.260          50.100          47.650
 132354860.168 6 103133563.62545                  25186357.840
  25186373.660          39.250          34.050
 120023602.202 8  93524908.443 7                  22839718.260    22839716.900
  22839716.360          48.300          46.000
 113113210.794 8  88140295.73047                  21524661.660
  21524658.040          50.150          46.250
 131417530.508 7 102403328.245 6  98136534.281 7  25007913.500    25007919.440
  25007918.640          42.700          41.100
 128845920.947 7 100399419.23146                  24518570.520
  24518571.900          45.850          38.900
 109375413.701 8  85227610.873 8                  20813435.120    20813432.900
  20813432.240          50.050          50.000
 112484535.585 7  87488065.251 6                  21101772.160    21101779.220
  21101778.800          42.850          39.800
 103315047.531 8  80356196.922 8                  19327200.220    19327203.060
  19327202.540          49.100          48.250
 117781975.705 7  91608248.605 7                  22049026.820    22049033.220
  22049032.460          45.350          43.600
 122064419.742 7  94939041.080 6                  22874812.460    22874817.880
  22874817.980          45.950          40.100
 109036032.133 8  84805842.706 7                  20361700.040    20361702.200
  20361700.940          48.500          47.050
 102363894.815 7  79616515.376 7                  19155950.900    19155956.780
  19155954.580          47.200          47.650
 15  1 27 16  1  0.0000000  0 16G30G21G07G13G02G15G28G24G10G05R14R05
                                R16R06R04R15
 117920653.383 8  91886313.899 7  88057731.090 8  22439520.680    22439520.660
  22439519.740          49.150          47.850
 134723577.545 6 104979416.82345                  25637044.860
  25637044.720          37.800          31.100
 130893208.832 7 101994774.042 6                  24908129.140    24908127.440
  24908127.140          45.050          39.800
 108271732.349 8  84367649.90947                  20603400.960
  20603397.000          50.100          47.300
 132369171.899 6 103144715.34345                  25189081.420
  25189097.420          40.200          35.200
 120010334.506 8  93514569.986 7                  22837193.480    22837192.120
  22837191.600          48.300          45.600
 113112127.681 8  88139451.74647                  21524455.540
  21524451.920          50.000          46.400
 131401595.210 7 102390911.168 6  98124634.588 7  25004881.100    25004887.000
  25004886.180          42.300          41.450
 128864588.257 7 100413965.13946                  24522122.840
  24522124.320          46.100          39.350
 109382875.276 8  85233425.094 8                  20814855.000    20814852.820
  20814852.140          49.850          49.900
 112501092.006 7  87500942.470 6                  21104878.100    21104885.220
  21104884.700          43.250          39.600
 103308922.437 8  80351432.958 8                  19326054.400    19326057.220
  19326056.700          49.100          48.250
 117764688.153 7  91594802.758 7                  22045790.520    22045796.960
  22045796.160          45.450          43.450
 122044445.848 7  94923505.829 6                  22871069.420    22871074.740
  22871074.900          46.000          40.250
 109049332.092 8  84816187.118 7                  20364183.720    20364185.880
  20364184.600          48.600          47.050
 102364827.311 7  79617240.649 7                  19156125.380    19156131.260
  19156129.040          47.150          47.400
 15  1 27 16  1  5.0000000  0 16G30G21G07G13G02G15G28G24G10G05R14R05
                                R16R06R04R15
 117934510.291 8  91897111.482 7  88068078.791 8  22442157.620    22442157.540
  22442156.660          49.350          46.850
 134719481.581 6 104976225.09745                  25636265.400
  25636265.220          37.900          33.000
 130908933.761 7 102007027.250 6                  24911121.480    24911119.760
  24911119.380          44.850          38.500
 108266436.432 8  84363523.22347                  20602393.180
  20602389.220          50.100          46.200
 132383479.761 6 103155864.12145                  25191804.240
  25191820.240          37.350          30.750
 119997070.379 8  93504234.314 7                  22834669.380    22834668.060
  22834667.500          48.300          44.400
 113111060.357 8  88138620.06947                  21524252.440
  21524248.820          50.050          45.150
 131385663.768 6 102378497.109 6  98112737.798 7  25001849.420    25001855.340
  25001854.500          40.500          40.950
 128883257.808 7 100428512.81746                  24525675.620
  24525677.120          45.950          38.150
 109390351.977 8  85239251.085 8                  20816277.760    20816275.580
  20816274.920          49.750          49.100
 112517656.536 7  87513825.999 6                  21107985.520    21107992.700
  21107992.140          43.200          38.350
 103302815.382 8  80346683.020 7                  19324911.940    19324914.760
  19324914.240          49.100          47.200
 117747411.100 7  91581365.071 7                  22042556.240    22042562.640
  22042561.860          45.100          42.250
 122024475.370 7  94907973.252 6                  22867327.000    22867332.260
  22867332.440          45.600          38.750
 109062647.773 8  84826543.746 7                  20366670.320    20366672.460
  20366671.220          48.600          45.850
 102365778.684 7  79617980.610 7                  19156303.440    19156309.300
  19156307.060          47.250          46.250
 15  1 27 16  1 10.0000000  0 16G30G21G07G13G02G15G28G24G10G05R14R05
                                R16R06R04R15
 117948370.361 8  91907911.542 7  88078428.844 8  22444795.140    22444795.020
  22444794.200          49.400          46.800
 134715396.364 6 104973041.81544                  25635488.080
  25635487.980          38.650          26.750
 130924656.961 7 102019279.096 6                  24914113.500    24914111.740
  24914111.340          44.400          38.300
 108261146.480 8  84359401.18647                  20601386.560
  20601382.580          50.100          46.350
 132397781.918 6 103167008.49945                  25194526.100
  25194542.100          37.200          32.350
 119983808.099 8  93493900.082 7                  22832145.640    22832144.340
  22832143.720          48.450          44.550
 113110007.088 8  88137799.34247                  21524052.000
  21524048.400          50.050          45.000
 131369734.576 6 102366084.813 6  98100842.671 7  24998818.140    24998824.100
  24998823.260          40.400          41.250
 128901927.843 7 100443060.85746                  24529228.480
  24529229.880          45.900          36.750
 109397842.014 8  85245087.472 8                  20817703.060    20817700.900
  20817700.240          49.900          49.150
 112534227.339 7  87526714.389 6                  21111094.180    21111101.300
  21111100.760          43.500          39.100
 103296724.646 8  80341945.785 7                  19323772.560    19323775.380
  19323774.840          49.100          47.500
 117730142.602 7  91567934.046 7                  22039323.540    22039329.940
  22039329.160          44.800          42.400
 122004506.471 7  94892441.909 6                  22863584.880    22863590.060
  22863590.280          45.900          39.200
 109075977.310 8  84836911.162 7                  20369159.480    20369161.640
  20369160.420          48.450          46.100
 102366747.048 7  79618733.788 7                  19156484.620    19156490.520
  19156488.260          47.500          46.800
 15  1 27 16  1 15.0000000  0 16G30G21G07G13G02G15G28G24G10G05R14R05
                                R16R06R04R15
 117962234.755 8  91918714.964 7  88088782.132 8  22447433.500    22447433.320
  22447432.500          49.400          46.600
 134711323.059 6 104969867.77544                  25634713.000
  25634712.680          38.250          26.850
 130940379.520 7 102031530.451 6                  24917105.380    24917103.640
  24917103.200          45.050          38.500
 108255863.664 8  84355284.71447                  20600381.280
  20600377.280          50.000          46.250
 132412079.634 6 103178149.25045                  25197247.060
  25197262.980          38.300          30.750
 119970548.759 8  93483568.141 7                  22829622.460    22829621.160
  22829620.520          48.000          44.500
 113108969.003 8  88136990.45247                  21523854.460
  21523850.860          50.000          45.200
 131353808.786 6 102353675.172 6  98088950.116 7  24995787.460    24995793.500
  24995792.760          41.050          41.150
 128920599.491 7 100457610.17946                  24532781.580
  24532782.920          45.600          37.100
 109405346.533 8  85250935.154 8                  20819131.100    20819128.960
  20819128.340          49.700          49.150
 112550805.578 7  87539608.579 6                  21114204.160    21114211.320
  21114210.780          43.300          38.950
 103290651.356 8  80337222.130 7                  19322636.420    19322639.260
  19322638.740          49.250          47.600
 117712883.982 7  91554510.695 7                  22036092.720    22036098.980
  22036098.280          44.850          42.550
 121984540.363 7  94876912.726 6                  22859843.260    22859848.440
  22859848.660          45.200          38.950
 109089321.897 8  84847290.291 7                  20371651.460    20371653.660
  20371652.460          48.700          46.050
 102367733.507 7  79619501.043 7                  19156669.220    19156675.100
  19156672.860          47.300          46.750
 15  1 27 16  1 20.0000000  0 16G30G21G07G13G02G15G28G24G10G05R14R05
                                R16R06R04R15
 117976105.011 8  91929522.968 7  88099139.793 8  22450072.960    22450072.740
  22450071.920          49.100          46.450
 134707263.282 6 104966704.36344                  25633940.420
  25633939.940          38.050          29.200
 130956102.980 7 102043782.537 6                  24920097.460    24920095.760
  24920095.260          45.100          38.850
 108250589.534 8  84351175.01347                  20599377.640
  20599373.620          49.800          46.650
 132426374.387 6 103189287.80345                  25199967.460
  25199983.400          38.800          31.800
 119957293.954 8  93473239.751 7                  22827100.140    22827098.840
  22827098.200          48.150          44.650
 113107947.650 8  88136194.60947                  21523660.120
  21523656.520          50.050          45.000
 131337888.013 6 102341269.456 6  98077061.287 7  24992757.820    24992763.900
  24992763.140          40.950          40.500
 128939274.292 7 100472161.94646                  24536335.300
  24536336.580          45.650          37.700
 109412867.085 8  85256795.318 8                  20820562.220    20820560.100
  20820559.480          49.800          49.150
 112567392.754 7  87552509.720 6                  21117315.840    21117323.080
  21117322.480          42.750          39.200
 103284597.065 8  80332513.251 7                  19321503.800    19321506.700
  19321506.180          49.300          47.600
 117695636.771 7  91541096.227 7                  22032863.940    22032870.240
  22032869.540          44.650          42.550
 121964578.660 7  94861386.986 6                  22856102.400    22856107.620
  22856107.780          45.300          38.750
 109102683.143 8  84857682.374 7                  20374146.560    20374148.800
  20374147.620          48.750          46.350
 102368739.651 7  79620283.605 7                  19156857.500    19156863.380
  19156861.140          47.150          46.650
 15  1 27 16  1 25.0000000  0 16G30G21G07G13G02G15G28G24G10G05R14R05
                                R16R06R04R15
 117989979.503 8  91940334.258 7  88109500.610 8  22452713.180    22452712.920
  22452712.120          49.100          46.050
 134703215.373 6 104963550.12844                  25633170.060
  25633169.520          38.150          29.700
 130971825.742 7 102056034.052 6                  24923089.420    24923087.700
  24923087.200          45.000          38.700
 108245322.512 8  84347070.83847                  20598375.360
  20598371.340          49.800          46.600
 132440664.502 6 103200422.76945                  25202686.900
  25202703.120          41.350          33.650
 119944042.040 7  93462913.586 7                  22824578.360    22824577.060
  22824576.420          47.900          44.400
 113106941.418 8  88135410.53347                  21523468.640
  21523465.020          50.150          44.750
 131321970.508 6 102328866.275 6  98065174.913 7  24989728.780    24989734.880
  24989734.100          41.650          39.600
 128957950.588 7 100486714.88346                  24539889.360
  24539890.540          45.800          37.650
 109420402.036 8  85262666.708 8                  20821996.060    20821993.960
  20821993.340          49.950          49.100
 112583987.254 7  87565416.539 6                  21120428.900    21120436.160
  21120435.540          42.900          39.750
 103278560.175 8  80327817.892 7                  19320374.460    19320377.380
  19320376.860          49.200          47.600
 117678399.435 7  91527689.412 7                  22029637.020    22029643.360
  22029642.660          44.850          42.750
 121944619.588 7  94845863.265 6                  22852362.100    22852367.260
  22852367.380          45.550          39.550
 109116059.324 8  84868086.062 7                  20376644.480    20376646.740
  20376645.560          48.900          46.750
 102369763.818 7  79621080.184 7                  19157049.140    19157054.980
  19157052.800          47.000          47.050
 15  1 27 16  1 30.0000000  0 16G30G21G07G13G02G15G28G24G10G05R14R05
                                R16R06R04R15
 118003855.014 8  91951146.341 7  88119862.190 8  22455353.580    22455353.340
  22455352.500          49.050          46.100
 134699176.163 6 104960402.67145                  25632401.400
  25632401.000          38.150          30.600
 130987544.648 7 102068282.534 6                  24926080.600    24926078.940
  24926078.500          44.600          38.550
 108240059.386 8  84342969.70147                  20597373.800
  20597369.780          49.850          46.250
 132454946.848 7 103211551.66545                  25205404.920
  25205421.080          42.100          33.200
 119930789.818 8  93452587.193 7                  22822056.520    22822055.220
  22822054.580          48.050          44.550
 113105947.142 8  88134635.77447                  21523279.440
  21523275.820          50.100          45.050
 131306053.294 6 102316463.288 6  98053288.704 7  24986699.820    24986705.900
  24986705.020          41.250          38.800
 128976625.213 7 100501266.50446                  24543443.100
  24543444.260          45.650          38.650
 109427948.233 8  85268546.860 8                  20823432.040    20823429.960
  20823429.340          49.750          49.150
 112600585.771 7  87578326.484 6                  21123542.780    21123550.060
  21123549.380          42.950          39.700
 103272537.465 8  80323133.564 7                  19319247.780    19319250.700
  19319250.160          49.300          47.650
 117661168.573 7  91514287.653 7                  22026411.320    22026417.700
  22026417.000          44.800          42.750
 121924660.140 7  94830339.266 6                  22848621.740    22848626.880
  22848626.960          45.150          39.350
 109129447.185 8  84878498.826 7                  20379144.560    20379146.860
  20379145.720          49.050          46.750
 102370802.681 7  79621888.186 7                  19157243.520    19157249.400
  19157247.200          47.100          46.950
 15  1 27 16  1 35.0000000  0 16G30G21G07G13G02G15G28G24G10G05R14R05
                                R16R06R04R15
 118017738.524 8  91961964.658 7  88130229.741 8  22457995.500    22457995.260
  22457994.380          49.150          46.000
 134695152.580 6 104957267.40545                  25631635.700
  25631635.580          38.050          34.800
 131003266.632 7 102080533.438 6                  24929072.380    24929070.740
  24929070.260          44.950          38.000
 108234807.107 8  84338877.02247                  20596374.340
  20596370.300          49.950          46.300
 132469228.332 6 103222679.85644                  25208122.820
  25208138.860          41.700          28.900
 119917544.304 8  93442266.022 7                  22819535.960    22819534.680
  22819534.020          48.100          44.450
 113104971.760 8  88133875.73647                  21523093.840
  21523090.220          50.100          45.350
 131290143.162 6 102304065.813 6  98041407.846 7  24983672.200    24983678.220
  24983677.280          41.800          38.550
 128995305.162 7 100515822.29446                  24546997.820
  24546999.000          45.050          38.650
 109435512.628 8  85274441.187 8                  20824871.500    20824869.400
  20824868.820          49.700          49.250
 112617195.410 7  87591245.084 6                  21126658.720    21126666.000
  21126665.300          43.350          39.750
 103266536.030 8  80318465.782 7                  19318125.060    19318128.000
  19318127.460          49.250          47.550
 117643951.316 7  91500896.495 7                  22023188.180    22023194.600
  22023193.880          45.150          42.600
 121904707.423 7  94814820.516 6                  22844882.640    22844887.700
  22844887.800          45.800          39.600
 109142853.782 8  84888926.177 7                  20381648.140    20381650.440
  20381649.360          49.100          46.600
 102371863.410 7  79622713.206 7                  19157442.000    19157447.900
  19157445.700          47.100          47.100
 15  1 27 16  1 40.0000000  0 16G30G21G07G13G02G15G28G24G10G05R14R05
                                R16R06R04R15
 118031625.446 8  91972785.649 7  88140599.842 8  22460638.080    22460637.820
  22460636.940          49.250          46.150
 134691140.074 6 104954140.77145                  25630872.100
  25630872.180          38.850          31.750
 131018987.126 7 102092783.200 6                  24932063.880    24932062.260
  24932061.680          44.950          37.850
 108229561.144 8  84334789.27347                  20595376.060
  20595372.020          50.100          46.350
 132483504.374 6 103233803.92044                  25210839.680
  25210855.660          41.050          29.150
 119904300.913 8  93431946.506 7                  22817015.800    22817014.540
  22817013.840          48.250          44.400
 113104010.696 8  88133126.85947                  21522910.960
  21522907.340          50.200          45.350
 131274235.528 7 102291670.275 6  98029528.837 7  24980645.020    24980650.920
  24980650.060          42.050          38.600
 129013985.807 7 100530378.60246                  24550552.640
  24550553.860          45.050          37.700
 109443090.596 8  85280346.104 8                  20826313.540    20826311.480
  20826310.880          49.950          49.250
 112633811.462 7  87604168.679 6                  21129775.820    21129783.060
  21129782.380          43.250          39.300
 103260551.199 8  80313810.917 7                  19317005.480    19317008.400
  19317007.860          49.200          47.550
 117626743.021 7  91487512.284 7                  22019966.700    22019973.140
  22019972.420          45.900          42.250
 121884756.662 7  94799303.263 6                  22841143.900    22841148.860
  22841149.000          45.450          39.100
 109156274.479 8  84899364.499 7                  20384154.380    20384156.660
  20384155.640          48.950          46.650
 102372941.381 7  79623551.632 7                  19157643.700    19157649.620
  19157647.440          47.250          47.000
 15  1 27 16  1 45.0000000  0 16G30G21G07G13G02G15G28G24G10G05R14R05
                                R16R06R04R15
 118045516.786 8  91983610.073 7  88150973.247 8  22463281.520    22463281.280
  22463280.320          49.100          46.000
 134687139.686 6 104951023.59644                  25630110.760
  25630110.760          38.850          27.850
 131034707.162 7 102105032.588 6                  24935055.320    24935053.660
  24935053.180          45.100          38.350
 108224322.512 8  84330707.22447                  20594379.180
  20594375.140          50.200          46.250
 132497775.973 6 103244924.50845                  25213555.640
  25213571.700          39.950          33.250
 119891060.646 8  93421629.428 7                  22814496.220    22814494.940
  22814494.300          48.600          43.850
 113103064.976 8  88132389.94347                  21522731.000
  21522727.380          50.150          44.900
 131258331.426 6 102279277.514 6  98017652.466 7  24977618.520    24977624.340
  24977623.500          41.050          39.000
 129032668.199 7 100544936.25746                  24554107.740
  24554109.100          44.700          38.350
 109450683.198 8  85286262.419 8                  20827758.360    20827756.320
  20827755.700          49.950          48.950
 112650435.043 7  87617098.127 6                  21132894.360    21132901.660
  21132900.900          43.000          39.700
 103254584.085 8  80309169.837 8                  19315889.200    19315892.120
  19315891.580          49.000          48.000
 117609544.864 7  91474135.965 7                  22016747.160    22016753.620
  22016752.840          45.800          42.700
 121864808.835 7  94783788.310 6                  22837405.680    22837410.640
  22837410.740          45.050          40.100
 109169710.389 8  84909814.648 7                  20386663.440    20386665.760
  20386664.720          48.600          47.000
 102374037.632 7  79624404.276 7                  19157848.860    19157854.780
  19157852.600          47.100          47.650
 15  1 27 16  1 50.0000000  0 16G30G21G07G13G02G15G28G24G10G05R14R05
                                R16R06R04R15
 118059411.930 8  91994437.454 7  88161349.489 8  22465925.700    22465925.420
  22465924.460          49.150          46.100
 134683150.820 6 104947915.37844                  25629351.620
  25629351.540          38.200          28.250
 131050426.122 7 102117281.134 6                  24938046.520    24938044.880
  24938044.340          44.950          38.350
 108219090.586 8  84326630.40947                  20593383.580
  20593379.540          50.300          46.050
 132512042.582 6 103256041.08245                  25216270.680
  25216287.060          41.500          31.200
 119877822.925 8  93411314.323 7                  22811977.140    22811975.840
  22811975.180          48.450          44.050
 113102134.017 8  88131664.52247                  21522553.840
  21522550.220          50.100          45.050
 131242430.320 6 102266887.092 6  98005778.322 7  24974592.620    24974598.500
  24974597.600          41.500          39.850
 129051351.652 7 100559494.75746                  24557663.080
  24557664.500          44.900          37.850
 109458289.783 8  85292189.620 8                  20829205.840    20829203.820
  20829203.180          50.250          49.050
 112667065.455 7  87630032.890 6                  21136014.140    21136021.540
  21136020.660          43.450          39.450
 103248633.941 8  80304541.943 7                  19314776.100    19314779.000
  19314778.460          49.350          47.800
 117592356.125 7  91460766.967 7                  22013529.360    22013535.820
  22013535.040          45.700          42.550
 121844863.523 7  94768275.314 6                  22833667.960    22833672.800
  22833672.960          45.800          40.200
 109183160.825 8  84920276.095 7                  20389175.200    20389177.560
  20389176.520          48.800          46.750
 102375151.643 7  79625270.731 7                  19158057.300    19158063.240
  19158061.080          47.350          47.550
 15  1 27 16  1 55.0000000  0 16G30G21G07G13G02G15G28G24G10G05R14R05
                                R16R06R04R15
 118073310.085 8  92005267.189 7  88171727.979 8  22468570.460    22468570.180
  22468569.200          48.800          46.150
 134679172.647 6 104944815.50244                  25628594.640
  25628594.360          38.050          29.750
 131066143.155 7 102129528.179 6                  24941037.380    24941035.700
  24941035.180          44.150          37.900
 108213864.627 8  84322558.23747                  20592389.120
  20592385.080          50.000          46.300
 132526303.259 6 103267153.13245                  25218984.560
  25219000.940          38.150          33.150
 119864586.962 8  93401000.606 7                  22809458.380    22809457.040
  22809456.420          48.600          43.850
 113101216.985 8  88130949.96047                  21522379.320
  21522375.700          49.950          44.550
 131226531.346 7 102254498.353 6  97993905.769 7  24971567.120    24971573.020
  24971572.160          42.100          40.150
 129070035.397 7 100574053.48746                  24561218.500
  24561219.880          44.850          37.650
 109465909.553 8  85298127.105 8                  20830655.860    20830653.780
  20830653.180          50.050          48.950
 112683701.893 7  87642972.346 6                  21139135.020    21139142.500
  21139141.580          43.600          39.650
 103242700.179 8  80299926.798 7                  19313666.060    19313668.960
  19313668.380          49.400          47.700
 117575175.967 7  91447404.647 7                  22010313.220    22010319.620
  22010318.820          45.550          42.750
 121824919.859 7  94752763.596 6                  22829930.560    22829935.280
  22829935.460          45.400          39.550
 109196624.868 8  84930748.127 7                  20391689.520    20391691.900
  20391690.860          48.650          46.800
 102376282.503 7  79626150.295 7                  19158268.900    19158274.880
  19158272.720          47.300          47.350
 15  1 27 16  2  0.0000000  0 16G30G21G07G13G02G15G28G24G10G05R14R05
                                R16R06R04R15
 118087213.955 8  92016101.372 7  88182110.741 8  22471216.300    22471216.000
  22471215.020          48.900          46.550
 134675207.967 6 104941726.12045                  25627840.120
  25627839.980          38.850          30.200
 131081861.000 7 102141775.855 6                  24944028.380    24944026.680
  24944026.220          44.050          38.000
 108208647.396 8  84318492.86447                  20591396.340
  20591392.260          50.000          46.700
 132540560.814 5 103278262.78444                  25221697.900
  25221714.320          35.050          27.650
 119851355.477 8  93390690.363 7                  22806940.500    22806939.140
  22806938.520          48.600          43.850
 113100316.637 8  88130248.39447                  21522207.960
  21522204.360          49.800          45.000
 131210637.232 6 102242113.394 6  97982036.852 7  24968542.560    24968548.480
  24968547.640          41.850          40.250
 129088722.162 7 100588614.57746                  24564774.560
  24564775.780          45.250          37.350
 109473545.253 8  85304077.003 8                  20832108.880    20832106.820
  20832106.200          49.850          49.000
 112700347.028 7  87655918.569 6                  21142257.580    21142265.000
  21142264.160          43.350          39.200
 103236785.361 8  80295326.387 7                  19312559.540    19312562.440
  19312561.880          49.300          47.600
 117558007.322 7  91434051.272 7                  22007099.200    22007105.560
  22007104.780          45.150          42.000
 121804980.501 7  94737255.230 6                  22826193.980    22826198.580
  22826198.740          45.800          39.050
 109210105.479 8  84941233.046 7                  20394206.880    20394209.360
  20394208.300          48.700          46.650
 102377432.785 7  79627044.969 7                  19158484.140    19158490.140
  19158487.980          47.050          47.050
 15  1 27 16  2  5.0000000  0 15G30G21G07G13G15G28G24G10G05R14R05R16
                                R06R04R15
 118101121.304 8  92026938.261 7  88192496.103 8  22473862.760    22473862.500
  22473861.520          48.700          47.000
 134671254.641 6 104938645.62145                  25627087.820
  25627087.720          39.100          34.200
 131097577.442 7 102154022.429 6                  24947019.100    24947017.320
  24947016.960          44.400          38.400
 108203436.595 8  84314432.50647                  20590404.800
  20590400.660          50.000          47.250
 119838126.324 8  93380381.935 7                  22804423.080    22804421.680
  22804421.040          48.650          44.750
 113099430.704 8  88129558.06147                  21522039.360
  21522035.760          49.900          46.100
 131194745.797 6 102229730.497 6  97970169.891 7  24965518.500    24965524.380
  24965523.580          40.900          40.100
 129107409.717 7 100603176.29846                  24568330.740
  24568331.860          45.300          37.350
 109481194.641 8  85310037.549 8                  20833564.540    20833562.440
  20833561.820          49.850          49.500
 112716998.824 7  87668869.949 6                  21145381.400    21145388.840
  21145387.980          43.550          38.800
 103230887.462 8  80290739.123 7                  19311456.240    19311459.100
  19311458.520          49.450          47.400
 117540847.821 7  91420705.006 6                  22003886.860    22003893.260
  22003892.440          45.300          41.900
 121785043.486 7  94721748.664 6                  22822457.800    22822462.340
  22822462.440          45.850          38.600
 109223600.285 8  84951728.992 7                  20396726.920    20396729.400
  20396728.400          48.800          46.550
 102378600.251 7  79627952.996 7                  19158702.580    19158708.640
  19158706.440          47.100          46.800
 15  1 27 16  2 10.0000000  0 15G30G21G07G13G15G28G24G10G05R14R05R16
                                R06R04R15
 118115032.008 8  92037777.769 7  88202883.955 8  22476509.860    22476509.620
  22476508.660          49.100          46.850
 134667312.327 6 104935573.68945                  25626337.620
  25626337.220          39.400          31.550
 131113292.292 7 102166267.795 6                  24950009.500    24950007.800
  24950007.320          44.300          38.000
 108198232.063 8  84310377.03247                  20589414.440
  20589410.280          50.550          46.800
 119824899.303 8  93370075.183 7                  22801906.040    22801904.680
  22801903.980          49.150          44.600
 113098559.088 8  88128878.88847                  21521873.460
  21521869.900          50.250          45.200
 131178856.997 7 102217349.641 6  97958304.882 7  24962494.980    24962500.740
  24962500.000          42.000          38.650
 129126097.900 7 100617738.49446                  24571887.000
  24571888.080          45.600          36.350
 109488857.573 8  85316008.669 8                  20835022.760    20835020.640
  20835020.040          50.300          49.350
 112733656.891 7  87681826.223 6                  21148506.460    21148513.900
  21148513.000          44.150          39.250
 103225006.144 8  80286164.770 7                  19310356.020    19310358.860
  19310358.300          49.750          47.550
 117523697.343 7  91407365.772 7                  22000676.220    22000682.560
  22000681.780          45.800          42.100
 121765108.461 7  94706243.660 6                  22818721.960    22818726.500
  22818726.560          46.050          38.650
 109237109.160 8  84962235.891 7                  20399249.580    20399252.100
  20399251.120          49.400          46.650
 102379784.912 7  79628874.405 7                  19158924.260    19158930.340
  19158928.140          47.650          46.850
 15  1 27 16  2 15.0000000  0 15G30G21G07G13G15G28G24G10G05R14R05R16
                                R06R04R15
 118128948.803 8  92048622.016 7  88213276.363 8  22479158.100    22479157.900
  22479156.980          49.100          46.800
 134663383.807 6 104932512.50345                  25625590.100
  25625589.660          39.700          32.150
 131129008.396 7 102178514.091 6                  24953000.160    24952998.500
  24952998.040          44.150          37.600
 108193036.609 8  84306328.62947                  20588425.820
  20588421.620          50.650          46.600
 119811677.158 8  93359772.217 7                  22799389.960    22799388.560
  22799387.860          48.650          44.600
 113097704.580 8  88128213.04147                  21521710.820
  21521707.260          50.150          45.250
 131162973.487 6 102204972.876 6  97946443.868 7  24959472.420    24959478.000
  24959477.420          41.650          38.150
 129144789.444 7 100632303.29546                  24575443.820
  24575444.960          44.750          38.400
 109496536.858 8  85321992.526 8                  20836484.080    20836481.980
  20836481.360          50.150          49.200
 112750324.023 7  87694789.548 6                  21151633.180    21151640.640
  21151639.760          43.850          39.250
 103219144.379 8  80281605.619 7                  19309259.440    19309262.280
  19309261.780          49.750          47.350
 117506558.753 7  91394035.779 7                  21997467.860    21997474.160
  21997473.360          46.050          42.200
 121745178.362 7  94690742.496 6                  22814987.100    22814991.620
  22814991.620          46.400          38.850
 109250634.881 8  84972755.888 7                  20401775.400    20401777.980
  20401777.000          49.400          46.700
 102380989.456 7  79629811.277 7                  19159149.660    19159155.760
  19159153.540          47.800          46.850
 15  1 27 16  2 20.0000000  0 15G30G21G07G13G15G28G24G10G05R14R05R16
                                R06R04R15
 118142869.652 8  92059469.435 7  88223671.796 8  22481807.120    22481806.940
  22481806.060          48.750          46.700
 134659467.081 6 104929460.51745                  25624844.780
  25624844.320          39.650          31.250
 131144723.679 7 102190759.791 6                  24955990.660    24955989.040
  24955988.680          43.950          37.900
 108187848.252 8  84302285.76447                  20587438.560
  20587434.320          50.650          46.500
 119798457.911 8  93349471.541 7                  22796874.420    22796873.000
  22796872.320          48.850          44.700
 113096865.130 8  88127558.93347                  21521551.040
  21521547.500          49.850          45.400
 131147093.303 6 102192598.741 6  97934585.305 7  24956450.460    24956456.040
  24956455.380          41.800          38.900
 129163482.375 7 100646869.15846                  24579000.880
  24579002.280          45.150          38.850
 109504230.472 8  85327987.551 8                  20837948.160    20837946.040
  20837945.400          50.250          49.200
 112766998.263 7  87707758.393 6                  21154761.240    21154768.700
  21154767.840          43.450          39.050
 103213300.029 8  80277060.022 7                  19308166.140    19308168.960
  19308168.480          49.600          47.450
 117489429.930 7  91380713.394 6                  21994261.280    21994267.560
  21994266.740          46.250          41.700
 121725251.077 7  94675243.518 6                  22811252.780    22811257.300
  22811257.240          46.050          38.700
 109264175.502 8  84983287.482 7                  20404303.980    20404306.600
  20404305.620          49.250          46.700
 102382211.955 7  79630762.120 7                  19159378.400    19159384.540
  19159382.360          47.600          46.950
 15  1 27 16  2 25.0000000  0 15G30G21G07G13G15G28G24G10G05R14R05R16
                                R06R04R15
 118156792.642 8  92070318.502 7  88234068.837 8  22484456.520    22484456.400
  22484455.540          48.850          46.200
 134655560.194 6 104926416.20045                  25624101.360
  25624101.060          39.900          34.850
 131160436.222 7 102203003.333 6                  24958980.600    24958978.980
  24958978.700          44.100          38.200
 108182665.016 8  84298246.86847                  20586452.280
  20586447.980          50.750          46.050
 119785239.626 8  93339171.578 7                  22794359.060    22794357.640
  22794356.980          48.750          44.250
 113096038.812 8  88126915.04347                  21521393.760
  21521390.240          49.850          45.050
 131131214.346 7 102180225.553 6  97922727.733 7  24953428.740    24953434.280
  24953433.540          42.100          39.250
 129182174.699 7 100661434.55446                  24582557.880
  24582559.400          46.050          36.450
 109511936.427 8  85333992.186 8                  20839414.560    20839412.440
  20839411.780          50.400          48.850
 112783677.634 7  87720731.225 6                  21157890.240    21157897.680
  21157896.880          43.100          39.200
 103207471.283 8  80272526.550 7                  19307075.760    19307078.560
  19307078.100          49.450          47.750
 117472309.013 7  91367397.134 7                  21991056.180    21991062.440
  21991061.620          46.100          42.150
 121705324.663 7  94659745.210 6                  22807518.620    22807523.060
  22807523.060          46.050          39.100
 109277728.844 8  84993828.962 7                  20406834.980    20406837.620
  20406836.640          49.100          46.900
 102383450.471 7  79631725.404 7                  19159610.180    19159616.280
  19159614.140          47.750          47.200
 15  1 27 16  2 30.0000000  0 15G30G21G07G13G15G28G24G10G05R14R05R16
                                R06R04R15
 118170722.344 8  92081172.813 7  88244470.878 8  22487107.220    22487107.120
  22487106.260          48.750          46.350
 134651667.815 6 104923383.15145                  25623360.640
  25623360.260          39.200          31.850
 131176150.580 7 102215248.300 6                  24961970.920    24961969.320
  24961969.020          43.600          38.550
 108177491.478 8  84294215.54447                  20585467.840
  20585463.500          50.750          46.050
 119772026.896 8  93328875.954 7                  22791844.780    22791843.300
  22791842.700          48.550          44.200
 113095230.212 8  88126284.97747                  21521239.860
  21521236.360          49.950          44.850
 131115341.462 6 102167857.102 6  97910874.648 7  24950408.200    24950413.720
  24950413.040          41.850          39.650
 129200871.009 7 100676003.08746                  24586115.780
  24586117.320          46.800          36.350
 109519659.280 8  85340009.997 8                  20840884.200    20840882.020
  20840881.380          50.150          48.950
 112800366.714 7  87733711.610 6                  21161021.040    21161028.520
  21161027.720          42.600          39.700
 103201662.623 8  80268008.710 7                  19305989.100    19305991.900
  19305991.460          49.450          47.600
 117455200.591 7  91354090.607 7                  21987853.460    21987859.680
  21987858.880          45.050          42.750
 121685404.030 7  94644251.399 6                  22803785.500    22803789.960
  22803789.920          45.950          39.600
 109291299.761 8  85004384.119 7                  20409369.260    20409371.880
  20409370.940          49.150          46.950
 102384709.542 7  79632704.686 7                  19159845.800    19159851.880
  19159849.760          47.500          47.050
 15  1 27 16  2 35.0000000  0 15G30G21G07G13G15G28G24G10G05R14R05R16
                                R06R04R15
 118184654.638 8  92092029.146 7  88254874.857 8  22489758.400    22489758.320
  22489757.480          48.700          46.350
 134647785.752 6 104920358.18945                  25622621.800
  25622621.640          38.800          34.650
 131191862.682 7 102227491.506 6                  24964960.840    24964959.200
  24964958.960          43.000          38.900
 108172323.590 8  84290188.61847                  20584484.480
  20584480.120          50.600          46.400
 119758815.610 8  93318581.463 7                  22789330.760    22789329.260
  22789328.720          48.400          44.550
 113094435.233 8  88125665.52147                  21521088.540
  21521085.080          50.050          44.650
 131099470.425 7 102155490.121 6  97899022.933 7  24947388.000    24947393.580
  24947392.800          42.150          40.150
 129219567.185 7 100690571.52945                  24589673.680
  24589675.060          46.200          35.950
 109527394.944 8  85346037.781 8                  20842356.280    20842354.060
  20842353.420          50.150          49.000
 112817061.336 7  87746696.307 6                  21164152.880    21164160.420
  21164159.620          42.700          39.500
 103195870.074 8  80263503.398 7                  19304905.480    19304908.280
  19304907.820          49.300          47.550
 117438100.561 7  91340790.620 7                  21984652.280    21984658.540
  21984657.680          45.200          42.700
 121665484.763 7  94628758.650 6                  22800052.600    22800057.100
  22800057.040          45.500          39.400
 109304883.808 8  85014949.483 7                  20411906.020    20411908.640
  20411907.680          48.900          46.600
 102385985.048 7  79633696.748 7                  19160084.500    19160090.540
  19160088.460          47.150          46.750
 15  1 27 16  2 40.0000000  0 15G30G21G07G13G15G28G24G10G05R14R05R16
                                R06R04R15
 118198592.243 8  92102889.617 7  88265282.818 8  22492410.640    22492410.540
  22492409.740          48.350          46.600
 134643916.867 6 104917343.43045                  25621885.540
  25621885.560          38.400          30.700
 131207575.233 7 102239735.058 6                  24967950.780    24967949.160
  24967948.880          42.850          38.500
 108167164.088 8  84286168.22747                  20583502.700
  20583498.300          50.450          46.750
 119745608.555 8  93308290.263 7                  22786817.540    22786816.020
  22786815.480          48.000          44.500
 113093656.607 8  88125058.80247                  21520940.360
  21520936.880          49.850          45.100
 131083603.917 6 102143126.650 6  97887174.639 7  24944368.700    24944374.240
  24944373.540          41.100          40.150
 129238266.004 7 100705142.01146                  24593231.940
  24593233.220          45.000          37.300
 109535146.166 8  85352077.690 8                  20843831.340    20843829.100
  20843828.420          50.000          49.050
 112833764.198 7  87759687.412 6                  21167286.340    21167293.900
  21167293.060          43.200          39.600
 103190096.262 8  80259012.656 7                  19303825.360    19303828.140
  19303827.660          49.800          47.450
 117421011.677 7  91327499.278 7                  21981453.180    21981459.360
  21981458.580          45.700          43.100
 121645569.666 7  94613269.162 6                  22796320.560    22796324.960
  22796324.940          46.450          39.450
 109318483.990 8  85025527.400 7                  20414445.760    20414448.380
  20414447.420          49.150          46.650
 102387279.706 7  79634703.708 7                  19160326.780    19160332.840
  19160330.720          47.750          46.850
 15  1 27 16  2 45.0000000  0 15G30G21G07G13G15G28G24G10G05R14R05R16
                                R06R04R15
 118212533.920 8  92113753.258 7  88275693.805 8  22495063.640    22495063.560
  22495062.740          48.600          46.100
 134640059.807 6 104914337.96445                  25621151.540
  25621151.700          39.650          31.000
 131223286.956 7 102251977.986 6                  24970940.580    24970938.960
  24970938.620          42.550          37.400
 108162011.673 8  84282153.36247                  20582522.260
  20582517.840          50.350          46.150
 119732404.417 8  93298001.335 7                  22784304.860    22784303.340
  22784302.820          48.450          44.000
 113092893.066 8  88124463.84147                  21520795.020
  21520791.560          49.850          44.400
 131067740.738 6 102130765.781 6  97875328.816 7  24941350.000    24941355.580
  24941354.800          41.500          39.250
 129256966.150 7 100719713.51546                  24596790.320
  24596791.600          45.050          36.800
 109542911.687 8  85358128.742 8                  20845309.120    20845306.800
  20845306.120          50.200          48.500
 112850474.052 7  87772683.951 6                  21170421.080    21170428.680
  21170427.760          43.000          40.050
 103184340.117 8  80254535.654 7                  19302748.540    19302751.340
  19302750.820          49.600          47.850
 117403932.733 7  91314215.666 7                  21978255.940    21978262.100
  21978261.360          45.450          43.800
 121625657.392 7  94597781.836 6                  22792589.060    22792593.400
  22792593.340          46.050          40.400
 109332098.938 8  85036116.802 7                  20416988.260    20416990.900
  20416989.900          48.950          47.150
 102388592.109 7  79635724.471 7                  19160572.380    19160578.420
  19160576.320          47.850          47.600
 15  1 27 16  2 50.0000000  0 15G30G21G07G13G15G28G24G10G05R14R05R16
                                R06R04R15
 118226479.208 8  92124619.720 7  88286107.488 8  22497717.340    22497717.280
  22497716.440          48.600          46.100
 134636214.180 6 104911341.36944                  25620419.680
  25620420.040          39.400          28.950
 131238997.434 7 102264219.931 6                  24973930.140    24973928.560
  24973928.280          42.850          38.300
 108156866.050 8  84278143.79447                  20581543.140
  20581538.680          50.250          46.300
 119719202.796 8  93287714.365 7                  22781792.680    22781791.140
  22781790.620          48.350          44.250
 113092144.174 8  88123880.29947                  21520652.460
  21520649.060          49.750          44.600
 131051880.532 7 102118407.200 6  97863485.189 7  24938331.840    24938337.380
  24938336.600          42.300          38.900
 129275667.190 7 100734285.71045                  24600348.980
  24600350.340          46.050          35.600
 109550691.042 8  85364190.581 8                  20846789.520    20846787.160
  20846786.480          50.350          48.650
 112867190.488 7  87785685.630 6                  21173557.060    21173564.640
  21173563.740          42.950          39.900
 103178600.989 8  80250071.888 7                  19301674.900    19301677.700
  19301677.180          49.450          47.850
 117386863.130 7  91300939.329 7                  21975060.480    21975066.620
  21975065.920          46.100          43.850
 121605747.733 7  94582296.572 6                  22788857.980    22788862.340
  22788862.300          46.100          40.650
 109345728.309 8  85046717.422 7                  20419533.440    20419536.120
  20419535.100          49.100          46.950
 102389921.945 7  79636758.795 7                  19160821.200    19160827.300
  19160825.200          47.800          47.550
 15  1 27 16  2 55.0000000  0 15G30G21G07G13G15G28G24G10G05R14R05R16
                                R06R04R15
 118240428.594 8  92135489.366 7  88296524.240 8  22500371.800    22500371.800
  22500370.920          48.150          46.400
 134632380.471 6 104908354.05844                  25619690.140
  25619690.700          39.350          28.650
 131254707.168 7 102276461.284 6                  24976919.560    24976917.940
  24976917.760          42.850          39.250
 108151727.569 8  84274139.78547                  20580565.360
  20580560.860          49.800          47.300
 119706004.230 8  93277429.787 7                  22779281.100    22779279.500
  22779279.020          48.150          44.200
 113091410.447 8  88123308.57447                  21520512.800
  21520509.420          49.450          45.450
 131036023.735 7 102106051.280 6  97851644.114 7  24935314.380    24935319.900
  24935319.080          42.300          39.600
 129294369.606 7 100748858.98946                  24603908.020
  24603909.380          46.100          37.000
 109558484.712 8  85370263.574 8                  20848272.640    20848270.240
  20848269.540          50.150          48.900
 112883914.015 7  87798692.809 6                  21176694.420    21176701.860
  21176701.020          43.000          39.500
 103172879.518 8  80245621.855 7                  19300604.560    19300607.360
  19300606.860          49.350          47.800
 117369803.538 7  91287670.776 7                  21971866.900    21971873.060
  21971872.340          46.000          43.800
 121585841.340 7  94566813.843 6                  22785127.500    22785131.920
  22785131.880          45.400          40.550
 109359372.524 8  85057329.583 7                  20422081.420    20422084.080
  20422083.040          49.100          46.700
 102391269.777 7  79637807.112 7                  19161073.460    19161079.520
  19161077.460          47.900          47.400
 15  1 27 16  3  0.0000000  0 15G30G21G07G13G15G28G24G10G05R14R05R16
                                R06R04R15
 118254381.794 8  92146361.984 7  88306943.828 8  22503027.020    22503027.020
  22503026.140          48.500          46.450
 134628558.424 6 104905375.84345                  25618962.900
  25618963.460          38.950          31.850
 131270415.824 7 102288701.790 6                  24979908.840    24979907.220
  24979907.060          43.050          38.700
 108146595.966 8  84270141.14247                  20579588.880
  20579584.360          49.850          46.950
 119692808.361 8  93267147.302 7                  22776770.040    22776768.380
  22776767.880          48.100          44.100
 113090691.603 8  88122748.44047                  21520375.960
  21520372.620          49.450          45.350
 131020170.132 7 102093697.867 6  97839805.427 7  24932297.540    24932303.040
  24932302.220          42.600          40.100
 129313073.081 7 100763433.11346                  24607467.320
  24607468.580          46.050          37.450
 109566292.404 8  85376347.494 8                  20849758.440    20849756.000
  20849755.280          50.050          48.950
 112900644.239 7  87811705.205 6                  21179832.920    21179840.420
  21179839.540          42.900          39.400
 103167175.431 8  80241185.351 7                  19299537.500    19299540.300
  19299539.800          49.450          47.700
 117352753.566 7  91274409.722 7                  21968675.080    21968681.280
  21968680.560          46.250          43.600
 121565937.604 7  94551333.196 6                  22781397.540    22781402.000
  22781401.960          45.750          40.900
 109373031.316 8  85067953.082 7                  20424632.120    20424634.780
  20424633.680          49.100          46.650
 102392635.041 7  79638868.990 7                  19161328.920    19161335.020
  19161332.980          47.850          47.250
 15  1 27 16  3  5.0000000  0 15G30G21G07G13G15G28G24G10G05R14R05R16
                                R06R04R15
 118268339.013 8  92157237.742 7  88317366.429 8  22505682.980    22505682.980
  22505682.140          48.500          46.550
 134624748.200 6 104902406.80945                  25618237.820
  25618238.440          39.350          30.750
 131286123.701 6 102300941.716 6                  24982897.920    24982896.320
  24982896.160          41.650          39.200
 108141471.476 8  84266148.04147                  20578613.740
  20578609.200          50.000          46.750
 119679615.471 8  93256867.138 7                  22774259.540    22774257.840
  22774257.320          48.100          44.000
 113089987.844 8  88122200.06047                  21520242.000
  21520238.700          49.600          45.350
 131004319.796 7 102081346.998 6  97827969.177 7  24929281.280    24929286.860
  24929285.960          42.400          40.650
 129331777.873 7 100778008.25146                  24611026.780
  24611028.040          44.900          37.850
 109574114.367 8  85382442.532 8                  20851246.940    20851244.480
  20851243.740          50.050          48.950
 112917381.444 7  87824723.031 6                  21182972.760    21182980.240
  21182979.400          42.650          39.450
 103161488.896 8  80236762.494 7                  19298473.700    19298476.480
  19298476.020          49.600          47.650
 117335713.554 7  91261156.404 7                  21965485.180    21965491.380
  21965490.660          46.100          43.550
 121546036.734 7  94535854.760 6                  22777668.120    22777672.580
  22777672.580          45.950          40.850
 109386704.837 8  85078588.032 7                  20427185.560    20427188.220
  20427187.100          49.000          46.600
 102394018.046 7  79639944.666 7                  19161587.740    19161593.840
  19161591.800          47.700          47.150
 15  1 27 16  3 10.0000000  0 15G30G21G07G13G15G28G24G10G05R14R05R16
                                R06R04R15
 118282300.780 8  92168117.037 7  88327792.418 8  22508339.840    22508339.820
  22508339.000          48.600          46.350
 134620950.401 6 104899447.51645                  25617515.140
  25617515.800          40.400          31.350
 131301831.273 7 102313181.372 6                  24985886.880    24985885.320
  24985885.260          42.400          39.550
 108136354.672 8  84262160.92047                  20577640.060
  20577635.520          50.050          47.100
 119666426.099 8  93246589.721 7                  22771749.700    22771747.960
  22771747.420          48.600          43.950
 113089299.715 8  88121663.86047                  21520111.020
  21520107.760          49.700          44.950
 130988473.452 6 102068999.234 6  97816135.899 7  24926265.800    24926271.420
  24926270.480          41.950          40.750
 129350484.520 7 100792584.80446                  24614586.480
  24614587.820          44.750          37.050
 109581951.120 8  85388549.089 8                  20852738.260    20852735.760
  20852735.020          50.050          49.000
 112934126.191 7  87837746.720 6                  21186113.940    21186121.540
  21186120.680          42.650          39.300
 103155820.581 8  80232353.807 7                  19297413.320    19297416.100
  19297415.640          49.650          47.450
 117318684.035 7  91247911.256 7                  21962297.260    21962303.380
  21962302.700          45.700          43.250
 121526139.519 7  94520379.165 6                  22773939.360    22773943.880
  22773943.940          45.850          40.550
 109400393.605 8  85089234.843 7                  20429741.860    20429744.480
  20429743.380          49.100          46.750
 102395419.494 7  79641034.678 7                  19161850.020    19161856.100
  19161854.060          47.700          47.150
 15  1 27 16  3 15.0000000  0 15G30G21G07G13G15G28G24G10G05R14R05R16
                                R06R04R15
 118296266.095 8  92178999.104 7  88338221.070 8  22510997.360    22510997.340
  22510996.540          48.750          46.550
 134617163.980 6 104896497.04844                  25616794.640
  25616795.040          40.300          28.700
 131317537.530 7 102325420.008 6                  24988875.700    24988874.120
  24988874.080          42.950          39.200
 108131244.552 8  84258179.01747                  20576667.640
  20576663.080          50.150          46.550
 119653239.236 8  93236314.248 7                  22769240.340    22769238.540
  22769238.000          48.750          44.150
 113088626.219 8  88121139.07247                  21519982.840
  21519979.580          49.900          44.700
 130972629.880 7 102056653.643 6  97804304.708 7  24923250.800    24923256.420
  24923255.560          42.300          41.000
 129369191.981 7 100807162.00146                  24618146.400
  24618147.800          45.450          37.150
 109589801.644 8  85394666.388 8                  20854232.180    20854229.660
  20854228.940          50.200          48.850
 112950877.437 7  87850775.466 6                  21189256.380    21189264.100
  21189263.200          42.600          39.800
 103150169.345 8  80227958.410 7                  19296356.100    19296358.920
  19296358.440          49.350          47.550
 117301664.023 7  91234673.498 7                  21959111.080    21959117.200
  21959116.500          45.450          43.350
 121506244.913 7  94504905.625 6                  22770211.120    22770215.660
  22770215.740          46.100          40.700
 109414096.698 8  85099892.807 7                  20432300.820    20432303.420
  20432302.360          48.800          46.900
 102396838.377 7  79642138.265 7                  19162115.520    19162121.600
  19162119.600          47.650          47.300
 15  1 27 16  3 20.0000000  0 15G30G21G07G13G15G28G24G10G05R14R05R16
                                R06R04R15
 118310236.919 8  92189885.455 7  88348653.825 8  22513655.940    22513655.900
  22513655.100          48.650          46.450
 134613390.951 6 104893557.07845                  25616076.640
  25616076.900          39.550          30.550
 131333244.456 7 102337659.185 6                  24991864.640    24991863.040
  24991862.920          43.550          38.550
 108126143.092 8  84254203.85447                  20575696.860
  20575692.280          50.200          46.650
 119640056.806 8  93226042.241 7                  22766731.820    22766730.020
  22766729.460          48.900          44.200
 113087969.345 8  88120627.22847                  21519857.820
  21519854.540          49.950          44.850
 130956791.211 7 102044311.853 6  97792477.152 7  24920236.740    24920242.420
  24920241.600          42.300          40.650
 129387902.190 7 100821741.35445                  24621706.860
  24621708.240          46.150          35.050
 109597667.880 8  85400795.917 8                  20855729.080    20855726.560
  20855725.840          50.300          48.900
 112967637.032 7  87863810.699 6                  21192400.400    21192408.200
  21192407.260          42.350          39.600
 103144537.375 8  80223577.978 7                  19295302.520    19295305.340
  19295304.820          49.250          47.500
 117284655.461 7  91221444.631 7                  21955927.060    21955933.200
  21955932.440          45.350          43.300
 121486354.872 7  94489435.599 6                  22766483.760    22766488.320
  22766488.380          46.200          40.550
 109427816.031 8  85110563.392 7                  20434862.780    20434865.400
  20434864.360          48.900          46.750
 102398276.657 7  79643256.923 7                  19162384.700    19162390.780
  19162388.780          47.700          47.300
 15  1 27 16  3 25.0000000  0 15G30G21G07G13G15G28G24G10G05R14R05R16
                                R06R04R15
 118324210.306 8  92200773.804 7  88359088.483 8  22516315.020    22516314.920
  22516314.160          48.600          46.700
 134609628.391 6 104890625.13745                  25615360.680
  25615360.920          38.400          32.750
 131348949.124 7 102349896.605 6                  24994853.140    24994851.580
  24994851.380          43.050          39.300
 108121047.334 8  84250233.14347                  20574727.180
  20574722.580          50.050          47.150
 119626875.948 8  93215771.451 7                  22764223.580    22764221.800
  22764221.180          48.750          44.500
 113087326.131 8  88120126.03347                  21519735.380
  21519732.160          49.700          45.400
 130940954.487 7 102031971.577 6  97780651.077 7  24917223.040    24917228.800
  24917228.000          42.950          40.550
 129406612.237 7 100836320.59346                  24625267.320
  24625268.540          45.950          36.450
 109605546.983 8  85406935.474 8                  20857228.440    20857225.880
  20857225.200          50.250          49.000
 112984402.092 7  87876850.185 6                  21195545.520    21195553.260
  21195552.340          42.300          39.050
 103138921.516 8  80219210.088 7                  19294251.980    19294254.760
  19294254.240          49.400          47.150
 117267655.411 7  91208222.393 7                  21952744.580    21952750.720
  21952749.960          45.950          42.550
 121466466.491 7  94473966.873 6                  22762756.620    22762761.220
  22762761.300          46.200          39.950
 109441548.646 8  85121244.315 7                  20437427.240    20437429.860
  20437428.840          48.950          46.300
 102399731.270 7  79644388.289 7                  19162656.920    19162662.980
  19162661.000          47.700          46.900
 15  1 27 16  3 30.0000000  0 15G30G21G07G13G15G28G24G10G05R14R05R16
                                R06R04R15
 118338188.894 8  92211666.208 7  88369527.039 8  22518975.060    22518974.960
  22518974.200          48.550          46.600
 134605878.928 6 104887703.46246                  25614647.220
  25614647.480          39.200          36.300
 131364654.144 7 102362134.277 6                  24997841.660    24997840.220
  24997839.840          42.650          38.750
 108115959.981 8  84246268.97547                  20573759.080
  20573754.460          50.150          46.800
 119613699.312 8  93205503.956 7                  22761716.140    22761714.360
  22761713.740          48.950          44.200
 113086699.256 8  88119637.56047                  21519616.040
  21519612.860          49.700          44.850
 130925122.476 7 102019634.978 6  97768828.507 7  24914210.280    24914216.040
  24914215.240          43.200          40.750
 129425324.798 7 100850901.77546                  24628828.220
  24628829.340          45.650          36.000
 109613441.605 8  85413087.119 8                  20858730.740    20858728.180
  20858727.500          50.100          48.850
 113001175.312 7  87889896.011 6                  21198692.100    21198699.800
  21198698.980          42.050          39.250
 103133324.546 8  80214856.889 7                  19293204.920    19293207.740
  19293207.200          49.350          47.200
 117250666.592 7  91195008.881 7                  21949564.240    21949570.360
  21949569.560          45.900          42.350
 121446582.555 7  94458501.621 6                  22759030.380    22759035.020
  22759035.080          46.250          39.700
 109455297.218 8  85131937.641 7                  20439994.680    20439997.280
  20439996.300          48.850          46.200
 102401204.949 7  79645534.478 7                  19162932.700    19162938.740
  19162936.800          47.750          46.750
 15  1 27 16  3 35.0000000  0 15G30G21G07G13G15G28G24G10G05R14R05R16
                                R06R04R15
 118352170.166 8  92222560.708 7  88379967.605 8  22521635.600    22521635.500
  22521634.760          48.350          46.850
 134602140.047 6 104884790.07845                  25613935.760
  25613936.020          40.550          32.150
 131380357.049 7 102374370.316 6                  25000829.820    25000828.400
  25000827.920          42.700          39.400
 108110878.483 8  84242309.36747                  20572792.100
  20572787.460          50.100          47.150
 119600524.357 8  93195237.772 7                  22759209.020    22759207.260
  22759206.600          48.950          44.650
 113086086.177 8  88119159.85547                  21519499.360
  21519496.180          49.750          45.350
 130909292.525 7 102007299.984 6  97757007.479 7  24911197.920    24911203.640
  24911202.980          43.150          41.100
 129444037.312 7 100865482.93846                  24632389.100
  24632390.260          45.400          36.800
 109621349.096 8  85419248.802 8                  20860235.460    20860232.920
  20860232.240          49.850          49.050
 113017954.002 7  87902946.093 6                  21201839.700    21201847.400
  21201846.620          42.650          39.150
 103127743.942 8  80210516.427 7                  19292160.920    19292163.760
  19292163.240          49.450          47.550
 117233686.408 7  91181802.103 7                  21946385.560    21946391.600
  21946390.760          46.150          42.700
 121426700.295 7  94443037.663 6                  22755304.420    22755309.120
  22755309.160          46.600          39.900
 109469059.112 8  85142641.342 7                  20442564.600    20442567.240
  20442566.240          48.950          46.550
 102402695.125 7  79646693.518 7                  19163211.580    19163217.600
  19163215.660          47.800          46.900
 15  1 27 16  3 40.0000000  0 15G30G21G07G13G15G28G24G10G05R14R05R16
                                R06R04R15
 118366155.536 8  92233458.395 7  88390411.214 8  22524296.920    22524296.820
  22524296.080          48.050          46.800
 134598413.154 6 104881886.01545                  25613226.580
  25613226.620          40.200          32.600
 131396059.164 7 102386605.742 6                  25003817.800    25003816.400
  25003815.940          42.950          39.000
 108105804.263 8  84238355.43247                  20571826.500
  20571821.840          50.150          47.100
 119587352.532 8  93184974.027 7                  22756702.500    22756700.780
  22756700.100          48.900          44.300
 113085488.306 8  88118693.98647                  21519385.540
  21519382.400          49.850          45.150
 130893466.079 7 101994967.717 6  97745189.053 7  24908186.260    24908191.920
  24908191.220          42.650          40.900
 129462751.174 7 100880065.13146                  24635950.240
  24635951.560          45.700          36.100
 109629270.946 8  85425421.662 8                  20861742.900    20861740.380
  20861739.740          49.750          49.050
 113034739.694 7  87916001.635 6                  21204988.640    21204996.380
  21204995.600          42.450          39.250
 103122181.092 8  80206189.767 7                  19291120.260    19291123.080
  19291122.600          49.350          47.750
 117216716.366 7  91168603.198 7                  21943208.760    21943214.720
  21943213.860          46.400          42.850
 121406821.223 7  94427576.171 6                  22751579.080    22751583.720
  22751583.820          46.600          40.050
 109482835.902 8  85153356.615 7                  20445137.280    20445139.960
  20445138.980          49.000          46.700
 102404203.196 7  79647866.466 7                  19163493.820    19163499.780
  19163497.860          47.850          46.950
 15  1 27 16  3 45.0000000  0 15G30G21G07G13G15G28G24G10G05R14R05R16
                                R06R04R15
 118380146.700 8  92244360.586 7  88400859.151 8  22526959.320    22526959.260
  22526958.540          48.250          47.050
 134594699.933 6 104878992.65344                  25612519.960
  25612519.840          39.900          28.000
 131411762.192 7 102398841.882 6                  25006805.960    25006804.580
  25006804.180          42.950          39.150
 108100739.029 8  84234408.49647                  20570862.600
  20570857.940          50.050          47.150
 119574185.523 8  93174714.028 7                  22754196.880    22754195.160
  22754194.480          48.800          44.750
 113084907.346 8  88118241.30247                  21519274.960
  21519271.820          49.750          45.550
 130877644.739 7 101982639.435 6  97733374.458 7  24905175.560    24905181.240
  24905180.460          42.100          41.100
 129481468.058 7 100894649.66546                  24639511.960
  24639513.420          45.450          37.800
 109637208.811 8  85431607.010 8                  20863253.380    20863250.900
  20863250.260          49.600          49.300
 113051533.957 7  87929063.831 6                  21208139.240    21208146.980
  21208146.140          42.400          38.100
 103116637.904 8  80201878.400 7                  19290083.280    19290086.120
  19290085.620          49.150          46.850
 117199758.100 7  91155413.454 6                  21940034.180    21940040.100
  21940039.160          46.250          41.950
 121386947.244 7  94412118.649 6                  22747854.660    22747859.280
  22747859.460          46.150          39.100
 109496629.189 8  85164084.723 7                  20447713.080    20447715.740
  20447714.800          48.850          45.950
 102405730.780 7  79649054.593 7                  19163779.700    19163785.620
  19163783.720          47.650          46.200
 15  1 27 16  3 50.0000000  0 15G30G21G07G13G15G28G24G10G05R14R05R16
                                R06R04R15
 118394139.675 8  92255264.203 7  88411308.451 8  22529622.120    22529622.040
  22529621.340          48.300          47.150
 134590996.531 6 104876106.83445                  25611815.220
  25611815.120          39.950          31.650
 131427462.281 7 102411075.744 6                  25009793.580    25009792.200
  25009791.840          42.200          39.450
 108095678.858 8  84230465.51447                  20569899.680
  20569895.020          50.150          47.100
 119561019.412 8  93164454.737 7                  22751691.420    22751689.720
  22751689.040          48.700          44.800
 113084339.374 8  88117798.73547                  21519166.860
  21519163.720          49.650          45.550
 130861824.841 6 101970312.291 6  97721560.939 7  24902165.100    24902170.800
  24902170.000          41.550          41.250
 129500184.048 7 100909233.51246                  24643073.500
  24643075.040          45.700          37.100
 109645158.757 8  85437801.779 8                  20864766.160    20864763.740
  20864763.100          49.700          49.300
 113068332.911 7  87942129.690 6                  21211290.660    21211298.360
  21211297.560          42.350          38.500
 103111110.266 8  80197579.130 7                  19289049.200    19289052.040
  19289051.560          49.200          46.950
 117182807.745 7  91142229.861 7                  21936861.020    21936866.980
  21936865.960          46.250          42.000
 121367074.213 7  94396661.875 6                  22744130.500    22744135.040
  22744135.240          46.000          39.100
 109510435.084 8  85174822.637 7                  20450291.200    20450293.900
  20450292.960          48.900          46.050
 102407273.834 7  79650254.753 7                  19164068.500    19164074.380
  19164072.480          47.600          46.650
 15  1 27 16  3 55.0000000  0 15G30G21G07G13G15G28G24G10G05R14R05R16
                                R06R04R15
 118408138.685 7  92266172.514 7  88421762.253 8  22532286.040    22532286.000
  22532285.280          47.750          46.850
 134587307.210 6 104873232.08945                  25611113.180
  25611113.320          38.800          34.500
 131443163.617 6 102423310.544 6                  25012781.400    25012780.100
  25012779.680          41.900          38.800
 108090627.975 8  84226529.75947                  20568938.520
  20568933.860          49.650          47.050
 119547858.426 8  93154199.435 7                  22749186.960    22749185.260
  22749184.580          48.350          44.700
 113083788.591 8  88117369.56347                  21519062.020
  21519058.900          49.150          46.000
 130846010.397 6 101957989.407 6  97709751.500 7  24899155.660    24899161.440
  24899160.620          40.650          41.200
 129518903.327 7 100923819.91746                  24646635.680
  24646637.160          44.950          38.200
 109653125.013 8  85444009.251 8                  20866282.060    20866279.660
  20866279.020          49.250          49.150
 113085140.814 6  87955202.494 6                  21214443.760    21214451.440
  21214450.660          41.750          38.600
 103105602.463 8  80193295.279 7                  19288018.840    19288021.720
  19288021.200          48.800          46.900
 117165869.473 7  91129055.658 7                  21933690.120    21933696.040
  21933695.060          46.100          42.200
 121347206.517 7  94381209.232 6                  22740407.280    22740411.840
  22740411.980          45.850          38.750
 109524257.759 8  85185573.602 7                  20452872.460    20452875.220
  20452874.240          48.600          46.100
 102408836.748 7  79651470.346 7                  19164361.000    19164366.840
  19164364.960          47.150          46.700
 15  1 27 16  4  0.0000000  0 15G30G21G07G13G15G28G24G10G05R14R05R16
                                R06R04R15
 118422140.480 8  92277082.999 7  88432218.142 8  22534950.480    22534950.480
  22534949.760          48.400          46.400
 134583628.546 6 104870365.55945                  25610413.140
  25610413.400          40.050          30.250
 131458862.876 7 102435543.746 6                  25015768.820    25015767.540
  25015767.000          43.400          38.700
 108085583.112 8  84222598.69947                  20567978.500
  20567973.840          50.150          46.650
 119534699.276 8  93143945.562 7                  22746682.860    22746681.140
  22746680.460          48.850          44.650
 113083251.824 8  88116951.30947                  21518959.860
  21518956.740          49.800          44.700
 130830198.253 6 101945668.291 6  97697943.777 7  24896146.660    24896152.460
  24896151.660          41.350          40.150
 129537622.602 7 100938406.35245                  24650197.920
  24650199.220          46.000          35.550
 109661104.343 8  85450226.906 8                  20867800.440    20867798.080
  20867797.460          49.850          48.950
 113101954.254 6  87968279.614 6                  21217597.900    21217605.560
  21217604.800          41.400          38.950
 103100111.151 8  80189024.259 7                  19286991.560    19286994.480
  19286993.920          48.650          47.150
 117148940.061 7  91115888.364 7                  21930520.900    21930526.780
  21930525.840          46.650          42.450
 121327340.687 7  94365758.035 6                  22736684.380    22736688.920
  22736689.060          45.900          38.900
 109538093.856 8  85196335.001 7                  20455456.240    20455459.020
  20455458.040          48.650          46.350
 102410416.331 7  79652698.913 7                  19164656.580    19164662.440
  19164660.560          47.250          46.700
 15  1 27 16  4  5.0000000  0 15G30G21G07G13G15G28G24G10G05R14R05R16
                                R06R04R15
 118436147.128 8  92287997.273 7  88442677.650 8  22537615.860    22537615.880
  22537615.140          48.350          46.200
 134579962.649 6 104867509.04243                  25609715.500
  25609715.660          39.850          23.950
 131474562.165 7 102447776.975 6                  25018756.320    25018754.980
  25018754.560          43.650          36.900
 108080546.355 8  84218673.96647                  20567020.040
  20567015.360          50.250          46.150
 119521544.117 8  93133694.808 7                  22744179.500    22744177.820
  22744177.120          49.050          44.250
 113082731.060 8  88116545.52747                  21518860.760
  21518857.640          49.900          44.550
 130814390.399 6 101933350.497 6  97686139.276 8  24893138.420    24893144.260
  24893143.440          41.050          39.800
 129556343.984 7 100952994.42345                  24653760.580
  24653761.740          46.200          35.850
 109669098.789 8  85456456.345 8                  20869321.720    20869319.380
  20869318.740          50.050          48.650
 113118775.485 6  87981362.787 6                  21220753.520    21220761.120
  21220760.440          41.500          38.750
 103094638.604 8  80184767.838 7                  19285967.780    19285970.740
  19285970.160          49.100          47.200
 117132021.631 7  91102729.613 7                  21927353.720    21927359.520
  21927358.640          46.850          42.450
 121307479.016 7  94350310.100 6                  22732962.240    22732966.900
  22732967.020          46.200          39.300
 109551945.624 8  85207108.590 7                  20458042.960    20458045.760
  20458044.800          48.800          46.350
 102412014.730 7  79653942.124 7                  19164955.700    19164961.520
  19164959.660          47.450          46.600
 15  1 27 16  4 10.0000000  0 15G30G21G07G13G15G28G24G10G05R14R05R16
                                R06R04R15
 118450157.073 8  92298914.103 7  88453139.615 8  22540281.840    22540281.880
  22540281.180          48.450          46.200
 134576308.153 6 104864661.37344                  25609020.100
  25609020.180          39.000          27.300
 131490259.957 7 102460009.050 6                  25021743.440    25021742.080
  25021741.680          43.400          36.900
 108075516.162 8  84214754.33647                  20566062.820
  20566058.120          50.250          46.300
 119508391.383 8  93123445.937 7                  22741676.620    22741674.960
  22741674.240          49.250          44.400
 113082224.779 8  88116151.02547                  21518764.400
  21518761.280          49.800          44.650
 130798585.347 6 101921034.907 6  97674336.856 8  24890130.740    24890136.560
  24890135.820          40.950          40.600
 129575065.933 7 100967582.94345                  24657323.320
  24657324.480          45.750          35.100
 109677106.795 8  85462696.350 8                  20870845.560    20870843.240
  20870842.600          49.950          48.600
 113135602.834 6  87994450.709 6                  21223910.260    21223917.940
  21223917.260          41.950          38.800
 103089183.174 8  80180524.732 7                  19284947.220    19284950.180
  19284949.620          49.450          47.250
 117115112.579 7  91089578.155 7                  21924188.300    21924194.100
  21924193.220          47.350          42.600
 121287620.035 7  94334864.246 6                  22729240.620    22729245.240
  22729245.480          46.250          39.100
 109565811.363 8  85217893.045 7                  20460632.300    20460635.120
  20460634.140          49.300          46.550
 102413630.233 7  79655198.631 7                  19165258.020    19165263.860
  19165261.940          47.600          46.750
 15  1 27 16  4 15.0000000  0 15G30G21G07G13G15G28G24G10G05R14R05R16
                                R06R04R15
 118464172.326 8  92309835.084 7  88463605.551 8  22542948.820    22542948.900
  22542948.200          48.350          46.100
 134572666.881 6 104861823.97145                  25608327.120
  25608327.360          39.000          33.000
 131505958.243 7 102472241.515 6                  25024730.720    25024729.340
  25024728.840          43.150          37.250
 108070494.573 8  84210841.41047                  20565107.240
  20565102.540          50.300          46.050
 119495243.048 8  93113200.491 7                  22739174.560    22739172.920
  22739172.200          49.150          44.350
 113081735.000 8  88115769.38547                  21518671.180
  21518668.120          49.800          44.900
 130782785.147 6 101908723.102 6  97662538.049 7  24887124.060    24887129.840
  24887129.200          40.950          41.200
 129593790.460 7 100982173.44746                  24660886.480
  24660887.660          44.850          36.750
 109685130.404 8  85468948.509 8                  20872372.360    20872370.100
  20872369.440          50.100          48.350
 113152438.399 7  88007545.031 6                  21227068.520    21227076.300
  21227075.600          42.300          38.700
 103083746.857 8  80176296.487 7                  19283930.240    19283933.160
  19283932.640          49.350          47.300
 117098215.017 7  91076435.634 7                  21921025.020    21921030.780
  21921029.920          47.350          42.300
 121267765.592 7  94319421.924 6                  22725519.840    22725524.560
  22725524.740          45.900          39.400
 109579693.186 8  85228690.023 7                  20463224.660    20463227.480
  20463226.500          49.250          46.400
 102415264.859 7  79656470.014 7                  19165563.940    19165569.780
  19165567.800          47.600          46.800
 15  1 27 16  4 20.0000000  0 15G30G21G07G13G15G28G24G10G05R14R05R16
                                R06R04R15
 118478190.020 7  92320757.958 7  88474073.296 8  22545616.260    22545616.380
  22545615.680          47.850          46.100
 134569035.980 6 104858994.69745                  25607636.180
  25607636.240          40.200          30.700
 131521654.204 7 102484472.132 6                  25027717.500    25027716.160
  25027715.620          42.450          36.950
 108065478.729 8  84206932.96247                  20564152.720
  20564148.040          50.100          46.350
 119482096.344 8  93102956.323 7                  22736672.840    22736671.160
  22736670.480          48.950          44.450
 113081258.872 8  88115398.39547                  21518580.580
  21518577.540          49.900          44.650
 130766986.858 6 101896412.781 6  97650740.668 7  24884117.700    24884123.560
  24884122.880          40.500          41.250
 129612514.672 7 100996763.68846                  24664449.520
  24664450.840          44.200          36.700
 109693166.670 8  85475210.534 8                  20873901.600    20873899.340
  20873898.680          50.200          48.500
 113169279.048 7  88020643.311 6                  21230227.740    21230235.600
  21230234.860          42.400          39.000
 103078326.919 8  80172080.982 7                  19282916.320    19282919.240
  19282918.720          49.250          47.550
 117081325.930 7  91063299.702 7                  21917863.340    21917869.140
  21917868.220          46.950          42.250
 121247913.063 7  94303981.091 6                  22721799.400    22721804.100
  22721804.380          45.950          40.000
 109593588.214 8  85239497.267 7                  20465819.460    20465822.300
  20465821.320          49.150          46.550
 102416915.666 7  79657753.985 7                  19165872.880    19165878.700
  19165876.740          47.350          47.200
 15  1 27 16  4 25.0000000  0 15G30G21G07G13G15G28G24G10G05R14R05R16
                                R06R04R15
 118492212.221 7  92331684.336 7  88484544.419 8  22548284.600    22548284.720
  22548284.020          47.950          46.550
 134565417.583 6 104856175.17645                  25606947.640
  25606947.700          40.250          32.700
 131537349.857 7 102496702.509 6                  25030704.240    25030702.960
  25030702.520          43.050          37.200
 108060470.711 8  84203030.60747                  20563199.700
  20563195.020          50.100          46.750
 119468953.466 8  93092715.135 7                  22734171.860    22734170.140
  22734169.440          49.050          44.700
 113080798.476 8  88115039.65147                  21518492.960
  21518489.960          49.850          45.200
 130751192.644 6 101884105.624 6  97638946.303 7  24881112.160    24881118.000
  24881117.340          41.200          41.500
 129631240.680 7 101011355.31446                  24668012.960
  24668014.420          44.750          37.800
 109701217.757 8  85481484.104 8                  20875433.660    20875431.400
  20875430.740          50.250          48.800
 113186127.086 7  88033747.324 6                  21233388.460    21233396.240
  21233395.500          42.650          39.700
 103072925.389 8  80167879.796 8                  19281905.840    19281908.760
  19281908.240          49.300          48.100
 117064447.570 7  91050172.111 7                  21914703.620    21914709.460
  21914708.500          46.900          43.100
 121228064.471 7  94288543.310 6                  22718079.780    22718084.420
  22718084.760          45.950          40.700
 109607498.418 8  85250316.306 7                  20468417.060    20468419.940
  20468418.960          48.950          47.300
 102418584.765 7  79659052.166 7                  19166185.240    19166191.060
  19166189.100          47.350          47.950
 15  1 27 16  4 30.0000000  0 15G30G21G07G13G15G28G24G10G05R14R05R16
                                R06R04R15
 118506238.192 8  92342613.666 7  88495018.347 8  22550953.640    22550953.780
  22550953.060          48.100          46.600
 134561810.936 6 104853364.85145                  25606261.320
  25606261.340          40.600          33.050
 131553044.470 7 102508932.100 6                  25033690.780    25033689.540
  25033689.160          43.300          37.150
 108055469.757 8  84199133.77147                  20562248.020
  20562243.380          50.050          46.950
 119455813.458 8  93082476.184 7                  22731671.400    22731669.660
  22731668.960          49.100          44.600
 113080353.065 8  88114692.59347                  21518408.200
  21518405.200          49.900          44.750
 130735401.643 6 101871800.979 6  97627154.354 7  24878107.180    24878113.060
  24878112.420          40.650          40.450
 129649967.688 7 101025947.74446                  24671576.660
  24671578.120          45.150          36.850
 109709282.860 8  85487768.600 8                  20876968.400    20876966.140
  20876965.500          50.200          48.900
 113202981.749 7  88046856.522 6                  21236550.420    21236558.180
  21236557.380          42.450          39.450
 103067541.472 8  80163692.309 7                  19280898.660    19280901.580
  19280901.060          49.250          47.950
 117047579.222 7  91037052.308 7                  21911545.840    21911551.640
  21911550.680          46.900          43.000
 121208219.110 7  94273108.050 6                  22714360.740    22714365.340
  22714365.700          45.850          40.550
 109621423.238 8  85261146.722 7                  20471017.420    20471020.280
  20471019.340          49.250          47.000
 102420271.396 7  79660364.001 7                  19166500.840    19166506.700
  19166504.720          47.300          47.850
 15  1 27 16  4 35.0000000  0 15G30G21G07G13G15G28G24G10G05R14R05R16
                                R06R04R15
 118520268.789 8  92353546.599 7  88505495.743 8  22553623.540    22553623.740
  22553622.980          48.200          46.300
 134558216.915 6 104850564.31544                  25605577.520
  25605577.400          39.600          29.200
 131568738.946 7 102521161.580 6                  25036677.300    25036676.000
  25036675.640          43.400          36.350
 108050476.785 8  84195243.14447                  20561297.840
  20561293.260          49.950          46.300
 119442677.191 8  93072240.144 7                  22729171.680    22729169.860
  22729169.200          49.150          44.200
 113079923.526 8  88114357.89647                  21518326.440
  21518323.480          49.800          44.750
 130719614.881 6 101859499.636 6  97615365.567 8  24875103.000    24875108.960
  24875108.280          41.150          40.400
 129668696.561 7 101040541.66346                  24675140.700
  24675142.060          44.800          37.050
 109717362.847 8  85494064.694 8                  20878505.960    20878503.700
  20878503.060          50.050          48.650
 113219843.764 7  88059971.424 6                  21239713.760    21239721.440
  21239720.620          42.400          39.900
 103062176.104 8  80159519.254 8                  19279894.960    19279897.860
  19279897.340          49.450          48.600
 117030721.652 7  91023940.885 7                  21908390.040    21908395.820
  21908394.860          46.700          43.800
 121188377.594 7  94257675.787 6                  22710642.400    22710647.060
  22710647.360          46.150          41.100
 109635363.342 8  85271989.016 7                  20473620.680    20473623.500
  20473622.560          49.400          47.650
 102421976.527 7  79661690.220 8                  19166819.920    19166825.800
  19166823.820          47.500          48.400
 15  1 27 16  4 40.0000000  0 15G30G21G07G13G15G28G24G10G05R14R05R16
                                R06R04R15
 118534302.015 8  92364481.578 7  88515975.104 8  22556293.960    22556294.180
  22556293.420          48.200          45.950
 134554633.564 6 104847772.07745                  25604895.720
  25604895.500          40.100          34.200
 131584431.286 7 102533389.377 5                  25039663.420    25039662.140
  25039661.700          43.250          35.700
 108045489.775 8  84191357.16647                  20560348.800
  20560344.280          49.850          46.000
 119429542.718 8  93062005.496 7                  22726672.280    22726670.400
  22726669.760          49.000          43.700
 113079507.839 8  88114033.99247                  21518247.320
  21518244.360          49.750          44.650
 130703830.384 7 101847200.069 6  97603578.495 7  24872099.240    24872105.240
  24872104.640          42.050          40.300
 129687425.313 7 101055135.46945                  24678704.720
  24678705.920          45.000          35.700
 109725455.747 8  85500370.843 8                  20880045.960    20880043.720
  20880043.100          49.900          48.400
 113236711.181 7  88073090.526 6                  21242878.000    21242885.820
  21242884.860          42.300          38.700
 103056827.380 8  80155359.128 7                  19278894.340    19278897.220
  19278896.760          49.500          47.500
 117013872.922 7  91010836.337 7                  21905235.880    21905241.640
  21905240.700          46.300          42.550
 121168538.146 7  94242245.117 6                  22706924.460    22706929.020
  22706929.420          46.050          39.550
 109649316.884 8  85282841.763 7                  20476226.420    20476229.220
  20476228.280          49.500          46.400
 102423698.119 7  79663029.236 7                  19167142.080    19167147.960
  19167146.000          47.500          47.100
 15  1 27 16  4 45.0000000  0 15G30G21G07G13G15G28G24G10G05R14R05R16
                                R06R04R15
 118548340.169 8  92375420.398 7  88526458.131 8  22558965.340    22558965.540
  22558964.780          48.350          46.650
 134551063.167 6 104844989.94345                  25604216.380
  25604216.060          40.750          31.650
 131600123.734 7 102545617.253 6                  25042649.580    25042648.280
  25042647.860          43.450          36.300
 108040511.070 8  84187477.66247                  20559401.340
  20559396.860          49.800          46.700
 119416412.319 8  93051774.028 7                  22724173.640    22724171.720
  22724171.100          48.950          44.000
 113079108.315 8  88113722.68547                  21518171.280
  21518168.320          49.750          44.850
 130688050.363 6 101834903.988 6  97591794.761 7  24869096.360    24869102.400
  24869101.740          41.850          41.100
 129706156.222 7 101069730.94846                  24682269.080
  24682270.340          44.800          36.750
 109733563.854 8  85506688.847 8                  20881588.880    20881586.640
  20881586.020          50.000          48.750
 113253586.282 7  88086215.588 6                  21246043.660    21246051.540
  21246050.600          42.100          39.000
 103051497.574 8  80151213.728 7                  19277897.280    19277900.180
  19277899.700          49.450          47.550
 116997035.387 7  90997740.498 7                  21902083.820    21902089.560
  21902088.660          46.200          43.000
 121148703.111 7  94226817.882 6                  22703207.360    22703211.920
  22703212.280          46.350          39.850
 109663286.099 8  85293706.708 7                  20478835.100    20478837.900
  20478836.940          49.650          46.600
 102425438.382 7  79664382.782 7                  19167467.760    19167473.640
  19167471.640          47.550          47.200
 15  1 27 16  4 50.0000000  0 15G30G21G07G13G15G28G24G10G05R14R05R16
                                R06R04R15
 118562382.084 8  92386362.145 7  88536943.973 8  22561637.400    22561637.620
  22561636.860          48.150          46.800
 134547504.567 6 104842217.03744                  25603539.260
  25603538.880          40.050          29.150
 131615815.188 7 102557844.378 6                  25045635.560    25045634.140
  25045633.740          42.750          37.050
 108035539.538 8  84183603.73947                  20558455.240
  20558450.800          49.850          46.550
 119403284.888 8  93041544.872 7                  22721675.560    22721673.600
  22721672.960          48.850          44.300
 113078723.828 8  88113423.09047                  21518098.100
  21518095.140          49.700          45.100
 130672273.691 6 101822610.518 6  97580013.527 7  24866094.100    24866100.260
  24866099.580          41.700          41.600
 129724888.187 7 101084327.23746                  24685833.620
  24685834.940          44.600          37.100
 109741686.010 8  85513017.802 8                  20883134.460    20883132.220
  20883131.600          50.050          48.900
 113270467.889 7  88099345.708 6                  21249210.540    21249218.440
  21249217.560          42.700          39.000
 103046185.517 8  80147082.126 7                  19276903.560    19276906.460
  19276905.980          49.400          47.550
 116980207.835 7  90984652.430 7                  21898933.620    21898939.340
  21898938.480          46.150          42.800
 121128871.299 7  94211393.152 6                  22699490.820    22699495.360
  22699495.740          46.300          39.850
 109677269.741 8  85304582.864 7                  20481446.460    20481449.220
  20481448.260          49.350          46.600
 102427196.287 7  79665750.042 7                  19167796.700    19167802.580
  19167800.620          47.400          47.450
 15  1 27 16  4 55.0000000  0 15G30G21G07G13G15G28G24G10G05R14R05R16
                                R06R04R15
 118576427.874 8  92397306.915 7  88547432.714 8  22564310.160    22564310.440
  22564309.680          48.050          46.400
 134543957.918 6 104839453.40245                  25602864.360
  25602864.040          39.900          30.450
 131631505.712 7 102570070.783 6                  25048621.320    25048619.920
  25048619.440          42.600          37.000
 108030575.243 8  84179735.45747                  20557510.520
  20557506.140          49.850          46.400
 119390160.558 8  93031318.129 7                  22719178.060    22719176.100
  22719175.440          48.800          44.000
 113078354.420 8  88113135.25447                  21518027.800
  21518024.840          49.700          45.050
 130656500.405 6 101810319.699 6  97568234.825 7  24863092.560    24863098.700
  24863098.160          41.950          41.200
 129743621.238 7 101098924.37246                  24689398.300
  24689399.840          44.300          38.250
 109749822.311 8  85519357.783 8                  20884682.780    20884680.500
  20884679.880          50.000          48.550
 113287356.228 7  88112481.079 6                  21252378.720    21252386.660
  21252385.820          42.700          40.500
 103040891.254 8  80142964.370 8                  19275913.140    19275916.040
  19275915.600          49.200          48.650
 116963390.459 7  90971572.263 7                  21895785.360    21895791.120
  21895790.240          45.600          43.950
 121109042.854 7  94195971.047 6                  22695774.940    22695779.560
  22695779.840          46.250          41.100
 109691268.000 8  85315470.392 7                  20484060.580    20484063.280
  20484062.320          49.300          47.600
 102428971.877 7  79667131.063 8                  19168129.000    19168134.860
  19168132.900          47.300          48.350
 15  1 27 16  5  0.0000000  0 15G30G21G07G13G15G28G24G10G05R14R05R16
                                R06R04R15
 118590478.228 8  92408255.230 7  88557924.856 8  22566983.820    22566984.140
  22566983.400          48.450          46.850
 134540423.883 6 104836699.60445                  25602191.880
  25602191.740          39.050          32.200
 131647196.011 7 102582297.008 6                  25051607.060    25051605.680
  25051605.160          42.450          37.000
 108025618.917 8  84175873.38747                  20556567.320
  20556562.980          49.750          46.950
 119377040.019 8  93021094.345 7                  22716681.280    22716679.320
  22716678.680          48.900          44.350
 113078000.840 8  88112859.74647                  21517960.500
  21517957.540          49.700          45.400
 130640731.341 7 101798032.160 6  97556459.269 7  24860091.760    24860097.940
  24860097.500          42.250          41.200
 129762356.122 7 101113522.93546                  24692963.420
  24692965.080          45.450          36.350
 109757973.475 8  85525709.333 8                  20886233.920    20886231.600
  20886230.980          50.100          48.750
 113304251.809 7  88125622.078 6                  21255548.240    21255556.220
  21255555.420          42.950          40.100
 103035615.606 8  80138861.090 8                  19274926.220    19274929.140
  19274928.680          49.400          48.450
 116946583.967 7  90958500.551 7                  21892639.100    21892644.920
  21892644.020          45.450          43.950
 121089218.505 7  94180552.121 6                  22692059.880    22692064.500
  22692064.720          46.400          40.700
 109705281.613 8  85326369.871 7                  20486677.540    20486680.240
  20486679.260          49.150          47.200
 102430765.775 7  79668526.314 7                  19168464.680    19168470.540
  19168468.600          47.300          47.900
 15  1 27 16  5  5.0000000  0 15G30G21G07G13G15G28G24G10G05R14R05R16
                                R06R04R15
 118604532.907 8  92419206.937 7  88568420.245 8  22569658.320    22569658.660
  22569657.920          48.250          47.350
 134536902.273 6 104833955.54645                  25601521.780
  25601521.560          39.450          31.250
 131662885.920 7 102594522.914 6                  25054592.720    25054591.360
  25054590.900          42.800          37.650
 108020670.339 8  84172017.36347                  20555625.600
  20555621.280          49.800          47.350
 119363923.064 8  93010873.356 7                  22714185.180    22714183.220
  22714182.600          48.800          45.100
 113077662.899 8  88112596.43247                  21517896.180
  21517893.200          49.650          46.150
 130624966.138 6 101785747.645 6  97544686.611 7  24857091.680    24857097.940
  24857097.480          41.850          41.850
 129781092.573 7 101128122.73246                  24696528.900
  24696530.520          45.650          37.600
 109766139.275 8  85532072.298 8                  20887787.820    20887785.500
  20887784.860          50.050          49.250
 113321154.464 7  88138768.579 6                  21258719.160    21258727.180
  21258726.340          43.300          40.050
 103030358.430 8  80134772.186 8                  19273942.780    19273945.640
  19273945.220          49.350          48.100
 116929788.047 7  90945437.089 7                  21889494.840    21889500.720
  21889499.780          45.200          44.000
 121069398.083 7  94165136.262 6                  22688345.540    22688350.280
  22688350.360          46.400          40.600
 109719310.293 8  85337281.071 7                  20489297.340    20489300.020
  20489299.020          48.950          47.300
 102432577.721 7  79669935.616 7                  19168803.720    19168809.600
  19168807.660          47.300          47.850
 15  1 27 16  5 10.0000000  0 15G30G21G07G13G15G28G24G10G05R14R05R16
                                R06R04R15
 118618589.410 8  92430160.047 7  88578916.968 8  22572333.160    22572333.480
  22572332.800          48.250          47.300
 134533390.517 6 104831219.09245                  25600853.560
  25600853.180          39.900          32.750
 131678572.824 7 102606746.487 6                  25057577.820    25057576.420
  25057576.040          43.200          37.750
 108015727.009 8  84168165.42347                  20554684.860
  20554680.600          49.850          47.350
 119350807.195 8  93000653.210 7                  22711689.300    22711687.320
  22711686.740          48.500          44.900
 113077338.030 8  88112343.29547                  21517834.360
  21517831.360          49.550          46.050
 130609202.610 6 101773464.410 6  97532915.179 7  24854091.980    24854098.180
  24854097.780          41.650          41.250
 129799828.044 7 101142721.80246                  24700094.260
  24700095.740          45.750          37.200
 109774317.182 8  85538444.691 8                  20889344.040    20889341.720
  20889341.040          49.950          49.200
 113338061.647 7  88151918.616 6                  21261890.940    21261898.980
  21261898.120          43.750          40.000
 103025117.098 8  80130695.599 8                  19272962.280    19272965.140
  19272964.720          49.350          48.250
 116913000.270 7  90932379.969 7                  21886352.100    21886357.980
  21886357.100          46.100          44.050
 121049579.027 7  94149721.468 6                  22684631.420    22684636.180
  22684636.280          46.600          40.750
 109733351.447 8  85348201.958 7                  20491919.420    20491922.120
  20491921.120          49.400          47.600
 102434405.321 7  79671357.087 7                  19169145.720    19169151.600
  19169149.660          47.600          47.950
 15  1 27 16  5 15.0000000  0 15G30G21G07G13G15G28G24G10G05R14R05R16
                                R06R04R15
 118632649.589 8  92441116.026 7  88589416.448 8  22575008.740    22575009.040
  22575008.360          48.350          45.850
 134529890.503 6 104828491.81745                  25600187.580
  25600187.220          40.200          32.300
 131694258.603 7 102618969.191 6                  25060562.700    25060561.220
  25060560.960          42.450          37.100
 108010790.807 8  84164319.03847                  20553745.480
  20553741.280          49.700          45.750
 119337694.260 8  92990435.357 7                  22709193.960    22709192.020
  22709191.420          48.500          43.500
 113077028.217 8  88112101.89147                  21517775.400
  21517772.400          49.400          44.400
 130593442.459 6 101761183.775 6  97521146.265 7  24851092.940    24851099.080
  24851098.720          41.600          38.950
 129818564.468 7 101157321.58046                  24703659.780
  24703661.260          44.750          36.400
 109782509.110 8  85544828.007 8                  20890902.920    20890900.580
  20890899.900          49.950          48.000
 113354975.195 7  88165073.604 6                  21265063.920    21265071.960
  21265071.080          43.350          38.300
 103019893.447 8  80126632.759 7                  19271985.080    19271987.960
  19271987.520          49.250          47.100
 116896222.528 7  90919330.628 7                  21883211.220    21883217.100
  21883216.300          46.000          42.600
 121029763.226 7  94134309.189 6                  22680917.900    22680922.720
  22680922.740          46.400          38.800
 109747406.982 8  85359134.034 7                  20494544.180    20494546.940
  20494545.900          49.350          46.000
 102436250.372 7  79672792.129 7                  19169490.960    19169496.860
  19169494.920          47.600          46.600
 15  1 27 16  5 20.0000000  0 15G30G21G07G13G15G28G24G10G05R14R05R16
                                R06R04R15
 118646715.440 8  92452076.426 7  88599920.178 8  22577685.360    22577685.680
  22577685.000          48.250          46.050
 134526404.286 6 104825775.27644                  25599524.220
  25599523.840          39.750          28.900
 131709945.338 7 102631192.609 6                  25063547.740    25063546.280
  25063546.160          42.450          36.950
 108005863.696 8  84160479.73747                  20552807.840
  20552803.680          49.650          46.400
 119324586.289 8  92980221.364 7                  22706699.580    22706697.660
  22706697.040          48.250          43.750
 113076735.343 8  88111873.68647                  21517719.660
  21517716.660          49.450          44.600
 130577687.582 6 101748907.282 6  97509381.308 7  24848094.920    24848101.040
  24848100.600          41.700          39.300
 129837303.796 7 101171923.61346                  24707225.760
  24707227.360          43.950          36.350
 109790716.994 8  85551223.763 8                  20892464.860    20892462.480
  20892461.800          50.050          48.150
 113371897.247 7  88178235.201 6                  21268238.520    21268246.480
  21268245.600          43.000          38.650
 103014689.729 8  80122585.423 7                  19271011.620    19271014.520
  19271014.080          49.200          47.300
 116879456.824 7  90906290.665 7                  21880072.600    21880078.520
  21880077.720          45.550          43.250
 121009952.793 7  94118901.085 6                  22677205.420    22677210.280
  22677210.240          46.150          39.350
 109761479.037 8  85370078.958 7                  20497172.060    20497174.820
  20497173.760          49.000          46.150
 102438114.862 7  79674242.296 7                  19169839.840    19169845.760
  19169843.840          47.250          47.050
 15  1 27 16  5 25.0000000  0 15G30G21G07G13G15G28G24G10G05R14R05R16
                                R06R04R15
 118660785.169 8  92463039.845 7  88610426.792 8  22580362.780    22580363.100
  22580362.380          48.450          45.850
 134522930.072 6 104823068.10844                  25598863.120
  25598862.760          40.400          28.500
 131725631.201 7 102643415.376 6                  25066532.620    25066531.100
  25066531.000          43.050          36.350
 108000943.945 8  84156646.16347                  20551871.600
  20551867.480          49.600          46.000
 119311481.547 8  92970009.895 7                  22704205.800    22704203.900
  22704203.260          48.000          43.550
 113076457.667 8  88111657.32547                  21517666.820
  21517663.780          49.750          44.400
 130561936.246 6 101736633.561 6  97497619.010 7  24845097.540    24845103.600
  24845103.200          40.950          39.750
 129856044.293 7 101186526.53645                  24710791.880
  24710793.640          43.350          35.550
 109798939.086 8  85557630.594 8                  20894029.500    20894027.060
  20894026.400          50.100          48.100
 113388826.016 6  88191402.023 6                  21271414.300    21271422.260
  21271421.340          41.850          38.700
 103009504.002 8  80118552.082 7                  19270041.540    19270044.440
  19270043.980          48.700          47.450
 116862701.304 7  90893258.627 7                  21876935.900    21876941.900
  21876941.080          45.200          44.100
 120990145.773 7  94103495.650 6                  22673493.560    22673498.400
  22673498.380          45.650          39.600
 109775565.692 8  85381035.237 7                  20499802.660    20499805.400
  20499804.360          48.400          46.650
 102439997.075 7  79675706.246 7                  19170192.100    19170197.980
  19170196.060          46.650          47.250
 15  1 27 16  5 30.0000000  0 15G30G21G07G13G15G28G24G10G05R14R05R16
                                R06R04R15
 118674858.622 8  92474006.186 7  88620936.189 8  22583040.860    22583041.180
  22583040.460          48.750          46.000
 134519467.671 6 104820370.11945                  25598204.320
  25598203.780          41.000          30.500
 131741316.024 7 102655637.358 6                  25069517.360    25069515.780
  25069515.640          43.800          37.150
 107996031.407 8  84152818.22147                  20550936.740
  20550932.660          49.850          45.950
 119298379.831 8  92959800.776 7                  22701712.580    22701710.720
  22701710.100          48.400          44.150
 113076195.028 8  88111452.69247                  21517616.860
  21517613.800          50.200          44.000
 130546188.353 6 101724362.508 6  97485859.264 7  24842100.700    24842106.860
  24842106.280          41.400          39.900
 129874785.717 7 101201130.17646                  24714358.140
  24714360.000          44.300          36.550
 109807175.200 8  85564048.358 8                  20895596.820    20895594.340
  20895593.680          50.350          48.350
 113405761.073 7  88204573.727 6                  21274591.220    21274599.220
  21274598.300          43.000          39.050
 103004336.100 8  80114532.611 7                  19269074.780    19269077.660
  19269077.200          49.650          47.350
 116845955.979 7  90880234.500 7                  21873801.140    21873807.140
  21873806.320          46.300          44.200
 120970342.171 7  94088092.860 6                  22669782.360    22669787.240
  22669787.140          46.700          39.950
 109789666.733 8  85392002.717 7                  20502435.940    20502438.700
  20502437.620          49.350          46.600
 102441896.874 7  79677183.872 7                  19170547.640    19170553.500
  19170551.560          47.750          47.100
 15  1 27 16  5 35.0000000  0 15G30G21G07G13G15G28G24G10G05R14R05R16
                                R06R04R15
 118688936.040 8  92484975.595 7  88631448.534 8  22585719.720    22585720.000
  22585719.320          48.150          45.550
 134516017.309 6 104817681.53644                  25597547.740
  25597547.280          40.450          26.900
 131757000.093 7 102667858.708 6                  25072501.860    25072500.360
  25072500.240          42.800          36.650
 107991126.309 8  84148996.06547                  20550003.300
  20549999.260          49.300          46.150
 119285281.416 7  92949594.238 7                  22699219.980    22699218.200
  22699217.540          47.650          43.600
 113075947.679 8  88111259.95647                  21517569.800
  21517566.700          49.650          44.400
 130530444.049 6 101712094.251 6  97474102.195 7  24839104.640    24839110.780
  24839110.020          41.850          39.200
 129893528.316 7 101215734.76145                  24717924.820
  24717926.640          45.050          35.750
 109815425.575 8  85570477.215 7                  20897166.820    20897164.340
  20897163.660          49.700          47.900
 113422702.838 6  88217750.645 6                  21277769.460    21277777.540
  21277776.520          41.400          39.400
 102999186.367 8  80110527.263 7                  19268111.400    19268114.260
  19268113.820          48.600          47.800
 116829220.971 7  90867218.402 7                  21870668.260    21870674.340
  21870673.520          44.400          44.350
 120950542.371 7  94072693.043 6                  22666071.820    22666076.760
  22666076.680          44.800          40.300
 109803782.554 8  85402981.689 7                  20505071.960    20505074.760
  20505073.680          48.100          47.000
 102443814.495 7  79678675.350 7                  19170906.480    19170912.300
  19170910.380          46.550          47.450
 15  1 27 16  5 40.0000000  0 15G30G21G07G13G15G28G24G10G05R14R05R16
                                R06R04R15
 118703016.502 8  92495947.382 7  88641963.164 8  22588399.100    22588399.420
  22588398.720          48.650          45.900
 134512578.143 6 104815001.67045                  25596893.320
  25596892.640          41.100          32.750
 131772682.453 7 102680078.728 5                  25075486.060    25075484.620
  25075484.520          43.700          35.800
 107986227.746 8  84145179.00547                  20549071.120
  20549067.080          49.600          45.900
 119272185.379 7  92939389.535 7                  22696727.840    22696726.100
  22696725.460          47.800          44.050
 113075714.713 8  88111078.43047                  21517525.460
  21517522.340          49.750          44.550
 130514702.487 7 101699828.128 6  97462347.196 7  24836109.080    24836115.160
  24836114.460          42.650          39.000
 129912271.159 7 101230339.55046                  24721491.620
  24721493.320          45.950          36.650
 109823689.302 8  85576916.471 8                  20898739.360    20898736.860
  20898736.180          49.800          48.150
 113439650.248 6  88230931.946 6                  21280948.680    21280956.780
  21280955.800          40.750          38.500
 102994053.842 8  80106535.288 7                  19267151.260    19267154.120
  19267153.660          48.150          47.100
 116812495.394 7  90854209.634 7                  21867537.120    21867543.260
  21867542.480          44.150          43.800
 120930745.172 7  94057295.250 6                  22662361.760    22662366.840
  22662366.740          44.400          39.800
 109817912.127 7  85413971.344 7                  20507710.540    20507713.400
  20507712.300          47.750          46.400
 102445748.860 7  79680179.848 7                  19171268.420    19171274.280
  19171272.340          46.000          46.950
 15  1 27 16  5 45.0000000  0 15G30G21G07G13G15G28G24G10G05R14R05R16
                                R06R04R15
 118717101.088 8  92506922.387 7  88652480.870 8  22591079.280    22591079.640
  22591078.960          48.450          47.250
 134509151.214 6 104812331.34845                  25596241.240
  25596240.420          41.000          33.000
 131788364.241 7 102692298.343 6                  25078470.180    25078468.800
  25078468.720          43.400          37.550
 107981336.793 8  84141367.87947                  20548140.360
  20548136.360          49.550          47.750
 119259092.810 7  92929187.552 7                  22694236.340    22694234.660
  22694234.060          47.800          45.750
 113075497.210 8  88110908.96647                  21517484.080
  21517480.960          49.700          46.200
 130498964.860 6 101687565.083 6  97450595.093 7  24833114.320    24833120.280
  24833119.680          41.600          40.600
 129931015.393 7 101244945.45046                  24725058.660
  24725060.260          45.150          38.500
 109831967.478 8  85583366.993 8                  20900314.660    20900312.140
  20900311.460          49.950          49.350
 113456604.502 6  88244118.594 6                  21284129.240    21284137.300
  21284136.340          41.150          38.800
 102988939.761 8  80102557.681 7                  19266194.560    19266197.440
  19266196.960          48.500          47.600
 116795780.389 7  90841209.100 7                  21864407.980    21864414.180
  21864413.400          45.200          43.850
 120910951.949 7  94041900.556 6                  22658652.520    22658657.540
  22658657.500          45.050          39.550
 109832056.527 8  85424972.534 7                  20510351.880    20510354.760
  20510353.680          48.050          46.800
 102447701.155 7  79681698.314 7                  19171633.740    19171639.640
  19171637.680          46.400          47.300
 15  1 27 16  5 50.0000000  0 15G30G21G07G13G15G28G24G10G05R14R05R16
                                R06R04R15
 118731188.895 8  92517899.895 7  88663000.987 8  22593760.060    22593760.460
  22593759.780          48.450          47.300
 134505735.667 6 104809669.88745                  25595591.300
  25595590.260          40.000          34.300
 131804044.523 7 102704516.751 6                  25081454.000    25081452.660
  25081452.620          42.800          37.850
 107976452.579 8  84137562.00447                  20547210.900
  20547206.920          49.700          47.850
 119246002.827 7  92918987.590 7                  22691745.340    22691743.720
  22691743.140          47.900          46.050
 113075294.294 8  88110750.86247                  21517445.460
  21517442.340          49.700          46.200
 130483230.140 6 101675304.289 6  97438845.164 7  24830120.040    24830126.100
  24830125.360          41.350          40.600
 129949760.067 7 101259551.65346                  24728625.680
  24728627.220          44.150          40.450
 109840259.183 8  85589828.060 8                  20901892.520    20901890.000
  20901889.320          50.050          49.600
 113473564.677 6  88257309.837 6                  21287310.920    21287318.920
  21287318.000          41.150          38.700
 102983843.060 8  80098593.585 7                  19265241.100    19265243.980
  19265243.520          48.700          47.200
 116779075.045 7  90828216.075 7                  21861280.700    21861286.920
  21861286.160          45.200          43.700
 120891161.727 7  94026508.170 6                  22654943.800    22654948.800
  22654948.760          44.950          39.400
 109846214.944 8  85435984.636 7                  20512995.840    20512998.740
  20512997.700          48.500          46.450
 102449670.465 7  79683230.004 7                  19172002.260    19172008.160
  19172006.200          46.850          46.850
 15  1 27 16  5 55.0000000  0 15G30G21G07G13G15G28G24G10G05R14R05R16
                                R06R04R15
 118745282.254 8  92528881.725 7  88673525.235 8  22596441.940    22596442.340
  22596441.620          48.300          46.300
 134502333.788 6 104807019.05445                  25594943.960
  25594942.800          41.650          30.200
 131819725.623 7 102716735.771 6                  25084438.020    25084436.640
  25084436.680          43.450          36.600
 107971577.472 8  84133763.22347                  20546283.160
  20546279.220          49.800          46.450
 119232917.776 8  92908791.464 7                  22689255.280    22689253.740
  22689253.160          48.100          45.200
 113075108.253 8  88110605.90347                  21517410.060
  21517406.940          49.650          45.450
 130467500.702 6 101663047.611 6  97427099.218 7  24827126.800    24827132.800
  24827132.140          41.750          40.200
 129968507.535 7 101274160.00846                  24732193.040
  24732194.860          43.650          37.700
 109848566.745 8  85596301.489 8                  20903473.400    20903470.880
  20903470.200          50.050          48.900
 113490533.012 6  88270507.437 6                  21290494.220    21290502.140
  21290501.200          41.800          41.000
 102978766.075 8  80094644.822 8                  19264291.340    19264294.240
  19264293.760          48.900          48.700
 116762381.730 7  90815232.421 7                  21858155.640    21858161.900
  21858161.160          45.050          45.700
 120871376.694 7  94011119.836 6                  22651236.100    22651241.120
  22651241.040          45.350          41.250
 109860389.525 8  85447009.306 7                  20515642.860    20515645.740
  20515644.720          48.700          47.700
 102451659.114 7  79684776.731 8                  19172374.400    19172380.300
  19172378.360          47.050          48.850
 15  1 27 16  6  0.0000000  0 15G30G21G07G13G15G28G24G10G05R14R05R16
                                R06R04R15
 118759379.588 8  92539866.663 7  88684052.471 8  22599124.560    22599124.980
  22599124.240          48.400          46.000
 134498944.119 7 104804377.76445                  25594298.960
  25594297.800          42.050          31.750
 131835405.978 7 102728954.247 6                  25087421.920    25087420.560
  25087420.480          43.700          36.500
 107966710.017 8  84129970.40947                  20545356.900
  20545352.980          49.800          46.350
 119219836.090 7  92898597.953 7                  22686765.880    22686764.400
  22686763.800          47.950          44.650
 113074937.611 8  88110472.94447                  21517377.580
  21517374.480          49.750          44.800
 130451774.990 6 101650793.861 6  97415356.027 7  24824134.260    24824140.280
  24824139.640          41.750          40.250
 129987256.212 7 101288769.28946                  24735760.680
  24735762.720          44.150          36.000
 109856888.627 8  85602786.072 8                  20905057.000    20905054.480
  20905053.800          50.000          48.750
 113507508.026 6  88283710.228 6                  21293678.700    21293686.600
  21293685.680          41.850          39.900
 102973707.358 8  80090710.264 7                  19263345.020    19263347.880
  19263347.420          48.800          47.950
 116745698.958 7  90802256.965 7                  21855032.580    21855038.880
  21855038.120          45.500          44.550
 120851595.469 7  93995734.462 6                  22647529.120    22647534.100
  22647534.060          46.100          40.250
 109874579.009 8  85458045.561 7                  20518292.640    20518295.500
  20518294.520          48.600          46.650
 102453665.525 7  79686337.277 7                  19172749.880    19172755.760
  19172753.820          47.050          47.550
 15  1 27 16  6  5.0000000  0 15G30G21G07G13G15G28G24G10G05R14R05R16
                                R06R04R15
 118773478.808 8  92550853.069 7  88694581.098 8  22601807.600    22601807.980
  22601807.220          48.450          44.850
 134495564.519 7 104801744.31144                  25593655.920
  25593654.780          42.100          28.400
 131851083.470 7 102741170.493 5                  25090405.260    25090403.760
  25090403.860          43.650          34.850
 107961847.968 8  84126181.80247                  20544431.660
  20544427.780          49.750          44.900
 119206755.710 8  92888405.466 7                  22684276.700    22684275.300
  22684274.680          48.050          43.200
 113074780.223 8  88110350.31847                  21517347.620
  21517344.520          49.650          43.400
 130436050.913 6 101638541.378 6  97403614.068 7  24821142.020    24821148.140
  24821147.400          41.250          38.950
 130006003.924 7 101303377.85045                  24739328.340
  24739330.380          45.700          34.200
 109865222.748 8  85609280.193 7                  20906642.920    20906640.420
  20906639.740          49.800          47.400
 113524487.651 6  88296916.599 6                  21296864.140    21296871.980
  21296871.060          41.150          39.000
 102968664.874 8  80086788.334 7                  19262401.720    19262404.560
  19262404.140          48.650          47.050
 116729024.497 7  90789287.967 7                  21851911.040    21851917.420
  21851916.640          45.350          43.300
 120831816.048 7  93980350.476 6                  22643822.500    22643827.400
  22643827.420          46.100          39.550
 109888780.932 8  85469091.491 7                  20520944.760    20520947.600
  20520946.600          48.750          45.950
 102455687.518 7  79687909.945 7                  19173128.280    19173134.200
  19173132.200          47.100          46.600
 15  1 27 16  6 10.0000000  0 15G30G21G07G13G15G28G24G10G05R14R05R16
                                R06R04R15
 118787582.738 8  92561843.139 7  88705113.245 8  22604491.560    22604491.880
  22604491.100          48.300          45.850
 134492197.818 7 104799120.91445                  25593015.300
  25593013.940          42.100          32.700
 131866760.994 7 102753386.753 5                  25093388.620    25093387.000
  25093387.220          43.600          35.850
 107956994.181 8  84122399.62647                  20543507.980
  20543504.140          49.550          46.250
 119193679.490 8  92878216.214 7                  22681788.340    22681786.980
  22681786.340          48.100          44.500
 113074638.939 8  88110240.22647                  21517320.760
  21517317.620          49.800          44.550
 130420331.333 6 101626292.369 6  97391875.456 7  24818150.680    24818156.740
  24818156.080          41.800          39.650
 130024753.551 7 101317987.93446                  24742896.440
  24742898.360          45.850          37.300
 109873571.875 8  85615786.002 8                  20908231.680    20908229.200
  20908228.520          49.550          48.400
 113541474.588 6  88310128.638 6                  21300050.840    21300058.720
  21300057.800          41.250          40.000
 102963641.316 8  80082881.118 7                  19261461.960    19261464.800
  19261464.380          48.600          47.850
 116712361.238 7  90776327.660 7                  21848791.620    21848797.960
  21848797.240          44.900          43.950
 120812041.221 7  93964970.076 6                  22640116.660    22640121.560
  22640121.660          45.700          40.350
 109902998.369 8  85480149.486 7                  20523599.800    20523602.600
  20523601.620          48.900          46.800
 102457727.958 7  79689496.951 7                  19173510.080    19173516.020
  19173514.040          47.300          47.400
 15  1 27 16  6 15.0000000  0 15G30G21G07G13G15G28G24G10G05R14R05R16
                                R06R04R15
 118801689.444 8  92572835.370 7  88715647.474 8  22607176.040    22607176.300
  22607175.500          48.300          47.300
 134488842.089 6 104796506.02545                  25592376.780
  25592375.500          41.300          31.900
 131882436.575 7 102765601.492 6                  25096371.560    25096370.060
  25096370.200          43.400          37.650
 107952146.716 8  84118622.38247                  20542585.500
  20542581.720          49.400          47.950
 119180605.479 8  92868028.681 7                  22679300.400    22679299.120
  22679298.460          48.250          46.350
 113074511.822 8  88110141.18247                  21517296.560
  21517293.420          49.850          46.100
 130404614.347 7 101614045.406 6  97380138.795 7  24815159.820    24815165.780
  24815165.140          43.300          40.900
 130043503.226 7 101332598.02946                  24746464.500
  24746466.340          45.400          36.600
 109881934.058 8  85622301.986 8                  20909822.920    20909820.460
  20909819.780          49.550          49.600
 113558466.953 6  88323344.918 6                  21303238.600    21303246.420
  21303245.580          41.150          38.150
 102958634.903 8  80078987.241 7                  19260525.400    19260528.220
  19260527.800          48.850          46.400
 116695707.325 7  90763374.640 7                  21845673.960    21845680.300
  21845679.560          44.650          42.650
 120792268.857 7  93949591.597 6                  22636411.320    22636416.220
  22636416.280          45.850          38.050
 109917229.292 8  85491217.974 7                  20526257.340    20526260.120
  20526259.140          48.700          45.400
 102459784.972 7  79691096.853 7                  19173895.020    19173900.980
  19173898.980          47.350          45.800
 15  1 27 16  6 20.0000000  0 15G30G21G07G13G15G28G24G10G05R14R05R16
                                R06R04R15
 118815800.570 8  92583831.059 7  88726185.013 8  22609861.360    22609861.580
  22609860.740          48.800          47.450
 134485498.946 6 104793900.94845                  25591740.660
  25591739.580          41.700          31.600
 131898111.836 7 102777816.007 6                  25099354.500    25099352.980
  25099353.000          44.150          36.950
 107947307.259 8  84114851.38947                  20541664.520
  20541660.820          49.750          47.750
 119167535.344 8  92857844.185 7                  22676813.240    22676811.960
  22676811.300          48.750          46.100
 113074400.536 8  88110054.48247                  21517275.400
  21517272.220          50.150          46.200
 130388901.571 7 101601801.747 6  97368405.267 7  24812169.760    24812175.740
  24812174.980          43.250          41.300
 130062254.536 7 101347209.43346                  24750032.820
  24750034.580          45.250          37.750
 109890311.018 8  85628829.498 8                  20911416.980    20911414.540
  20911413.860          49.900          49.450
 113575466.392 7  88336566.710 6                  21306427.640    21306435.460
  21306434.640          42.000          39.550
 102953647.243 8  80075107.963 7                  19259592.360    19259595.180
  19259594.760          49.200          47.600
 116679064.376 7  90750430.157 7                  21842558.360    21842564.660
  21842563.940          46.000          43.850
 120772500.914 7  93934216.547 6                  22632706.740    22632711.680
  22632711.760          45.900          39.800
 109931475.340 8  85502298.235 7                  20528917.740    20528920.500
  20528919.520          49.200          46.650
 102461860.252 7  79692710.972 7                  19174283.360    19174289.320
  19174287.360          47.650          47.250
 15  1 27 16  6 25.0000000  0 15G30G21G07G13G15G28G24G10G05R14R05R16
                                R06R04R15
 118829916.005 8  92594830.091 7  88736725.756 8  22612547.460    22612547.660
  22612546.860          48.400          45.950
 134482168.344 6 104791305.73545                  25591106.900
  25591105.900          41.400          31.150
 131913786.724 7 102790030.235 5                  25102337.300    25102335.760
  25102335.720          43.750          35.650
 107942475.687 8  84111086.53147                  20540745.060
  20540741.400          49.050          46.400
 119154468.990 8  92847662.618 7                  22674326.800    22674325.520
  22674324.820          48.050          44.350
 113074304.921 8  88109979.98547                  21517257.240
  21517254.000          49.650          44.300
 130373192.919 6 101589561.278 6  97356674.849 7  24809180.460    24809186.400
  24809185.680          41.600          39.550
 130081007.384 7 101361821.99746                  24753601.360
  24753603.100          43.700          37.300
 109898702.626 8  85635368.412 8                  20913013.800    20913011.440
  20913010.720          49.400          48.000
 113592472.819 6  88349793.923 6                  21309617.980    21309625.840
  21309625.020          41.700          39.200
 102948678.276 8  80071243.215 7                  19258662.780    19258665.640
  19258665.220          49.000          47.700
 116662432.281 7  90737494.098 7                  21839444.760    21839451.040
  21839450.320          46.150          44.350
 120752737.157 7  93918844.765 6                  22629002.940    22629008.000
  22629008.040          45.700          40.350
 109945736.518 8  85513390.253 7                  20531581.000    20531583.660
  20531582.720          48.850          46.850
 102463953.704 7  79694339.215 7                  19174675.120    19174681.080
  19174679.120          47.400          47.700
 15  1 27 16  6 30.0000000  0 15G30G21G07G13G15G28G24G10G05R14R05R16
                                R06R04R15
 118844035.208 8  92605832.065 7  88747269.307 8  22615234.260    22615234.460
  22615233.680          48.450          47.400
 134478849.710 6 104788719.78245                  25590475.380
  25590474.460          40.800          34.850
 131929460.635 7 102802243.704 6                  25105319.920    25105318.420
  25105318.360          43.300          38.200
 107937651.507 8  84107327.43548                  20539826.980
  20539823.400          48.950          48.150
 119141405.865 8  92837483.583 7                  22671840.960    22671839.680
  22671839.000          48.300          45.950
 113074224.516 8  88109917.34247                  21517241.960
  21517238.680          49.600          46.300
 130357488.004 7 101577323.731 7  97344947.207 7  24806191.900    24806197.800
  24806197.020          42.450          42.150
 130099761.227 7 101376435.31546                  24757170.020
  24757171.920          43.750          38.700
 109907108.323 8  85641918.310 8                  20914613.300    20914611.020
  20914610.280          49.350          49.400
 113609485.550 7  88363026.041 6                  21312809.540    21312817.380
  21312816.540          42.250          38.500
 102943727.473 8  80067392.597 7                  19257736.620    19257739.540
  19257739.080          49.300          47.150
 116645810.600 7  90724566.142 7                  21836333.160    21836339.440
  21836338.680          45.900          43.600
 120732977.202 7  93903475.930 6                  22625299.880    22625304.960
  22625305.040          45.700          39.750
 109960012.029 8  85524493.434 7                  20534246.920    20534249.520
  20534248.580          49.100          46.250
 102466064.705 7  79695981.104 7                  19175070.180    19175076.120
  19175074.180          47.750          46.900
 15  1 27 16  6 35.0000000  0 15G30G21G07G13G15G28G24G10G05R14R05R16
                                R06R04R15
 118858157.827 8  92616836.699 7  88757815.414 8  22617921.700    22617921.920
  22617921.140          48.500          46.150
 134475542.774 6 104786142.89845                  25589846.100
  25589844.980          40.850          32.600
 131945133.239 7 102814456.150 6                  25108302.280    25108300.900
  25108300.880          42.850          37.300
 107932834.382 8  84103573.83947                  20538910.260
  20538906.740          49.100          46.700
 119128345.652 8  92827306.795 7                  22669355.660    22669354.400
  22669353.720          48.150          44.600
 113074158.944 8  88109866.25547                  21517229.500
  21517226.160          49.800          44.800
 130341786.312 7 101565088.686 6  97333221.977 7  24803203.940    24803209.880
  24803209.080          42.900          40.850
 130118515.707 7 101391049.15546                  24760738.900
  24760740.940          44.050          36.100
 109915527.776 8  85648478.916 8                  20916215.440    20916213.180
  20916212.460          49.450          48.300
 113626504.305 7  88376262.848 6                  21316002.160    21316009.980
  21316009.180          42.600          38.700
 102938794.490 8  80063555.834 7                  19256813.820    19256816.740
  19256816.280          49.150          47.450
 116629198.858 7  90711645.927 7                  21833223.380    21833229.700
  21833228.900          46.050          43.800
 120713220.630 7  93888109.736 6                  22621597.400    22621602.580
  22621602.700          45.400          40.150
 109974301.755 8  85535607.670 7                  20536915.520    20536918.000
  20536917.080          49.300          46.300
 102468192.763 7  79697636.267 7                  19175468.400    19175474.380
  19175472.420          47.600          46.950
 15  1 27 16  6 40.0000000  0 15G30G21G07G13G15G28G24G10G05R14R05R16
                                R06R04R15
 118872283.788 8  92627843.933 7  88768364.024 8  22620609.800    22620610.020
  22620609.220          48.650          46.350
 134472247.381 6 104783575.04945                  25589219.060
  25589218.140          41.400          32.750
 131960804.483 7 102826667.519 6                  25111284.400    25111283.060
  25111283.080          42.800          38.050
 107928024.253 8  84099825.68547                  20537994.900
  20537991.400          49.150          46.600
 119115288.279 8  92817132.235 7                  22666870.920    22666869.640
  22666869.000          48.150          44.850
 113074108.157 8  88109826.68747                  21517219.860
  21517216.460          49.900          45.050
 130326087.801 7 101552856.139 6  97321499.125 7  24800216.640    24800222.540
  24800221.800          42.600          40.800
 130137270.713 7 101405663.40346                  24764307.900
  24764309.960          44.350          37.600
 109923960.881 8  85655050.154 8                  20917820.160    20917817.940
  20917817.220          49.450          48.650
 113643529.024 7  88389504.294 6                  21319195.960    21319203.800
  21319202.940          42.300          38.600
 102933879.255 8  80059732.875 7                  19255894.300    19255897.260
  19255896.780          49.150          47.550
 116612597.131 7  90698733.486 7                  21830115.480    21830121.800
  21830120.980          45.850          43.700
 120693467.362 7  93872746.112 6                  22617895.680    22617900.840
  22617901.020          45.450          40.650
 109988605.599 8  85546732.873 7                  20539586.740    20539589.160
  20539588.220          49.250          46.200
 102470337.982 7  79699304.775 7                  19175869.840    19175875.820
  19175873.840          47.200          46.950
 15  1 27 16  6 45.0000000  0 15G30G21G07G13G15G28G24G10G05R14R05R16
                                R06R04R15
 118886415.191 8  92638855.416 7  88778916.696 8  22623298.920    22623299.120
  22623298.340          48.700          45.800
 134468965.698 6 104781017.89945                  25588594.580
  25588593.680          40.350          30.250
 131976476.491 7 102838879.481 6                  25114266.660    25114265.340
  25114265.320          42.750          36.900
 107923223.237 8  84096084.64247                  20537081.260
  20537077.820          49.200          46.550
 119102235.882 8  92806961.548 7                  22664387.120    22664385.840
  22664385.200          48.350          44.600
 113074074.267 8  88109800.28347                  21517213.440
  21517209.980          49.900          44.400
 130310394.588 6 101540627.694 6  97309780.199 7  24797230.340    24797236.200
  24797235.380          41.900          40.050
 130156028.407 7 101420279.73846                  24767877.400
  24767879.380          44.350          36.100
 109932409.785 8  85661633.712 8                  20919427.900    20919425.720
  20919425.000          49.550          48.250
 113660561.840 7  88402752.044 6                  21322391.280    21322399.100
  21322398.200          42.800          37.450
 102928983.915 8  80055925.391 7                  19254978.500    19254981.480
  19254981.000          49.350          46.650
 116596007.459 7  90685830.432 7                  21827009.840    21827016.200
  21827015.360          45.750          42.900
 120673719.704 7  93857386.846 6                  22614194.980    22614200.140
  22614200.360          46.000          39.400
 110002925.688 8  85557870.726 7                  20542260.980    20542263.320
  20542262.400          49.300          45.400
 102472502.537 7  79700988.320 7                  19176274.900    19176280.860
  19176278.900          47.650          45.800
 15  1 27 16  6 50.0000000  0 15G30G21G07G13G15G28G24G10G05R14R05R16
                                R06R04R15
 118900547.889 8  92649867.908 7  88789470.332 8  22625988.300    22625988.480
  22625987.700          48.400          46.150
 134465693.558 6 104778468.19844                  25587971.900
  25587970.960          40.250          28.750
 131992145.084 7 102851088.786 6                  25117248.240    25117246.960
  25117246.980          42.900          37.800
 107918427.284 8  84092347.54047                  20536168.600
  20536165.180          49.350          46.600
 119089184.292 8  92796791.497 7                  22661903.460    22661902.200
  22661901.560          48.250          45.050
 113074053.065 8  88109783.77547                  21517209.420
  21517205.920          49.850          44.800
 130294702.595 6 101528400.196 6  97298062.182 7  24794244.200    24794250.040
  24794249.260          41.550          40.650
 130174784.588 7 101434894.90546                  24771446.660
  24771448.700          44.650          36.350
 109940870.305 8  85668226.323 8                  20921037.840    20921035.720
  20921035.000          49.600          48.750
 113677598.447 7  88416002.740 6                  21325587.280    21325595.220
  21325594.200          42.800          38.050
 102924104.281 8  80052130.114 7                  19254065.660    19254068.660
  19254068.140          49.350          47.000
 116579425.772 7  90672933.611 7                  21823905.680    21823912.080
  21823911.240          46.000          43.050
 120653973.308 7  93842028.555 6                  22610494.500    22610499.720
  22610499.900          46.100          40.300
 110017257.734 8  85569017.869 7                  20544937.420    20544939.760
  20544938.820          49.200          45.950
 102474682.103 7  79702683.537 7                  19176682.780    19176688.720
  19176686.780          47.700          46.550
 15  1 27 16  6 55.0000000  0 15G30G21G07G13G15G28G24G10G05R14R05R16
                                R06R04R15
 118914685.850 8  92660884.494 7  88800027.885 8  22628678.700    22628678.840
  22628678.040          48.550          45.000
 134462434.923 6 104775929.01544                  25587351.760
  25587350.780          40.500          29.550
 132007814.241 7 102863298.517 5                  25120229.960    25120228.760
  25120228.700          42.800          35.950
 107913640.349 8  84088617.46447                  20535257.660
  20535254.240          49.550          45.150
 119076137.521 8  92786625.192 7                  22659420.720    22659419.460
  22659418.840          48.500          44.000
 113074048.614 8  88109780.30947                  21517208.600
  21517205.040          50.000          43.850
 130279015.684 7 101516176.680 6  97286347.983 7  24791259.020    24791264.880
  24791264.180          42.600          39.000
 130193543.223 7 101449511.98446                  24775016.380
  24775018.360          44.900          36.550
 109949346.401 8  85674831.069 7                  20922650.760    20922648.660
  20922647.960          49.850          47.700
 113694642.929 7  88429259.555 6                  21328784.840    21328792.700
  21328791.720          42.450          38.150
 102919244.409 8  80048350.216 7                  19253156.520    19253159.520
  19253159.020          49.250          47.050
 116562855.968 7  90660046.008 7                  21820803.760    21820810.120
  21820809.320          46.250          43.100
 120634232.164 7  93826674.358 6                  22606794.980    22606800.220
  22606800.500          46.250          40.500
 110031605.769 8  85580177.446 7                  20547616.860    20547619.200
  20547618.220          49.150          45.700
 102476880.663 7  79704393.535 7                  19177094.220    19177100.160
  19177098.220          47.750          46.300
 15  1 27 16  7  0.0000000  0 15G30G21G07G13G15G28G24G10G05R14R05R16
                                R06R04R15
 118928828.564 8  92671904.795 7  88810589.014 8  22631369.980    22631370.140
  22631369.260          48.550          45.600
 134459189.361 6 104773400.03244                  25586734.100
  25586733.000          40.350          29.900
 132023483.477 7 102875508.330 6                  25123211.740    25123210.520
  25123210.400          42.900          36.150
 107908861.853 8  84084893.96147                  20534348.320
  20534344.920          49.600          46.000
 119063095.072 8  92776462.267 7                  22656938.820    22656937.580
  22656936.940          48.650          44.350
 113074060.404 8  88109789.51047                  21517210.880
  21517207.260          50.150          44.400
 130263333.546 7 101503956.873 6  97274637.337 7  24788274.820    24788280.580
  24788279.960          42.650          40.500
 130212303.849 7 101464130.61545                  24778586.460
  24778588.520          44.800          35.600
 109957837.619 8  85681447.611 8                  20924266.560    20924264.500
  20924263.800          49.750          48.100
 113711694.757 7  88442522.076 6                  21331983.780    21331991.520
  21331990.640          42.200          38.650
 102914403.800 8  80044585.306 7                  19252250.960    19252253.980
  19252253.500          49.300          47.200
 116546297.666 7  90647167.355 7                  21817703.980    21817710.320
  21817709.560          46.050          43.550
 120614495.883 7  93811323.946 6                  22603096.440    22603101.680
  22603101.940          46.800          40.050
 110045969.257 8  85591349.039 7                  20550299.160    20550301.480
  20550300.480          49.150          45.900
 102479097.722 7  79706117.927 7                  19177509.120    19177515.040
  19177513.100          47.550          46.700
 15  1 27 16  7  5.0000000  0 15G30G21G07G13G15G28G24G10G05R14R05R16
                                R06R04R15
 118942972.731 8  92682926.228 7  88821151.209 8  22634061.540    22634061.680
  22634060.820          48.500          45.300
 134455953.489 6 104770878.52845                  25586118.300
  25586117.040          40.550          32.300
 132039149.479 7 102887715.633 6                  25126192.880    25126191.660
  25126191.540          43.000          36.900
 107904088.460 8  84081174.44047                  20533439.980
  20533436.580          49.550          46.300
 119050053.645 8  92766300.124 7                  22654457.120    22654455.820
  22654455.180          48.650          44.250
 113074085.084 8  88109808.75447                  21517215.580
  21517211.960          50.200          43.950
 130247652.775 6 101491738.130 6  97262927.716 7  24785290.880    24785296.620
  24785296.040          41.750          40.750
 130231063.159 7 101478748.21246                  24782156.160
  24782158.320          43.600          36.350
 109966340.619 8  85688073.320 8                  20925884.620    20925882.600
  20925881.900          49.600          48.150
 113728750.508 6  88455787.658 6                  21335183.440    21335191.140
  21335190.300          41.700          38.700
 102909579.137 8  80040832.796 7                  19251348.400    19251351.460
  19251350.960          49.100          47.100
 116529747.416 7  90634294.966 7                  21814605.720    21814612.100
  21814611.340          45.900          43.800
 120594761.053 7  93795974.645 6                  22599398.140    22599403.340
  22599403.600          46.650          40.000
 110060344.914 8  85602530.108 7                  20552983.720    20552986.020
  20552985.040          48.900          45.650
 102481329.843 7  79707854.023 7                  19177926.840    19177932.740
  19177930.800          47.450          46.400
 15  1 27 16  7 10.0000000  0 15G30G21G07G13G15G28G24G10G05R14R05R16
                                R06R04R15
 118957122.219 8  92693951.801 7  88831717.383 8  22636754.100    22636754.240
  22636753.360          48.650          45.700
 134452731.256 6 104768367.69345                  25585505.100
  25585503.860          40.550          33.600
 132054816.122 7 102899923.421 6                  25129174.100    25129172.980
  25129172.720          42.650          36.900
 107899324.087 8  84077461.95247                  20532533.340
  20532529.940          49.550          46.150
 119037017.116 8  92756141.804 7                  22651976.360    22651975.080
  22651974.360          48.650          44.300
 113074126.557 8  88109841.08647                  21517223.480
  21517219.840          50.050          44.500
 130231977.186 7 101479523.471 6  97251222.007 7  24782307.880    24782313.620
  24782312.940          42.400          40.750
 130249824.992 7 101493367.74046                  24785726.300
  24785728.460          44.450          36.400
 109974859.281 8  85694711.231 8                  20927505.620    20927503.640
  20927502.940          49.450          48.300
 113745814.172 6  88469059.397 6                  21338384.520    21338392.240
  21338391.460          41.200          38.850
 102904774.365 8  80037095.760 7                  19250449.560    19250452.640
  19250452.160          49.250          47.150
 116513209.174 7  90621431.914 7                  21811509.740    21811516.080
  21811515.360          45.800          43.900
 120575031.859 7  93780629.741 6                  22595700.900    22595706.060
  22595706.380          46.700          40.250
 110074736.641 8  85613723.667 7                  20555671.260    20555673.560
  20555672.580          48.850          45.950
 102483581.105 7  79709605.009 7                  19178348.160    19178354.020
  19178352.060          47.150          46.600
 15  1 27 16  7 15.0000000  0 15G30G21G07G13G15G28G24G10G05R14R05R16
                                R06R04R15
 118971274.355 8  92704979.440 7  88842285.531 8  22639447.160    22639447.300
  22639446.400          48.400          45.450
 134449519.941 6 104765865.39245                  25584893.960
  25584892.880          40.600          31.900
 132070480.733 7 102912129.610 5                  25132154.940    25132153.820
  25132153.780          42.500          35.750
 107894566.055 8  84073754.39247                  20531627.900
  20531624.500          49.650          46.050
 119023982.863 8  92745985.253 7                  22649496.020    22649494.720
  22649494.020          48.650          44.350
 113074182.203 8  88109884.45547                  21517234.080
  21517230.400          49.950          44.200
 130216304.163 7 101467310.808 6  97239518.203 7  24779325.360    24779331.120
  24779330.260          42.600          40.000
 130268586.614 7 101507987.15945                  24789296.600
  24789298.760          45.650          35.650
 109983390.931 8  85701359.261 8                  20929129.120    20929127.180
  20929126.460          49.550          48.000
 113762883.071 6  88482335.197 6                  21341586.540    21341594.340
  21341593.560          41.350          40.650
 102899986.811 8  80033372.109 8                  19249553.960    19249557.020
  19249556.540          49.250          48.150
 116496680.313 7  90608576.151 7                  21808415.500    21808421.800
  21808421.120          45.700          45.000
 120555305.439 7  93765286.980 6                  22592004.220    22592009.320
  22592009.580          46.850          41.400
 110089141.718 8  85624927.616 7                  20558361.220    20558363.640
  20558362.620          48.400          47.100
 102485848.842 7  79711368.808 7                  19178772.520    19178778.400
  19178776.420          47.100          47.450
 15  1 27 16  7 20.0000000  0 15G30G21G07G13G15G28G24G10G05R14R05R16
                                R06R04R15
 118985430.270 8  92716010.019 7  88852856.500 8  22642140.920    22642141.060
  22642140.180          48.650          45.850
 134446320.683 6 104763372.43345                  25584285.140
  25584284.000          40.900          31.850
 132086144.462 7 102924335.125 5                  25135135.640    25135134.540
  25135134.380          43.600          35.550
 107889815.560 8  84070052.71247                  20530723.880
  20530720.520          49.700          46.000
 119010952.022 8  92735831.366 7                  22647016.360    22647015.000
  22647014.300          48.750          44.300
 113074253.161 8  88109939.74747                  21517247.600
  21517243.880          49.950          44.350
 130200634.996 7 101455101.118 6  97227817.252 7  24776343.600    24776349.340
  24776348.440          42.100          39.950
 130287349.224 7 101522607.34245                  24792867.100
  24792869.100          45.900          34.350
 109991936.709 8  85708018.309 8                  20930755.320    20930753.380
  20930752.660          49.700          48.050
 113779958.244 6  88495615.874 6                  21344789.720    21344797.660
  21344796.860          41.550          39.300
 102895217.592 8  80029662.725 7                  19248661.760    19248664.860
  19248664.340          49.400          47.250
 116480161.975 7  90595728.562 7                  21805323.240    21805329.480
  21805328.840          45.850          43.500
 120535583.062 7  93749947.364 6                  22588308.300    22588313.300
  22588313.540          46.600          39.850
 110103561.175 8  85636142.753 7                  20561053.900    20561056.400
  20561055.360          48.500          46.200
 102488134.200 7  79713146.319 7                  19179200.200    19179206.100
  19179204.100          47.400          46.800
 15  1 27 16  7 25.0000000  0 15G30G21G07G13G15G28G24G10G05R14R05R16
                                R06R04R15
 118999590.013 8  92727043.580 7  88863430.338 8  22644835.440    22644835.600
  22644834.740          48.900          44.300
 134443133.557 6 104760888.96445                  25583678.620
  25583677.440          40.650          30.500
 132101807.350 7 102936540.008 5                  25138116.240    25138115.140
  25138114.880          43.350          34.050
 107885072.644 8  84066356.93947                  20529821.340
  20529817.940          49.600          44.650
 118997924.650 8  92725680.181 7                  22644537.360    22644535.960
  22644535.240          48.800          42.650
 113074339.410 8  88110006.96647                  21517264.000
  21517260.300          49.850          42.800
 130184969.548 6 101442894.292 6  97216119.071 7  24773362.560    24773368.280
  24773367.420          41.950          37.650
 130306112.846 7 101537228.31845                  24796437.820
  24796439.740          45.900          34.250
 110000496.646 8  85714688.395 7                  20932384.220    20932382.260
  20932381.560          49.800          46.700
 113797039.776 7  88508901.506 6                  21347994.120    21348002.100
  21348001.360          42.100          40.400
 102890466.829 8  80025967.689 7                  19247773.020    19247776.100
  19247775.600          49.350          47.950
 116463654.254 7  90582889.244 7                  21802232.960    21802239.160
  21802238.560          46.400          44.650
 120515864.673 7  93734610.866 6                  22584613.120    22584618.060
  22584618.320          47.000          41.700
 110117995.372 8  85647369.334 7                  20563749.300    20563751.900
  20563750.900          48.650          47.150
 102490437.084 7  79714937.456 7                  19179631.160    19179637.060
  19179635.040          47.600          47.450
 15  1 27 16  7 30.0000000  0 15G30G21G07G13G15G28G24G10G05R14R05R16
                                R06R04R15
 119013753.476 8  92738080.048 7  88874006.951 8  22647530.660    22647530.840
  22647530.020          48.700          47.450
 134439958.464 6 104758414.89345                  25583074.420
  25583073.380          40.350          33.250
 132117469.298 7 102948744.149 6                  25141096.620    25141095.460
  25141095.220          42.650          38.200
 107880337.226 8  84062667.00847                  20528920.200
  20528916.840          49.550          47.600
 118984900.672 8  92715531.638 7                  22642059.000    22642057.580
  22642056.840          48.500          45.800
 113074440.874 8  88110086.03747                  21517283.320
  21517279.600          49.850          46.450
 130169307.764 6 101430690.331 6  97204423.628 7  24770382.140    24770387.820
  24770386.880          41.700          40.400
 130324877.390 7 101551850.00846                  24800008.660
  24800010.560          45.050          37.400
 110009070.610 8  85721369.411 8                  20934015.800    20934013.820
  20934013.140          49.650          49.450
 113814127.559 7  88522191.994 6                  21351199.740    21351207.800
  21351207.000          42.700          38.600
 102885734.310 8  80022286.841 7                  19246887.700    19246890.780
  19246890.240          49.400          47.000
 116447157.016 7  90570058.082 7                  21799144.620    21799150.820
  21799150.220          46.600          43.250
 120496150.196 7  93719277.407 6                  22580918.700    22580923.620
  22580923.800          47.100          39.250
 110132443.872 8  85658607.051 7                  20566447.420    20566450.060
  20566449.100          48.750          46.000
 102492757.489 7  79716742.219 7                  19180065.440    19180071.280
  19180069.280          47.600          46.650
 15  1 27 16  7 35.0000000  0 15G30G21G07G13G15G28G24G10G05R14R05R16
                                R06R04R15
 119027922.347 8  92749120.722 7  88884587.605 8  22650226.900    22650227.100
  22650226.320          48.300          46.900
 134436797.053 6 104755951.42745                  25582472.860
  25582472.060          41.200          34.550
 132133131.973 7 102960948.842 6                  25144077.100    25144075.940
  25144075.680          42.450          38.150
 107875610.989 8  84058984.23047                  20528020.800
  20528017.460          49.400          47.100
 118971881.724 8  92705387.011 7                  22639581.560    22639580.100
  22639579.380          48.750          45.400
 113074559.254 8  88110178.28847                  21517305.880
  21517302.120          49.900          46.100
 130153651.266 6 101418490.534 6  97192732.189 7  24767402.720    24767408.400
  24767407.520          41.600          40.950
 130343644.577 7 101566473.74145                  24803579.880
  24803581.920          44.600          33.550
 110017660.325 8  85728062.694 8                  20935650.360    20935648.380
  20935647.700          49.400          49.200
 113831223.281 7  88535488.679 6                  21354406.820    21354414.940
  21354414.160          43.100          37.600
 102881022.001 8  80018621.707 7                  19246006.180    19246009.240
  19246008.700          49.450          46.100
 116430672.086 7  90557236.496 6                  21796058.600    21796064.800
  21796064.160          46.300          41.950
 120476441.383 7  93703948.343 6                  22577225.320    22577230.180
  22577230.340          47.900          38.400
 110146908.609 8  85669857.395 7                  20569148.540    20569151.280
  20569150.320          49.100          44.650
 102495097.037 7  79718561.871 7                  19180503.240    19180509.080
  19180507.120          47.750          45.600
 15  1 27 16  7 40.0000000  0 15G30G21G07G13G15G28G24G10G05R14R05R16
                                R06R04R15
 119042093.528 8  92760163.192 7  88895169.968 8  22652923.580    22652923.800
  22652923.040          48.300          47.100
 134433646.318 6 104753496.30245                  25581873.320
  25581872.580          41.650          32.800
 132148792.373 7 102973151.751 6                  25147057.200    25147056.060
  25147055.720          42.750          38.200
 107870890.840 8  84055306.19647                  20527122.560
  20527119.240          49.400          47.550
 118958864.720 8  92695243.899 7                  22637104.520    22637103.020
  22637102.320          48.750          45.600
 113074691.418 8  88110281.28147                  21517331.040
  21517327.260          50.150          45.900
 130137997.204 6 101406292.619 7  97181042.489 7  24764423.780    24764429.500
  24764428.620          41.950          42.000
 130362411.286 7 101581097.07745                  24807150.960
  24807153.180          45.050          35.800
 110026262.682 8  85734765.825 8                  20937287.340    20937285.380
  20937284.680          49.600          49.350
 113848323.884 7  88548789.152 6                  21357614.880    21357623.020
  21357622.200          42.800          39.000
 102876326.524 8  80014969.669 7                  19245127.800    19245130.840
  19245130.320          49.150          47.600
 116414196.151 7  90544421.920 7                  21792974.280    21792980.440
  21792979.820          46.200          43.500
 120456735.129 7  93688621.275 6                  22573532.460    22573537.200
  22573537.400          47.600          40.050
 110161386.422 8  85681117.920 7                  20571852.140    20571854.940
  20571853.960          48.750          46.350
 102497452.549 7  79720393.944 7                  19180944.040    19180949.880
  19180947.940          47.550          47.200
 15  1 27 16  7 45.0000000  0 15G30G21G07G13G15G28G24G10G05R14R05R16
                                R06R04R15
 119056267.278 7  92771207.667 7  88905754.259 8  22655620.740    22655621.000
  22655620.240          47.900          46.100
 134430506.526 6 104751049.73845                  25581275.820
  25581275.120          41.500          30.050
 132164450.707 6 102985353.067 6                  25150036.840    25150035.660
  25150035.540          41.600          36.600
 107866177.092 8  84051633.14747                  20526225.560
  20526222.240          49.350          46.850
 118945849.952 8  92685102.532 7                  22634627.920    22634626.380
  22634625.680          48.900          44.150
 113074837.692 8  88110395.26747                  21517358.900
  21517355.120          50.250          44.350
 130122345.638 7 101394096.634 6  97169354.710 7  24761445.360    24761451.060
  24761450.280          42.850          40.900
 130381177.746 7 101595720.23246                  24810722.100
  24810724.380          44.700          36.750
 110034877.989 8  85741479.051 8                  20938926.780    20938924.800
  20938924.120          49.750          48.250
 113865429.569 7  88562093.578 6                  21360823.880    21360832.080
  21360831.220          42.350          40.550
 102871648.244 8  80011331.016 8                  19244252.660    19244255.680
  19244255.160          49.050          48.700
 116397729.661 7  90531614.675 7                  21789891.720    21789897.800
  21789897.220          45.700          44.600
 120437031.703 7  93673296.409 6                  22569840.100    22569844.740
  22569844.920          47.400          41.000
 110175877.481 8  85692388.740 7                  20574558.200    20574561.040
  20574560.060          48.750          47.600
 102499824.477 7  79722238.782 8                  19181387.900    19181393.740
  19181391.800          47.200          48.300
 15  1 27 16  7 50.0000000  0 15G30G21G07G13G15G28G24G10G05R14R05R16
                                R06R04R15
 119070445.485 7  92782255.610 7  88916341.878 8  22658318.740    22658319.020
  22658318.300          47.700          47.850
 134427379.520 6 104748613.11245                  25580680.760
  25580680.120          41.400          35.800
 132180108.808 6 102997554.188 6                  25153016.480    25153015.260
  25153015.180          41.850          39.250
 107861471.591 8  84047966.52547                  20525330.120
  20525326.780          49.550          47.950
 118932839.333 8  92674964.393 7                  22632152.100    22632150.500
  22632149.800          48.900          46.550
 113075000.007 8  88110521.75247                  21517389.820
  21517386.000          50.150          46.950
 130106698.628 7 101381904.204 7  97157670.309 7  24758467.840    24758473.480
  24758472.720          43.550          42.350
 130399945.860 7 101610344.70146                  24814293.580
  24814295.700          45.800          37.300
 110043508.100 8  85748203.811 8                  20940569.060    20940567.060
  20940566.400          49.950          50.000
 113882542.234 7  88575403.422 6                  21364034.220    21364042.380
  21364041.520          42.650          39.350
 102866989.243 8  80007707.359 7                  19243381.120    19243384.120
  19243383.620          49.150          47.800
 116381274.514 7  90518816.235 7                  21786811.320    21786817.320
  21786816.760          45.900          43.750
 120417333.210 7  93657975.369 6                  22566148.620    22566153.220
  22566153.360          47.350          40.050
 110190383.801 8  85703671.427 7                  20577267.100    20577269.980
  20577269.000          48.750          46.750
 102502214.632 7  79724097.789 7                  19181835.160    19181841.060
  19181839.080          47.100          47.300
 15  1 27 16  7 55.0000000  0 15G30G21G07G13G15G28G24G10G05R14R05R16
                                R06R04R15
 119084627.790 7  92793306.745 7  88926932.563 8  22661017.500    22661017.840
  22661017.120          47.600          46.550
 134424265.013 6 104746186.24245                  25580088.080
  25580087.220          41.200          33.850
 132195766.357 6 103009754.900 6                  25155995.960    25155994.880
  25155994.900          40.750          37.000
 107856774.023 8  84044306.08647                  20524436.160
  20524432.840          49.300          46.900
 118919832.487 8  92664829.200 7                  22629676.980    22629675.360
  22629674.660          48.900          44.850
 113075177.977 8  88110660.44047                  21517423.720
  21517419.880          50.050          45.650
 130091055.816 7 101369715.045 6  97145989.050 7  24755491.080    24755496.720
  24755495.980          43.100          40.350
 130418715.221 7 101624970.15045                  24817865.400
  24817867.360          46.100          35.250
 110052152.665 8  85754939.838 8                  20942214.080    20942212.060
  20942211.420          49.950          48.750
 113899661.480 7  88588718.394 6                  21367245.760    21367253.940
  21367253.080          42.050          38.300
 102862348.930 8  80004098.235 7                  19242513.040    19242516.060
  19242515.560          49.250          47.050
 116364830.267 7  90506026.278 7                  21783732.920    21783738.900
  21783738.280          45.800          43.000
 120397639.123 7  93642657.770 6                  22562457.980    22562462.500
  22562462.680          47.350          39.050
 110204904.794 8  85714965.520 7                  20579978.740    20579981.680
  20579980.720          48.850          46.000
 102504622.681 7  79725970.718 7                  19182285.820    19182291.700
  19182289.720          47.150          46.450
 15  1 27 16  8  0.0000000  0 15G30G21G07G13G15G28G24G10G05R14R05R16
                                R06R04R15
 119098813.548 7  92804360.574 7  88937525.796 8  22663716.920    22663717.300
  22663716.560          47.600          46.150
 134421162.274 6 104743768.54245                  25579497.680
  25579496.640          41.150          31.050
 132211422.692 6 103021954.644 6                  25158975.220    25158974.100
  25158974.120          41.450          37.650
 107852083.749 8  84040651.33147                  20523543.600
  20523540.300          49.200          46.900
 118906828.783 8  92654696.447 7                  22627202.460    22627200.820
  22627200.100          48.900          44.950
 113075370.936 8  88110810.80647                  21517460.480
  21517456.600          50.200          45.550
 130075416.434 7 101357528.565 6  97134310.346 7  24752515.000    24752520.580
  24752519.860          42.750          40.350
 130437485.225 7 101639596.09445                  24821437.300
  24821439.140          45.800          35.900
 110060811.038 8  85761686.626 8                  20943861.720    20943859.680
  20943859.040          49.800          48.800
 113916786.483 7  88602037.830 6                  21370458.440    21370466.500
  21370465.700          42.000          40.150
 102857726.843 8  80000503.278 8                  19241648.420    19241651.420
  19241650.880          49.650          48.300
 116348396.362 7  90493244.364 7                  21780656.460    21780662.440
  21780661.740          46.150          44.800
 120377948.704 7  93627343.008 6                  22558768.060    22558772.440
  22558772.580          47.600          40.500
 110219439.977 8  85726270.646 7                  20582693.040    20582696.020
  20582695.060          49.250          47.150
 102507047.955 7  79727857.045 7                  19182739.660    19182745.560
  19182743.600          47.700          47.950
 15  1 27 16  8  5.0000000  0 15G30G21G07G13G15G28G24G10G05R14R05R16
                                R06R04R15
 119113002.940 7  92815417.241 7  88948121.779 8  22666417.040    22666417.440
  22666416.680          47.850          45.800
 134418071.672 6 104741360.27944                  25578909.500
  25578908.760          41.750          28.350
 132227077.966 7 103034153.569 6                  25161954.300    25161953.100
  25161953.300          42.750          37.750
 107847400.989 8  84037002.44047                  20522652.480
  20522649.200          49.300          46.450
 118893828.462 8  92644566.340 7                  22624728.600    22624726.920
  22624726.220          48.900          44.550
 113075579.141 8  88110973.05047                  21517500.120
  21517496.240          50.200          44.900
 130059780.743 7 101345344.977 6  97122634.417 7  24749539.560    24749545.140
  24749544.400          42.950          40.350
 130456256.072 7 101654222.70245                  24825009.280
  24825011.240          44.800          35.950
 110069483.438 8  85768444.347 8                  20945512.020    20945510.000
  20945509.340          49.700          48.400
 113933917.670 6  88615362.082 6                  21373672.220    21373680.320
  21373679.520          41.750          40.300
 102853123.078 8  79996922.572 8                  19240787.200    19240790.180
  19240789.620          49.300          48.200
 116331973.004 7  90480470.675 7                  21777581.960    21777587.860
  21777587.180          46.200          45.150
 120358262.418 7  93612031.461 6                  22555078.860    22555083.180
  22555083.300          47.150          41.350
 110233989.536 8  85737586.976 7                  20585410.060    20585413.060
  20585412.060          49.050          47.300
 102509490.626 7  79729756.904 7                  19183196.780    19183202.680
  19183200.720          47.750          47.650
 15  1 27 16  8 10.0000000  0 15G30G21G07G13G15G28G24G10G05R14R05R16
                                R06R04R15
 119127195.829 8  92826476.629 7  88958720.361 8  22669117.820    22669118.240
  22669117.460          48.000          46.050
 134414992.952 6 104738961.25545                  25578323.620
  25578322.960          41.050          32.950
 132242732.078 7 103046351.590 6                  25164933.220    25164932.020
  25164932.080          42.600          38.550
 107842725.574 8  84033359.25747                  20521762.740
  20521759.500          49.150          47.350
 118880831.398 8  92634438.762 7                  22622255.360    22622253.640
  22622252.940          48.950          45.250
 113075802.417 8  88111147.03547                  21517542.640
  21517538.720          50.000          45.800
 130044148.626 7 101333164.156 6  97110961.146 8  24746564.860    24746570.440
  24746569.640          42.700          40.700
 130475027.598 7 101668849.77446                  24828581.340
  24828583.400          44.900          36.250
 110078169.699 8  85775212.847 8                  20947164.960    20947162.920
  20947162.280          49.650          48.950
 113951054.877 6  88628690.998 6                  21376887.100    21376895.200
  21376894.420          41.850          39.450
 102848537.610 8  79993356.093 7                  19239929.400    19239932.380
  19239931.780          49.250          47.600
 116315560.005 7  90467705.021 7                  21774509.420    21774515.260
  21774514.560          46.350          43.800
 120338580.192 7  93596723.090 6                  22551390.440    22551394.740
  22551394.840          47.350          40.150
 110248553.361 8  85748914.376 7                  20588129.760    20588132.760
  20588131.700          49.300          46.450
 102511950.554 7  79731670.187 7                  19183657.140    19183663.000
  19183661.040          47.750          47.250
 15  1 27 16  8 15.0000000  0 15G30G21G07G13G15G28G24G10G05R14R05R16
                                R06R04R15
 119141391.850 8  92837538.472 7  88969321.276 8  22671819.240    22671819.660
  22671818.840          48.350          45.250
 134411925.774 6 104736571.27945                  25577739.940
  25577739.280          41.200          34.800
 132258384.716 7 103058548.466 6                  25167911.800    25167910.600
  25167910.760          42.250          37.550
 107838057.210 8  84029721.57447                  20520874.360
  20520871.140          49.250          46.100
 118867837.258 8  92624313.467 7                  22619782.660    22619780.920
  22619780.260          49.000          44.550
 113076040.423 8  88111332.50047                  21517587.940
  21517583.980          49.950          44.600
 130028519.725 7 101320985.851 6  97099290.280 8  24743590.720    24743596.300
  24743595.460          43.250          39.300
 130493799.464 7 101683477.15845                  24832153.480
  24832155.620          44.950          33.050
 110086869.439 8  85781991.868 8                  20948820.460    20948818.440
  20948817.780          49.700          48.450
 113968197.618 6  88642024.239 6                  21380103.100    21380111.180
  21380110.380          41.900          39.300
 102843970.019 8  79989803.517 7                  19239074.980    19239077.900
  19239077.280          49.250          47.100
 116299157.111 7  90454947.225 7                  21771438.760    21771444.520
  21771443.780          46.050          43.250
 120318901.441 7  93581417.401 6                  22547702.620    22547706.960
  22547707.000          47.550          40.350
 110263130.945 8  85760252.499 7                  20590852.040    20590855.020
  20590853.940          49.200          46.050
 102514427.317 7  79733596.569 7                  19184120.660    19184126.480
  19184124.540          47.550          46.950
 15  1 27 16  8 20.0000000  0 15G30G21G07G13G15G28G24G10G05R14R05R16
                                R06R04R15
 119155592.895 8  92848604.229 7  88979925.960 8  22674521.600    22674522.000
  22674521.160          48.450          45.400
 134408872.050 6 104734191.76245                  25577158.840
  25577158.360          41.900          32.100
 132274037.756 7 103070745.644 6                  25170890.400    25170889.240
  25170889.400          42.600          37.150
 107833397.810 8  84026090.87647                  20519987.700
  20519984.500          49.200          46.750
 118854847.888 8  92614191.885 7                  22617310.860    22617309.100
  22617308.480          48.900          44.750
 113076295.037 8  88111530.90747                  21517636.420
  21517632.440          50.000          44.700
 130012895.890 7 101308811.505 6  97087623.185 7  24740617.580    24740623.120
  24740622.180          43.350          38.400
 130512573.517 7 101698106.23745                  24835726.060
  24835728.180          45.250          33.950
 110095584.561 8  85788782.867 8                  20950478.880    20950476.860
  20950476.220          49.850          48.450
 113985347.856 7  88655363.307 6                  21383320.380    21383328.540
  21383327.740          42.050          38.800
 102839422.331 8  79986266.429 7                  19238224.260    19238227.160
  19238226.560          49.400          47.350
 116282766.186 7  90442198.745 7                  21768370.340    21768376.080
  21768375.320          45.450          43.050
 120299228.074 7  93566115.916 6                  22544015.860    22544020.180
  22544020.260          47.600          40.050
 110277724.283 8  85771602.863 7                  20593577.280    20593580.220
  20593579.120          49.200          45.900
 102516922.893 7  79735537.566 7                  19184587.680    19184593.500
  19184591.560          47.700          46.950
 15  1 27 16  8 25.0000000  0 15G30G21G07G13G15G28G24G10G05R14R05R16
                                R06R04R15
 119169796.024 8  92859671.602 7  88990532.193 8  22677224.400    22677224.740
  22677223.900          48.100          45.250
 134405828.767 6 104731820.34245                  25576579.760
  25576579.080          41.400          33.800
 132289688.229 7 103082940.834 6                  25173868.540    25173867.500
  25173867.560          42.400          37.150
 107828744.365 8  84022464.81147                  20519102.140
  20519099.000          48.900          46.450
 118841860.328 8  92604071.721 7                  22614839.360    22614837.600
  22614837.020          48.500          44.150
 113076563.301 8  88111739.94847                  21517687.460
  21517683.460          49.900          44.750
 129997274.201 7 101296638.798 6  97075957.701 7  24737644.860    24737650.220
  24737649.300          42.800          38.950
 130531346.824 7 101712734.75145                  24839298.600
  24839300.600          45.900          34.150
 110104312.148 8  85795583.576 8                  20952139.700    20952137.660
  20952137.020          49.700          48.150
 114002502.668 6  88668705.932 6                  21386538.600    21386546.720
  21386545.960          41.100          38.550
 102834891.474 8  79982742.429 7                  19237376.680    19237379.560
  19237379.000          48.800          46.850
 116266384.276 7  90429457.286 7                  21765303.600    21765309.320
  21765308.520          44.750          42.700
 120279557.340 7  93550816.473 6                  22540329.540    22540333.880
  22540333.980          46.300          39.450
 110292330.487 8  85782963.235 7                  20596304.940    20596307.840
  20596306.720          48.450          45.400
 102519434.188 7  79737490.789 7                  19185057.620    19185063.440
  19185061.520          46.850          46.450
 15  1 27 16  8 30.0000000  0 15G30G21G07G13G15G28G24G10G05R14R05R16
                                R06R04R15
 119184002.692 8  92870741.729 7  89001141.064 8  22679927.860    22679928.160
  22679927.340          48.050          45.700
 134402797.447 6 104729458.30345                  25576002.900
  25576002.220          40.650          33.400
 132305337.654 7 103095135.193 6                  25176846.520    25176845.480
  25176845.520          43.200          37.050
 107824098.381 8  84018844.56947                  20518218.020
  20518214.900          48.800          46.850
 118828876.102 8  92593954.151 7                  22612368.520    22612366.760
  22612366.200          48.550          44.600
 113076846.708 8  88111960.78547                  21517741.420
  21517737.380          49.800          44.900
 129981656.230 7 101284468.977 6  97064294.960 7  24734672.820    24734678.060
  24734677.260          43.050          40.200
 130550120.854 7 101727363.84645                  24842871.280
  24842873.260          45.450          35.800
 110113053.663 8  85802395.156 8                  20953803.140    20953801.100
  20953800.480          49.550          48.350
 114019663.348 6  88682053.126 6                  21389757.940    21389766.080
  21389765.280          41.800          39.700
 102830379.033 8  79979232.757 7                  19236532.580    19236535.420
  19236534.880          49.300          47.600
 116250012.851 7  90416723.993 7                  21762238.820    21762244.520
  21762243.740          45.950          43.600
 120259890.686 7  93535520.209 6                  22536644.000    22536648.340
  22536648.440          47.300          40.500
 110306950.825 8  85794334.609 7                  20599035.240    20599038.120
  20599036.960          49.150          46.350
 102521962.531 7  79739457.281 7                  19185530.780    19185536.580
  19185534.660          47.750          47.200
 15  1 27 16  8 35.0000000  0 15G30G21G07G13G15G28G24G10G05R14R05R16
                                R06R04R15
 119198213.879 8  92881815.381 7  89011753.304 8  22682632.180    22682632.440
  22682631.640          48.050          46.200
 134399779.070 6 104727106.32145                  25575428.500
  25575427.940          40.800          32.700
 132320986.971 7 103107329.480 6                  25179824.540    25179823.420
  25179823.480          42.750          37.350
 107819460.809 8  84015230.89247                  20517335.520
  20517332.400          48.900          47.550
 118815896.180 8  92583839.942 7                  22609898.500    22609896.740
  22609896.180          48.700          45.100
 113077146.232 8  88112194.19247                  21517798.420
  21517794.380          49.800          45.600
 129966042.790 7 101272302.694 6  97052635.637 7  24731701.660    24731706.960
  24731706.020          43.250          41.250
 130568896.559 7 101741994.23146                  24846444.260
  24846446.240          44.800          36.400
 110121810.041 8  85809218.309 8                  20955469.420    20955467.400
  20955466.760          49.550          48.750
 114036830.977 6  88695405.720 6                  21392978.520    21392986.620
  21392985.880          41.900          37.550
 102825885.985 8  79975738.170 7                  19235692.060    19235694.920
  19235694.380          49.300          46.000
 116233652.925 7  90403999.629 7                  21759176.180    21759181.920
  21759181.120          46.000          42.300
 120240229.061 7  93520227.847 6                  22532959.440    22532963.800
  22532963.820          47.050          38.700
 110321586.465 8  85805717.887 7                  20601768.400    20601771.220
  20601770.080          49.350          44.550
 102524509.064 7  79741437.934 7                  19186007.340    19186013.140
  19186011.200          47.900          45.250
 15  1 27 16  8 40.0000000  0 15G30G21G07G13G15G28G24G10G05R14R05R16
                                R06R04R15
 119212427.754 8  92892891.118 7  89022367.554 8  22685337.000    22685337.260
  22685336.460          48.000          46.550
 134396771.821 6 104724762.97945                  25574856.260
  25574855.760          40.900          31.300
 132336634.367 6 103119522.267 6                  25182802.160    25182801.000
  25182801.060          41.350          37.250
 107814829.872 8  84011622.37247                  20516454.300
  20516451.160          48.950          47.950
 118802918.778 8  92573727.689 7                  22607428.980    22607427.240
  22607426.660          48.700          45.250
 113077460.055 8  88112438.73647                  21517858.140
  21517854.060          49.800          45.850
 129950432.278 7 101260138.725 6  97040978.506 7  24728731.020    24728736.400
  24728735.580          42.800          41.150
 130587672.113 7 101756624.47145                  24850017.120
  24850019.140          44.250          34.500
 110130579.461 8  85816051.616 8                  20957138.160    20957136.160
  20957135.520          49.450          48.850
 114054003.734 6  88708762.311 6                  21396200.060    21396208.140
  21396207.420          41.950          37.850
 102821410.433 8  79972257.184 7                  19234854.840    19234857.680
  19234857.120          49.050          46.300
 116217302.657 7  90391282.772 7                  21756115.400    21756121.080
  21756120.300          45.450          42.600
 120220570.595 7  93504937.956 6                  22529275.440    22529279.820
  22529279.860          46.400          38.900
 110336235.403 8  85817111.491 7                  20604504.060    20604506.840
  20604505.680          49.100          45.350
 102527072.249 7  79743431.526 7                  19186487.020    19186492.800
  19186490.860          47.450          46.150
 15  1 27 16  8 45.0000000  0 15G30G21G07G13G15G28G24G10G05R14R05R16
                                R06R04R15
 119226646.295 8  92903970.501 7  89032985.290 8  22688042.700    22688042.980
  22688042.200          48.600          45.500
 134393777.706 6 104722429.92045                  25574286.500
  25574285.940          41.850          33.600
 132352281.845 6 103131715.133 6                  25185779.840    25185778.640
  25185778.720          41.350          36.800
 107810207.593 8  84008020.60247                  20515574.700
  20515571.580          49.300          45.900
 118789945.896 8  92563618.962 7                  22604960.320    22604958.540
  22604958.000          49.050          44.150
 113077790.179 8  88112695.98547                  21517920.960
  21517916.860          50.300          44.400
 129934826.589 7 101247978.523 6  97029324.981 7  24725761.300    24725766.700
  24725765.920          43.650          39.350
 130606449.566 7 101771256.19145                  24853590.340
  24853592.380          45.200          34.100
 110139363.928 8  85822896.652 7                  20958809.780    20958807.760
  20958807.120          49.850          47.700
 114071183.701 7  88722124.515 6                  21399423.000    21399431.060
  21399430.340          42.450          37.250
 102816954.502 8  79968791.466 7                  19234021.280    19234024.080
  19234023.520          49.350          45.850
 116200964.111 7  90378575.037 6                  21753056.820    21753062.440
  21753061.700          46.450          41.900
 120200917.599 7  93489652.321 6                  22525592.440    22525596.780
  22525596.860          47.000          38.050
 110350899.756 8  85828517.097 7                  20607242.560    20607245.280
  20607244.160          49.600          44.900
 102529654.024 7  79745439.576 7                  19186970.220    19186975.900
  19186974.000          47.650          46.000
 15  1 27 16  8 50.0000000  0 15G30G21G07G13G15G28G24G10G05R14R05R16
                                R06R04R15
 119240867.596 8  92915052.025 7  89043605.092 8  22690748.900    22690749.200
  22690748.460          48.600          46.950
 134390794.741 7 104720105.52344                  25573718.840
  25573718.360          42.250          28.000
 132367927.425 6 103143906.515 6                  25188757.160    25188755.880
  25188755.880          40.600          38.250
 107805592.019 8  84004424.04947                  20514696.400
  20514693.260          49.400          47.200
 118776975.596 8  92553512.243 7                  22602492.160    22602490.360
  22602489.840          49.150          45.700
 113078134.691 8  88112964.44347                  21517986.520
  21517982.420          50.400          45.300
 129919223.818 7 101235820.555 6  97017673.633 7  24722792.160    24722797.560
  24722796.780          44.350          41.000
 130625226.906 7 101785887.83845                  24857163.560
  24857165.600          45.450          34.800
 110148161.467 8  85829751.873 8                  20960483.900    20960481.860
  20960481.220          49.900          48.800
 114088368.771 7  88735490.673 6                  21402646.880    21402655.060
  21402654.220          42.400          39.050
 102812516.105 8  79965339.381 7                  19233190.980    19233193.780
  19233193.200          49.350          47.150
 116184635.355 7  90365874.916 7                  21750000.040    21750005.660
  21750004.940          46.700          44.000
 120181267.770 7  93474369.137 6                  22521910.020    22521914.420
  22521914.480          46.850          40.000
 110365577.553 8  85839933.153 7                  20609983.580    20609986.300
  20609985.140          49.550          45.900
 102532252.135 7  79747460.322 7                  19187456.400    19187462.100
  19187460.200          47.850          47.050
 15  1 27 16  8 55.0000000  0 15G30G21G07G13G15G28G24G10G05R14R05R16
                                R06R04R15
 119255091.629 8  92926135.684 7  89054226.922 8  22693455.620    22693455.960
  22693455.220          48.750          46.250
 134387823.000 6 104717789.88445                  25573153.300
  25573153.000          41.950          33.950
 132383571.164 6 103156096.458 6                  25191734.100    25191732.740
  25191732.820          40.600          37.300
 107800983.148 8  84000832.72547                  20513819.360
  20513816.240          49.550          46.250
 118764007.895 8  92543407.553 7                  22600024.480    22600022.700
  22600022.140          49.300          44.650
 113078493.578 8  88113244.10147                  21518054.820
  21518050.720          50.450          44.700
 129903624.041 7 101223664.923 6  97006024.479 7  24719823.620    24719828.900
  24719828.200          44.050          40.050
 130644004.125 7 101800519.40745                  24860736.820
  24860738.800          45.950          33.250
 110156972.080 8  85836617.292 8                  20962160.520    20962158.480
  20962157.820          50.000          48.300
 114105559.031 7  88748860.869 6                  21405871.760    21405879.880
  21405879.040          42.100          38.200
 102808095.490 8  79961901.127 7                  19232364.020    19232366.800
  19232366.220          49.350          46.900
 116168316.355 7  90353182.377 7                  21746945.100    21746950.700
  21746950.000          46.400          43.600
 120161621.281 7  93459088.560 6                  22518228.240    22518232.660
  22518232.700          47.100          39.000
 110380268.804 8  85851359.688 7                  20612727.080    20612729.800
  20612728.640          49.300          45.550
 102534866.570 7  79749493.783 7                  19187945.660    19187951.360
  19187949.480          47.750          46.600
 15  1 27 16  9  0.0000000  0 15G30G21G07G13G15G28G24G10G05R14R05R16
                                R06R04R15
 119269320.964 8  92937223.471 7  89064852.734 8  22696163.380    22696163.720
  22696163.000          48.850          46.700
 134384865.048 7 104715484.95445                  25572590.380
  25572590.080          42.400          33.650
 132399215.623 6 103168286.951 6                  25194711.140    25194709.780
  25194709.840          41.900          38.000
 107796383.599 8  83997248.65747                  20512944.120
  20512940.960          49.700          46.900
 118751045.390 8  92533306.896 7                  22597557.780    22597556.020
  22597555.440          49.250          45.050
 113078869.450 8  88113536.99047                  21518126.360
  21518122.220          50.400          45.150
 129888029.655 7 101211513.478 6  96994379.364 7  24716856.100    24716861.380
  24716860.600          42.850          41.100
 130662783.890 7 101815152.95145                  24864310.560
  24864312.580          45.850          35.900
 110165798.409 8  85843494.947 8                  20963840.120    20963838.080
  20963837.420          50.000          48.800
 114122757.034 7  88762237.085 6                  21409098.100    21409106.160
  21409105.360          42.550          39.050
 102803695.052 8  79958478.566 7                  19231540.840    19231543.600
  19231543.040          49.350          47.350
 116152009.817 7  90340499.536 7                  21743892.520    21743898.040
  21743897.360          46.000          43.800
 120141980.966 7  93443812.761 6                  22514547.640    22514552.040
  22514552.080          46.750          39.900
 110394976.115 8  85862798.692 7                  20615473.580    20615476.280
  20615475.160          49.050          46.100
 102537500.155 7  79751542.120 7                  19188438.480    19188444.220
  19188442.320          47.700          47.000
 15  1 27 16  9  5.0000000  0 15G30G21G07G13G15G28G24G10G05R14R05R16
                                R06R04R15
 119283552.045 8  92948312.627 7  89075479.835 8  22698871.440    22698871.820
  22698871.080          48.750          46.000
 134381917.299 7 104713188.04845                  25572029.380
  25572029.200          42.000          32.600
 132414857.207 7 103180475.221 6                  25197687.680    25197686.180
  25197686.220          42.650          37.300
 107791789.784 8  83993669.06647                  20512069.960
  20512066.800          49.800          45.900
 118738084.489 8  92523207.513 7                  22595091.420    22595089.640
  22595089.060          49.200          44.600
 113079258.722 8  88113840.33847                  21518200.420
  21518196.300          50.400          44.900
 129872437.273 7 101199363.622 6  96982735.785 7  24713888.920    24713894.240
  24713893.380          42.300          40.600
 130681562.512 7 101829785.59745                  24867884.060
  24867886.200          44.750          35.050
 110174636.858 8  85850382.056 8                  20965522.020    20965519.980
  20965519.320          50.050          48.300
 114139959.018 7  88775616.412 6                  21412325.160    21412333.280
  21412332.420          42.100          38.250
 102799311.390 8  79955069.056 7                  19230720.800    19230723.560
  19230723.000          49.300          46.950
 116135712.056 7  90327823.533 7                  21740841.540    21740847.000
  21740846.380          46.300          42.700
 120122342.943 7  93428538.777 6                  22510867.460    22510871.920
  22510871.920          46.400          39.400
 110409695.932 8  85874247.437 7                  20618222.420    20618225.080
  20618224.000          48.900          45.500
 102540149.253 7  79753602.540 7                  19188934.220    19188940.000
  19188938.040          47.450          46.550
 15  1 27 16  9 10.0000000  0 15G30G21G07G13G15G28G24G10G05R14R05R16
                                R06R04R15
 119297788.440 8  92959405.916 7  89086110.904 8  22701580.560    22701580.920
  22701580.200          48.850          46.850
 134378983.363 7 104710901.84945                  25571471.060
  25571470.780          42.200          32.350
 132430499.522 7 103192664.025 6                  25200664.340    25200662.820
  25200663.020          43.550          38.250
 107787205.372 8  83990096.80647                  20511197.580
  20511194.400          49.750          46.800
 118725128.806 8  92513112.184 7                  22592626.040    22592624.240
  22592623.640          49.250          45.100
 113079664.981 8  88114156.90147                  21518277.720
  21518273.600          50.150          45.000
 129856850.334 7 101187218.034 6  96971096.244 7  24710922.760    24710928.160
  24710927.280          43.450          41.250
 130700343.673 7 101844420.17945                  24871457.960
  24871460.180          44.650          35.600
 110183490.986 8  85857281.372 8                  20967206.900    20967204.840
  20967204.200          50.050          48.800
 114157168.790 6  88789001.780 6                  21415553.720    21415561.760
  21415560.920          41.700          39.100
 102794948.021 8  79951675.324 7                  19229904.520    19229907.280
  19229906.740          49.350          47.550
 116119426.694 7  90315157.150 7                  21737792.880    21737798.320
  21737797.680          45.850          43.250
 120102710.878 7  93413269.405 6                  22507188.320    22507192.740
  22507192.860          45.800          39.900
 110424431.741 8  85885708.618 7                  20620974.200    20620976.900
  20620975.780          48.550          46.100
 102542817.499 7  79755677.845 7                  19189433.560    19189439.320
  19189437.360          47.400          46.950
 15  1 27 16  9 15.0000000  0 15G30G21G07G13G15G28G24G10G05R14R05R16
                                R06R04R15
 119312028.125 8  92970501.768 7  89096744.441 8  22704290.320    22704290.620
  22704289.940          48.600          46.200
 134376061.248 7 104708624.85445                  25570915.020
  25570914.760          42.100          30.850
 132446140.507 7 103204851.812 6                  25203640.760    25203639.220
  25203639.460          44.400          37.100
 107782628.265 8  83986530.23547                  20510326.580
  20510323.420          49.800          45.900
 118712176.329 8  92503019.353 7                  22590161.280    22590159.500
  22590158.860          49.300          44.650
 113080086.190 8  88114485.12247                  21518357.880
  21518353.760          50.100          44.500
 129841266.915 7 101175075.174 6  96959459.346 7  24707957.320    24707962.620
  24707961.780          43.850          39.750
 130719125.217 7 101859055.11145                  24875032.000
  24875034.280          45.500          34.650
 110192358.809 8  85864191.352 8                  20968894.440    20968892.340
  20968891.700          50.250          48.400
 114174384.178 6  88802391.524 6                  21418783.280    21418791.300
  21418790.480          41.550          38.250
 102790602.957 8  79948295.834 7                  19229091.680    19229094.460
  19229093.880          49.400          47.100
 116103151.780 7  90302498.904 7                  21734746.180    21734751.620
  21734750.940          45.900          42.850
 120083082.903 7  93398003.223 6                  22503509.980    22503514.400
  22503514.560          45.950          38.850
 110439181.484 8  85897180.632 7                  20623728.600    20623731.300
  20623730.180          48.800          45.450
 102545502.761 7  79757766.390 7                  19189936.040    19189941.820
  19189939.860          47.400          46.600
 15  1 27 16  9 20.0000000  0 15G30G21G07G13G15G28G24G10G05R14R05R16
                                R06R04R15
 119326269.773 8  92981599.152 7  89107379.436 8  22707000.460    22707000.720
  22707000.040          48.350          46.000
 134373149.616 6 104706356.06545                  25570360.960
  25570360.720          41.950          32.650
 132461778.893 7 103217037.597 6                  25206616.700    25206615.060
  25206615.320          43.950          37.350
 107778057.139 8  83982968.32247                  20509456.740
  20509453.580          49.650          46.150
 118699225.706 8  92492927.969 7                  22587696.860    22587695.060
  22587694.420          49.200          44.750
 113080521.008 8  88114823.94947                  21518440.600
  21518436.540          50.100          44.850
 129825685.763 7 101162934.042 6  96947824.122 7  24704992.360    24704997.460
  24704996.720          42.600          39.800
 130737905.894 7 101873689.35845                  24878605.880
  24878608.220          45.600          33.750
 110201238.938 8  85871110.933 8                  20970584.300    20970582.200
  20970581.540          50.250          48.350
 114191603.796 6  88815784.550 6                  21422013.580    21422021.580
  21422020.780          41.500          39.250
 102786274.879 8  79944929.547 8                  19228282.040    19228284.800
  19228284.220          49.350          48.150
 116086885.907 7  90289847.697 7                  21731701.140    21731706.580
  21731705.900          46.250          44.250
 120063457.626 7  93382739.127 6                  22499832.140    22499836.620
  22499836.760          45.800          40.550
 110453943.916 8  85908662.526 7                  20626485.360    20626488.060
  20626486.960          48.850          46.700
 102548203.727 7  79759867.147 7                  19190441.460    19190447.260
  19190445.300          47.250          47.650
 15  1 27 16  9 25.0000000  0 15G30G21G07G13G15G28G24G10G05R14R05R16
                                R06R04R15
 119340515.762 8  92992699.918 7  89118017.662 8  22709711.420    22709711.660
  22709710.940          48.300          45.100
 134370250.847 6 104704097.26545                  25569809.300
  25569808.960          41.800          30.900
 132477417.009 7 103229223.156 6                  25209592.520    25209590.940
  25209591.180          43.800          36.350
 107773494.425 8  83979412.95747                  20508588.500
  20508585.320          49.550          45.400
 118686279.367 8  92482839.918 7                  22585233.260    22585231.480
  22585230.820          49.000          43.650
 113080971.842 8  88115175.24747                  21518526.380
  21518522.320          49.950          43.950
 129810109.216 7 101150796.505 6  96936192.310 7  24702028.240    24702033.180
  24702032.440          42.450          38.700
 130756688.071 7 101888324.79045                  24882180.020
  24882182.340          44.800          33.000
 110210133.769 8  85878041.966 7                  20972276.980    20972274.840
  20972274.160          50.300          47.400
 114208830.112 7  88829182.792 5                  21425245.240    21425253.120
  21425252.320          42.500          35.600
 102781966.160 8  79941578.319 7                  19227475.980    19227478.780
  19227478.200          49.400          45.300
 116070631.546 7  90277205.437 6                  21728658.260    21728663.720
  21728663.020          46.350          41.250
 120043837.399 7  93367478.967 6                  22496155.240    22496159.740
  22496159.880          45.750          37.550
 110468721.253 8  85920155.993 7                  20629244.900    20629247.640
  20629246.540          48.900          43.700
 102550922.803 7  79761981.980 7                  19190950.300    19190956.080
  19190954.140          47.150          44.650
 15  1 27 16  9 30.0000000  0 15G30G21G07G13G15G28G24G10G05R14R05R16
                                R06R04R15
 119354765.684 8  93003803.756 7  89128658.838 8  22712423.100    22712423.360
  22712422.620          48.100          46.150
 134367364.474 6 104701848.16645                  25569259.960
  25569259.600          41.000          30.500
 132493054.468 7 103241408.217 6                  25212568.280    25212566.640
  25212566.880          43.300          37.300
 107768939.684 8  83975863.82247                  20507721.760
  20507718.600          49.250          46.800
 118673336.924 8  92472754.910 7                  22582770.420    22582768.580
  22582767.940          49.150          44.650
 113081438.274 8  88115538.71247                  21518615.120
  21518611.100          49.750          44.850
 129794536.772 7 101138662.203 6  96924563.613 7  24699064.840    24699069.740
  24699068.900          42.650          40.000
 130775471.365 7 101902961.05246                  24885754.420
  24885756.800          44.800          36.200
 110219042.901 8  85884984.163 8                  20973972.380    20973970.200
  20973969.520          50.300          48.300
 114226062.806 7  88842586.010 6                  21428478.060    21428485.840
  21428485.080          42.950          39.000
 102777676.442 8  79938241.884 8                  19226673.500    19226676.300
  19226675.760          49.300          48.350
 116054388.205 7  90264571.754 7                  21725617.500    21725622.880
  21725622.220          46.200          44.400
 120024221.994 7  93352222.578 6                  22492479.240    22492483.760
  22492483.940          46.000          41.200
 110483513.392 8  85931660.982 7                  20632007.200    20632009.980
  20632008.880          48.850          47.000
 102553659.553 7  79764110.568 7                  19191462.460    19191468.200
  19191466.260          47.600          47.550
 15  1 27 16  9 35.0000000  0 16G30G21G07G13G15G28G24G10G05R14R05R16
                                R23R06R04R15
 119369018.864 8  93014910.120 7  89139302.442 8  22715135.400    22715135.620
  22715134.900          48.150          45.800
 134364489.896 6 104699608.19445                  25568712.900
  25568712.400          40.650          30.600
 132508690.579 7 103253592.231 6                  25215543.780    25215542.160
  25215542.320          42.750          36.850
 107764392.307 8  83972320.41047                  20506856.440
  20506853.240          49.350          46.450
 118660397.694 8  92462672.398 7                  22580308.140    22580306.320
  22580305.700          49.000          44.700
 113081919.651 8  88115913.81147                  21518706.720
  21518702.680          49.850          44.950
 129778967.915 7 101126530.699 6  96912937.591 7  24696102.140    24696106.980
  24696106.180          42.300          40.200
 130794255.082 7 101917597.66346                  24889328.860
  24889331.320          44.050          36.100
 110227965.678 8  85891936.975 8                  20975670.380    20975668.160
  20975667.460          50.250          48.100
 114243301.070 7  88855993.543 6                  21431711.880    21431719.680
  21431718.900          42.700          38.400
 102773405.089 8  79934919.727 8                  19225874.420    19225877.240
  19225876.740          49.350          48.000
 116038155.353 7  90251946.207 7                  21722578.660    21722583.980
  21722583.380          46.350          44.050
 133211031.543 6                                  24902393.740
                        38.600
 120004610.729 7  93336969.414 6                  22488804.100    22488808.540
  22488808.780          46.350          40.700
 110498319.418 8  85943176.765 7                  20634772.160    20634774.860
  20634773.800          48.900          46.650
 102556413.189 7  79766252.293 7                  19191977.760    19191983.500
  19191981.540          47.700          47.200
 15  1 27 16  9 40.0000000  0 16G30G21G07G13G15G28G24G10G05R14R05R16
                                R23R06R04R15
 119383276.372 8  93026019.856 7  89149949.281 8  22717848.540    22717848.740
  22717848.000          48.300          45.600
 134361628.172 6 104697378.30844                  25568168.300
  25568168.140          40.350          29.550
 132524326.467 6 103265776.047 6                  25218519.220    25218517.640
  25218517.940          41.750          37.400
 107759853.336 8  83968783.55147                  20505992.720
  20505989.500          49.400          46.550
 118647462.764 8  92452593.241 7                  22577846.680    22577844.880
  22577844.260          48.950          44.550
 113082417.106 8  88116301.43947                  21518801.360
  21518797.340          50.000          44.550
 129763403.661 6 101114402.751 6  96901314.956 7  24693140.320    24693145.160
  24693144.300          41.750          40.400
 130813040.292 7 101932235.41945                  24892903.520
  24892906.100          44.600          33.800
 110236903.167 8  85898901.247 8                  20977371.180    20977368.920
  20977368.200          50.350          48.050
 114260545.944 7  88869406.219 6                  21434947.040    21434954.760
  21434953.940          42.500          38.900
 102769153.073 8  79931612.603 8                  19225079.000    19225081.840
  19225081.340          49.400          48.250
 116021934.028 7  90239329.629 7                  21719542.000    21719547.260
  21719546.680          46.700          44.200
 133205425.861 6 103604233.05815                  24901346.740    24901352.200
  24901350.700          38.950          34.700
 119985004.454 7  93321720.097 6                  22485129.880    22485134.340
  22485134.480          46.700          40.650
 110513140.508 8  85954704.284 7                  20637539.900    20637542.600
  20637541.560          48.750          46.850
 102559184.911 7  79768408.081 7                  19192496.440    19192502.180
  19192500.180          47.200          47.400
 15  1 27 16  9 45.0000000  0 16G30G21G07G13G15G28G24G10G05R14R05R16
                                R23R06R04R15
 119397535.842 8  93037131.129 7  89160597.571 8  22720562.020    22720562.220
  22720561.480          48.750          45.500
 134358776.905 6 104695156.50945                  25567625.640
  25567625.580          40.050          32.250
 132539959.772 6 103277957.854 6                  25221494.180    25221492.640
  25221492.880          41.900          37.100
 107755320.445 8  83965251.43047                  20505130.160
  20505126.920          49.600          46.150
 118634529.790 8  92442515.607 7                  22575385.600    22575383.820
  22575383.220          48.950          44.750
 113082928.208 8  88116699.71847                  21518898.600
  21518894.600          50.150          44.600
 129747841.612 7 101102276.519 6  96889694.030 7  24690178.880    24690183.800
  24690182.860          42.050          39.900
 130831824.597 7 101946872.47945                  24896478.080
  24896480.660          45.250          33.750
 110245852.989 8  85905875.136 8                  20979074.340    20979072.000
  20979071.280          50.550          48.000
 114277795.142 7  88882822.261 6                  21438183.020    21438190.700
  21438189.820          42.450          38.100
 102764918.219 8  79928318.832 7                  19224286.780    19224289.640
  19224289.120          49.400          47.750
 116005721.848 7  90226720.171 7                  21716507.040    21716512.260
  21716511.700          46.800          43.750
 133199836.262 6 103599885.578 5                  24900301.900    24900306.920
  24900306.620          38.750          34.300
 119965401.025 7  93306472.994 6                  22481456.200    22481460.680
  22481460.760          46.300          40.600
 110527974.201 8  85966241.600 7                  20640309.980    20640312.720
  20640311.660          48.950          46.450
 102561972.261 7  79770576.030 7                  19193018.020    19193023.760
  19193021.780          46.950          47.000
 15  1 27 16  9 50.0000000  0 16G30G21G07G13G15G28G24G10G05R14R05R16
                                R23R06R04R15
 119411799.858 8  93048245.955 7  89171249.269 8  22723276.380    22723276.560
  22723275.840          48.850          45.850
 134355938.771 6 104692944.98845                  25567085.480
  25567085.300          40.350          30.000
 132555593.092 6 103290139.674 6                  25224469.120    25224467.600
  25224467.840          41.750          37.600
 107750796.193 8  83961726.04747                  20504269.240
  20504265.980          49.550          46.700
 118621601.376 8  92432441.539 7                  22572925.380    22572923.600
  22572923.040          48.950          45.100
 113083455.577 8  88117110.66447                  21518998.940
  21518994.940          50.050          44.950
 129732284.347 7 101090154.053 6  96878076.653 7  24687218.400    24687223.320
  24687222.340          42.300          40.250
 130850610.587 7 101961510.86945                  24900053.000
  24900055.580          45.700          35.250
 110254817.711 8  85912860.639 8                  20980780.320    20980777.940
  20980777.220          50.450          48.600
 114295051.260 7  88896243.683 6                  21441420.220    21441427.960
  21441426.980          42.600          38.350
 102760703.018 8  79925040.351 7                  19223498.220    19223501.100
  19223500.580          49.300          47.650
 115989521.440 7  90214119.882 7                  21713474.300    21713479.520
  21713478.920          46.600          43.450
 133194265.386 6 103595552.680 5                  24899260.700    24899265.180
  24899265.020          39.100          33.550
 119945803.018 7  93291230.144 6                  22477783.480    22477788.000
  22477788.080          46.350          40.450
 110542823.072 8  85977790.718 7                  20643082.940    20643085.640
  20643084.600          49.000          46.100
 102564777.905 7  79772758.206 7                  19193543.060    19193548.820
  19193546.800          47.200          46.900
 15  1 27 16  9 55.0000000  0 16G30G21G07G13G15G28G24G10G05R14R05R16
                                R23R06R04R15
 119426065.790 8  93059362.267 7  89181902.416 8  22725991.100    22725991.280
  22725990.600          48.850          45.650
 134353111.144 6 104690741.63245                  25566547.380
  25566547.320          41.350          31.200
 132571223.825 7 103302319.474 6                  25227443.480    25227442.000
  25227442.240          42.450          36.900
 107746277.995 8  83958205.37847                  20503409.460
  20503406.200          49.550          46.650
 118608674.919 8  92422368.977 7                  22570465.540    22570463.760
  22570463.220          49.000          44.950
 113083996.601 8  88117532.24347                  21519101.840
  21519097.880          49.850          45.000
 129716729.374 6 101078033.354 6  96866460.998 7  24684258.380    24684263.260
  24684262.240          41.300          40.150
 130869395.673 7 101976148.54545                  24903627.800
  24903630.380          45.550          35.400
 110263794.789 8  85919855.764 8                  20982488.660    20982486.240
  20982485.520          50.300          48.450
 114312311.633 7  88909668.409 6                  21444658.220    21444665.980
  21444664.960          42.700          38.150
 102756504.821 8  79921775.085 7                  19222712.860    19222715.740
  19222715.200          49.500          47.650
 115973330.200 7  90201526.729 7                  21710443.220    21710448.440
  21710447.840          46.550          42.450
 133188710.585 6 103591232.294 5                  24898221.780    24898227.760
  24898226.800          38.000          32.700
 119926207.904 7  93275989.516 6                  22474111.320    22474115.880
  22474115.940          46.450          40.000
 110557684.654 8  85989349.722 7                  20645858.260    20645860.900
  20645859.880          49.100          46.150
 102567599.201 7  79774952.545 7                  19194071.040    19194076.780
  19194074.720          47.450          46.800
 15  1 27 16 10  0.0000000  0 16G30G21G07G13G15G28G24G10G05R14R05R16
                                R23R06R04R15
 119440337.788 8  93070483.307 7  89192560.063 8  22728707.000    22728707.160
  22728706.460          48.600          45.300
 134350298.139 6 104688549.69944                  25566012.100
  25566011.940          41.300          29.150
 132586855.989 7 103314500.412 6                  25230418.180    25230416.720
  25230416.940          43.300          36.700
 107741770.018 8  83954692.66847                  20502551.660
  20502548.340          49.600          46.250
 118595754.542 8  92412301.161 7                  22568006.880    22568005.100
  22568004.560          49.100          44.700
 113084555.403 8  88117967.68547                  21519208.140
  21519204.200          49.800          44.950
 129701180.836 6 101065917.635 6  96854850.092 7  24681299.600    24681304.420
  24681303.520          41.450          40.250
 130888183.943 7 101990788.71545                  24907203.180
  24907205.680          45.700          34.850
 110272788.298 8  85926863.691 8                  20984200.100    20984197.640
  20984196.940          50.150          48.350
 114329580.343 6  88923099.630 6                  21447897.840    21447905.600
  21447904.500          41.950          38.300
 102752328.004 8  79918526.447 7                  19221931.520    19221934.380
  19221933.840          49.400          47.250
 115957152.339 7  90188943.964 7                  21707414.660    21707419.880
  21707419.260          46.100          42.250
 133183176.082 6 103586927.663 5                  24897187.040    24897192.720
  24897192.260          37.250          31.250
 119906619.948 7  93260754.449 6                  22470440.560    22470445.080
  22470445.160          46.350          39.750
 110572562.988 8  86000921.752 7                  20648636.720    20648639.320
  20648638.300          48.950          45.900
 102570440.132 7  79777162.160 7                  19194602.660    19194608.420
  19194606.360          46.950          46.350
 15  1 27 16 10  5.0000000  0 16G30G21G07G13G15G28G24G10G05R14R05R16
                                R23R06R04R15
 119454611.090 8  93081605.358 7  89203218.686 8  22731423.100    22731423.280
  22731422.580          48.400          45.250
 134347495.027 6 104686365.47644                  25565478.660
  25565478.460          40.850          28.300
 132602484.893 7 103326678.791 6                  25233392.280    25233390.740
  25233391.080          43.450          36.550
 107737267.493 8  83951184.20547                  20501694.900
  20501691.540          49.550          46.400
 118582835.494 8  92402234.368 7                  22565548.440    22565546.660
  22565546.120          49.250          44.700
 113085127.230 8  88118413.26747                  21519316.940
  21519312.980          49.800          44.800
 129685633.853 6 101053803.121 6  96843240.389 7  24678341.180    24678345.840
  24678344.980          41.850          40.000
 130906970.645 7 102005427.64645                  24910778.140
  24910780.680          45.100          35.050
 110281793.469 8  85933880.706 8                  20985913.760    20985911.280
  20985910.600          50.000          48.300
 114346852.683 6  88936533.651 6                  21451138.020    21451145.840
  21451144.740          41.500          37.900
 102748167.652 8  79915290.611 7                  19221153.220    19221156.100
  19221155.580          49.600          47.250
 115940983.006 7  90176367.831 7                  21704387.680    21704392.900
  21704392.300          45.900          42.450
 133177657.132 6 103582635.161 5                  24896155.400    24896161.920
  24896160.480          36.850          30.950
 119887034.054 7  93245520.995 6                  22466770.160    22466774.720
  22466774.800          46.000          39.150
 110587453.226 8  86012503.038 7                  20651417.400    20651419.960
  20651418.940          48.750          45.950
 102573295.923 7  79779383.334 7                  19195137.040    19195142.840
  19195140.740          46.600          46.350
 15  1 27 16 10 10.0000000  0 16G30G21G07G13G15G28G24G10G05R14R05R16
                                R23R06R04R15
 119468887.702 8  93092729.994 7  89213879.796 8  22734139.840    22734140.040
  22734139.340          48.050          45.650
 134344703.828 6 104684190.47945                  25564947.540
  25564947.240          40.850          32.150
 132618112.562 7 103338856.220 6                  25236366.100    25236364.620
  25236364.840          43.000          37.800
 107732772.454 8  83947681.58347                  20500839.540
  20500836.160          49.600          46.600
 118569919.804 8  92392170.201 7                  22563090.700    22563088.860
  22563088.340          49.150          45.000
 113085714.144 8  88118870.60447                  21519428.620
  21519424.660          50.000          45.350
 129670090.614 7 101041691.566 6  96831633.488 7  24675383.380    24675387.980
  24675387.080          42.250          40.600
 130925757.810 7 102020066.93445                  24914353.200
  24914355.780          45.100          35.100
 110290812.376 8  85940908.421 8                  20987630.020    20987627.540
  20987626.840          49.850          48.750
 114364130.537 6  88949971.970 6                  21454379.280    21454387.120
  21454386.040          41.400          38.150
 102744025.650 8  79912069.052 7                  19220378.380    19220381.260
  19220380.740          49.550          47.350
 115924824.261 7  90163799.943 7                  21701362.680    21701367.960
  21701367.320          46.200          43.000
 133172155.607 6 103578356.183 5                  24895126.960    24895133.100
  24895131.640          36.300          31.650
 119867452.448 7  93230290.869 6                  22463100.580    22463105.160
  22463105.200          46.200          39.250
 110602357.465 8  86024095.217 7                  20654200.700    20654203.240
  20654202.200          48.750          45.950
 102576168.869 7  79781617.846 7                  19195674.660    19195680.440
  19195678.340          46.850          46.350
 15  1 27 16 10 15.0000000  0 16G30G21G07G13G15G28G24G10G05R14R05R16
                                R23R06R04R15
 119483168.900 8  93103858.197 7  89224544.319 8  22736857.460    22736857.660
  22736856.960          48.050          45.800
 134341925.775 6 104682025.77644                  25564418.860
  25564418.800          41.000          28.850
 132633740.265 7 103351033.651 6                  25239339.960    25239338.520
  25239338.640          42.700          37.350
 107728286.151 8  83944185.76747                  20499985.860
  20499982.420          49.700          46.400
 118557008.768 8  92382109.659 7                  22560633.840    22560631.980
  22560631.420          49.150          44.850
 113086317.359 8  88119340.64047                  21519543.400
  21519539.460          50.050          45.100
 129654552.357 6 101029583.884 6  96820030.289 7  24672426.460    24672431.100
  24672430.240          41.900          40.850
 130944546.721 7 102034707.59146                  24917928.600
  24917931.240          45.600          36.700
 110299846.247 8  85947947.797 8                  20989349.120    20989346.640
  20989345.940          49.900          48.600
 114381415.257 7  88963415.626 6                  21457621.780    21457629.740
  21457628.640          42.050          38.400
 102739903.676 8  79908863.075 7                  19219607.320    19219610.180
  19219609.660          49.250          47.250
 115908677.388 7  90151241.291 7                  21698339.900    21698345.220
  21698344.540          46.250          43.150
 133166673.126 6 103574091.994 5                  24894101.920    24894107.360
  24894106.540          37.750          32.450
 119847876.619 7  93215065.243 6                  22459432.040    22459436.620
  22459436.720          46.150          39.550
 110617276.958 8  86035699.263 7                  20656986.840    20656989.380
  20656988.320          48.750          45.850
 102579060.183 7  79783866.636 7                  19196215.700    19196221.460
  19196219.360          46.700          46.100
 15  1 27 16 10 20.0000000  0 17G30G21G07G13G15G28G24G10G05R14R05R16
                                R23R06R04R15E20
 119497454.075 8  93114989.499 7  89235211.828 8  22739575.820    22739576.080
  22739575.360          48.000          46.450
 134339160.323 6 104679870.87645                  25563892.560
  25563892.460          40.600          33.250
 132649367.469 7 103363210.709 6                  25242313.680    25242312.280
  25242312.380          42.050          38.000
 107723808.012 8  83940696.31147                  20499133.700
  20499130.260          49.700          47.000
 118544101.792 8  92372052.279 7                  22558177.740    22558175.840
  22558175.260          49.300          45.600
 113086936.342 8  88119822.97047                  21519661.220
  21519657.260          50.150          45.600
 129639018.385 7 101017479.542 6  96808430.320 7  24669470.380    24669475.100
  24669474.160          42.550          41.800
 130963336.750 7 102049349.11245                  24921504.300
  24921507.040          46.000          34.950
 110308894.528 8  85954998.407 8                  20991070.980    20991068.480
  20991067.780          50.100          49.050
 114398706.313 7  88976864.217 6                  21460865.480    21460873.540
  21460872.420          42.050          38.500
 102735800.773 8  79905671.927 7                  19218839.820    19218842.640
  19218842.140          49.000          47.200
 115892541.874 7  90138691.464 7                  21695319.260    21695324.640
  21695323.900          46.250          42.850
 133161208.921 6 103569842.079 5                  24893080.500    24893085.920
  24893085.180          37.300          32.400
 119828305.680 7  93199843.420 6                  22455764.420    22455769.000
  22455769.120          45.700          39.450
 110632211.257 8  86047314.825 7                  20659775.720    20659778.200
  20659777.160          48.700          45.600
 102581969.219 7  79786129.226 7                  19196760.040    19196765.800
  19196763.720          46.700          46.150
 123895467.720 7                                  23576523.760
                        47.000
 15  1 27 16 10 25.0000000  0 17G30G21G07G13G15G28G24G10G05R14R05R16
                                R23R06R04R15E20
 119511740.275 8  93126121.592 7  89245880.076 8  22742294.360    22742294.700
  22742293.940          48.000          46.250
 134336404.493 6 104677723.47745                  25563368.160
  25563368.260          40.500          31.800
 132664991.065 7 103375384.956 6                  25245286.700    25245285.320
  25245285.300          42.350          38.250
 107719335.084 8  83937210.91847                  20498282.540
  20498279.100          49.750          46.700
 118531195.939 8  92361995.777 7                  22555721.860    22555719.960
  22555719.340          49.550          44.950
 113087568.086 8  88120315.24347                  21519781.460
  21519777.480          50.300          45.450
 129623485.819 7 101005376.299 6  96796831.371 8  24666514.580    24666519.300
  24666518.400          43.000          41.000
 130982124.936 7 102063989.18445                  24925079.680
  24925082.460          45.700          35.750
 110317954.196 8  85962057.891 8                  20992794.980    20992792.480
  20992791.800          50.250          48.850
 114416000.585 7  88990315.315 6                  21464109.840    21464117.920
  21464116.820          42.000          38.550
 102731714.218 8  79902493.504 7                  19218075.340    19218078.180
  19218077.660          49.300          47.250
 115876414.678 7  90126148.099 7                  21692300.160    21692305.580
  21692304.820          45.950          42.700
 133155759.953 6 103565603.958 5                  24892061.740    24892067.720
  24892066.380          38.000          32.200
 119808736.784 7  93184623.189 6                  22452097.140    22452101.780
  22452101.980          45.750          39.900
 110647157.064 8  86058939.339 7                  20662566.760    20662569.180
  20662568.140          48.850          45.500
 102584892.959 7  79788403.258 7                  19197307.140    19197312.940
  19197310.860          47.150          46.250
 123884409.806 7                                  23574419.380
                        47.050
 15  1 27 16 10 30.0000000  0 17G30G21G07G13G15G28G24G10G05R14R05R16
                                R23R06R04R15E20
 119526031.152 8  93137257.325 7  89256551.826 8  22745013.800    22745014.160
  22745013.420          48.850          45.950
 134333661.927 6 104675586.43245                  25562846.200
  25562846.260          41.850          30.700
 132680614.903 7 103387559.384 6                  25248259.800    25248258.460
  25248258.420          43.000          36.600
 107714871.055 8  83933732.44947                  20497433.100
  20497429.600          50.150          45.550
 118518294.875 8  92351943.001 7                  22553266.900    22553264.920
  22553264.320          50.000          44.250
 113088216.303 8  88120820.35747                  21519904.840
  21519900.820          50.850          43.900
 129607958.369 7 100993277.030 6  96785236.264 8  24663559.720    24663564.420
  24663563.460          42.850          39.700
 131000914.970 7 102078630.72345                  24928655.360
  24928658.060          46.100          33.800
 110327028.951 8  85969129.123 8                  20994521.860    20994519.380
  20994518.680          50.700          48.150
 114433301.875 7  89003771.858 6                  21467355.540    21467363.560
  21467362.520          42.750          38.150
 102727647.517 8  79899330.515 7                  19217314.620    19217317.440
  19217316.920          49.900          47.200
 115860299.484 7  90113614.076 7                  21689283.300    21689288.760
  21689287.980          46.100          42.750
 133150330.045 6 103561380.688 5                  24891046.660    24891052.640
  24891051.240          39.650          32.000
 119789173.719 7  93169407.502 6                  22448430.920    22448435.600
  22448435.860          46.150          39.600
 110662118.386 8  86070575.913 7                  20665360.700    20665363.100
  20665362.040          49.350          45.450
 102587835.153 7  79790691.629 7                  19197857.720    19197863.520
  19197861.460          47.700          46.300
 123873357.841 7                                  23572316.460
                        47.950
 15  1 27 16 10 35.0000000  0 17G30G21G07G13G15G28G24G10G05R14R05R16
                                R23R06R04R15E20
 119540324.894 8  93148395.298 7  89267225.719 8  22747733.820    22747734.180
  22747733.460          48.950          45.500
 134330930.864 6 104673458.30344                  25562326.460
  25562326.620          41.800          29.200
 132696237.049 7 103399732.490 5                  25251232.560    25251231.200
  25251231.080          42.650          35.350
 107710414.144 8  83930259.53847                  20496584.980
  20496581.460          49.900          45.600
 118505396.768 8  92341892.533 7                  22550812.500    22550810.520
  22550809.880          49.950          43.800
 113088879.157 8  88121336.87147                  21520031.000
  21520026.960          50.900          43.700
 129592434.141 7 100981180.280 6  96773643.555 8  24660605.460    24660610.080
  24660609.060          43.450          38.650
 131019704.995 7 102093272.25045                  24932231.000
  24932233.600          45.800          31.700
 110336116.941 8  85976210.676 7                  20996251.240    20996248.800
  20996248.080          50.700          47.850
 114450608.240 7  89017232.366 6                  21470602.160    21470610.200
  21470609.160          42.400          38.150
 102723599.077 8  79896181.734 7                  19216557.300    19216560.080
  19216559.560          49.750          47.200
 115844194.486 7  90101087.991 7                  21686268.320    21686273.820
  21686273.100          46.250          42.650
 133144917.250 6 103557170.740 5                  24890034.840    24890040.560
  24890039.460          38.950          32.500
 119769614.616 7  93154194.887 6                  22444765.500    22444770.180
  22444770.460          46.250          39.650
 110677093.080 8  86082222.895 7                  20668157.140    20668159.520
  20668158.460          49.350          45.300
 102590793.952 7  79792992.922 7                  19198411.380    19198417.200
  19198415.140          47.550          46.300
 123862310.117 8                                  23570214.220
                        48.100
 15  1 27 16 10 40.0000000  0 17G30G21G07G13G15G28G24G10G05R14R05R16
                                R23R06R04R15E20
 119554622.789 8  93159536.516 7  89277902.721 8  22750454.640    22750455.020
  22750454.280          48.850          46.850
 134328212.573 6 104671340.21045                  25561809.120
  25561809.440          41.700          31.850
 132711858.758 7 103411905.274 6                  25254205.220    25254203.820
  25254203.640          42.800          36.350
 107705965.619 8  83926793.15947                  20495738.460
  20495734.940          49.700          47.350
 118492502.948 8  92331845.404 7                  22548358.900    22548356.900
  22548356.240          49.850          45.400
 113089557.935 8  88121865.79447                  21520160.200
  21520156.160          50.750          45.600
 129576914.492 7 100969087.069 6  96762054.234 8  24657652.120    24657656.700
  24657655.580          42.800          40.900
 131038496.314 7 102107914.77945                  24935806.880
  24935809.500          44.950          34.100
 110345219.440 8  85983303.534 8                  20997983.400    20997980.960
  20997980.240          50.500          49.100
 114467921.004 6  89030697.851 6                  21473850.020    21473858.020
  21473857.000          41.950          38.650
 102719569.980 8  79893047.996 7                  19215803.600    19215806.380
  19215805.840          49.750          47.600
 115828101.095 7  90088570.930 7                  21683255.540    21683261.060
  21683260.360          46.250          43.150
 133139522.909 6 103552975.125 5                  24889026.400    24889032.640
  24889031.120          38.000          33.100
 119750060.712 7  93138986.312 6                  22441101.040    22441105.820
  22441106.040          46.300          40.400
 110692082.693 8  86093881.483 7                  20670956.380    20670958.760
  20670957.680          49.150          45.800
 102593770.560 7  79795308.063 7                  19198968.400    19198974.240
  19198972.160          47.400          46.650
 123851267.911 7                                  23568113.040
                        47.950
 15  1 27 16 10 45.0000000  0 17G30G21G07G13G15G28G24G10G05R14R05R16
                                R23R06R04R15E20
 119568924.723 8  93170680.880 7  89288582.738 8  22753176.240    22753176.580
  22753175.860          49.650          46.650
 134325507.092 7 104669232.00345                  25561294.200
  25561294.460          42.550          31.800
 132727480.026 7 103424077.705 6                  25257177.800    25257176.440
  25257176.260          44.250          36.750
 107701525.385 8  83923333.24147                  20494893.500
  20494889.960          50.450          45.950
 118479613.318 8  92321801.543 7                  22545906.100    22545904.080
  22545903.420          50.550          45.300
 113090252.563 8  88122407.07047                  21520292.400
  21520288.340          51.150          44.550
 129561399.244 7 100956997.325 6  96750468.249 8  24654699.620    24654704.220
  24654703.120          43.850          41.750
 131057288.830 7 102122558.22945                  24939382.980
  24939385.680          46.450          33.600
 110354336.380 8  85990407.637 8                  20999718.300    20999715.840
  20999715.140          51.250          48.950
 114485240.037 6  89044168.212 6                  21477099.040    21477107.040
  21477106.020          41.550          37.850
 102715560.396 8  79889929.431 7                  19215053.560    19215056.340
  19215055.760          49.450          47.600
 115812019.106 7  90076062.744 7                  21680244.920    21680250.420
  21680249.740          46.100          43.200
 133134147.201 6 103548794.019 5                  24888021.460    24888027.760
  24888026.220          38.250          33.050
 119730512.145 7  93123781.907 6                  22437437.660    22437442.420
  22437442.620          46.200          39.900
 110707087.041 8  86105551.522 7                  20673758.340    20673760.700
  20673759.620          48.800          45.600
 102596764.876 7  79797636.984 7                  19199528.740    19199534.600
  19199532.480          47.250          46.550
 123840231.117 8                                  23566012.960
                        48.950
 15  1 27 16 10 50.0000000  0 17G30G21G07G13G15G28G24G10G05R14R05R16
                                R23R06R04R15E20
 119583229.200 8  93181827.221 7  89299264.647 8  22755898.360    22755898.620
  22755897.920          49.050          46.000
 134322812.788 7 104667132.57045                  25560781.460
  25560781.780          42.100          31.250
 132743099.371 7 103436248.635 6                  25260150.000    25260148.800
  25260148.540          44.000          36.850
 107697091.980 8  83919878.63947                  20494049.860
  20494046.280          50.100          45.300
 118466726.413 8  92311759.801 7                  22543453.820    22543451.740
  22543451.120          49.900          44.600
 113090961.560 8  88122959.54147                  21520427.340
  21520423.260          50.700          44.500
 129545887.099 7 100944909.987 6  96738884.526 7  24651747.700    24651752.400
  24651751.340          42.850          41.700
 131076081.003 7 102137201.43945                  24942959.100
  24942961.700          45.750          33.850
 110363466.245 8  85997521.819 8                  21001455.660    21001453.220
  21001452.520          50.800          48.400
 114502563.886 6  89057642.321 6                  21480349.020    21480356.860
  21480355.900          40.050          38.200
 102711568.603 8  79886824.709 7                  19214306.860    19214309.600
  19214309.040          48.800          47.900
 115795947.094 7  90063562.319 7                  21677236.160    21677241.720
  21677241.000          45.600          44.050
 133128788.340 6 103544626.024 5                  24887019.620    24887025.960
  24887024.540          36.250          33.300
 119710967.228 7  93108580.319 6                  22433774.940    22433779.720
  22433779.840          45.500          40.450
 110722104.623 8  86117231.860 7                  20676562.780    20676565.100
  20676564.040          48.000          46.200
 102599775.338 7  79799978.463 7                  19200092.080    19200097.980
  19200095.820          46.400          46.950
 123829198.252 8                                  23563913.500
                        48.350
 15  1 27 16 10 55.0000000  0 17G30G21G07G13G15G28G24G10G05R14R05R16
                                R23R06R04R15E20
 119597536.465 7  93192975.729 7  89309948.638 8  22758620.960    22758621.180
  22758620.500          47.850          45.900
 134320129.893 6 104665041.99045                  25560270.960
  25560271.300          40.550          31.750
 132758716.914 7 103448418.163 6                  25263121.920    25263120.600
  25263120.580          42.750          36.350
 107692665.619 8  83916429.53147                  20493207.540
  20493203.940          49.150          46.650
 118453842.424 8  92301720.337 7                  22541002.060    22541000.000
  22540999.340          48.700          44.600
 113091685.115 8  88123523.35447                  21520565.020
  21520560.940          49.800          45.400
 129530378.123 6 100932825.103 6  96727303.207 7  24648796.380    24648801.180
  24648800.140          41.550          41.500
 131094873.054 7 102151844.53546                  24946535.200
  24946537.780          44.400          36.700
 110372609.260 8  86004646.243 8                  21003195.500    21003193.080
  21003192.380          49.900          48.450
 114519892.653 6  89071120.255 6                  21483599.820    21483607.640
  21483606.740          40.750          38.350
 102707594.971 8  79883734.098 7                  19213563.540    19213566.280
  19213565.700          49.100          47.700
 115779885.195 7  90051069.750 7                  21674229.320    21674234.880
  21674234.180          45.900          43.700
 133123446.680 6 103540471.389 5                  24886020.980    24886027.500
  24886026.040          38.250          33.600
 119691426.201 7  93093381.751 6                  22430112.960    22430117.700
  22430117.880          46.250          40.800
 110737135.613 8  86128922.630 7                  20679369.720    20679372.040
  20679370.960          48.600          46.200
 102602802.265 7  79802332.733 7                  19200658.540    19200664.380
  19200662.260          46.750          46.750
 123818169.590 7                                  23561814.940
                        47.000
 15  1 27 16 11  0.0000000  0 17G30G21G07G13G15G28G24G10G05R14R05R16
                                R23R06R04R15E20
 119611847.001 8  93204126.803 7  89320635.083 8  22761344.180    22761344.380
  22761343.720          48.850          46.250
 134317458.921 7 104662960.70345                  25559762.720
  25559762.820          42.300          31.900
 132774333.274 7 103460586.804 6                  25266093.560    25266092.260
  25266092.280          43.700          37.000
 107688246.835 8  83912986.32747                  20492366.680
  20492363.040          50.250          46.300
 118440961.920 8  92291683.585 7                  22538550.940    22538548.900
  22538548.240          49.650          44.800
 113092423.765 8  88124098.93247                  21520705.600
  21520701.500          50.650          44.650
 129514872.891 7 100920743.158 6  96715724.689 8  24645845.800    24645850.680
  24645849.600          43.850          41.650
 131113665.544 7 102166487.97445                  24950111.380
  24950113.980          45.950          34.800
 110381765.955 8  86011781.334 8                  21004937.980    21004935.540
  21004934.840          50.750          48.800
 114537226.977 7  89084602.500 6                  21486851.660    21486859.440
  21486858.620          42.450          38.350
 102703640.014 8  79880658.021 7                  19212823.700    19212826.420
  19212825.860          50.250          47.550
 115763834.101 7  90038585.593 7                  21671224.500    21671230.100
  21671229.380          47.600          43.100
 133118122.710 6 103536330.511 5                  24885025.760    24885032.320
  24885030.920          40.750          32.950
 119671889.745 7  93078186.756 6                  22426451.800    22426456.560
  22426456.720          47.300          40.700
 110752180.714 8  86140624.378 7                  20682179.280    20682181.620
  20682180.540          49.800          45.900
 102605846.219 8  79804700.261 7                  19201228.160    19201234.000
  19201231.920          48.350          46.500
 123807145.624 8                                  23559717.260
                        48.250
 15  1 27 16 11  5.0000000  0 17G30G21G07G13G15G28G24G10G05R14R05R16
                                R23R06R04R15E20
 119626160.908 7  93215280.490 7  89331324.026 8  22764068.040    22764068.200
  22764067.540          47.150          46.100
 134314799.965 6 104660888.80845                  25559256.800
  25559256.880          39.900          32.800
 132789948.420 6 103472754.461 6                  25269064.960    25269063.660
  25269063.700          41.550          36.850
 107683835.688 8  83909549.07147                  20491527.260
  20491523.600          48.850          47.250
 118428084.999 7  92281649.629 7                  22536100.520    22536098.480
  22536097.840          47.800          44.800
 113093177.590 8  88124686.33447                  21520849.040
  21520844.940          49.250          46.100
 129499371.441 6 100908664.140 6  96704148.982 8  24642895.920    24642900.840
  24642899.740          41.050          41.100
 131132458.502 7 102181131.77246                  24953687.700
  24953690.260          43.600          36.200
 110390936.412 8  86018927.144 8                  21006683.060    21006680.620
  21006679.920          49.200          48.650
 114554566.799 7  89098089.018 6                  21490104.560    21490112.320
  21490111.580          42.150          38.300
 102699703.799 8  79877596.522 7                  19212087.380    19212090.080
  19212089.540          49.800          47.650
 115747793.781 7  90026109.797 7                  21668221.680    21668227.380
  21668226.580          46.850          43.350
 133112816.502 6 103532203.471 5                  24884033.820    24884040.180
  24884039.020          39.550          32.800
 119652357.859 7  93062995.320 6                  22422791.520    22422796.220
  22422796.420          46.850          40.400
 110767239.714 8  86152336.933 7                  20684991.420    20684993.800
  20684992.720          49.200          45.800
 102608907.195 7  79807081.025 7                  19201801.000    19201806.800
  19201804.740          47.950          46.450
 123796126.419 7                                  23557620.400
                        46.550
 15  1 27 16 11 10.0000000  0 17G30G21G07G13G15G28G24G10G05R14R05R16
                                R23R06R04R15E20
 119640479.025 8  93226437.458 7  89342016.122 8  22766792.700    22766792.820
  22766792.160          48.450          46.100
 134312153.886 6 104658826.91845                  25558753.260
  25558753.600          41.600          30.300
 132805563.282 7 103484921.904 6                  25272036.400    25272035.120
  25272035.200          43.250          36.350
 107679433.077 8  83906118.46747                  20490689.480
  20490685.800          49.700          47.000
 118415212.488 8  92271619.113 7                  22533650.920    22533648.900
  22533648.260          49.100          44.800
 113093947.474 8  88125286.24947                  21520995.560
  21520991.440          50.250          45.600
 129483874.630 7 100896588.744 6  96692576.753 7  24639946.960    24639951.820
  24639950.840          42.450          41.200
 131151252.835 7 102195776.64345                  24957264.120
  24957266.720          44.500          35.650
 110400121.486 8  86026084.339 8                  21008430.920    21008428.500
  21008427.780          49.950          48.700
 114571913.068 7  89111580.543 6                  21493358.620    21493366.560
  21493365.780          42.250          38.800
 102695787.274 8  79874550.340 7                  19211354.720    19211357.420
  19211356.900          49.600          47.750
 115731765.195 7  90013643.133 7                  21665221.060    21665226.800
  21665225.960          46.200          43.850
 133107529.055 6 103528090.981 5                  24883045.480    24883051.480
  24883050.500          40.700          34.250
 119632831.426 7  93047808.110 6                  22419132.280    22419136.940
  22419137.140          46.900          40.950
 110782313.558 8  86164061.019 7                  20687806.360    20687808.740
  20687807.640          49.000          45.950
 102611986.089 7  79809475.710 7                  19202377.180    19202382.960
  19202380.900          47.850          46.650
 123785112.882 7                                  23555524.660
                        47.600
 15  1 27 16 11 15.0000000  0 17G30G21G07G13G15G28G24G10G05R14R05R16
                                R23R06R04R15E20
 119654800.552 8  93237597.092 7  89352710.773 8  22769517.980    22769518.080
  22769517.420          48.700          46.000
 134309519.887 6 104656774.46545                  25558252.040
  25558252.520          41.350          32.650
 132821177.036 7 103497088.496 6                  25275007.600    25275006.360
  25275006.420          43.000          36.600
 107675038.212 8  83902693.90747                  20489853.140
  20489849.460          49.600          46.600
 118402343.607 8  92261591.426 7                  22531202.020    22531200.040
  22531199.380          49.200          44.900
 113094732.581 8  88125898.03147                  21521144.980
  21521140.820          50.350          45.450
 129468381.769 7 100884516.436 6  96681007.446 7  24636998.760    24637003.620
  24637002.720          43.400          41.550
 131170047.692 7 102210421.91545                  24960840.620
  24960843.340          45.100          34.750
 110409320.400 8  86033252.321 8                  21010181.400    21010179.000
  21010178.260          50.150          48.700
 114589264.999 6  89125076.484 6                  21496613.760    21496621.740
  21496621.060          41.750          39.100
 102691889.501 8  79871518.747 7                  19210625.560    19210628.260
  19210627.780          49.400          47.800
 115715747.452 7  90001184.926 7                  21662222.480    21662228.220
  21662227.400          45.900          43.400
 133102259.544 6 103523992.477 5                  24882060.440    24882066.400
  24882065.420          40.100          33.350
 119613309.698 7  93032624.564 6                  22415473.920    22415478.540
  22415478.740          46.250          40.650
 110797401.528 8  86175796.099 7                  20690623.920    20690626.280
  20690625.220          48.900          45.800
 102615082.005 7  79811883.655 7                  19202956.520    19202962.320
  19202960.240          47.350          46.550
 123774104.237 7                                  23553429.860
                        47.750
 15  1 27 16 11 20.0000000  0 17G30G21G07G13G15G28G24G10G05R14R05R16
                                R23R06R04R15E20
 119669125.022 8  93248759.014 7  89363407.600 8  22772243.840    22772243.920
  22772243.260          48.950          46.900
 134306897.569 6 104654731.09746                  25557753.040
  25557753.600          41.200          36.800
 132836789.299 7 103509253.911 6                  25277978.540    25277977.340
  25277977.340          43.000          38.000
 107670650.654 8  83899275.03547                  20489018.240
  20489014.520          49.350          47.950
 118389477.906 8  92251566.210 7                  22528753.740    22528751.760
  22528751.080          49.300          45.850
 113095532.482 8  88126521.33347                  21521297.200
  21521293.000          50.450          46.200
 129452892.439 7 100872446.863 7  96669440.773 7  24634051.220    24634056.040
  24634055.240          42.800          42.550
 131188842.613 7 102225067.25245                  24964417.220
  24964419.920          45.900          34.800
 110418532.629 8  86040430.680 8                  21011934.420    21011932.020
  21011931.280          50.300          49.650
 114606622.092 6  89138576.423 6                  21499869.900    21499877.940
  21499877.300          41.900          38.800
 102688010.248 8  79868501.552 7                  19209899.880    19209902.600
  19209902.100          49.600          47.600
 115699740.145 7  89988734.825 7                  21659225.900    21659231.600
  21659230.740          46.450          42.450
 133097007.485 6 103519907.554 5                  24881078.640    24881084.500
  24881083.620          39.400          34.100
 119593792.337 7  93017444.413 6                  22411816.380    22411820.920
  22411821.160          46.350          40.350
 110812503.129 8  86187541.778 7                  20693444.020    20693446.400
  20693445.340          49.000          45.250
 102618194.511 7  79814304.499 7                  19203538.980    19203544.800
  19203542.660          47.600          46.250
 123763099.993 7                                  23551335.800
                        47.750
 15  1 27 16 11 25.0000000  0 17G30G21G07G13G15G28G24G10G05R14R05R16
                                R23R06R04R15E20
 119683453.097 8  93259923.746 7  89374107.133 8  22774970.380    22774970.460
  22774969.760          49.200          46.750
 134304287.577 7 104652697.33045                  25557256.360
  25557256.860          42.050          33.350
 132852400.635 7 103521418.599 6                  25280949.320    25280948.060
  25280947.960          43.600          38.400
 107666271.034 8  83895862.34247                  20488184.820
  20488181.080          49.450          47.900
 118376616.060 8  92241543.990 7                  22526306.180    22526304.200
  22526303.540          49.300          45.550
 113096347.840 8  88127156.67547                  21521452.400
  21521448.160          50.600          46.150
 129437407.228 7 100860380.506 6  96657877.203 7  24631104.440    24631109.260
  24631108.480          42.100          41.700
 131207638.209 7 102239713.10245                  24967993.940
  24967996.620          46.600          34.700
 110427758.821 8  86047619.919 8                  21013690.100    21013687.720
  21013686.960          50.350          49.350
 114623984.971 7  89152080.868 6                  21503127.160    21503135.180
  21503134.600          42.250          38.950
 102684150.012 8  79865499.147 7                  19209177.740    19209180.480
  19209180.000          49.700          47.800
 115683744.029 7  89976293.412 7                  21656231.380    21656237.040
  21656236.200          46.700          42.300
 133091773.429 6 103515836.603 5                  24880100.180    24880106.080
  24880105.160          40.000          33.350
 119574279.714 7  93002267.956 6                  22408159.740    22408164.240
  22408164.500          46.550          40.650
 110827618.913 8  86199298.472 7                  20696266.800    20696269.200
  20696268.100          48.900          45.550
 102621324.330 7  79816738.794 7                  19204124.700    19204130.500
  19204128.380          47.700          46.700
 123752100.862 7                                  23549242.700
                        47.750
 15  1 27 16 11 30.0000000  0 17G30G21G07G13G15G28G24G10G05R14R05R16
                                R23R06R04R15E20
 119697784.025 8  93271090.709 7  89384808.798 8  22777697.500    22777697.560
  22777696.840          49.000          45.850
 134301689.240 6 104650672.67945                  25556761.980
  25556762.500          41.800          34.950
 132868010.298 7 103533581.999 6                  25283919.800    25283918.460
  25283918.420          42.200          37.600
 107661898.652 8  83892455.30247                  20487352.780
  20487349.020          49.350          46.800
 118363757.327 8  92231524.213 7                  22523859.220    22523857.280
  22523856.600          49.200          44.750
 113097177.878 8  88127803.47247                  21521610.380
  21521606.120          50.550          45.100
 129421925.389 7 100848316.785 6  96646316.147 7  24628158.300    24628163.060
  24628162.160          42.600          40.400
 131226433.779 7 102254358.95745                  24971570.720
  24971573.300          46.550          34.200
 110436998.261 8  86054819.493 8                  21015448.300    21015445.920
  21015445.180          50.100          48.650
 114641352.875 7  89165589.242 6                  21506385.400    21506393.320
  21506392.840          42.600          38.200
 102680308.138 8  79862511.028 7                  19208459.060    19208461.800
  19208461.320          49.650          47.250
 115667758.236 7  89963860.038 6                  21653238.820    21653244.460
  21653243.600          46.550          41.950
 133086556.687 6 103511779.168 5                  24879125.000    24879130.720
  24879129.800          40.000          32.150
 119554771.278 7  92987094.754 6                  22404503.860    22404508.360
  22404508.580          46.250          39.600
 110842748.245 8  86211065.734 7                  20699092.100    20699094.500
  20699093.380          48.850          44.900
 102624470.659 7  79819185.947 7                  19204713.480    19204719.300
  19204717.200          47.750          46.200
 123741106.082 7                                  23547150.420
                        47.650
 15  1 27 16 11 35.0000000  0 17G30G21G07G13G15G28G24G10G05R14R05R16
                                R23R06R04R15E20
 119712117.434 8  93282259.593 7  89395512.323 8  22780425.080    22780425.120
  22780424.440          48.950          46.050
 134299102.157 6 104648656.75845                  25556269.740
  25556270.120          41.750          34.950
 132883618.000 7 103545743.834 6                  25286889.840    25286888.480
  25286888.560          42.600          37.350
 107657533.110 8  83889053.57547                  20486522.060
  20486518.280          49.450          46.850
 118350901.374 8  92221506.585 7                  22521412.800    22521410.840
  22521410.180          49.100          44.700
 113098022.254 8  88128461.43047                  21521771.080
  21521766.800          50.550          45.300
 129406446.593 7 100836255.414 6  96634757.366 7  24625212.680    24625217.460
  24625216.560          42.000          40.000
 131245228.941 7 102269004.50345                  24975147.440
  24975149.860          46.150          33.850
 110446250.592 8  86062029.097 8                  21017208.940    21017206.600
  21017205.840          50.000          48.750
 114658725.365 7  89179101.170 6                  21509644.500    21509652.360
  21509651.900          42.800          38.350
 102676484.177 8  79859536.830 7                  19207743.700    19207746.460
  19207746.000          49.650          47.550
 115651782.509 7  89951434.491 7                  21650248.140    21650253.760
  21650252.880          46.500          42.800
 133081357.000 6 103507734.972 5                  24878153.000    24878159.000
  24878157.700          39.300          32.950
 119535266.828 7  92971924.645 6                  22400848.720    22400853.220
  22400853.400          46.650          39.900
 110857890.710 8  86222843.202 7                  20701919.840    20701922.260
  20701921.100          48.950          45.150
 102627633.056 7  79821645.585 7                  19205305.280    19205311.100
  19205309.020          47.650          46.450
 123730115.357 7                                  23545058.940
                        47.600
 15  1 27 16 11 40.0000000  0 17G30G21G07G13G15G28G24G10G05R14R05R16
                                R23R06R04R15E20
 119726455.147 8  93293431.833 7  89406219.049 8  22783153.480    22783153.540
  22783152.820          49.250          46.750
 134296528.128 6 104646651.02546                  25555779.940
  25555780.460          41.850          36.250
 132899225.500 7 103557905.529 6                  25289859.840    25289858.420
  25289858.440          44.100          37.800
 107653176.247 8  83885658.61747                  20485692.980
  20485689.160          50.200          47.000
 118338049.998 8  92211492.530 7                  22518967.240    22518965.300
  22518964.600          49.750          45.300
 113098882.806 8  88129131.98947                  21521934.880
  21521930.540          50.900          45.400
 129390972.697 7 100824197.879 6  96623202.225 7  24622268.040    24622272.740
  24622271.820          42.950          40.900
 131264025.523 7 102283651.13345                  24978724.360
  24978726.680          45.950          33.400
 110455517.653 8  86069250.175 8                  21018972.400    21018970.060
  21018969.300          50.450          49.300
 114676104.327 6  89192618.137 6                  21512904.800    21512912.560
  21512912.160          41.300          38.300
 102672680.053 8  79856578.063 7                  19207032.060    19207034.860
  19207034.380          48.800          47.700
 115635818.569 7  89939018.121 7                  21647259.700    21647265.260
  21647264.380          45.750          43.400
 133076176.243 6 103503705.481 5                  24877184.480    24877190.260
  24877189.300          38.600          33.350
 119515768.162 7  92956759.029 6                  22397194.660    22397199.100
  22397199.280          46.200          39.950
 110873048.085 8  86234632.270 7                  20704750.400    20704752.800
  20704751.620          48.350          45.650
 102630813.392 7  79824119.186 7                  19205900.480    19205906.260
  19205904.180          46.750          46.400
 123719130.391 8                                  23542968.520
                        48.100
 15  1 27 16 11 45.0000000  0 17G30G21G07G13G15G28G24G10G05R14R05R16
                                R23R06R04R15E20
 119740796.062 8  93304606.568 7  89416928.164 8  22785882.480    22785882.520
  22785881.840          48.800          46.750
 134293965.938 6 104644654.49545                  25555292.360
  25555292.880          40.900          35.350
 132914831.694 7 103570066.198 6                  25292829.600    25292828.140
  25292828.220          44.150          38.000
 107648826.975 8  83882269.57947                  20484865.340
  20484861.500          50.100          47.050
 118325202.128 8  92201481.206 7                  22516522.340    22516520.400
  22516519.700          49.400          45.100
 113099758.444 8  88129814.30547                  21522101.520
  21522097.180          50.600          45.750
 129375502.495 6 100812143.220 6  96611649.865 7  24619324.140    24619328.760
  24619327.780          41.950          41.000
 131282822.440 7 102298298.00445                  24982301.300
  24982303.680          45.350          35.700
 110464798.329 8  86076481.867 8                  21020738.440    21020736.100
  21020735.380          50.200          49.200
 114693488.595 6  89206139.230 6                  21516166.120    21516173.780
  21516173.340          41.600          38.150
 102668894.796 8  79853633.973 7                  19206323.940    19206326.740
  19206326.260          49.350          47.700
 115619865.449 7  89926610.176 7                  21644273.200    21644278.800
  21644277.920          46.150          43.150
 133071013.146 6 103499689.729 5                  24876219.320    24876225.260
  24876224.060          38.800          32.500
 119496274.038 7  92941596.938 6                  22393541.500    22393545.840
  22393546.020          47.200          39.850
 110888219.381 8  86246432.159 7                  20707583.560    20707585.920
  20707584.760          49.200          46.000
 102634010.707 7  79826605.987 7                  19206498.820    19206504.600
  19206502.480          47.350          46.350
 123708150.202 7                                  23540879.000
                        47.600
 15  1 27 16 11 50.0000000  0 17G30G21G07G13G15G28G24G10G05R14R05R16
                                R23R06R04R15E20
 119755140.168 8  93315783.787 7  89427639.672 8  22788612.060    22788612.140
  22788611.420          48.750          47.100
 134291415.669 6 104642667.28945                  25554807.040
  25554807.620          41.050          34.850
 132930436.630 7 103582225.902 6                  25295799.100    25295797.580
  25295797.620          44.000          38.150
 107644485.299 8  83878886.46347                  20484039.180
  20484035.280          50.250          47.400
 118312357.767 8  92191472.622 7                  22514078.120    22514076.200
  22514075.460          49.550          45.750
 113100649.123 8  88130508.34447                  21522271.040
  21522266.680          50.650          45.950
 129360036.130 7 100800091.554 6  96600100.359 8  24616380.960    24616385.540
  24616384.580          43.100          41.650
 131301619.631 7 102312945.07846                  24985878.260
  24985880.840          45.100          36.350
 110474092.582 8  86083724.146 8                  21022507.080    21022504.760
  21022504.020          50.400          49.550
 114710878.223 6  89219664.486 6                  21519428.320    21519436.020
  21519435.580          41.800          38.800
 102665128.193 8  79850704.401 8                  19205619.360    19205622.120
  19205621.640          49.800          48.300
 115603923.205 7  89914210.672 7                  21641288.740    21641294.360
  21641293.520          46.700          43.600
 133065867.993 6 103495687.927 5                  24875257.520    24875263.480
  24875262.080          39.650          32.800
 119476784.655 7  92926438.539 6                  22389889.240    22389893.500
  22389893.660          47.300          40.800
 110903404.477 8  86258242.785 7                  20710419.300    20710421.600
  20710420.460          49.400          46.450
 102637224.853 7  79829105.884 7                  19207100.280    19207106.060
  19207103.940          47.600          47.200
 123697174.779 7                                  23538790.380
                        47.650
 15  1 27 16 11 55.0000000  0 17G30G21G07G13G15G28G24G10G05R14R05R16
                                R23R06R04R15E20
 119769487.634 8  93326963.627 7  89438353.687 8  22791342.300    22791342.360
  22791341.660          48.300          46.850
 134288877.461 6 104640689.49345                  25554324.020
  25554324.500          39.750          35.550
 132946040.493 7 103594384.777 6                  25298768.380    25298766.920
  25298766.900          42.800          38.200
 107640151.419 8  83875509.42247                  20483214.480
  20483210.560          50.100          47.450
 118299517.080 8  92181466.898 7                  22511634.600    22511632.700
  22511631.940          49.450          45.650
 113101555.081 8  88131214.29647                  21522443.440
  21522439.060          50.550          46.100
 129344573.698 7 100788042.926 6  96588553.773 7  24613438.540    24613443.120
  24613442.200          42.500          41.150
 131320417.279 7 102327592.53645                  24989455.360
  24989458.120          44.200          35.650
 110483400.608 8  86090977.157 8                  21024278.320    21024276.000
  21024275.280          50.350          49.400
 114728273.372 6  89233194.044 6                  21522691.600    21522699.340
  21522698.840          41.900          38.750
 102661380.538 8  79847789.566 8                  19204918.260    19204921.060
  19204920.560          49.650          48.100
 115587991.875 7  89901819.647 7                  21638306.360    21638311.980
  21638311.160          46.150          43.750
 133060740.694 6 103491700.042 5                  24874299.080    24874305.080
  24874303.580          40.700          34.350
 119457300.063 7  92911283.890 6                  22386237.860    22386242.040
  22386242.240          47.250          40.600
 110918603.559 8  86270064.298 7                  20713257.660    20713259.900
  20713258.780          49.150          46.100
 102640456.010 7  79831619.021 7                  19207704.940    19207710.740
  19207708.620          47.250          47.200
 123686204.322 7                                  23536702.720
                        47.550
 15  1 27 16 12  0.0000000  0 17G30G21G07G13G15G28G24G10G05R14R05R16
                                R23R06R04R15E20
 119783838.334 8  93338145.982 7  89449070.101 8  22794073.140    22794073.220
  22794072.520          48.100          46.700
 134286351.239 6 104638721.02545                  25553843.280
  25553843.780          39.800          35.200
 132961643.020 7 103606542.598 6                  25301737.440    25301735.880
  25301735.920          42.900          37.800
 107635825.190 8  83872138.34347                  20482391.240
  20482387.320          50.050          47.450
 118286679.954 8  92171463.944 7                  22509191.760    22509189.860
  22509189.100          49.300          45.650
 113102476.152 8  88131932.01547                  21522618.700
  21522614.320          50.500          46.000
 129329115.018 7 100775997.232 6  96577009.981 7  24610496.900    24610501.360
  24610500.540          42.850          41.350
 131339215.261 7 102342240.21845                  24993032.520
  24993035.280          44.400          33.700
 110492722.269 8  86098240.785 8                  21026052.160    21026049.860
  21026049.140          50.350          49.300
 114745673.805 7  89246727.708 6                  21525955.800    21525963.560
  21525963.060          42.600          38.650
 102657651.688 8  79844889.356 8                  19204220.700    19204223.540
  19204223.000          49.750          48.000
 115572071.404 7  89889437.073 7                  21635326.040    21635331.620
  21635330.840          46.300          44.650
 133055631.264 6 103487726.055 5                  24873343.920    24873349.740
  24873348.460          41.000          35.150
 119437820.221 7  92896132.906 6                  22382587.380    22382591.520
  22382591.700          47.300          40.900
 110933816.530 8  86281896.604 7                  20716098.620    20716100.800
  20716099.700          48.900          46.000
 102643704.080 7  79834145.297 7                  19208312.800    19208318.560
  19208316.500          47.450          47.300
 123675238.650 7                                  23534615.940
                        47.650
 15  1 27 16 12  5.0000000  0 17G30G21G07G13G15G28G24G10G05R14R05R16
                                R23R06R04R15E20
 119798191.883 8  93349330.560 7  89459788.650 8  22796804.520    22796804.600
  22796803.900          48.100          46.250
 134283836.626 6 104636761.55545                  25553364.660
  25553365.160          40.200          35.650
 132977243.909 7 103618699.176 6                  25304706.160    25304704.660
  25304704.680          42.000          36.600
 107631506.257 8  83868772.93947                  20481569.380
  20481565.440          49.900          47.150
 118273846.051 8  92161463.515 7                  22506749.540    22506747.640
  22506746.880          49.350          45.450
 113103411.961 8  88132661.22347                  21522796.780
  21522792.400          50.250          45.750
 129313659.690 7 100763954.187 6  96565468.732 7  24607555.820    24607560.280
  24607559.620          43.250          41.250
 131358013.206 7 102356887.92245                  24996609.700
  24996612.500          44.300          35.100
 110502057.151 8  86105514.721 8                  21027828.520    21027826.220
  21027825.500          50.200          49.150
 114763079.219 7  89260265.259 6                  21529221.080    21529228.780
  21529228.240          42.800          38.500
 102653941.256 8  79842003.466 8                  19203526.580    19203529.440
  19203528.900          49.750          48.000
 115556161.422 7  89877062.684 7                  21632347.640    21632353.240
  21632352.480          46.550          44.750
 133050539.388 6 103483765.697 5                  24872392.020    24872397.900
  24872396.600          41.400          35.900
 119418344.648 7  92880985.265 6                  22378937.700    22378941.880
  22378942.000          47.150          40.550
 110949043.033 8  86293739.435 7                  20718942.080    20718944.260
  20718943.140          49.000          45.850
 102646968.624 7  79836684.388 7                  19208923.700    19208929.480
  19208927.460          47.450          47.050
 123664277.419 7                                  23532530.040
                        47.350
 15  1 27 16 12 10.0000000  0 17G30G21G07G13G15G28G24G10G05R14R05R16
                                R23R06R04R15E20
 119812549.767 8  93360518.515 7  89470510.445 8  22799536.740    22799536.820
  22799536.100          48.400          45.150
 134281335.153 6 104634812.37645                  25552888.580
  25552888.860          40.350          32.200
 132992844.711 6 103630855.668 5                  25307674.840    25307673.360
  25307673.300          41.850          34.800
 107627196.124 8  83865414.39247                  20480749.200
  20480745.260          49.650          46.550
 118261016.867 8  92151466.750 7                  22504308.200    22504306.320
  22504305.560          49.250          44.600
 113104364.005 8  88133403.08047                  21522977.920
  21522973.560          50.200          44.800
 129298209.411 7 100751915.055 6  96553931.230 7  24604615.720    24604620.240
  24604619.520          43.350          39.800
 131376812.594 7 102371536.70045                  25000187.200
  25000189.940          44.300          35.500
 110511406.784 8  86112800.145 8                  21029607.680    21029605.380
  21029604.700          50.100          48.250
 114780491.148 7  89273807.859 6                  21532487.520    21532495.240
  21532494.680          43.300          37.150
 102650250.950 8  79839133.222 7                  19202836.220    19202839.080
  19202838.560          49.700          47.000
 115540263.438 7  89864697.612 7                  21629371.480    21629377.100
  21629376.340          46.850          43.000
 133045466.344 6 103479820.004 5                  24871443.660    24871449.480
  24871448.220          40.500          34.150
 119398874.992 7  92865842.210 6                  22375289.120    22375293.300
  22375293.380          47.250          39.400
 110964284.532 8  86305593.927 7                  20721788.340    20721790.520
  20721789.400          48.950          44.800
 102650251.070 7  79839237.393 7                  19209537.960    19209543.740
  19209541.720          47.500          45.800
 123653322.189 7                                  23530445.320
                        47.400
 15  1 27 16 12 15.0000000  0 17G30G21G07G13G15G28G24G10G05R14R05R16
                                R23R06R04R15E20
 119826909.475 8  93371707.898 7  89481233.615 8  22802269.300    22802269.360
  22802268.620          48.900          45.100
 134278844.219 6 104632871.41145                  25552414.520
  25552414.760          40.850          34.100
 133008442.912 7 103643010.133 5                  25310643.060    25310641.500
  25310641.560          42.400          35.500
 107622892.321 8  83862060.77347                  20479930.240
  20479926.280          49.950          46.100
 118248189.935 8  92141471.749 7                  22501867.300    22501865.400
  22501864.700          49.450          44.500
 113105329.780 8  88134155.63747                  21523161.700
  21523157.340          50.650          44.600
 129282761.614 7 100739877.827 6  96542395.587 7  24601676.120    24601680.600
  24601679.920          43.750          39.800
 131395610.901 7 102386184.67645                  25003764.480
  25003767.200          45.350          34.300
 110520768.682 8  86120095.125 8                  21031389.180    21031386.920
  21031386.200          50.450          48.350
 114797906.931 7  89287353.472 6                  21535754.740    21535762.440
  21535761.860          43.300          37.850
 102646577.991 8  79836276.470 7                  19202149.100    19202152.000
  19202151.460          49.400          47.250
 115524374.948 7  89852339.903 7                  21626397.100    21626402.740
  21626402.000          46.750          42.700
 133040409.851 6 103475887.133 5                  24870498.440    24870504.240
  24870502.920          40.650          34.600
 119379408.886 7  92850701.926 6                  22371641.220    22371645.360
  22371645.480          47.100          39.950
 110979538.383 8  86317458.020 7                  20724636.920    20724639.060
  20724637.980          48.950          45.100
 102653548.901 7  79841802.384 7                  19210155.120    19210160.880
  19210158.840          47.300          45.950
 123642370.443 7                                  23528361.260
                        47.800
 15  1 27 16 12 20.0000000  0 17G30G21G07G13G15G28G24G10G05R14R05R16
                                R23R06R04R15E20
 119841273.581 8  93382900.708 7  89491960.052 8  22805002.720    22805002.780
  22805002.000          48.850          46.100
 134276366.598 6 104630940.80245                  25551943.000
  25551943.260          40.550          31.750
 133024041.069 7 103655164.549 6                  25313611.300    25313609.680
  25313609.800          42.600          36.700
 107618597.410 8  83858714.09247                  20479112.940
  20479108.980          49.700          47.400
 118235367.801 8  92131480.486 7                  22499427.300    22499425.460
  22499424.760          49.300          45.350
 113106311.907 8  88134920.93847                  21523348.580
  21523344.220          50.650          45.700
 129267318.835 7 100727844.522 6  96530863.695 7  24598737.420    24598741.960
  24598741.200          43.400          40.900
 131414410.691 7 102400833.79945                  25007342.040
  25007344.580          45.000          35.150
 110530145.365 8  86127401.633 8                  21033173.500    21033171.240
  21033170.540          50.200          49.050
 114815329.227 7  89300904.152 6                  21539023.120    21539030.800
  21539030.280          43.450          39.750
 102642925.120 8  79833435.357 8                  19201465.720    19201468.680
  19201468.120          49.450          48.650
 115508498.623 7  89839991.658 7                  21623424.980    21623430.660
  21623429.900          46.300          44.600
 133035372.514 6 103471969.246 6                  24869556.740    24869562.480
  24869561.300          40.900          36.350
 119359948.825 7  92835566.356 6                  22367994.460    22367998.600
  22367998.680          47.300          41.150
 110994807.426 8  86329333.946 7                  20727488.280    20727490.460
  20727489.380          48.900          46.750
 102656864.718 7  79844381.368 7                  19210775.680    19210781.380
  19210779.340          47.600          47.650
 123631424.745 7                                  23526278.360
                        47.700
