     2.11           OBSERVATION DATA    M (MIXED)           RINEX VERSION / TYPE
teqc  2011Oct11     IGN-E (SPG)         20150127 03:01:10UTCPGM / RUN BY / DATE
Linux 2.4.21-27.ELsmp|Opteron|gcc -static|Linux x86_64|=+   COMMENT
BIT 2 OF LLI FLAGS DATA COLLECTED UNDER A/S CONDITION       COMMENT
VALE                                                        MARKER NAME
13439M001                                                   MARKER NUMBER
Programas GeodesicosInstituto Geografico Nacional           OBSERVER / AGENCY
1700071             LEICA GR10          3.03/6.214          REC # / TYPE / VERS
10190012            LEIAR25.R3      LEIT                    ANT # / TYPE
  4929534.0457   -29050.6755  4033709.9250                  APPROX POSITION XYZ
        3.0390        0.0000        0.0000                  ANTENNA: DELTA H/E/N
     1     1                                                WAVELENGTH FACT L1/2
     8    L1    L2    L5    C1    C2    P2    S1    S2      # / TYPES OF OBSERV
     5.0000                                                 INTERVAL
Forced Modulo Decimation to 5 seconds                       COMMENT
DefaultJobName                                              COMMENT
DefaultUserDiscription                                      COMMENT
Project creator:                                            COMMENT
 SNR is mapped to RINEX snr flag value [0-9]                COMMENT
  L1 & L2: min(max(int(snr_dBHz/6), 0), 9)                  COMMENT
  2015     1    27     1     0    0.0000000     GPS         TIME OF FIRST OBS
    15                                                      LEAP SECONDS
                                                            END OF HEADER
 15  1 27  1  0  0.0000000  0 21G31G08G21G25G05G16G18G23G27G29R11R21
                                R10R04R22R19R09R20E12E18E11
 110942821.233 8  86448962.074 8                  21111711.540    21111706.860
  21111705.960          50.200          48.150
 110305991.877 8  85952702.07847                  20990530.020
  20990525.480          49.700          46.300
 111660445.516 8  87008196.45947                  21248245.720
  21248240.540          48.650          46.350
 121890800.684 7  94980016.397 7  91022509.330 8  23194967.300    23194966.140
  23194965.380          47.700          43.850
 131942866.488 7 102812630.800 6                  25107888.520    25107885.940
  25107885.700          43.800          39.350
 122103167.217 7  95145324.35746                  23235459.300
  23235454.220          47.200          39.000
 131867684.771 6 102754030.80745                  25093579.820
  25093575.720          41.750          30.000
 134044935.808 7 104450573.82044                  25507904.340
  25507897.980          42.650          28.900
 128562816.103 7 100178823.709 7  96004699.626 8  24464688.600    24464687.720
  24464687.220          44.100          42.400
 115497686.619 8  89998336.498 7                  21978416.580    21978412.720
  21978411.980          49.250          45.650
 109207079.847 7  84938853.782 6                  20436614.180    20436618.220
  20436616.440          47.200          41.000
 107529665.044 8  83634233.861 7                  20094469.020    20094470.680
  20094469.760          49.000          46.850
 103157212.855 8  80233423.857 7                  19352024.300    19352030.960
  19352029.660          48.950          42.050
 128971266.087 7 100310998.566 6                  24084473.740    24084475.760
  24084474.820          42.750          37.300
 127370842.005 7  99066235.399 6                  23860846.820    23860851.020
  23860849.720          44.700          40.550
 125005003.811 7  97226236.967 6                  23368317.360    23368318.680
  23368317.000          45.450          38.650
 121164405.114 7  94238971.104 5                  22690185.920    22690189.780
  22690187.180          45.300          32.500
 105840829.049 7  82320795.455 7                  19792720.960    19792725.440
  19792723.260          43.600          46.600
 129711595.562 8                  96862687.379 8  24683244.220
                        50.150


 122144607.665 8                  91211991.040 8  23243291.920
                        50.300
 15  1 27  1  0  5.0000000  0 21G31G08G21G25G05G16G18G23G27G29R11R21
                                R10R04R22R19R09R20E12E18E11
 110951130.369 8  86455436.722 8                  21113292.720    21113288.000
  21113287.120          50.200          48.200
 110299780.065 8  85947861.70447                  20989347.920
  20989343.400          49.550          46.750
 111655470.174 8  87004319.57647                  21247298.980
  21247293.780          48.500          46.250
 121904489.542 7  94990683.034 7  91032731.532 8  23197572.200    23197571.020
  23197570.200          47.550          43.750
 131944840.755 7 102814169.180 6                  25108264.280    25108261.640
  25108261.420          42.750          39.450
 122088968.487 7  95134260.41746                  23232757.360
  23232752.320          47.050          39.550
 131855183.417 6 102744289.46745                  25091200.880
  25091196.800          41.000          32.150
 134046006.496 7 104451408.15544                  25508108.120
  25508101.540          42.650          29.850
 128548493.225 7 100167663.039 7  95994004.006 8  24461963.020    24461962.180
  24461961.700          44.000          42.350
 115509931.603 8  90007878.040 7                  21980746.740    21980742.860
  21980742.120          49.200          45.650
 109193767.347 7  84928499.617 6                  20434123.020    20434127.000
  20434125.200          47.050          41.200
 107521859.029 8  83628162.529 7                  20093010.240    20093011.940
  20093011.020          49.050          46.800
 103164745.823 8  80239282.829 7                  19353437.480    19353444.140
  19353442.820          49.000          42.000
 128963110.609 7 100304655.400 6                  24082950.720    24082952.840
  24082951.860          43.600          38.300
 127353207.306 7  99052519.536 6                  23857543.300    23857547.420
  23857546.120          44.350          39.600
 125023536.577 7  97240651.330 6                  23371781.900    23371783.260
  23371781.580          46.100          38.550
 121185256.990 7  94255189.221 5                  22694090.860    22694094.800
  22694092.140          45.300          33.250
 105849901.272 7  82327851.621 7                  19794417.520    19794422.000
  19794419.820          43.750          46.500
 129720930.783 8                  96869658.484 8  24685020.600
                        50.100


 122143346.582 8                  91211049.322 8  23243051.940
                        50.250
 15  1 27  1  0 10.0000000  0 21G31G08G21G25G05G16G18G23G27G29R11R21
                                R10R04R22R19R09R20E12E18E11
 110959452.960 8  86461921.848 8                  21114876.440    21114871.740
  21114870.860          50.200          48.100
 110293584.376 8  85943033.88947                  20988168.920
  20988164.380          49.400          46.600
 111650507.177 8  87000452.30347                  21246354.600
  21246349.320          48.150          46.100
 121918183.741 7  95001353.834 7  91042957.722 8  23200178.120    23200176.880
  23200176.100          47.550          43.450
 131946828.926 7 102815718.409 6                  25108642.600    25108639.960
  25108639.840          42.700          39.650
 122074771.370 7  95123197.73546                  23230055.720
  23230050.680          46.900          39.550
 131842678.606 7 102734545.50645                  25088821.300
  25088817.060          42.000          33.750
 134047089.795 6 104452252.27644                  25508314.260
  25508307.760          41.900          29.300
 128534173.401 7 100156504.746 6  95983310.633 8  24459238.000    24459237.180
  24459236.720          43.750          41.800
 115522179.643 8  90017421.959 7                  21983077.480    21983073.560
  21983072.840          49.000          45.650
 109180469.611 7  84918156.933 6                  20431634.580    20431638.540
  20431636.740          47.150          41.550
 107514066.250 8  83622101.480 7                  20091553.960    20091555.680
  20091554.760          48.900          46.850
 103172299.217 8  80245157.691 6                  19354854.520    19354861.140
  19354859.800          49.050          41.900
 128954970.542 7 100298324.250 6                  24081430.620    24081432.740
  24081431.900          43.300          38.200
 127335578.027 7  99038807.893 6                  23854240.720    23854244.900
  23854243.560          44.700          39.800
 125042068.019 7  97255064.688 6                  23375246.180    23375247.480
  23375245.840          45.950          38.400
 121206115.201 7  94271412.263 5                  22697996.920    22698000.760
  22697998.280          45.050          32.250
 105858984.174 7  82334916.088 7                  19796116.060    19796120.540
  19796118.380          43.050          46.700
 129730269.409 8                  96876632.124 8  24686797.640
                        50.100


 122142092.681 8                  91210112.971 8  23242813.340
                        50.150
 15  1 27  1  0 15.0000000  0 21G31G08G21G25G05G16G18G23G27G29R11R21
                                R10R04R22R19R09R20E12E18E11
 110967789.283 8  86468417.680 8                  21116462.780    21116458.080
  21116457.200          50.150          48.100
 110287405.106 8  85938218.87647                  20986993.020
  20986988.500          49.400          46.600
 111645556.815 8  86996594.87647                  21245412.600
  21245407.280          48.050          46.700
 121931883.598 7  95012029.043 7  91053188.121 8  23202785.120    23202783.920
  23202783.080          47.400          43.700
 131948831.260 7 102817278.667 6                  25109023.620    25109020.980
  25109021.000          42.700          39.750
 122060576.137 7  95112136.51146                  23227354.420
  23227349.460          46.550          40.100
 131830170.726 7 102724799.12845                  25086441.100
  25086436.820          42.700          33.050
 134048186.024 7 104453106.47245                  25508522.920
  25508516.360          42.950          32.350
 128519856.918 7 100145349.054 6  95972619.755 8  24456513.620    24456512.880
  24456512.400          43.850          41.550
 115534431.054 8  90026968.507 7                  21985408.840    21985404.920
  21985404.220          48.850          45.600
 109167187.000 7  84907826.016 6                  20429148.980    20429152.940
  20429151.100          47.350          41.200
 107506286.996 8  83616050.941 7                  20090100.220    20090102.000
  20090101.020          49.000          46.850
 103179873.301 8  80251048.642 7                  19356275.420    19356282.000
  19356280.660          49.150          42.050
 128946846.193 7 100292005.332 6                  24079913.340    24079915.500
  24079914.840          42.800          37.050
 127317954.302 7  99025100.591 6                  23850939.220    23850943.400
  23850942.080          45.250          39.800
 125060598.465 7  97269477.255 6                  23378710.320    23378711.640
  23378709.980          45.250          38.150
 121226980.094 7  94287640.514 5                  22701904.200    22701908.280
  22701905.620          45.350          32.650
 105868078.031 7  82341989.089 7                  19797816.680    19797821.120
  19797819.000          44.000          46.750
 129739611.698 8                  96883608.504 8  24688575.380
                        50.200


 122140846.281 8                  91209182.220 8  23242576.200
                        50.150
 15  1 27  1  0 20.0000000  0 21G31G08G21G25G05G16G18G23G27G29R11R21
                                R10R04R22R19R09R20E12E18E11
 110976139.986 8  86474924.719 8                  21118051.860    21118047.180
  21118046.300          49.950          48.300
 110281242.946 8  85933417.19147                  20985820.400
  20985815.880          49.450          46.600
 111640619.809 8  86992747.85347                  21244473.140
  21244467.780          48.150          46.400
 121945589.718 7  95022709.127 7  91063423.199 8  23205393.300    23205392.100
  23205391.300          47.700          43.700
 131950848.450 7 102818850.507 6                  25109407.500    25109404.920
  25109404.840          42.900          39.350
 122046383.484 7  95101077.31746                  23224653.600
  23224648.700          46.950          38.950
 131817660.423 7 102715050.84645                  25084060.500
  25084056.260          42.350          31.650
 134049295.861 7 104453971.23644                  25508734.120
  25508727.460          42.800          29.550
 128505544.443 7 100134196.453 6  95961931.862 8  24453789.980    24453789.320
  24453788.840          44.050          41.900
 115546686.506 8  90036518.202 7                  21987740.960    21987737.080
  21987736.360          48.900          45.550
 109153920.134 7  84897507.340 6                  20426666.340    20426670.220
  20426668.380          46.950          41.200
 107498521.974 8  83610011.476 7                  20088649.140    20088650.900
  20088649.940          48.700          47.000
 103187468.743 8  80256956.199 7                  19357700.320    19357706.860
  19357705.540          49.150          42.200
 128938738.310 7 100285699.205 6                  24078399.240    24078401.420
  24078400.800          42.550          37.550
 127300336.852 7  99011398.141 6                  23847638.900    23847642.980
  23847641.780          45.700          39.350
 125079128.567 7  97283889.559 6                  23382174.320    23382175.680
  23382174.040          44.200          39.100
 121247852.312 7  94303874.464 5                  22705812.920    22705816.960
  22705814.360          45.400          32.050
 105877183.521 7  82349071.128 7                  19799519.520    19799523.880
  19799521.800          43.350          46.750
 129748958.344 8                  96890588.136 8  24690353.940
                        50.300


 122139608.047 8                  91208257.558 8  23242340.560
                        50.250
 15  1 27  1  0 25.0000000  0 21G31G08G21G25G05G16G18G23G27G29R11R21
                                R10R04R22R19R09R20E12E18E11
 110984503.672 8  86481441.871 8                  21119643.420    21119638.760
  21119637.860          49.950          48.100
 110275096.499 8  85928627.74547                  20984650.720
  20984646.240          49.650          46.200
 111635694.761 8  86988910.14747                  21243535.960
  21243530.560          48.450          46.550
 121959300.726 7  95033393.025 7  91073661.934 8  23208002.420    23208001.240
  23208000.420          47.550          43.650
 131952879.083 7 102820432.814 6                  25109793.900    25109791.340
  25109791.260          43.350          39.250
 122032192.124 7  95090019.10846                  23221953.040
  23221948.180          46.900          39.350
 131805146.220 7 102705299.54245                  25081679.080
  25081674.960          42.500          31.000
 134050417.822 7 104454845.48744                  25508947.640
  25508940.860          42.450          29.950
 128491234.561 7 100123045.898 7  95951245.917 8  24451066.860    24451066.240
  24451065.780          44.050          42.050
 115558944.471 8  90046069.862 7                  21990073.580    21990069.700
  21990068.980          48.900          45.700
 109140667.697 7  84887199.897 6                  20424186.380    20424190.240
  20424188.380          47.250          41.200
 107490769.776 8  83603981.992 7                  20087200.480    20087202.220
  20087201.280          48.850          47.050
 103195084.219 8  80262879.348 7                  19359128.960    19359135.540
  19359134.200          49.100          42.000
 128930645.463 7 100279404.762 6                  24076887.920    24076890.120
  24076889.540          42.100          38.550
 127282724.378 7  98997699.566 6                  23844339.500    23844343.520
  23844342.420          45.350          38.900
 125097656.780 7  97298300.366 6                  23385638.060    23385639.320
  23385637.740          44.250          39.100
 121268730.359 7  94320112.926 5                  22709722.760    22709726.800
  22709724.180          45.600          32.000
 105886299.184 7  82356161.089 7                  19801224.220    19801228.560
  19801226.480          44.550          46.700
 129758307.922 8                  96897569.956 8  24692133.100
                        50.650


 122138376.561 8                  91207337.947 8  23242106.220
                        50.250
 15  1 27  1  0 30.0000000  0 21G31G08G21G25G05G16G18G23G27G29R11R21
                                R10R04R22R19R09R20E12E18E11
 110992881.886 8  86487970.351 8                  21121237.720    21121233.060
  21121232.180          49.950          48.000
 110268967.309 8  85923851.75447                  20983484.340
  20983479.880          49.750          46.150
 111630783.161 8  86985082.93047                  21242601.340
  21242595.920          48.750          45.350
 121973018.184 7  95044081.953 7  91083905.487 8  23210612.740    23210611.580
  23210610.760          47.750          43.650
 131954924.684 7 102822026.816 6                  25110183.140    25110180.580
  25110180.440          42.800          38.950
 122018003.481 7  95078963.03546                  23219253.020
  23219248.200          47.150          39.050
 131792629.745 7 102695546.44545                  25079297.260
  25079292.960          42.450          31.550
 134051553.543 7 104455730.43545                  25509163.800
  25509157.080          43.650          30.150
 128476928.838 7 100111898.588 7  95940563.080 8  24448344.540    24448343.960
  24448343.440          44.650          42.250
 115571206.578 8  90055624.741 7                  21992406.980    21992403.120
  21992402.380          49.250          45.800
 109127431.248 7  84876904.883 6                  20421709.400    20421713.220
  20421711.360          47.300          41.550
 107483031.908 8  83597963.657 7                  20085754.460    20085756.220
  20085755.300          48.800          47.250
 103202721.162 8  80268819.194 7                  19360561.640    19360568.240
  19360566.860          48.900          42.400
 128922569.220 7 100273123.260 6                  24075379.660    24075381.960
  24075381.380          42.450          38.300
 127265118.234 7  98984005.922 6                  23841041.240    23841045.320
  23841044.260          45.200          38.800
 125116184.825 7  97312711.051 6                  23389101.700    23389102.960
  23389101.420          44.150          39.600
 121289615.853 7  94336357.195 5                  22713633.960    22713638.060
  22713635.400          45.700          32.400
 105895426.606 7  82363260.208 7                  19802931.100    19802935.440
  19802933.340          43.900          46.500
 129767661.971 8                  96904555.125 8  24693913.120
                        50.800


 122137153.376 8                  91206424.529 8  23241873.440
                        50.400
 15  1 27  1  0 35.0000000  0 21G31G08G21G25G05G16G18G23G27G29R11R21
                                R10R04R22R19R09R20E12E18E11
 111001273.728 8  86494509.447 8                  21122834.640    21122830.000
  21122829.100          50.050          48.100
 110262854.479 8  85919088.50947                  20982321.100
  20982316.640          49.650          46.000
 111625884.141 8  86981265.51847                  21241669.100
  21241663.640          48.750          45.900
 121986741.168 7  95054775.181 7  91094153.162 8  23213224.120    23213222.960
  23213222.160          47.850          43.800
 131956984.416 7 102823631.808 6                  25110575.080    25110572.580
  25110572.340          43.450          39.500
 122003816.672 7  95067908.37746                  23216553.340
  23216548.540          47.450          38.850
 131780110.086 7 102685790.85845                  25076914.840
  25076910.300          42.400          30.200
 134052702.089 7 104456625.42444                  25509382.360
  25509375.440          43.850          28.600
 128462626.369 7 100100753.812 7  95929882.678 8  24445622.860    24445622.340
  24445621.760          44.750          42.100
 115583471.957 8  90065182.175 7                  21994741.000    21994737.160
  21994736.440          49.700          45.850
 109114209.796 7  84866621.532 6                  20419235.220    20419239.000
  20419237.140          47.550          41.150
 107475307.478 8  83591955.763 7                  20084310.960    20084312.720
  20084311.840          48.500          47.100
 103210378.558 8  80274774.940 6                  19361998.180    19362004.760
  19362003.360          48.950          41.900
 128914508.554 7 100266853.872 6                  24073874.400    24073876.620
  24073876.060          42.800          37.850
 127247517.685 7  98970316.612 6                  23837744.040    23837748.120
  23837747.120          45.300          39.700
 125134711.707 7  97327120.833 6                  23392565.160    23392566.300
  23392564.860          44.700          39.400
 121310507.843 7  94352606.523 5                  22717546.380    22717550.440
  22717547.760          45.850          32.250
 105904564.820 7  82370367.705 7                  19804639.980    19804644.300
  19804642.180          44.300          46.300
 129777019.579 8                  96911542.951 8  24695693.840
                        50.900


 122135937.573 8                  91205516.621 8  23241642.080
                        50.400
 15  1 27  1  0 40.0000000  0 21G31G08G21G25G05G16G18G23G27G29R11R21
                                R10R04R22R19R09R20E12E18E11
 111009679.328 8  86501059.269 8                  21124434.140    21124429.540
  21124428.620          50.250          48.050
 110256758.159 8  85914338.13847                  20981160.960
  20981156.540          49.600          46.250
 111620997.825 8  86977458.00747                  21240739.280
  21240733.800          48.650          46.050
 122000469.806 7  95065472.823 7  91104405.067 8  23215836.580    23215835.440
  23215834.600          47.900          43.900
 131959058.382 7 102825247.889 6                  25110969.720    25110967.200
  25110966.940          43.200          39.300
 121989631.821 7  95056855.25046                  23213854.040
  23213849.240          47.400          38.850
 131767587.426 7 102676032.94145                  25074531.840
  25074527.320          42.300          34.150
 134053863.562 7 104457530.49945                  25509603.400
  25509596.480          43.550          32.600
 128448327.283 7 100089611.666 6  95919204.789 8  24442901.800    24442901.320
  24442900.720          44.350          41.600
 115595740.712 8  90074742.252 7                  21997075.660    21997071.840
  21997071.120          49.650          45.950
 109101003.560 7  84856350.017 6                  20416763.860    20416767.580
  20416765.760          47.400          41.050
 107467596.644 8  83585958.452 7                  20082870.020    20082871.800
  20082870.920          48.650          47.050
 103218056.703 8  80280746.835 6                  19363438.580    19363445.160
  19363443.780          49.150          41.900
 128906463.891 7 100260596.939 6                  24072372.060    24072374.360
  24072373.780          42.700          38.050
 127229922.703 7  98956631.649 6                  23834447.900    23834451.960
  23834450.960          44.750          39.250
 125153237.574 7  97341529.835 6                  23396028.400    23396029.420
  23396028.100          44.800          38.850
 121331406.494 7  94368861.037 5                  22721460.060    22721464.080
  22721461.460          45.200          32.550
 105913714.129 7  82377483.839 7                  19806350.960    19806355.260
  19806353.120          44.000          46.300
 129786380.878 8                  96918533.531 8  24697475.260
                        50.950


 122134729.291 8                  91204614.338 8  23241412.140
                        50.400
 15  1 27  1  0 45.0000000  0 21G31G08G21G25G05G16G18G23G27G29R11R21
                                R10R04R22R19R09R20E12E18E11
 111018099.718 8  86507620.612 8                  21126036.460    21126031.900
  21126030.960          49.950          48.100
 110250679.408 8  85909601.45347                  20980004.180
  20979999.800          49.350          46.400
 111616125.232 8  86973661.19047                  21239812.060
  21239806.580          48.350          45.950
 122014205.171 7  95076175.711 7  91114661.997 8  23218450.340    23218449.200
  23218448.420          47.200          43.950
 131961147.616 7 102826875.886 6                  25111367.280    25111364.760
  25111364.500          43.000          39.750
 121975450.004 7  95045804.49846                  23211155.320
  23211150.540          47.150          39.250
 131755062.792 7 102666273.53745                  25072148.480
  25072143.920          42.250          30.650
 134055039.069 7 104458446.43145                  25509827.140
  25509820.200          44.150          30.300
 128434032.664 7 100078473.002 7  95908530.240 8  24440181.620    24440181.160
  24440180.520          44.250          42.050
 115608013.900 8  90084305.771 7                  21999411.180    21999407.360
  21999406.680          49.550          45.950
 109087813.654 7  84846091.206 6                  20414295.540    20414299.300
  20414297.420          47.350          40.900
 107459900.457 8  83579972.539 7                  20081431.800    20081433.600
  20081432.740          48.300          47.150
 103225756.656 8  80286735.683 6                  19364883.100    19364889.640
  19364888.280          49.000          41.850
 128898436.059 7 100254353.076 6                  24070872.860    24070875.260
  24070874.640          42.450          38.100
 127212334.586 7  98942952.048 6                  23831153.060    23831157.100
  23831156.120          43.850          39.000
 125171763.437 7  97355938.848 6                  23399491.660    23399492.580
  23399491.240          45.300          38.750
 121352312.792 7  94385121.483 5                  22725375.140    22725379.100
  22725376.640          44.900          33.050
 105922875.366 7  82384609.243 7                  19808064.240    19808068.460
  19808066.320          44.000          46.550
 129795746.917 8                  96925527.660 8  24699257.600
                        50.800


 122133529.585 8                  91203718.454 8  23241183.840
                        50.200
 15  1 27  1  0 50.0000000  0 21G31G08G21G25G05G16G18G23G27G29R11R21
                                R10R04R22R19R09R20E12E18E11
 111026533.593 8  86514192.460 8                  21127641.340    21127636.800
  21127635.880          49.800          48.250
 110244616.968 8  85904877.47147                  20978850.480
  20978846.140          49.400          46.450
 111611265.137 8  86969874.10247                  21238887.240
  21238881.720          48.250          46.300
 122027945.959 7  95086882.806 7  91124922.965 8  23221065.100    23221063.940
  23221063.160          47.350          43.950
 131963250.841 7 102828514.765 6                  25111767.460    25111764.980
  25111764.800          42.900          39.850
 121961269.908 7  95034755.07046                  23208456.940
  23208452.120          47.200          39.900
 131742534.895 7 102656511.56045                  25069764.520
  25069759.980          42.950          33.600
 134056227.277 7 104459372.32045                  25510053.300
  25510046.260          43.400          31.100
 128419741.199 7 100067336.801 7  95897858.038 8  24437462.000    24437461.560
  24437461.000          44.500          42.650
 115620290.225 8  90093871.738 7                  22001747.300    22001743.460
  22001742.820          49.400          46.000
 109074638.866 7  84835844.136 6                  20411830.080    20411833.700
  20411831.900          47.700          41.250
 107452217.606 8  83573996.988 7                  20079996.080    20079997.880
  20079997.060          48.600          47.100
 103233477.187 8  80292740.530 7                  19366331.440    19366338.000
  19366336.660          49.000          42.100
 128890423.947 7 100248121.404 6                  24069376.640    24069379.060
  24069378.400          43.450          38.100
 127194751.908 7  98929276.648 6                  23827859.240    23827863.280
  23827862.280          44.400          38.900
 125190288.031 7  97370346.868 6                  23402954.680    23402955.560
  23402954.200          45.550          38.500
 121373225.471 7  94401386.873 5                  22729291.400    22729295.600
  22729293.000          45.250          32.650
 105932047.250 7  82391742.941 7                  19809779.460    19809783.640
  19809781.500          43.950          46.650
 129805116.420 8                  96932524.366 8  24701040.600
                        50.800


 122132337.172 8                  91202828.016 8  23240956.940
                        50.300
 15  1 27  1  0 55.0000000  0 21G31G08G21G25G05G16G18G23G27G29R11R21
                                R10R04R22R19R09R20E12E18E11
 111034980.858 8  86520774.744 8                  21129248.780    21129244.260
  21129243.360          49.550          48.100
 110238570.723 8  85900166.11447                  20977699.880
  20977695.560          49.400          46.300
 111606417.421 8  86966096.66647                  21237964.760
  21237959.240          48.000          46.700
 122041692.054 7  95097594.052 7  91135187.903 8  23223680.920    23223679.740
  23223678.940          47.250          43.650
 131965367.974 7 102830164.496 6                  25112170.300    25112167.820
  25112167.580          43.300          39.700
 121947091.465 7  95023706.94546                  23205758.880
  23205753.960          47.450          38.650
 131730003.646 7 102646746.95645                  25067379.880
  25067375.420          42.000          31.200
 134057428.029 7 104460307.95345                  25510281.800
  25510274.640          43.150          32.950
 128405452.786 7 100056202.991 7  95887188.137 8  24434742.960    24434742.620
  24434742.100          44.550          42.650
 115632569.585 8  90103440.073 7                  22004084.000    22004080.160
  22004079.540          49.100          45.950
 109061478.941 7  84825608.634 6                  20409367.420    20409370.960
  20409369.180          47.550          41.150
 107444547.982 8  83568031.735 7                  20078562.800    20078564.660
  20078563.840          48.300          47.150
 103241217.990 8  80298761.161 7                  19367783.580    19367790.120
  19367788.820          48.800          42.150
 128882427.248 7 100241901.733 6                  24067883.320    24067885.820
  24067885.100          42.050          38.350
 127177174.641 7  98915605.430 6                  23824566.420    23824570.380
  23824569.460          44.200          38.900
 125208811.136 7  97384753.735 6                  23406417.380    23406418.180
  23406416.900          44.900          38.750
 121394144.401 7  94417657.146 5                  22733208.880    22733212.980
  22733210.420          45.000          31.650
 105941229.775 7  82398884.892 7                  19811496.660    19811500.840
  19811498.700          43.700          46.800
 129814489.280 8                  96939523.572 8  24702824.220
                        50.700


 122131151.923 8                  91201942.929 8  23240731.400
                        50.250
 15  1 27  1  1  0.0000000  0 21G31G08G21G25G05G16G18G23G27G29R11R21
                                R10R04R22R19R09R20E12E18E11
 111043443.301 8  86527368.858 8                  21130859.100    21130854.620
  21130853.700          49.450          48.150
 110232542.520 8  85895468.81747                  20976552.720
  20976548.440          49.550          46.400
 111601583.882 8  86962330.27447                  21237044.980
  21237039.420          48.000          46.550
 122055445.294 7  95108310.866 7  91145458.185 8  23226298.100    23226296.900
  23226296.100          47.350          43.700
 131967500.854 7 102831826.484 6                  25112576.120    25112573.640
  25112573.380          43.650          39.550
 121932916.509 7  95012661.52346                  23203061.520
  23203056.440          47.800          38.800
 131717470.912 6 102636981.19345                  25064994.960
  25064990.360          41.800          31.000
 134058643.224 7 104461254.85045                  25510513.040
  25510505.820          44.000          30.900
 128391169.276 7 100045072.992 7  95876521.878 8  24432024.900    24432024.620
  24432024.100          44.300          42.700
 115644853.775 8  90113012.168 7                  22006421.620    22006417.760
  22006417.180          49.000          46.100
 109048335.897 7  84815386.273 6                  20406907.920    20406911.420
  20406909.660          47.350          41.400
 107436893.483 8  83562078.253 7                  20077132.340    20077134.260
  20077133.460          48.250          47.400
 103248980.902 8  80304798.988 7                  19369239.900    19369246.460
  19369245.120          48.700          42.250
 128874447.943 7 100235695.619 6                  24066393.280    24066395.720
  24066395.020          42.400          38.500
 127159604.542 7  98901939.810 6                  23821274.940    23821278.860
  23821277.940          44.600          38.750
 125227334.781 7  97399161.033 6                  23409880.120    23409880.960
  23409879.700          44.500          39.100
 121415071.357 7  94433933.702 5                  22737127.840    22737131.840
  22737129.260          45.000          31.600
 105950424.693 7  82406036.497 7                  19813216.180    19813220.380
  19813218.200          43.800          46.600
 129823867.301 8                  96946526.649 8  24704608.820
                        50.600


 122129975.691 8                  91201064.584 8  23240507.560
                        50.300
 15  1 27  1  1  5.0000000  0 21G31G08G21G25G05G16G18G23G27G29R11R21
                                R10R04R22R19R09R20E12E18E11
 111051918.026 8  86533972.530 8                  21132471.760    21132467.300
  21132466.380          49.750          48.300
 110226529.427 8  85890783.28647                  20975408.420
  20975404.180          49.600          46.800
 111596761.662 8  86958572.68747                  21236127.340
  21236121.760          48.050          46.700
 122069202.795 7  95119030.987 7  91155731.636 8  23228916.100    23228914.900
  23228914.040          47.250          43.750
 131969646.514 7 102833498.431 6                  25112984.400    25112981.940
  25112981.660          43.200          39.300
 121918742.086 7  95001616.50846                  23200364.260
  23200359.060          47.600          40.000
 131704933.784 6 102627212.03045                  25062609.160
  25062604.460          41.550          30.400
 134059869.928 7 104462210.73145                  25510746.480
  25510739.220          43.800          30.900
 128376887.745 7 100033944.522 7  95865857.100 7  24429307.180    24429306.960
  24429306.460          44.250          42.650
 115657139.903 8  90122585.761 7                  22008759.600    22008755.760
  22008755.160          48.850          45.950
 109035206.821 7  84805174.770 6                  20404450.980    20404454.480
  20404452.720          47.400          41.350
 107429251.079 8  83556134.144 7                  20075704.180    20075706.100
  20075705.340          48.350          47.450
 103256763.166 8  80310851.858 7                  19370699.860    19370706.440
  19370705.060          48.650          42.300
 128866483.251 6 100229500.867 6                  24064905.980    24064908.400
  24064907.600          41.400          37.700
 127142038.762 7  98888277.560 6                  23817984.260    23817988.120
  23817987.160          44.200          37.600
 125245855.877 7  97413566.316 6                  23413342.400    23413343.380
  23413342.080          44.950          39.950
 121436003.407 7  94450214.179 5                  22741047.700    22741051.800
  22741049.120          44.550          32.300
 105959629.028 7  82413195.414 7                  19814937.460    19814941.640
  19814939.440          44.200          46.700
 129833247.576 8                  96953531.396 8  24706393.800
                        50.450


 122128805.539 8                  91200190.769 8  23240284.900
                        50.200
 15  1 27  1  1 10.0000000  0 21G31G08G21G25G05G16G18G23G27G29R11R21
                                R10R04R22R19R09R20E12E18E11
 111060407.762 8  86540587.904 8                  21134087.280    21134082.860
  21134081.920          50.000          48.300
 110220534.199 8  85886111.68847                  20974267.540
  20974263.340          49.850          46.400
 111591953.499 8  86954826.07547                  21235212.360
  21235206.800          48.300          46.400
 122082967.215 7  95129756.507 7  91166010.267 8  23231535.400    23231534.160
  23231533.300          47.300          43.600
 131971807.673 7 102835182.439 6                  25113395.640    25113393.180
  25113392.820          43.100          39.200
 121904570.984 7  94990574.09546                  23197667.620
  23197662.340          47.600          39.350
 131692394.994 6 102617441.55045                  25060223.140
  25060218.460          41.800          33.400
 134061110.831 7 104463177.67945                  25510982.660
  25510975.220          42.950          31.800
 128362610.931 7 100022819.717 7  95855195.835 7  24426590.380    24426590.160
  24426589.740          44.100          42.200
 115669430.666 8  90132162.971 7                  22011098.460    22011094.620
  22011094.040          48.900          45.950
 109022094.212 7  84794976.078 6                  20401997.160    20402000.660
  20401998.860          47.100          41.150
 107421623.620 8  83550201.682 7                  20074278.800    20074280.720
  20074280.000          48.750          47.450
 103264567.446 8  80316921.851 7                  19372163.960    19372170.560
  19372169.140          48.850          42.300
 128858535.768 7 100223319.518 6                  24063421.840    24063424.300
  24063423.440          42.950          37.600
 127124480.047 7  98874620.740 6                  23814694.900    23814698.780
  23814697.740          44.550          38.000
 125264377.270 7  97427971.827 6                  23416804.720    23416805.840
  23416804.500          44.600          39.800
 121456943.360 7  94466500.783 5                  22744969.040    22744973.060
  22744970.560          45.150          32.850
 105968845.621 7  82420363.884 7                  19816661.060    19816665.200
  19816662.980          44.550          46.850
 129842632.817 8                  96960539.857 8  24708179.720
                        50.350


 122127644.195 8                  91199323.529 8  23240063.880
                        50.300
 15  1 27  1  1 15.0000000  0 21G31G08G21G25G05G16G18G23G27G29R11R21
                                R10R04R22R19R09R20E12E18E11
 111068909.096 8  86547212.310 8                  21135705.000    21135700.600
  21135699.660          50.200          48.150
 110214553.456 8  85881451.35947                  20973129.400
  20973125.220          49.850          46.200
 111587155.964 8  86951087.73047                  21234299.420
  21234293.840          48.350          46.550
 122096735.182 7  95140484.788 7  91176291.536 8  23234155.360    23234154.100
  23234153.220          47.400          43.350
 131973981.012 7 102836875.966 6                  25113809.220    25113806.800
  25113806.400          43.150          39.200
 121890399.809 7  94979531.62046                  23194970.960
  23194965.660          47.950          39.750
 131679851.127 7 102607667.11044                  25057836.140
  25057831.500          42.700          29.950
 134062362.560 7 104464153.03745                  25511220.900
  25511213.540          42.950          34.950
 128348335.388 7 100011695.903 7  95844535.529 7  24423873.780    24423873.620
  24423873.200          44.150          42.450
 115681722.609 8  90141741.104 7                  22013437.520    22013433.680
  22013433.140          49.050          46.100
 109008994.829 7  84784787.671 6                  20399545.800    20399549.280
  20399547.460          46.800          41.150
 107414007.589 8  83544278.106 7                  20072855.540    20072857.520
  20072856.780          48.550          47.300
 103272390.311 8  80323006.289 7                  19373631.520    19373638.060
  19373636.700          48.900          42.200
 128850602.033 7 100217148.830 6                  24061940.200    24061942.680
  24061941.880          42.550          38.550
 127106924.858 7  98860966.706 6                  23811406.220    23811410.000
  23811409.040          44.700          38.650
 125282895.472 7  97442374.848 6                  23420266.440    23420267.620
  23420266.320          44.700          39.950
 121477887.724 7  94482790.829 5                  22748891.300    22748895.440
  22748892.820          45.400          32.700
 105978070.934 7  82427539.121 7                  19818386.220    19818390.400
  19818388.160          44.600          47.000
 129852019.616 8                  96967549.472 8  24709965.880
                        50.200


 122126488.258 8                  91198460.326 8  23239843.900
                        50.300
 15  1 27  1  1 20.0000000  0 21G31G08G21G25G05G16G18G23G27G29R11R21
                                R10R04R22R19R09R20E12E18E11
 111077425.390 8  86553848.388 8                  21137325.600    21137321.200
  21137320.260          50.150          48.300
 110208590.533 8  85876804.92747                  20971994.680
  20971990.500          49.800          46.150
 111582372.408 8  86947360.28947                  21233389.120
  21233383.560          48.300          46.650
 122110510.054 7  95151218.463 7  91186577.960 8  23236776.640    23236775.420
  23236774.500          47.600          43.600
 131976169.813 7 102838581.531 6                  25114225.700    25114223.260
  25114222.860          42.300          39.350
 121876231.942 7  94968491.72246                  23192274.940
  23192269.560          47.950          39.050
 131667305.597 7 102597891.37545                  25055448.860
  25055444.260          43.700          33.100
 134063628.435 7 104465139.41145                  25511461.780
  25511454.320          42.700          31.150
 128334064.509 7 100000575.754 7  95833878.697 7  24421158.140    24421157.920
  24421157.540          44.250          42.300
 115694019.174 8  90151322.837 7                  22015777.480    22015773.640
  22015773.100          49.300          46.150
 108995912.158 7  84774612.270 6                  20397097.560    20397101.040
  20397099.220          47.100          41.050
 107406406.372 8  83538366.060 7                  20071435.040    20071437.080
  20071436.300          48.650          47.250
 103280235.012 8  80329107.723 7                  19375103.180    19375109.720
  19375108.340          49.100          42.250
 128842685.536 7 100210991.562 6                  24060461.780    24060464.300
  24060463.520          43.250          38.950
 127089376.681 7  98847318.161 6                  23808118.840    23808122.640
  23808121.660          44.600          39.700
 125301413.778 7  97456777.984 6                  23423728.140    23423729.460
  23423728.180          44.800          39.900
 121498839.836 7  94499086.906 5                  22752814.960    22752818.840
  22752816.520          45.350          32.000
 105987308.356 7  82434723.780 7                  19820113.740    19820117.860
  19820115.640          45.000          47.100
 129861411.339 8                  96974562.762 8  24711753.000
                        50.200


 122125341.075 8                  91197603.669 8  23239625.580
                        50.400
 15  1 27  1  1 25.0000000  0 21G31G08G21G25G05G16G18G23G27G29R11R21
                                R10R04R22R19R09R20E12E18E11
 111085955.745 8  86560495.417 8                  21138948.860    21138944.480
  21138943.540          50.350          48.250
 110202644.574 8  85872171.71647                  20970863.180
  20970859.020          49.900          46.050
 111577601.957 8  86943643.06047                  21232481.320
  21232475.760          48.500          46.650
 122124290.951 8  95161956.818 7  91196868.890 8  23239399.060    23239397.840
  23239396.940          48.000          43.750
 131978373.244 7 102840298.495 6                  25114644.940    25114642.560
  25114642.060          42.700          39.350
 121862066.465 8  94957453.68446                  23189579.360
  23189573.960          48.300          39.450
 131654757.544 7 102588113.71045                  25053061.040
  25053056.440          44.000          31.100
 134064907.484 7 104466136.08545                  25511705.200
  25511697.780          42.250          34.400
 128319797.447 7  99989458.543 7  95823224.705 7  24418443.180    24418442.960
  24418442.620          44.600          42.800
 115706319.431 8  90160907.450 7                  22018118.120    22018114.300
  22018113.740          49.700          46.000
 108982845.200 7  84764449.073 6                  20394652.260    20394655.720
  20394653.900          46.350          41.300
 107398819.194 7  83532464.923 7                  20070017.200    20070019.260
  20070018.440          47.750          47.250
 103288100.809 8  80335225.570 7                  19376578.780    19376585.320
  19376583.940          48.350          42.400
 128834785.462 7 100204847.063 6                  24058986.500    24058988.960
  24058988.280          42.550          39.200
 127071834.591 7  98833674.349 6                  23804832.600    23804836.420
  23804835.420          42.550          39.650
 125319931.448 7  97471180.624 6                  23427189.860    23427191.240
  23427189.880          43.600          40.000
 121519798.909 7  94515388.409 5                  22756739.960    22756743.820
  22756741.420          44.050          32.050
 105996557.035 7  82441917.197 7                  19821843.340    19821847.400
  19821845.200          43.650          47.150
 129870807.082 8                  96981579.058 8  24713540.880
                        50.400


 122124201.763 8                  91196752.880 8  23239408.760
                        50.600
 15  1 27  1  1 30.0000000  0 21G31G08G21G25G05G16G18G23G27G29R11R21
                                R10R04R22R19R09R20E12E18E11
 111094500.049 8  86567153.315 8                  21140574.780    21140570.400
  21140569.460          50.000          48.300
 110196715.525 8  85867551.67447                  20969734.900
  20969730.760          49.750          46.300
 111572844.500 8  86939935.95047                  21231576.000
  21231570.460          48.300          46.200
 122138077.765 7  95172699.786 7  91207164.238 8  23242022.600    23242021.380
  23242020.460          47.550          43.650
 131980591.184 7 102842026.770 6                  25115067.000    25115064.700
  25115064.180          43.600          38.600
 121847903.315 8  94946417.45546                  23186884.240
  23186878.800          48.100          39.650
 131642206.888 7 102578333.97045                  25050672.740
  25050668.300          44.200          33.750
 134066199.747 7 104467143.03545                  25511951.120
  25511943.680          42.350          32.200
 128305534.086 7  99978344.231 7  95812573.499 7  24415728.960    24415728.800
  24415728.440          44.200          42.750
 115718623.290 8  90170494.867 7                  22020459.480    22020455.640
  22020455.080          49.650          45.850
 108969794.025 7  84754298.163 6                  20392209.920    20392213.340
  20392211.540          47.200          41.500
 107391245.831 8  83526574.525 7                  20068601.940    20068604.000
  20068603.160          48.650          47.350
 103295987.603 8  80341359.732 7                  19378058.320    19378064.840
  19378063.460          49.150          42.250
 128826901.542 7 100198715.129 6                  24057514.180    24057516.660
  24057516.060          43.200          38.750
 127054298.499 7  98820035.168 6                  23801547.480    23801551.340
  23801550.360          43.450          39.400
 125338448.150 7  97485582.486 6                  23430651.300    23430652.800
  23430651.440          44.350          39.600
 121540764.675 7  94531695.095 5                  22760666.120    22760669.960
  22760667.600          44.800          31.700
 106005816.809 7  82449119.233 7                  19823575.000    19823579.000
  19823576.840          44.550          47.000
 129880206.767 8                  96988598.295 8  24715329.500
                        50.200


 122123070.235 8                  91195907.912 8  23239193.440
                        50.550
 15  1 27  1  1 35.0000000  0 21G31G08G21G25G05G16G18G23G27G29R11R21
                                R10R04R22R19R09R20E12E18E11
 111103057.443 8  86573821.414 8                  21142203.220    21142198.820
  21142197.900          49.950          48.250
 110190802.496 8  85862944.12547                  20968609.680
  20968605.540          49.700          46.100
 111568099.195 8  86936238.31247                  21230672.980
  21230667.460          48.250          46.300
 122151869.658 7  95183446.712 7  91217463.365 8  23244647.100    23244645.860
  23244644.980          47.350          43.600
 131982822.785 7 102843765.688 6                  25115491.660    25115489.260
  25115488.800          43.400          38.950
 121833741.596 7  94935382.35146                  23184189.360
  23184183.900          47.800          40.250
 131629652.721 7 102568551.49845                  25048283.800
  25048279.420          44.200          31.000
 134067504.396 7 104468159.61445                  25512199.380
  25512191.940          42.400          31.850
 128291273.546 7  99967232.122 7  95801924.403 7  24413015.260    24413015.140
  24413014.740          44.400          42.850
 115730929.874 8  90180084.417 7                  22022801.340    22022797.480
  22022796.940          49.700          45.900
 108956757.700 7  84744158.795 6                  20389770.340    20389773.760
  20389771.960          47.250          41.400
 107383685.465 8  83520694.247 7                  20067189.100    20067191.160
  20067190.300          48.600          47.450
 103303894.419 8  80347509.472 7                  19379541.620    19379548.160
  19379546.780          49.200          42.450
 128819033.116 7 100192595.247 6                  24056044.840    24056047.220
  24056046.680          43.300          38.500
 127036767.710 7  98806400.091 6                  23798263.360    23798267.340
  23798266.300          44.100          39.700
 125356963.239 7  97499983.115 6                  23434112.500    23434113.980
  23434112.680          44.850          40.350
 121561736.313 7  94548006.365 5                  22764593.380    22764597.100
  22764594.840          45.050          30.950
 106015086.845 7  82456329.276 7                  19825308.520    19825312.560
  19825310.380          43.950          46.750
 129889609.502 8                  96995619.824 8  24717118.740
                        50.300


 122121945.631 8                  91195068.113 8  23238979.420
                        50.450
 15  1 27  1  1 40.0000000  0 21G31G08G21G25G05G16G18G23G27G29R11R21
                                R10R04R22R19R09R20E12E18E11
 111111629.179 8  86580500.690 8                  21143834.360    21143829.960
  21143829.040          50.000          48.300
 110184906.751 8  85858350.04247                  20967487.740
  20967483.640          49.750          46.350
 111563367.343 8  86932551.15947                  21229772.500
  21229767.020          48.350          46.350
 122165667.839 7  95194198.537 7  91227767.200 8  23247272.820    23247271.580
  23247270.720          47.250          43.750
 131985069.299 7 102845516.231 6                  25115919.160    25115916.760
  25115916.160          43.850          39.100
 121819582.583 7  94924349.36246                  23181495.040
  23181489.540          47.750          39.900
 131617096.308 7 102558767.28445                  25045894.420
  25045890.140          43.600          31.350
 134068822.630 7 104469186.81845                  25512450.200
  25512442.860          42.300          34.300
 128277017.086 7  99956123.199 7  95791278.346 7  24410302.380    24410302.220
  24410301.800          44.600          42.800
 115743240.438 8  90189677.066 7                  22025143.980    22025140.120
  22025139.560          49.600          45.800
 108943737.441 7  84734031.931 6                  20387333.800    20387337.180
  20387335.400          47.150          41.300
 107376139.379 8  83514825.080 7                  20065778.940    20065781.000
  20065780.120          48.450          47.250
 103311822.629 8  80353675.855 7                  19381028.920    19381035.480
  19381034.080          49.200          42.550
 128811181.422 7 100186488.373 6                  24054578.640    24054580.920
  24054580.420          43.300          38.750
 127019243.265 7  98792770.001 6                  23794980.480    23794984.360
  23794983.420          45.100          39.650
 125375477.945 7  97514383.424 6                  23437573.580    23437575.100
  23437573.920          44.300          39.300
 121582715.125 7  94564323.241 5                  22768522.080    22768525.760
  22768523.480          45.500          32.250
 106024368.362 7  82463548.219 7                  19827044.220    19827048.240
  19827046.040          44.750          46.650
 129899016.567 8                  97002644.567 8  24718908.860
                        50.450


 122120829.176 8                  91194234.396 8  23238766.940
                        50.450
 15  1 27  1  1 45.0000000  0 21G31G08G21G25G05G16G18G23G27G29R11R21
                                R10R04R22R19R09R20E12E18E11
 111120214.787 8  86587190.777 8                  21145468.140    21145463.740
  21145462.840          50.000          48.250
 110179027.858 8  85853769.08947                  20966369.000
  20966364.960          49.750          46.050
 111558648.490 8  86928874.13247                  21228874.520
  21228869.060          48.400          46.150
 122179471.898 7  95204954.948 7  91238075.437 8  23249899.620    23249898.420
  23249897.560          47.100          43.750
 131987330.289 7 102847278.043 6                  25116349.440    25116346.980
  25116346.320          43.850          39.300
 121805425.878 8  94913318.17446                  23178801.140
  23178795.640          48.100          38.850
 131604537.275 7 102548981.04544                  25043504.540
  25043500.100          43.400          29.300
 134070153.970 7 104470224.23145                  25512703.520
  25512696.260          42.250          31.150
 128262764.295 7  99945017.128 7  95780635.031 8  24407590.180    24407590.000
  24407589.600          44.800          42.350
 115755554.523 8  90199272.451 7                  22027487.280    22027483.420
  22027482.840          49.650          45.700
 108930732.830 7  84723917.234 6                  20384900.200    20384903.540
  20384901.740          47.000          41.400
 107368607.070 8  83508966.628 7                  20064371.340    20064373.360
  20064372.500          48.600          47.150
 103319771.764 8  80359858.516 7                  19382520.180    19382526.680
  19382525.300          49.100          42.550
 128803345.972 7 100180394.155 6                  24053115.360    24053117.660
  24053117.120          43.100          38.200
 127001724.802 7  98779144.555 6                  23791698.660    23791702.500
  23791701.640          45.050          39.800
 125393991.600 7  97528782.912 6                  23441034.520    23441036.080
  23441034.920          44.650          39.200
 121603700.569 7  94580645.272 5                  22772452.060    22772455.700
  22772453.480          45.100          33.150
 106033660.943 7  82470775.788 7                  19828782.000    19828785.980
  19828783.760          44.350          46.700
 129908427.469 8                  97009672.196 8  24720699.740
                        50.600


 122119720.445 8                  91193406.457 8  23238555.960
                        50.400
 15  1 27  1  1 50.0000000  0 21G31G08G21G25G05G16G18G23G27G29R11R21
                                R10R04R22R19R09R20E12E18E11
 111128813.113 8  86593890.767 8                  21147104.360    21147099.960
  21147099.060          50.000          48.350
 110173164.689 8  85849200.38247                  20965253.240
  20965249.240          49.900          46.250
 111553941.441 8  86925206.30447                  21227978.760
  21227973.340          48.350          46.550
 122193280.652 7  95215715.006 7  91248387.161 8  23252527.320    23252526.140
  23252525.260          47.100          43.800
 131989604.613 7 102849050.239 6                  25116782.240    25116779.760
  25116779.140          44.050          39.300
 121791270.283 8  94902287.83846                  23176107.460
  23176101.960          48.450          38.950
 131591974.445 7 102539191.83345                  25041113.880
  25041109.480          42.850          30.850
 134071497.343 7 104471271.03245                  25512959.080
  25512951.900          42.000          30.850
 128248514.000 7  99933912.989 7  95769993.565 8  24404878.440    24404878.240
  24404877.860          43.950          42.950
 115767870.968 8  90208869.675 7                  22029831.060    22029827.160
  22029826.560          49.800          45.750
 108917742.742 7  84713813.829 6                  20382469.260    20382472.660
  20382470.820          46.950          41.200
 107361087.414 8  83503118.010 7                  20062966.120    20062968.140
  20062967.240          48.600          47.100
 103327740.536 8  80366056.452 7                  19384015.140    19384021.580
  19384020.200          49.000          42.400
 128795525.599 7 100174311.622 6                  24051654.940    24051657.260
  24051656.640          43.100          37.750
 126984211.125 7  98765522.832 6                  23788417.820    23788421.580
  23788420.760          45.400          39.350
 125412503.263 7  97543180.891 6                  23444495.100    23444496.640
  23444495.520          44.600          39.450
 121624691.548 7  94596971.554 5                  22776382.920    22776386.720
  22776384.540          42.900          32.600
 106042963.323 7  82478010.963 7                  19830521.620    19830525.540
  19830523.300          44.700          46.700
 129917841.063 8                  97016701.826 8  24722491.140
                        50.700


 122118618.280 8                  91192583.398 8  23238346.240
                        50.450
 15  1 27  1  1 55.0000000  0 21G31G08G21G25G05G16G18G23G27G29R11R21
                                R10R04R22R19R09R20E12E18E11
 111137426.148 8  86600602.221 8                  21148743.360    21148738.980
  21148738.100          49.850          48.450
 110167319.195 8  85844645.45547                  20964140.880
  20964136.900          49.750          46.150
 111549248.190 8  86921549.22547                  21227085.660
  21227080.240          48.200          46.550
 122207096.090 7  95226480.283 7  91258703.878 8  23255156.300    23255155.140
  23255154.260          47.000          43.900
 131991894.261 7 102850834.383 6                  25117217.980    25117215.380
  25117214.780          43.900          39.100
 121777117.808 8  94891259.93246                  23173414.360
  23173408.860          48.000          39.550
 131579409.800 7 102529401.20545                  25038722.860
  25038718.540          42.250          33.650
 134072854.627 6 104472328.65845                  25513217.280
  25513210.320          41.500          32.750
 128234268.177 7  99922812.360 7  95759355.465 8  24402167.520    24402167.340
  24402167.020          43.700          42.750
 115780191.790 8  90218470.315 7                  22032175.640    22032171.760
  22032171.140          49.550          45.700
 108904769.301 7  84703723.378 6                  20380041.460    20380044.840
  20380042.980          46.750          41.200
 107353582.396 8  83497280.780 7                  20061563.600    20061565.640
  20061564.700          48.650          47.050
 103335731.090 8  80372271.331 7                  19385514.160    19385520.580
  19385519.220          48.950          42.350
 128787722.263 7 100168242.373 6                  24050197.740    24050200.120
  24050199.360          42.800          38.200
 126966704.480 7  98751906.563 6                  23785138.260    23785142.080
  23785141.160          44.700          39.600
 125431014.808 7  97557578.765 6                  23447955.620    23447957.220
  23447956.060          44.600          39.950
 121645690.005 7  94613303.646 5                  22780315.160    22780318.980
  22780316.860          43.800          31.900
 106052277.495 7  82485255.331 7                  19832263.460    19832267.320
  19832265.100          44.600          46.750
 129927259.356 8                  97023734.967 8  24724283.440
                        50.700


 122117524.641 8                  91191766.732 8  23238138.140
                        50.400
 15  1 27  1  2  0.0000000  0 21G31G08G21G25G05G16G18G23G27G29R11R21
                                R10R04R22R19R09R20E12E18E11
 111146053.389 8  86607324.745 8                  21150385.060    21150380.700
  21150379.820          49.850          48.500
 110161490.922 8  85840103.94247                  20963031.780
  20963027.840          49.700          46.650
 111544568.305 8  86917902.56447                  21226195.100
  21226189.700          48.350          46.150
 122220917.748 7  95237250.397 7  91269025.234 8  23257786.440    23257785.320
  23257784.440          47.300          43.850
 131994198.707 7 102852630.059 6                  25117656.500    25117653.860
  25117653.300          43.950          39.200
 121762967.989 7  94880234.10346                  23170721.780
  23170716.300          47.950          40.000
 131566842.919 7 102519608.84445                  25036331.360
  25036326.980          42.250          30.000
 134074225.379 7 104473396.74845                  25513478.120
  25513471.260          42.700          31.300
 128220026.382 7  99911714.862 7  95748720.356 8  24399457.420    24399457.220
  24399456.820          44.650          42.900
 115792516.467 8  90228073.955 7                  22034520.960    22034517.080
  22034516.420          49.800          45.650
 108891811.972 7  84693645.459 6                  20377616.660    20377620.040
  20377618.180          46.800          41.200
 107346091.524 8  83491454.553 7                  20060163.780    20060165.760
  20060164.800          48.700          47.050
 103343742.846 8  80378502.695 7                  19387017.140    19387023.580
  19387022.200          49.100          42.400
 128779935.707 7 100162186.167 6                  24048743.660    24048746.080
  24048745.300          42.900          39.050
 126949204.083 7  98738295.173 6                  23781859.860    23781863.740
  23781862.740          44.200          39.950
 125449525.820 7  97571976.207 6                  23451416.080    23451417.760
  23451416.460          45.300          39.800
 121666695.445 7  94629641.235 5                  22784248.800    22784252.640
  22784250.400          43.900          31.650
 106061603.005 7  82492508.505 7                  19834007.380    19834011.260
  19834009.020          44.250          46.750
 129936681.827 8                  97030771.221 8  24726076.540
                        50.800


 122116439.066 8                  91190956.071 8  23237931.560
                        50.650
 15  1 27  1  2  5.0000000  0 21G31G08G21G25G05G16G18G23G27G29R11R21
                                R10R04R22R19R09R20E12E18E11
 111154692.930 8  86614056.848 8                  21152029.120    21152024.760
  21152023.900          50.000          48.400
 110155677.959 8  85835574.35847                  20961925.620
  20961921.660          49.650          46.350
 111539899.826 8  86914264.78447                  21225306.700
  21225301.320          48.450          46.400
 122234743.662 7  95248023.833 7  91279349.792 8  23260417.440    23260416.320
  23260415.460          47.450          43.950
 131996516.038 7 102854435.772 6                  25118097.480    25118094.780
  25118094.180          43.650          38.500
 121748818.901 7  94869208.84346                  23168029.320
  23168023.880          47.800          39.450
 131554271.807 6 102509813.16945                  25033939.140
  25033934.820          41.650          32.650
 134075607.624 7 104474473.79744                  25513741.140
  25513734.120          42.400          29.550
 128205786.652 7  99900618.968 7  95738086.807 8  24396747.720    24396747.520
  24396747.140          44.650          42.800
 115804843.051 8  90237679.090 7                  22036866.640    22036862.740
  22036862.080          49.850          45.700
 108878868.827 7  84683578.569 6                  20375194.520    20375197.900
  20375196.020          47.100          41.200
 107338612.869 8  83485637.821 7                  20058766.200    20058768.180
  20058767.200          48.500          47.050
 103351773.832 8  80384749.009 7                  19388523.740    19388530.200
  19388528.800          49.200          42.300
 128772163.745 7 100156141.316 6                  24047292.320    24047294.800
  24047294.000          43.950          38.750
 126931708.112 7  98724687.216 6                  23778582.320    23778586.220
  23778585.160          44.600          40.050
 125468034.281 7  97586371.660 6                  23454876.040    23454877.820
  23454876.360          45.600          38.950
 121687705.906 7  94645982.728 5                  22788183.420    22788187.200
  22788184.920          43.800          31.900
 106070937.946 7  82499769.011 7                  19835753.020    19835756.940
  19835754.720          44.350          47.000
 129946106.543 8                  97037809.169 8  24727870.040
                        50.800


 122115359.630 8                  91190149.996 8  23237726.140
                        50.650
 15  1 27  1  2 10.0000000  0 21G31G08G21G25G05G16G18G23G27G29R11R21
                                R10R04R22R19R09R20E12E18E11
 111163347.230 8  86620800.461 8                  21153675.960    21153671.660
  21153670.760          50.050          48.450
 110149882.814 8  85831058.66147                  20960822.840
  20960818.900          49.600          46.650
 111535245.226 8  86910637.82047                  21224420.940
  21224415.580          48.300          46.250
 122248576.387 7  95258802.577 7  91289679.407 8  23263049.700    23263048.620
  23263047.720          47.450          43.700
 131998848.762 7 102856253.497 6                  25118541.420    25118538.660
  25118538.040          43.700          38.800
 121734673.078 7  94858186.13546                  23165337.460
  23165332.060          47.800          39.300
 131541699.053 7 102500016.26945                  25031546.580
  25031542.480          42.850          32.250
 134077003.869 6 104475561.84645                  25514006.820
  25513999.840          40.600          31.600
 128191551.536 7  99889526.674 7  95727456.694 8  24394038.900    24394038.640
  24394038.260          44.250          43.200
 115817174.089 8  90247287.695 7                  22039213.180    22039209.260
  22039208.580          49.550          45.600
 108865942.387 7  84673524.675 6                  20372775.440    20372778.840
  20372777.020          46.900          41.350
 107331148.972 8  83479832.558 7                  20057371.400    20057373.340
  20057372.360          48.450          47.100
 103359826.627 8  80391012.290 7                  19390034.420    19390040.880
  19390039.500          48.750          42.350
 128764409.112 7 100150109.939 6                  24045844.260    24045846.680
  24045845.900          43.650          38.600
 126914219.152 7  98711084.658 6                  23775306.020    23775310.000
  23775308.840          44.150          39.850
 125486542.678 7  97600767.099 6                  23458336.000    23458337.740
  23458336.260          44.950          39.600
 121708723.943 7  94662330.096 5                  22792119.420    22792123.320
  22792120.960          43.250          32.650
 106080284.748 7  82507038.743 7                  19837500.900    19837504.840
  19837502.680          43.750          47.050
 129955536.058 8                  97044850.690 8  24729664.460
                        50.700


 122114288.821 8                  91189350.373 8  23237522.380
                        50.550
 15  1 27  1  2 15.0000000  0 21G31G08G21G25G05G16G18G23G27G29R11R21
                                R10R04R22R19R09R20E12E18E11
 111172014.481 8  86627554.167 8                  21155325.280    21155321.000
  21155320.120          50.300          48.400
 110144103.720 8  85826555.47347                  20959723.120
  20959719.200          49.850          46.100
 111530602.757 8  86907020.32247                  21223537.500
  21223532.160          48.450          46.200
 122262414.075 7  95269585.190 7  91300012.745 8  23265682.940    23265681.860
  23265680.920          47.800          43.650
 132001195.132 7 102858081.846 6                  25118987.980    25118985.200
  25118984.480          44.100          39.450
 121720528.701 7  94847164.54246                  23162645.860
  23162640.500          47.850          40.050
 131529122.886 7 102490216.65845                  25029153.440
  25029149.340          43.800          30.700
 134078412.410 6 104476659.34344                  25514274.780
  25514267.680          41.100          28.900
 128177319.184 7  99878436.544 7  95716828.639 8  24391330.560    24391330.300
  24391329.900          43.650          43.100
 115829507.599 8  90256898.221 7                  22041560.180    22041556.240
  22041555.560          49.900          45.650
 108853030.835 7  84663482.357 6                  20370359.200    20370362.560
  20370360.780          47.200          41.350
 107323697.972 8  83474037.345 7                  20055979.000    20055980.900
  20055979.940          48.650          47.000
 103367899.407 8  80397291.117 7                  19391548.860    19391555.280
  19391553.940          48.850          42.300
 128756669.928 7 100144090.572 6                  24044399.060    24044401.440
  24044400.680          43.450          38.700
 126896735.330 7  98697486.153 6                  23772030.660    23772034.680
  23772033.540          43.700          39.400
 125505049.307 7  97615161.141 6                  23461795.600    23461797.300
  23461795.860          44.350          39.100
 121729747.717 7  94678681.897 5                  22796056.440    22796060.440
  22796058.140          44.200          32.550
 106089641.658 7  82514316.332 7                  19839250.700    19839254.620
  19839252.500          44.350          47.050
 129964968.505 8                  97051894.391 8  24731459.400
                        50.700


 122113224.834 8                  91188555.841 8  23237319.920
                        50.600
 15  1 27  1  2 20.0000000  0 21G31G08G21G25G05G16G18G23G27G29R11R21
                                R10R04R22R19R09R20E12E18E11
 111180696.026 8  86634318.998 8                  21156977.300    21156973.060
  21156972.200          50.300          48.400
 110138341.963 8  85822065.78547                  20958626.700
  20958622.780          49.850          46.100
 111525973.735 8  86903413.29547                  21222656.620
  21222651.300          48.250          46.250
 122276258.053 7  95280372.701 7  91310350.771 8  23268317.380    23268316.280
  23268315.320          47.650          43.650
 132003556.409 7 102859921.812 6                  25119437.320    25119434.560
  25119433.720          44.300          38.900
 121706387.085 8  94836145.10946                  23159954.780
  23159949.500          48.000          39.050
 131516544.473 7 102480415.27445                  25026759.880
  25026755.760          43.000          31.550
 134079834.478 6 104477767.43344                  25514545.360
  25514538.060          39.900          29.050
 128163090.934 7  99867349.606 7  95706203.651 8  24388623.020    24388622.740
  24388622.240          44.100          42.900
 115841845.051 8  90266511.821 7                  22043907.940    22043904.000
  22043903.300          49.800          45.700
 108840135.568 7  84653452.698 6                  20367946.040    20367949.400
  20367947.620          46.900          41.350
 107316261.224 8  83468253.213 7                  20054589.300    20054591.160
  20054590.180          48.800          47.000
 103375993.550 8  80403586.561 7                  19393067.280    19393073.720
  19393072.380          48.900          42.450
 128748947.631 7 100138084.333 6                  24042956.960    24042959.340
  24042958.580          43.400          39.550
 126879258.069 7  98683892.769 6                  23768756.560    23768760.640
  23768759.440          44.100          39.000
 125523555.350 7  97629554.726 6                  23465255.060    23465256.900
  23465255.320          44.150          39.200
 121750778.428 7  94695039.108 5                  22799994.840    22799998.960
  22799996.640          43.900          32.150
 106099009.914 7  82521602.755 7                  19841002.620    19841006.560
  19841004.420          44.200          47.050
 129974405.204 8                  97058941.276 8  24733255.120
                        50.600


 122112168.977 8                  91187767.376 8  23237119.000
                        50.650
 15  1 27  1  2 25.0000000  0 21G31G08G21G25G05G16G18G23G27G29R11R21
                                R10R04R22R19R09R20E12E18E11
 111189390.524 8  86641093.926 8                  21158631.800    21158627.580
  21158626.740          50.300          48.550
 110132596.249 8  85817588.60447                  20957533.340
  20957529.440          49.800          46.400
 111521356.850 8  86899815.72047                  21221778.040
  21221772.760          48.400          46.550
 122290106.974 7  95291164.058 7  91320692.490 8  23270952.760    23270951.660
  23270950.700          47.750          43.700
 132005931.220 7 102861772.328 6                  25119889.280    25119886.440
  25119885.600          45.350          39.350
 121692246.928 7  94825126.79046                  23157264.000
  23157258.760          47.700          39.850
 131503962.665 7 102470611.32145                  25024365.620
  25024361.540          43.050          30.750
 134081268.693 6 104478885.02446                  25514818.140
  25514811.220          38.900          36.200
 128148865.466 7  99856264.828 7  95695580.735 8  24385916.020    24385915.740
  24385915.260          44.550          43.300
 115854185.149 8  90276127.474 7                  22046256.220    22046252.240
  22046251.560          49.900          45.700
 108827255.270 7  84643434.685 6                  20365535.660    20365539.000
  20365537.240          47.000          41.150
 107308837.382 8  83462479.117 7                  20053201.980    20053203.840
  20053202.820          48.850          47.000
 103384107.738 8  80409897.588 7                  19394589.480    19394595.940
  19394594.580          48.950          42.300
 128741240.869 7 100132090.184 6                  24041517.840    24041520.180
  24041519.480          43.350          39.400
 126861785.868 7  98670303.275 6                  23765483.420    23765487.480
  23765486.280          44.300          39.550
 125542059.545 7  97643946.875 6                  23468714.240    23468716.020
  23468714.440          44.600          39.250
 121771814.815 7  94711400.741 5                  22803934.280    22803938.320
  22803936.140          43.350          31.550
 106108388.190 7  82528896.960 7                  19842756.440    19842760.320
  19842758.220          44.750          46.900
 129983844.866 8                  97065990.372 8  24735051.420
                        50.600


 122111119.946 8                  91186983.995 8  23236919.400
                        50.650
 15  1 27  1  2 30.0000000  0 21G31G08G21G25G05G16G18G23G27G29R11R21
                                R10R04R22R19R09R20E12E18E11
 111198099.263 8  86647879.955 8                  21160288.980    21160284.820
  21160283.980          50.450          48.500
 110126867.900 8  85813124.95347                  20956443.260
  20956439.400          50.050          46.100
 111516753.421 8  86896228.63247                  21220902.040
  21220896.740          49.100          45.600
 122303962.190 8  95301960.336 7  91331038.928 8  23273589.340    23273588.180
  23273587.280          48.250          43.600
 132008320.974 7 102863634.501 6                  25120344.060    25120341.200
  25120340.400          45.500          39.250
 121678109.542 7  94814110.66046                  23154573.720
  23154568.500          47.700          39.400
 131491378.744 7 102460805.66945                  25021970.960
  25021966.760          44.550          30.950
 134082716.439 6 104480013.13245                  25515093.500
  25515086.780          41.050          31.100
 128134644.137 7  99845183.265 7  95684960.920 8  24383209.880    24383209.480
  24383209.020          44.950          43.450
 115866529.174 8  90285746.201 7                  22048605.220    22048601.240
  22048600.560          50.000          45.950
 108814391.274 7  84633429.355 6                  20363128.320    20363131.640
  20363129.940          46.750          41.350
 107301427.789 8  83456716.098 7                  20051817.340    20051819.140
  20051818.140          48.700          47.050
 103392243.192 8  80416225.161 7                  19396115.660    19396122.140
  19396120.800          48.950          42.250
 128733550.849 7 100126109.080 6                  24040081.840    24040084.160
  24040083.440          42.850          38.750
 126844320.155 7  98656718.847 6                  23762211.480    23762215.560
  23762214.380          44.400          40.050
 125560563.231 7  97658338.621 6                  23472173.320    23472175.160
  23472173.500          44.850          38.650
 121792858.229 7  94727767.862 5                  22807875.100    22807878.940
  22807876.820          43.900          31.500
 106117777.806 7  82536200.003 7                  19844512.340    19844516.200
  19844514.100          44.500          46.850
 129993288.764 8                  97073042.634 8  24736848.480
                        50.800


 122110079.049 8                  91186206.706 8  23236721.320
                        50.950
 15  1 27  1  2 35.0000000  0 21G31G08G21G25G05G16G18G23G27G29R11R21
                                R10R04R22R19R09R20E12E18E11
 111206821.687 8  86654676.644 8                  21161948.800    21161944.660
  21161943.840          50.250          48.450
 110121156.336 8  85808674.38847                  20955356.400
  20955352.540          50.050          46.250
 111512162.829 8  86892651.55447                  21220028.480
  21220023.200          49.050          45.700
 122317823.090 8  95312761.043 7  91341389.600 8  23276226.980    23276225.860
  23276224.900          48.150          43.700
 132010725.039 7 102865507.782 6                  25120801.560    25120798.660
  25120797.820          44.950          38.900
 121663974.362 7  94803096.24446                  23151883.840
  23151878.680          47.800          39.050
 131478792.138 7 102450997.94645                  25019575.860
  25019571.580          45.200          31.800
 134084177.116 6 104481151.36445                  25515371.380
  25515364.720          41.350          30.600
 128120426.331 7  99834104.465 7  95674343.726 8  24380504.340    24380503.880
  24380503.440          44.300          43.150
 115878876.524 8  90295367.504 7                  22050954.860    22050950.860
  22050950.180          49.950          45.900
 108801542.932 7  84623436.208 6                  20360723.940    20360727.320
  20360725.560          46.650          41.200
 107294031.815 8  83450963.666 7                  20050435.260    20050436.980
  20050436.020          48.750          47.200
 103400399.275 8  80422568.778 7                  19397645.740    19397652.220
  19397650.860          49.050          42.200
 128725877.041 7 100120140.584 6                  24038648.900    24038651.160
  24038650.440          42.900          38.700
 126826860.454 7  98643139.095 6                  23758940.680    23758944.760
  23758943.640          44.600          40.950
 125579065.771 7  97672729.479 6                  23475632.140    23475634.100
  23475632.340          44.600          38.400
 121813908.044 7  94744139.960 5                  22811817.100    22811820.920
  22811818.760          43.900          32.550
 106127178.264 7  82543511.474 7                  19846270.300    19846274.120
  19846272.040          44.300          46.850
 130002736.319 8                  97080097.616 8  24738646.240
                        50.700


 122109045.683 8                  91185435.044 8  23236524.700
                        50.850
 15  1 27  1  2 40.0000000  0 21G31G08G21G25G05G16G18G23G27G29R11R21
                                R10R04R22R19R09R20E12E18E11
 111215557.723 8  86661483.943 8                  21163611.180    21163607.100
  21163606.280          49.950          48.600
 110115461.515 8  85804236.86347                  20954272.720
  20954268.860          49.750          46.550
 111507585.058 8  86889084.46347                  21219157.360
  21219152.080          48.650          46.350
 122331689.618 7  95323566.120 7  91351744.472 8  23278865.700    23278864.580
  23278863.620          47.900          43.800
 132013143.372 7 102867392.185 6                  25121261.720    25121258.860
  25121258.000          44.150          39.000
 121649841.306 7  94792083.47546                  23149194.340
  23149189.240          47.200          39.800
 131466202.818 7 102441188.04545                  25017180.240
  25017176.000          43.550          31.900
 134085650.707 6 104482299.59645                  25515651.740
  25515645.280          40.550          32.950
 128106211.957 7  99823028.340 7  95663729.115 8  24377799.440    24377799.000
  24377798.520          44.200          43.300
 115891227.158 8  90304991.369 7                  22053305.120    22053301.100
  22053300.440          49.550          46.250
 108788710.320 7  84613455.281 6                  20358322.480    20358325.860
  20358324.120          46.350          41.150
 107286649.425 8  83445221.803 7                  20049055.680    20049057.360
  20049056.460          48.850          47.250
 103408576.036 8  80428928.472 7                  19399179.680    19399186.180
  19399184.800          49.250          42.100
 128718219.419 7 100114184.661 6                  24037218.880    24037221.060
  24037220.360          42.550          37.850
 126809406.477 7  98629563.772 6                  23755670.980    23755675.000
  23755673.980          45.350          41.300
 125597567.088 7  97687119.392 6                  23479090.780    23479092.720
  23479090.940          45.000          38.000
 121834964.167 7  94760516.925 5                  22815760.280    22815763.980
  22815761.940          44.150          33.700
 106136589.344 7  82550831.205 7                  19848030.220    19848034.040
  19848031.940          44.600          46.800
 130012187.508 8                  97087155.315 8  24740444.680
                        50.450


 122108019.803 8                  91184668.959 8  23236329.460
                        50.600
 15  1 27  1  2 45.0000000  0 21G31G08G21G25G05G16G18G23G27G29R11R21
                                R10R04R22R19R09R20E12E18E11
 111224307.260 8  86668301.760 8                  21165276.160    21165272.100
  21165271.260          49.900          48.650
 110109783.341 8  85799812.31047                  20953192.200
  20953188.360          49.650          46.900
 111503019.993 8  86885527.26747                  21218288.680
  21218283.400          48.400          46.900
 122345561.705 7  95334375.539 7  91362103.493 8  23281505.480    23281504.340
  23281503.420          47.750          43.650
 132015575.928 7 102869287.698 6                  25121724.560    25121721.780
  25121720.880          43.150          39.250
 121635710.290 7  94781072.29846                  23146505.240
  23146500.180          47.050          40.350
 131453610.659 7 102431376.00745                  25014783.960
  25014779.720          43.150          32.550
 134087137.028 7 104483457.75045                  25515934.620
  25515928.200          42.050          33.400
 128092000.987 7  99811954.874 7  95653117.044 8  24375095.240    24375094.740
  24375094.220          44.900          43.250
 115903580.974 8  90314617.696 7                  22055656.000    22055651.940
  22055651.300          49.600          45.850
 108775893.337 7  84603486.515 6                  20355923.900    20355927.300
  20355925.560          46.300          40.900
 107279280.547 8  83439490.457 7                  20047678.620    20047680.340
  20047679.440          49.050          47.200
 103416773.199 8  80435304.046 6                  19400717.480    19400723.900
  19400722.560          49.400          41.900
 128710577.963 7 100108241.288 6                  24035791.920    24035793.820
  24035793.300          43.850          36.950
 126791958.471 7  98615993.092 6                  23752402.340    23752406.440
  23752405.460          44.850          41.450
 125616067.075 7  97701508.299 6                  23482549.180    23482551.120
  23482549.320          44.650          38.800
 121856026.523 7  94776898.750 5                  22819704.560    22819708.340
  22819706.360          44.300          33.400
 106146010.986 7  82558159.151 7                  19849792.100    19849795.900
  19849793.820          44.300          46.900
 130021642.171 8                  97094215.617 8  24742243.820
                        50.400


 122107001.309 8                  91183908.401 8  23236135.660
                        50.550
 15  1 27  1  2 50.0000000  0 21G31G08G21G25G05G16G18G23G27G29R11R21
                                R10R04R22R19R09R20E12E18E11
 111233071.897 8  86675131.356 8                  21166943.980    21166939.960
  21166939.140          49.750          48.650
 110104123.452 8  85795402.01747                  20952115.160
  20952111.340          49.600          46.950
 111498469.200 8  86881981.20847                  21217422.680
  21217417.420          48.400          46.200
 122359440.937 7  95345190.527 7  91372467.858 8  23284146.620    23284145.460
  23284144.560          47.950          43.850
 132018024.252 7 102871195.497 6                  25122190.420    25122187.700
  25122186.840          42.850          38.650
 121621582.965 7  94770064.00946                  23143816.840
  23143811.800          47.250          39.900
 131441017.382 7 102421563.08645                  25012387.540
  25012383.240          42.800          34.250
 134088637.790 6 104484627.19845                  25516220.240
  25516213.700          41.550          32.000
 128077795.037 7  99800885.304 7  95642508.690 8  24372391.980    24372391.420
  24372390.980          45.150          43.100
 115915939.546 8  90324247.758 7                  22058007.780    22058003.700
  22058003.080          50.000          45.850
 108763093.642 7  84593531.204 6                  20353528.540    20353531.960
  20353530.260          46.400          41.100
 107271926.840 8  83433770.922 7                  20046304.400    20046306.120
  20046305.240          49.300          47.000
 103424992.506 8  80441696.858 7                  19402259.460    19402265.860
  19402264.460          49.400          42.250
 128702954.387 7 100102311.842 6                  24034368.340    24034370.200
  24034369.480          44.700          36.650
 126774517.786 7  98602428.152 6                  23749135.100    23749139.280
  23749138.320          44.650          41.850
 125634567.362 7  97715897.413 6                  23486007.640    23486009.600
  23486007.780          44.900          39.000
 121877096.621 7  94793286.596 5                  22823650.320    22823654.140
  22823652.240          44.700          34.200
 106155444.759 7  82565496.532 7                  19851556.220    19851560.080
  19851558.000          44.850          46.800
 130031101.947 8                  97101279.739 8  24744043.960
                        50.550


 122105991.812 8                  91183154.560 8  23235943.540
                        50.600
 15  1 27  1  2 55.0000000  0 22G31G08G21G25G05G16G18G23G27G29R11R05
                                R21R10R04R22R19R09R20E12E18E11
 111241848.821 8  86681970.509 8                  21168614.180    21168610.120
  21168609.340          48.800          48.600
 110098479.042 8  85791003.77247                  20951041.060
  20951037.260          48.950          47.100
 111493929.953 7  86878444.12647                  21216558.880
  21216553.640          47.500          47.200
 122373324.525 7  95356008.899 7  91382835.465 8  23286788.580    23286787.460
  23286786.540          46.900          43.850
 132020485.532 7 102873113.361 6                  25122658.740    25122656.000
  25122655.200          42.050          39.200
 121607456.544 7  94759056.40146                  23141128.660
  23141123.640          46.300          40.700
 131428420.106 6 102411747.05545                  25009990.320
  25009986.040          41.250          32.500
 134090150.110 6 104485805.63345                  25516508.060
  25516501.520          40.200          31.750
 128063591.270 7  99789817.425 7  95631901.975 8  24369689.140    24369688.560
  24369688.020          44.150          42.750
 115928300.085 8  90333879.342 7                  22060359.960    22060355.820
  22060355.180          49.300          45.900
 108750308.270 7  84583587.018 6                  20351135.920    20351139.380
  20351137.660          46.050          41.200
 131989726.01017                                  24691408.040
                        42.400
 107264585.405 8  83428060.915 7                  20044932.500    20044934.200
  20044933.300          49.000          46.800
 103433231.245 8  80448104.760 7                  19403805.060    19403811.400
  19403810.020          49.100          42.150
 128695345.596 7 100096393.888 6                  24032947.500    24032949.180
  24032948.480          44.450          38.050
 126757081.692 7  98588866.746 7                  23745868.680    23745873.000
  23745871.980          45.350          42.150
 125653065.173 7  97730284.597 6                  23489465.600    23489467.540
  23489465.760          45.300          39.050
 121898171.741 7  94809678.342 5                  22827597.040    22827600.920
  22827599.020          44.250          32.750
 106164887.900 7  82572841.201 7                  19853322.080    19853326.000
  19853323.940          44.000          46.850
 130040564.030 8                  97108345.561 8  24745844.540
                        49.950


 122104988.510 8                  91182405.335 8  23235752.600
                        49.850
 15  1 27  1  3  0.0000000  0 22G31G08G21G25G05G16G18G23G27G29R11R05
                                R21R10R04R22R19R09R20E12E18E11
 111250639.807 8  86688820.624 8                  21170287.040    21170282.980
  21170282.220          49.100          48.750
 110092851.903 8  85786618.98847                  20949970.260
  20949966.460          49.250          47.300
 111489404.022 7  86874917.42547                  21215697.620
  21215692.380          47.900          47.150
 122387214.217 7  95366832.031 7  91393207.639 8  23289431.700    23289430.560
  23289429.660          47.100          44.000
 132022961.663 7 102875042.824 6                  25123129.900    25123127.200
  25123126.380          42.850          39.200
 121593332.772 7  94748050.87446                  23138440.960
  23138436.000          46.350          40.650
 131415820.630 6 102401929.27445                  25007592.680
  25007588.400          41.950          32.350
 134091675.765 6 104486994.45946                  25516798.420
  25516792.100          40.150          36.800
 128049391.468 7  99778752.634 7  95621298.231 8  24366987.060    24366986.400
  24366985.860          44.700          43.300
 115940664.356 8  90343513.840 7                  22062712.820    22062708.680
  22062708.020          49.450          45.750
 108737539.207 7  84573655.535 6                  20348746.300    20348749.800
  20348748.120          46.050          41.350
 131973710.932 7                                  24688412.200
                        43.800
 107257258.063 8  83422361.882 7                  20043563.200    20043564.920
  20043563.980          48.900          47.100
 103441491.021 8  80454529.035 7                  19405354.620    19405360.960
  19405359.540          49.150          42.350
 128687753.676 7 100090489.051 6                  24031529.740    24031531.400
  24031530.680          44.100          38.550
 126739651.942 7  98575310.282 6                  23742603.480    23742607.860
  23742606.800          44.100          41.800
 125671562.280 7  97744671.229 6                  23492923.440    23492925.400
  23492923.640          45.750          39.600
 121919253.636 7  94826075.379 5                  22831545.020    22831548.780
  22831546.960          44.200          32.550
 106174342.180 7  82580194.515 7                  19855090.080    19855094.020
  19855091.960          44.450          47.050
 130050030.191 8                  97115414.459 8  24747645.920
                        50.250


 122103993.177 8                  91181662.079 8  23235563.200
                        50.050
 15  1 27  1  3  5.0000000  0 22G31G08G21G25G05G16G18G23G27G29R11R05
                                R21R10R04R22R19R09R20E12E18E11
 111259443.781 8  86695680.855 8                  21171962.380    21171958.340
  21171957.540          49.250          48.600
 110087240.955 8  85782246.81047                  20948902.540
  20948898.740          49.250          47.050
 111484890.291 7  86871400.22747                  21214838.700
  21214833.440          47.950          47.050
 122401108.949 7  95377659.089 7  91403583.562 8  23292075.780    23292074.640
  23292073.720          47.150          43.800
 132025451.475 7 102876982.937 6                  25123603.680    25123600.980
  25123600.200          42.700          39.400
 121579210.639 7  94737046.61946                  23135753.560
  23135748.620          46.850          40.100
 131403217.928 7 102392108.98044                  25005194.400
  25005190.100          42.400          29.100
 134093213.743 6 104488192.83745                  25517091.140
  25517084.840          40.800          34.250
 128035194.574 7  99767690.122 7  95610696.639 8  24364285.520    24364284.800
  24364284.280          45.050          43.100
 115953031.296 8  90353150.417 7                  22065066.200    22065062.040
  22065061.380          49.650          45.600
 108724785.297 7  84563735.835 6                  20346359.520    20346363.140
  20346361.440          46.100          41.400
 131957698.305 7 102633772.951 6                  24685415.800    24685418.200
  24685417.580          42.200          36.350
 107249943.738 8  83416672.960 7                  20042196.360    20042198.080
  20042197.120          48.750          47.200
 103449770.795 8  80460968.855 7                  19406907.920    19406914.200
  19406912.800          49.000          42.050
 128680177.446 7 100084596.436 6                  24030114.900    24030116.620
  24030115.840          43.700          37.950
 126722227.562 7  98561758.032 6                  23739339.360    23739343.720
  23739342.580          43.250          40.350
 125690057.515 7  97759056.399 6                  23496380.920    23496382.920
  23496381.160          44.750          39.700
 121940341.139 7  94842476.773 5                  22835494.000    22835497.720
  22835495.860          44.000          32.300
 106183806.464 7  82587555.634 7                  19856859.920    19856863.880
  19856861.880          43.400          47.050
 130059499.349 8                  97122485.580 8  24749447.880
                        50.300


 122103004.736 8                  91180923.951 8  23235375.100
                        50.050
 15  1 27  1  3 10.0000000  0 22G31G08G21G25G05G16G18G23G27G29R11R05
                                R21R10R04R22R19R09R20E12E18E11
 111268262.815 8  86702552.830 8                  21173640.600    21173636.520
  21173635.760          49.550          48.600
 110081648.330 8  85777888.92347                  20947838.300
  20947834.520          49.550          47.000
 111480390.914 8  86867894.22947                  21213982.480
  21213977.260          48.100          46.650
 122415010.869 7  95388491.758 7  91413964.852 8  23294721.180    23294720.100
  23294719.160          47.300          44.050
 132027957.126 7 102878935.413 6                  25124080.460    25124077.760
  25124077.040          42.850          39.300
 121565092.227 7  94726045.26746                  23133066.880
  23133061.960          46.900          39.750
 131390614.069 7 102382287.80845                  25002795.960
  25002791.640          42.950          33.250
 134094766.073 6 104489402.46145                  25517386.600
  25517380.400          39.800          32.950
 128021002.707 7  99756631.528 7  95600098.812 8  24361584.920    24361584.180
  24361583.680          45.350          42.700
 115965403.008 8  90362790.723 7                  22067420.460    22067416.300
  22067415.620          49.700          45.750
 108712048.726 7  84553829.632 6                  20343976.020    20343979.680
  20343978.000          46.600          41.400
 131941690.254 6 102621322.255 5                  24682420.940    24682424.060
  24682422.580          39.900          34.400
 107242644.525 8  83410995.800 7                  20040832.340    20040834.060
  20040833.100          48.950          47.250
 103458072.827 8  80467425.993 7                  19408465.340    19408471.620
  19408470.220          49.250          42.000
 128672619.046 7 100078717.678 6                  24028703.440    24028705.140
  24028704.420          43.400          38.750
 126704810.685 7  98548211.568 6                  23736076.620    23736080.900
  23736079.800          43.550          39.450
 125708553.113 7  97773441.875 6                  23499838.440    23499840.480
  23499838.760          44.150          39.600
 121961436.471 7  94858884.276 5                  22839444.460    22839448.320
  22839446.320          43.450          32.800
 106193282.864 7  82594926.148 7                  19858632.060    19858636.020
  19858634.020          43.800          46.800
 130068973.603 8                  97129560.507 8  24751250.840
                        50.650


 122102025.300 8                  91180192.556 8  23235188.720
                        50.150
 15  1 27  1  3 15.0000000  0 22G31G08G21G25G05G16G18G23G27G29R11R05
                                R21R10R04R22R19R09R20E12E18E11
 111277093.487 8  86709433.877 8                  21175321.040    21175316.980
  21175316.160          49.800          48.500
 110076070.581 8  85773542.62747                  20946776.900
  20946773.120          49.450          46.650
 111475902.475 8  86864396.74547                  21213128.360
  21213123.140          48.200          46.650
 122428916.463 7  95399327.282 7  91424348.903 8  23297367.300    23297366.260
  23297365.340          47.350          43.800
 132030475.105 7 102880897.464 6                  25124559.600    25124556.880
  25124556.120          43.350          39.950
 121550974.070 7  94715044.11646                  23130380.240
  23130375.300          46.800          40.050
 131378005.637 7 102372463.02444                  25000396.660
  25000392.220          42.550          28.500
 134096329.320 6 104490620.53845                  25517684.060
  25517677.940          40.000          35.050
 128006812.417 7  99745574.151 7  95589502.153 8  24358884.640    24358883.880
  24358883.380          45.400          42.500
 115977776.042 8  90372432.043 7                  22069774.980    22069770.820
  22069770.140          49.350          45.450
 108699326.017 7  84543934.190 6                  20341595.100    20341598.880
  20341597.120          46.350          41.500
 131925683.400 6 102608872.517 5                  24679426.360    24679428.840
  24679428.020          37.950          34.750
 107235356.958 8  83405327.697 7                  20039470.500    20039472.220
  20039471.280          48.900          47.300
 103466393.486 8  80473897.600 7                  19410026.260    19410032.500
  19410031.180          49.250          42.100
 128665074.980 7 100072850.082 6                  24027294.680    24027296.280
  24027295.720          43.450          38.900
 126687397.766 7  98534668.160 6                  23732814.600    23732818.840
  23732817.740          42.800          39.550
 125727045.403 7  97787824.772 6                  23503295.340    23503297.440
  23503295.800          43.950          40.350
 121982536.113 7  94875295.084 5                  22843395.720    22843399.720
  22843397.680          44.050          33.650
 106202767.999 7  82602303.492 7                  19860405.800    19860409.760
  19860407.760          44.000          46.800
 130078449.522 8                  97136636.679 8  24753054.080
                        50.750


 122101051.411 8                  91179465.305 8  23235003.380
                        50.150
 15  1 27  1  3 20.0000000  0 22G31G08G21G25G05G16G18G23G27G29R11R05
                                R21R10R04R22R19R09R20E12E18E11
 111285937.870 8  86716325.605 8                  21177004.100    21177000.000
  21176999.200          49.950          48.500
 110070509.791 8  85769209.54247                  20945718.740
  20945714.960          49.450          46.750
 111471427.006 8  86860909.36847                  21212276.720
  21212271.500          48.150          46.900
 122442827.822 7  95410167.301 7  91434737.267 8  23300014.520    23300013.500
  23300012.620          47.400          43.750
 132033007.509 7 102882870.764 6                  25125041.480    25125038.780
  25125038.000          43.000          39.800
 121536858.254 7  94704044.78546                  23127694.020
  23127689.120          46.700          40.300
 131365394.702 7 102362636.35144                  24997996.820
  24997992.340          42.450          29.200
 134097905.604 6 104491848.81645                  25517983.980
  25517977.860          40.050          35.100
 127992625.750 7  99734519.611 7  95578908.231 8  24356185.040    24356184.240
  24356183.740          45.250          42.400
 115990152.439 8  90382075.989 7                  22072130.120    22072125.980
  22072125.280          49.250          45.600
 108686619.390 7  84534051.260 6                  20339217.160    20339221.040
  20339219.240          46.350          41.350
 131909679.979 6 102596425.418 5                  24676432.720    24676434.700
  24676434.120          40.700          35.300
 107228083.144 8  83399670.295 7                  20038111.240    20038112.960
  20038112.020          48.800          47.300
 103474734.804 8  80480385.285 7                  19411591.040    19411597.340
  19411596.000          49.100          42.400
 128657547.352 7 100066995.241 6                  24025888.980    24025890.520
  24025890.080          43.550          39.050
 126669990.863 6  98521129.522 6                  23729553.620    23729557.860
  23729556.860          41.650          40.600
 125745536.642 7  97802206.840 6                  23506752.060    23506754.160
  23506752.620          44.100          40.600
 122003642.079 7  94891710.813 5                  22847348.220    22847352.240
  22847350.220          43.700          33.050
 106212263.981 7  82609689.247 7                  19862181.580    19862185.520
  19862183.540          44.150          46.800
 130087929.133 8                  97143715.619 8  24754858.040
                        50.700


 122100085.149 8                  91178743.738 8  23234819.480
                        50.200
 15  1 27  1  3 25.0000000  0 22G31G08G21G25G05G16G18G23G27G29R11R05
                                R21R10R04R22R19R09R20E12E18E11
 111294796.945 8  86723228.779 8                  21178689.940    21178685.800
  21178685.020          50.050          48.400
 110064966.974 8  85764890.46247                  20944663.980
  20944660.200          49.450          46.700
 111466965.531 8  86857432.89647                  21211427.720
  21211422.540          48.150          47.000
 122456745.991 7  95421012.622 7  91445130.683 8  23302663.060    23302662.020
  23302661.200          47.400          43.650
 132035555.334 7 102884856.099 6                  25125526.280    25125523.560
  25125522.920          42.400          39.750
 121522745.822 7  94693048.09346                  23125008.440
  23125003.620          46.800          40.200
 131352782.318 7 102352808.53545                  24995596.780
  24995592.400          42.850          31.800
 134099495.796 6 104493087.92745                  25518286.500
  25518280.240          38.150          32.200
 127978443.767 7  99723468.714 6  95568317.787 8  24353486.340    24353485.460
  24353484.940          45.100          41.900
 116002533.229 8  90391723.350 7                  22074486.080    22074481.980
  22074481.280          48.950          45.500
 108673929.687 7  84524181.493 6                  20336842.420    20336846.360
  20336844.520          46.550          41.250
 131893680.777 6 102583981.607 6                  24673439.820    24673442.580
  24673441.540          40.250          36.600
 107220824.105 8  83394024.373 7                  20036754.760    20036756.420
  20036755.480          48.900          47.150
 103483097.996 8  80486889.988 7                  19413159.920    19413166.200
  19413164.940          49.150          42.300
 128650037.274 7 100061154.103 6                  24024486.520    24024488.100
  24024487.740          43.700          38.550
 126652591.062 7  98507596.408 6                  23726294.000    23726298.220
  23726297.260          43.650          40.150
 125764027.758 7  97816588.804 6                  23510208.720    23510210.860
  23510209.420          44.150          40.150
 122024755.413 7  94908132.281 5                  22851302.080    22851306.340
  22851304.100          44.250          32.200
 106221771.566 7  82617084.034 7                  19863959.560    19863963.460
  19863961.480          44.350          46.700
 130097413.466 8                  97150798.073 8  24756662.880
                        50.750


 122099127.495 8                  91178028.607 8  23234637.240
                        50.200
 15  1 27  1  3 30.0000000  0 22G31G08G21G25G05G16G18G23G27G29R11R05
                                R21R10R04R22R19R09R20E12E18E11
 111303669.400 8  86730142.380 8                  21180378.340    21180374.160
  21180373.380          50.100          48.250
 110059440.842 8  85760584.38947                  20943612.380
  20943608.620          49.450          46.900
 111462516.775 8  86853966.33347                  21210581.160
  21210575.980          48.100          46.250
 122470669.599 7  95431862.186 7  91455528.187 8  23305312.640    23305311.620
  23305310.760          47.750          43.200
 132038117.316 7 102886852.438 6                  25126013.760    25126011.020
  25126010.360          43.050          39.800
 121508635.429 7  94682052.98746                  23122323.280
  23122318.500          47.050          39.050
 131340167.211 7 102342978.54745                  24993196.240
  24993191.880          42.600          34.600
 134101098.700 6 104494336.95945                  25518591.440
  25518585.380          38.800          32.700
 127964265.117 7  99712420.404 7  95557729.832 8  24350788.240    24350787.300
  24350786.820          45.000          42.200
 116014917.090 8  90401373.102 7                  22076842.620    22076838.580
  22076837.840          49.000          45.700
 108661255.667 7  84514323.918 6                  20334470.600    20334474.560
  20334472.720          46.350          41.050
 131877684.869 6 102571540.328 6                  24670447.740    24670450.260
  24670449.620          40.150          37.250
 107213578.524 8  83388388.919 7                  20035400.780    20035402.420
  20035401.480          48.800          47.050
 103491481.622 8  80493410.587 7                  19414732.620    19414738.920
  19414737.700          49.000          42.250
 128642543.283 7 100055325.464 6                  24023087.140    24023088.640
  24023088.320          42.950          38.500
 126635197.149 7  98494067.757 6                  23723035.460    23723039.640
  23723038.720          43.200          39.200
 125782517.555 7  97830969.749 6                  23513665.200    23513667.380
  23513665.920          45.000          39.850
 122045874.774 7  94924558.448 5                  22855257.060    22855261.160
  22855258.960          43.450          31.700
 106231289.687 7  82624487.023 7                  19865739.500    19865743.360
  19865741.420          43.750          46.700
 130106901.209 8                  97157883.088 8  24758468.360
                        50.700


 122098177.151 8                  91177318.944 8  23234456.380
                        50.250
 15  1 27  1  3 35.0000000  0 22G31G08G21G25G05G16G18G23G27G29R11R05
                                R21R10R04R22R19R09R20E12E18E11
 111312555.473 8  86737066.589 8                  21182069.320    21182065.140
  21182064.320          50.750          48.250
 110053931.594 8  85756291.46447                  20942564.000
  20942560.260          50.150          45.900
 111458080.884 8  86850509.79147                  21209737.040
  21209731.860          48.850          45.950
 122484598.861 8  95442716.157 7  91465929.909 8  23307963.280    23307962.320
  23307961.420          48.550          43.350
 132040693.540 7 102888859.905 6                  25126503.960    25126501.220
  25126500.580          44.050          39.650
 121494527.301 8  94671059.64146                  23119638.560
  23119633.780          48.000          38.150
 131327549.569 7 102333146.62045                  24990795.180
  24990790.940          43.100          32.350
 134102714.461 6 104495595.96545                  25518898.820
  25518893.220          38.950          33.050
 127950090.008 7  99701374.847 7  95547144.516 8  24348090.780    24348089.840
  24348089.400          45.450          42.450
 116027304.202 8  90411025.382 7                  22079199.780    22079195.760
  22079195.040          49.650          45.450
 108648597.636 7  84504478.784 6                  20332101.780    20332105.800
  20332103.920          45.800          41.050
 131861692.021 6 102559101.440 6                  24667455.780    24667458.900
  24667458.280          39.850          37.550
 107206346.540 8  83382764.045 7                  20034049.380    20034050.960
  20034049.980          48.300          47.000
 103499885.790 8  80499947.164 7                  19416309.220    19416315.500
  19416314.300          48.150          42.200
 128635065.863 7 100049509.697 6                  24021690.840    24021692.380
  24021691.960          42.650          38.600
 126617809.154 7  98480543.756 6                  23719778.120    23719782.140
  23719781.280          42.350          39.300
 125801006.039 7  97845349.667 6                  23517121.400    23517123.580
  23517122.180          44.200          39.050
 122067000.344 7  94940989.425 5                  22859213.120    22859217.040
  22859215.060          42.700          31.700
 106240818.163 7  82631898.060 7                  19867521.360    19867525.220
  19867523.280          43.650          46.800
 130116392.563 8                  97164970.779 8  24760274.520
                        51.100


 122097234.313 8                  91176614.875 8  23234276.960
                        50.800
 15  1 27  1  3 40.0000000  0 22G31G08G21G25G05G16G18G23G27G29R11R05
                                R21R10R04R22R19R09R20E12E18E11
 111321455.656 8  86744001.790 8                  21183763.020    21183758.780
  21183757.980          50.600          48.300
 110048439.801 8  85752012.14747                  20941518.920
  20941515.220          49.900          46.100
 111453658.441 8  86847063.73547                  21208895.500
  21208890.300          48.750          46.050
 122498534.361 8  95453574.986 7  91476336.289 8  23310615.120    23310614.160
  23310613.240          48.050          43.450
 132043284.648 7 102890878.975 6                  25126997.000    25126994.260
  25126993.720          43.750          39.300
 121480422.019 7  94660068.51246                  23116954.380
  23116949.620          47.650          39.700
 131314929.914 7 102323313.15145                  24988393.720
  24988389.460          42.200          32.300
 134104343.640 6 104496865.43345                  25519208.780
  25519203.220          38.800          35.000
 127935919.030 7  99690332.524 7  95536562.298 8  24345394.140    24345393.180
  24345392.700          44.600          42.050
 116039695.142 8  90420680.660 7                  22081557.660    22081553.640
  22081552.940          49.300          45.600
 108635956.071 7  84494646.456 6                  20329736.100    20329740.020
  20329738.180          46.450          40.950
 131845703.061 6 102546665.595 6                  24664464.680    24664468.140
  24664467.560          39.700          37.050
 107199128.767 8  83377150.225 7                  20032700.580    20032702.140
  20032701.160          48.850          47.000
 103508311.147 8  80506500.221 6                  19417889.780    19417896.100
  19417894.880          48.750          41.950
 128627605.431 7 100043707.155 6                  24020297.580    24020299.200
  24020298.800          43.050          37.900
 126600427.687 7  98467024.858 6                  23716521.920    23716525.900
  23716525.100          44.000          40.200
 125819493.835 7  97859729.070 6                  23520577.520    23520579.680
  23520578.280          44.500          38.950
 122088132.636 7  94957425.667 5                  22863170.460    22863174.500
  22863172.380          43.250          31.600
 106250357.969 7  82639317.907 7                  19869305.380    19869309.200
  19869307.300          43.850          46.850
 130125888.052 8                  97172061.572 8  24762081.440
                        50.750


 122096299.548 8                  91175916.838 8  23234099.080
                        50.600
 15  1 27  1  3 45.0000000  0 22G31G08G21G25G05G16G18G23G27G29R11R05
                                R21R10R04R22R19R09R20E12E18E11
 111330368.157 8  86750946.600 8                  21185459.040    21185454.800
  21185453.980          50.550          48.300
 110042963.652 8  85747745.02447                  20940476.860
  20940473.140          49.850          46.200
 111449247.621 8  86843626.74147                  21208056.160
  21208050.960          48.900          45.800
 122512474.265 7  95464437.253 7  91486745.940 8  23313267.780    23313266.820
  23313265.920          47.950          43.700
 132045888.836 7 102892908.209 6                  25127492.560    25127489.820
  25127489.220          43.550          39.450
 121466317.769 7  94649078.21046                  23114270.400
  23114265.680          47.950          39.200
 131302306.449 7 102313476.73245                  24985991.520
  24985987.280          42.950          32.800
 134105984.349 6 104498143.91544                  25519521.020
  25519515.420          40.250          27.300
 127921750.335 7  99679291.976 7  95525981.767 8  24342697.880    24342696.960
  24342696.480          44.350          42.200
 116052088.042 8  90430337.470 7                  22083915.920    22083911.920
  22083911.220          49.450          45.600
 108623329.185 7  84484825.551 6                  20327373.160    20327377.040
  20327375.200          46.650          40.800
 131829716.008 6 102534231.268 5                  24661473.760    24661477.700
  24661476.880          38.550          34.900
 107191923.336 8  83371546.026 7                  20031354.120    20031355.640
  20031354.640          48.850          47.150
 103516755.848 8  80513068.316 7                  19419473.980    19419480.300
  19419479.080          49.000          42.000
 128620160.082 7 100037916.345 6                  24018907.160    24018908.820
  24018908.400          43.800          37.500
 126583050.984 7  98453509.672 6                  23713266.600    23713270.560
  23713269.840          43.700          39.550
 125837979.086 7  97874106.489 6                  23524033.180    23524035.280
  23524033.920          44.750          39.050
 122109269.911 7  94973865.768 5                  22867128.740    22867132.820
  22867130.700          43.150          30.150
 106259907.001 7  82646744.923 7                  19871091.100    19871094.960
  19871093.020          44.400          47.000
 130135385.850 8                  97179154.071 8  24763888.780
                        50.700


 122095371.006 8                  91175223.447 8  23233922.380
                        50.600
 15  1 27  1  3 50.0000000  0 22G31G08G21G25G05G16G18G23G27G29R11R05
                                R21R10R04R22R19R09R20E12E18E11
 111339295.332 8  86757902.845 8                  21187157.880    21187153.580
  21187152.740          50.400          48.350
 110037505.510 8  85743491.92647                  20939438.220
  20939434.500          49.850          46.300
 111444850.778 8  86840200.63147                  21207219.480
  21207214.260          48.950          45.950
 122526420.914 8  95475304.767 7  91497160.651 8  23315921.740    23315920.800
  23315919.920          48.300          43.700
 132048508.458 7 102894949.483 6                  25127991.040    25127988.280
  25127987.700          44.250          39.300
 121452216.903 7  94638090.51646                  23111587.060
  23111582.400          47.750          39.700
 131289681.617 7 102303639.18745                  24983589.140
  24983584.860          43.100          34.050
 134107639.005 6 104499433.24145                  25519835.900
  25519830.160          41.150          33.650
 127907586.277 7  99668255.044 7  95515404.725 8  24340002.500    24340001.620
  24340001.120          44.500          42.350
 116064485.262 8  90439997.633 7                  22086275.040    22086271.020
  22086270.340          49.600          45.650
 108610719.434 7  84475017.957 6                  20325013.460    20325017.340
  20325015.420          46.600          40.700
 131813733.514 6 102521800.421 5                  24658484.100    24658487.900
  24658487.080          38.550          32.850
 107184732.679 8  83365953.294 7                  20030010.420    20030011.920
  20030010.920          48.800          47.100
 103525222.312 8  80519653.337 7                  19421062.240    19421068.600
  19421067.360          48.900          42.000
 128612732.350 7 100032139.191 6                  24017520.100    24017521.660
  24017521.220          44.200          36.800
 126565681.397 7  98440000.034 6                  23710012.640    23710016.640
  23710015.840          43.000          38.050
 125856464.090 7  97888483.725 6                  23527488.760    23527490.840
  23527489.500          44.700          39.300
 122130414.499 7  94990311.554 5                  22871088.520    22871092.560
  22871090.400          43.200          30.950
 106269467.727 7  82654181.048 7                  19872878.960    19872882.820
  19872880.900          44.000          46.700
 130144888.363 8                  97186250.097 8  24765696.980
                        50.600


 122094451.068 8                  91174536.478 8  23233747.340
                        50.650
 15  1 27  1  3 55.0000000  0 22G31G08G21G25G05G16G18G23G27G29R11R05
                                R21R10R04R22R19R09R20E12E18E11
 111348236.452 8  86764869.949 8                  21188859.360    21188855.000
  21188854.180          50.450          48.350
 110032064.685 8  85739252.32047                  20938402.860
  20938399.140          49.800          46.300
 111440467.222 8  86836784.87747                  21206385.340
  21206380.100          48.800          45.750
 122540373.606 8  95486176.991 7  91507579.865 8  23318576.880    23318575.920
  23318575.040          48.250          43.650
 132051142.823 7 102897002.263 6                  25128492.340    25128489.580
  25128488.960          44.700          38.950
 121438118.720 8  94627104.93146                  23108904.240
  23108899.580          48.000          38.250
 131277054.642 7 102293799.99845                  24981186.280
  24981182.240          42.750          32.000
 134109306.945 6 104500733.00645                  25520153.280
  25520147.680          40.900          34.300
 127893426.214 7  99657221.249 7  95504830.649 8  24337307.860    24337307.020
  24337306.540          44.850          42.000
 116076886.071 8  90449660.607 7                  22088634.840    22088630.840
  22088630.120          49.650          45.450
 108598126.168 7  84465223.198 6                  20322656.780    20322660.700
  20322658.760          46.150          40.850
 131797754.765 5 102509372.480 5                  24655494.880    24655498.340
  24655498.040          35.900          31.700
 107177556.089 8  83360371.486 7                  20028669.380    20028670.780
  20028669.800          48.700          47.100
 103533709.890 8  80526254.786 6                  19422654.460    19422660.840
  19422659.620          48.750          41.900
 128605321.503 7 100026375.161 6                  24016136.180    24016137.660
  24016137.200          44.550          37.050
 126548318.175 7  98426495.338 6                  23706759.900    23706763.880
  23706763.060          44.050          37.800
 125874948.302 7  97902860.329 6                  23530944.200    23530946.300
  23530944.960          44.750          39.000
 122151565.567 7  95006762.366 5                  22875049.420    22875053.360
  22875051.260          42.850          30.650
 106279039.359 7  82661625.640 7                  19874668.900    19874672.780
  19874670.820          43.750          46.750
 130154394.803 8                  97193349.062 8  24767505.940
                        50.650


 122093539.025 8                  91173855.411 8  23233573.780
                        50.650
 15  1 27  1  4  0.0000000  0 22G31G08G21G25G05G16G18G23G27G29R11R05
                                R21R10R04R22R19R09R20E12E18E11
 111357190.273 8  86771846.948 8                  21190563.220    21190558.860
  21190558.040          50.550          48.400
 110026639.951 8  85735025.25347                  20937370.560
  20937366.820          49.900          46.400
 111436095.729 8  86833378.51947                  21205553.480
  21205548.240          48.700          46.250
 122554331.135 8  95497052.981 7  91518002.685 8  23321232.900    23321231.940
  23321231.080          48.350          43.600
 132053790.735 7 102899065.570 6                  25128996.220    25128993.420
  25128992.820          44.500          39.000
 121424022.025 7  94616120.48146                  23106221.700
  23106217.060          47.950          39.050
 131264424.372 7 102283958.24745                  24978782.760
  24978778.660          43.100          30.200
 134110986.954 6 104502042.06745                  25520472.940
  25520467.200          41.550          33.600
 127879268.851 7  99646189.546 7  95494258.609 8  24334613.760    24334612.980
  24334612.420          44.700          42.200
 116089289.313 8  90459325.473 7                  22090995.100    22090991.060
  22090990.380          49.750          45.750
 108585548.006 7  84455440.194 6                  20320302.980    20320306.920
  20320304.940          46.350          40.850
 131781778.565 6 102496946.418 5                  24652506.020    24652509.220
  24652509.100          38.350          30.050
 107170392.253 8  83354799.616 7                  20027330.680    20027332.060
  20027331.080          48.950          47.100
 103542217.185 8  80532871.561 7                  19424250.420    19424256.820
  19424255.560          48.850          42.000
 128597926.262 7 100020623.309 6                  24014755.220    24014756.620
  24014756.040          44.950          36.950
 126530960.278 7  98412994.741 6                  23703508.220    23703512.200
  23703511.280          44.100          38.950
 125893430.332 7  97917235.251 6                  23534399.180    23534401.320
  23534400.020          44.050          39.250
 122172721.918 7  95023217.290 4                  22879011.320    22879015.480
  22879013.080          43.600          29.650
 106288620.652 7  82669077.759 7                  19876460.680    19876464.580
  19876462.520          43.600          46.750
 130163903.995 8                  97200450.078 8  24769315.440
                        50.600


 122092633.643 8                  91173179.319 8  23233401.520
                        50.700
 15  1 27  1  4  5.0000000  0 22G31G08G21G25G05G16G18G23G27G29R11R05
                                R21R10R04R22R19R09R20E12E18E11
 111366157.037 8  86778834.029 8                  21192269.580    21192265.200
  21192264.380          50.350          48.450
 110021231.571 8  85730810.92747                  20936341.400
  20936337.640          49.950          46.300
 111431736.545 8  86829981.74947                  21204723.960
  21204718.720          48.600          46.150
 122568293.722 8  95507932.919 7  91528429.293 8  23323889.900    23323888.920
  23323888.080          48.300          43.750
 132056452.411 7 102901139.592 6                  25129502.740    25129499.940
  25129499.300          44.700          38.850
 121409927.063 8  94605137.40846                  23103539.520
  23103534.860          48.100          38.950
 131251791.030 7 102274114.09345                  24976378.700
  24976374.660          43.050          31.150
 134112679.269 6 104503360.72645                  25520795.040
  25520789.220          41.100          30.900
 127865114.500 7  99635160.177 7  95483688.789 8  24331920.240    24331919.460
  24331918.920          44.600          42.700
 116101695.241 8  90468992.415 7                  22093355.880    22093351.840
  22093351.140          49.800          45.900
 108572985.352 7  84445669.232 6                  20317952.100    20317955.980
  20317954.000          46.650          41.000
 131765805.154 6 102484522.682 5                  24649517.840    24649521.280
  24649520.640          40.900          34.650
 107163241.503 8  83349237.922 7                  20025994.420    20025995.720
  20025994.780          48.950          47.050
 103550744.417 8  80539503.840 6                  19425850.100    19425856.480
  19425855.220          48.850          41.950
 128590546.920 7 100014883.811 6                  24013377.240    24013378.540
  24013377.880          44.800          37.800
 126513607.781 7  98399498.348 6                  23700257.480    23700261.480
  23700260.520          42.800          39.250
 125911910.605 7  97931608.770 6                  23537853.860    23537856.020
  23537854.720          43.900          39.250
 122193883.917 7  95039676.603 5                  22882974.320    22882978.320
  22882975.980          44.000          30.500
 106298211.877 7  82676537.597 7                  19878254.320    19878258.180
  19878256.100          43.600          46.600
 130173416.206 8                  97207553.335 8  24771125.540
                        50.600


 122091735.176 8                  91172508.379 8  23233230.540
                        50.550
 15  1 27  1  4 10.0000000  0 22G31G08G21G25G05G16G18G23G27G29R11R05
                                R21R10R04R22R19R09R20E12E18E11
 111375139.346 8  86785833.235 8                  21193978.880    21193974.480
  21193973.660          50.600          48.450
 110015842.170 8  85726611.39947                  20935315.820
  20935312.080          50.050          46.150
 111427392.302 8  86826596.63247                  21203897.300
  21203892.040          48.650          46.600
 122582263.992 8  95518818.850 7  91538861.635 8  23326548.380    23326547.380
  23326546.540          48.150          43.700
 132059130.485 7 102903226.420 6                  25130012.380    25130009.520
  25130008.880          44.550          38.300
 121395836.447 8  94594157.71246                  23100858.180
  23100853.560          48.400          39.400
 131239157.258 7 102264269.61545                  24973974.560
  24973970.540          42.900          32.400
 134114386.449 7 104504691.01245                  25521119.960
  25521114.120          42.100          31.500
 127850965.727 7  99624135.172 7  95473123.169 8  24329227.820    24329227.040
  24329226.480          44.150          42.550
 116114106.423 8  90478663.477 7                  22095717.680    22095713.600
  22095712.940          49.800          45.950
 108560440.775 7  84435912.341 6                  20315604.560    20315608.400
  20315606.480          46.750          41.150
 131749837.264 7 102472103.217 5                  24646530.760    24646534.060
  24646533.460          42.550          34.900
 107156106.416 8  83343688.418 7                  20024661.040    20024662.340
  20024661.420          48.750          47.000
 103559294.208 8  80546153.688 7                  19427454.020    19427460.440
  19427459.120          48.800          42.000
 128583186.131 7 100009158.790 6                  24012002.680    24012004.040
  24012003.260          44.500          38.050
 126496263.299 7  98386008.251 6                  23697008.240    23697012.280
  23697011.300          43.050          39.400
 125930391.605 7  97945982.883 6                  23541308.700    23541310.860
  23541309.580          44.150          39.550
 122215054.035 7  95056142.278 5                  22886938.880    22886942.800
  22886940.420          44.250          30.050
 106307815.661 7  82684007.215 7                  19880050.300    19880054.120
  19880052.040          43.950          46.650
 130182934.002 8                  97214660.788 8  24772936.720
                        50.800


 122090846.232 8                  91171844.555 8  23233061.400
                        50.600
 15  1 27  1  4 15.0000000  0 22G31G08G21G25G05G16G18G23G27G29R11R05
                                R21R10R04R22R19R09R20E12E18E11
 111384132.430 8  86792840.823 8                  21195690.220    21195685.820
  21195685.000          50.550          48.400
 110010466.965 8  85722422.92247                  20934292.980
  20934289.180          49.900          46.400
 111423058.212 8  86823219.40747                  21203072.580
  21203067.280          48.500          46.000
 122596237.152 8  95529707.013 7  91549296.146 8  23329207.420    23329206.400
  23329205.540          48.150          43.550
 132061820.106 7 102905322.227 6                  25130524.200    25130521.280
  25130520.680          44.050          38.350
 121381745.411 8  94583177.66746                  23098176.760
  23098172.100          48.100          39.650
 131226518.282 7 102254421.06545                  24971569.400
  24971565.440          42.700          31.750
 134116103.695 7 104506029.17745                  25521446.800
  25521441.080          42.000          30.850
 127836817.771 7  99613110.797 7  95462558.152 8  24326535.520    24326534.700
  24326534.180          44.950          42.500
 116126518.063 8  90488334.878 7                  22098079.560    22098075.440
  22098074.800          49.600          45.950
 108547909.499 7  84426165.789 6                  20313259.540    20313263.360
  20313261.400          46.600          41.350
 131733869.930 7 102459684.185 5                  24643543.780    24643546.980
  24643545.900          43.850          34.850
 107148982.150 8  83338147.318 7                  20023329.700    20023330.980
  20023330.040          48.300          46.900
 103567861.835 8  80552817.392 6                  19429061.300    19429067.700
  19429066.360          49.000          41.800
 128575839.128 7 100003444.469 6                  24010630.700    24010632.080
  24010631.320          43.750          37.850
 126478922.193 7  98372520.743 6                  23693759.620    23693763.660
  23693762.720          44.600          39.300
 125948868.524 7  97960353.811 6                  23544762.760    23544764.960
  23544763.640          43.150          39.200
 122236227.456 7  95072610.504 5                  22890904.020    22890907.820
  22890905.460          43.500          30.050
 106317427.142 7  82691482.799 7                  19881847.720    19881851.520
  19881849.420          44.150          46.700
 130192452.580 8                  97221768.820 8  24774748.080
                        50.750


 122089962.014 8                  91171184.258 8  23232893.120
                        50.400
 15  1 27  1  4 20.0000000  0 22G31G08G21G25G05G16G18G23G27G29R11R05
                                R21R10R04R22R19R09R20E12E18E11
 111393140.514 8  86799860.111 8                  21197404.420    21197400.000
  21197399.200          49.750          48.450
 110005110.252 8  85718248.85847                  20933273.660
  20933269.820          49.150          47.050
 111418738.504 7  86819853.40747                  21202250.600
  21202245.260          47.800          46.750
 122610217.475 7  95540600.777 7  91559735.993 8  23331867.800    23331866.780
  23331865.940          47.050          43.850
 132064525.551 7 102907430.369 6                  25131039.080    25131036.060
  25131035.460          43.000          38.600
 121367658.238 7  94572200.66346                  23095496.080
  23095491.400          47.250          40.900
 131213878.332 6 102244571.75845                  24969164.080
  24969160.020          41.500          31.350
 134117835.347 6 104507378.51145                  25521776.380
  25521770.720          39.650          34.200
 127822674.881 7  99602090.361 7  95451996.891 8  24323844.200    24323843.420
  24323842.860          44.050          42.850
 116138934.445 8  90498009.967 7                  22100442.340    22100438.220
  22100437.560          49.050          46.050
 108535395.875 7  84416432.977 6                  20310917.820    20310921.620
  20310919.660          46.250          41.350
 131717907.536 6 102447269.065 5                  24640557.660    24640561.000
  24640560.140          40.100          32.200
 107141873.107 8  83332618.054 7                  20022001.220    20022002.460
  20022001.500          48.350          46.850
 103576451.605 8  80559498.318 6                  19430672.740    19430679.080
  19430677.760          48.800          41.800
 128568510.193 7  99997744.177 6                  24009262.060    24009263.440
  24009262.720          43.800          37.700
 126461588.523 7  98359038.979 6                  23690512.380    23690516.360
  23690515.480          43.600          38.750
 125967345.683 7  97974724.925 6                  23548216.900    23548219.140
  23548217.780          42.700          39.550
 122257408.529 7  95089084.666 5                  22894870.520    22894874.180
  22894871.900          42.750          30.850
 106327050.688 7  82698967.770 7                  19883647.340    19883651.200
  19883649.080          44.150          46.650
 130201976.230 8                  97228880.630 8  24776560.400
                        50.200


 122089086.778 8                  91170530.684 8  23232726.560
                        49.900
 15  1 27  1  4 25.0000000  0 22G31G08G21G25G05G16G18G23G27G29R11R05
                                R21R10R04R22R19R09R20E12E18E11
 111402160.706 8  86806888.832 8                  21199120.920    21199116.520
  21199115.720          49.850          48.450
 109999769.089 8  85714086.91547                  20932257.280
  20932253.420          49.150          47.000
 111414430.308 7  86816496.38147                  21201430.780
  21201425.420          47.950          47.100
 122624202.016 7  95551497.821 7  91570178.988 8  23334528.980    23334527.980
  23334527.120          47.050          43.850
 132067243.931 7 102909548.590 6                  25131556.400    25131553.380
  25131552.700          42.900          37.850
 121353571.981 7  94561224.36446                  23092815.580
  23092810.880          47.550          40.550
 131201234.528 7 102234719.45945                  24966758.120
  24966754.020          42.450          33.050
 134119578.424 6 104508736.75045                  25522108.120
  25522102.320          40.600          32.500
 127808534.169 7  99591071.626 7  95441437.265 8  24321153.300    24321152.500
  24321151.980          43.800          43.050
 116151352.633 8  90507686.477 7                  22102805.440    22102801.360
  22102800.660          49.000          45.900
 108522896.814 7  84406711.493 6                  20308578.800    20308582.580
  20308580.680          46.800          41.600
 131701947.178 6                                  24637571.960
                        40.300
 107134776.180 8  83327098.226 7                  20020674.980    20020676.220
  20020675.240          49.050          46.950
 103585060.354 8  80566194.012 7                  19432287.760    19432294.060
  19432292.720          48.750          42.000
 128561196.361 7  99992055.635 6                  24007896.280    24007897.620
  24007896.940          44.550          37.800
 126444259.598 7  98345560.937 6                  23687266.060    23687270.020
  23687269.160          43.100          38.300
 125985820.082 7  97989093.879 6                  23551670.560    23551672.680
  23551671.380          44.250          39.950
 122278594.178 7  95105562.393 5                  22898837.900    22898841.540
  22898839.320          43.750          30.950
 106336683.187 7  82706459.717 7                  19885448.700    19885452.520
  19885450.440          43.900          46.800
 130211502.023 8                  97235994.052 8  24778373.140
                        50.400


 122088217.616 8                  91169881.637 8  23232561.160
                        50.000
 15  1 27  1  4 30.0000000  0 22G31G08G21G25G05G16G18G23G27G29R11R05
                                R21R10R04R22R19R09R20E12E18E11
 111411196.509 8  86813929.715 8                  21200840.380    21200835.980
  21200835.180          49.800          48.150
 109994447.013 8  85709939.84247                  20931244.540
  20931240.660          49.150          47.100
 111410137.154 8  86813151.07147                  21200613.840
  21200608.440          48.000          46.350
 122638194.304 7  95562400.903 7  91580627.777 8  23337191.620    23337190.580
  23337189.760          47.100          43.750
 132069978.743 7 102911679.620 6                  25132076.860    25132073.780
  25132073.020          43.250          38.500
 121339490.173 7  94550251.52846                  23090135.920
  23090131.240          47.700          39.900
 131188590.411 7 102224866.89445                  24964352.020
  24964347.820          42.700          31.600
 134121336.470 7 104510106.64445                  25522442.680
  25522436.720          42.250          32.850
 127794399.143 7  99580057.339 7  95430881.896 8  24318463.480    24318462.680
  24318462.200          44.050          42.900
 116163776.144 8  90517367.134 7                  22105169.560    22105165.460
  22105164.780          48.950          45.450
 108510416.075 7  84397004.248 6                  20306243.240    20306246.960
  20306245.100          47.150          41.450
 131685992.489 6 102422456.177 4                  24634587.340    24634588.140
                        41.700          26.950
 107127695.041 8  83321590.686 7                  20019351.700    20019352.940
  20019351.960          49.000          46.900
 103593691.836 8  80572907.395 7                  19433907.000    19433913.300
  19433911.940          49.000          42.050
 128553901.159 7  99986381.587 6                  24006533.940    24006535.220
  24006534.620          44.550          37.600
 126426938.854 7  98332089.239 6                  23684021.280    23684025.260
  23684024.380          44.250          36.950
 126004295.265 7  98003463.491 6                  23555124.300    23555126.500
  23555125.140          44.500          39.700
 122299788.080 7  95122046.549 5                  22902806.880    22902810.500
  22902808.360          44.000          32.000
 106346328.344 7  82713961.514 7                  19887252.400    19887256.260
  19887254.160          43.950          46.900
 130221033.480 8                  97243111.693 8  24780186.960
                        50.400


 122087358.060 8                  91169239.759 8  23232397.600
                        50.100
 15  1 27  1  4 35.0000000  0 22G31G08G21G25G05G16G18G23G27G29R11R05
                                R21R10R04R22R19R09R20E12E18E11
 111420244.831 8  86820980.350 8                  21202562.240    21202557.840
  21202557.020          49.900          48.100
 109989140.975 8  85705805.26347                  20930234.860
  20930230.940          49.250          47.000
 111405855.961 8  86809815.06847                  21199799.160
  21199793.740          48.300          46.600
 122652191.296 7  95573307.644 7  91591080.065 8  23339855.160    23339854.140
  23339853.300          47.350          43.550
 132072726.912 7 102913821.071 6                  25132599.860    25132596.640
  25132595.840          43.850          38.500
 121325409.776 7  94539279.78646                  23087456.540
  23087451.840          47.600          40.350
 131175942.915 7 102215011.71545                  24961945.320
  24961941.140          43.150          30.400
 134123106.363 7 104511485.78145                  25522779.540
  25522773.560          42.700          31.100
 127780266.734 7  99569045.068 7  95420328.472 8  24315774.180    24315773.400
  24315772.900          44.800          43.000
 116176201.901 8  90527049.530 7                  22107534.100    22107530.020
  22107529.320          49.000          45.400
 108497950.481 7  84387308.777 6                  20303910.500    20303914.200
  20303912.380          47.250          41.550
 131670040.369 7 102410048.918 4                  24631603.160    24631604.900
  24631605.460          43.100          28.600
 107120626.572 8  83316092.996 7                  20018030.780    20018032.020
  20018031.020          49.050          46.850
 103602343.014 8  80579636.083 7                  19435529.940    19435536.200
  19435534.860          48.900          42.050
 128546621.719 7  99980719.809 6                  24005174.580    24005175.840
  24005175.160          44.000          37.350
 126409623.181 7  98318621.460 6                  23680777.480    23680781.400
  23680780.580          44.950          37.500
 126022768.121 7  98017831.268 6                  23558577.600    23558579.880
  23558578.500          44.400          39.600
 122320987.053 7  95138534.622 5                  22906776.800    22906780.500
  22906778.340          44.100          33.050
 106355982.948 7  82721470.652 7                  19889057.860    19889061.720
  19889059.620          44.050          46.750
 130230567.523 8                  97250231.274 8  24782001.260
                        50.550


 122086505.010 8                  91168602.737 8  23232235.260
                        50.100
 15  1 27  1  4 40.0000000  0 22G31G08G21G25G05G16G18G23G27G29R11R05
                                R21R10R04R22R19R09R20E12E18E11
 111429307.234 8  86828041.963 8                  21204286.760    21204282.380
  21204281.560          49.800          48.150
 109983852.554 8  85701684.42047                  20929228.520
  20929224.600          49.250          46.950
 111401588.275 8  86806489.59947                  21198987.080
  21198981.620          48.050          46.700
 122666194.518 7  95584219.246 7  91601537.018 8  23342519.920    23342518.860
  23342518.040          47.300          43.750
 132075490.049 7 102915974.144 6                  25133125.720    25133122.380
  25133121.640          43.750          39.000
 121311332.295 7  94528310.33146                  23084777.700
  23084772.980          47.650          40.150
 131163293.650 7 102205155.15345                  24959538.280
  24959534.020          42.550          32.500
 134124889.696 7 104512875.38844                  25523119.000
  25523112.780          42.600          28.350
 127766138.548 7  99558036.089 7  95409778.195 8  24313085.700    24313084.960
  24313084.360          44.600          43.050
 116188631.458 8  90536734.895 7                  22109899.340    22109895.320
  22109894.580          48.750          45.300
 108485501.650 7  84377626.355 6                  20301580.900    20301584.620
  20301582.760          47.550          41.750
 131654092.397 7 102397644.911 4                  24628619.760    24628622.400
  24628622.040          42.850          29.350
 107113572.352 8  83310606.385 7                  20016712.540    20016713.760
  20016712.720          49.000          46.800
 103611015.301 8  80586381.199 7                  19437156.820    19437163.100
  19437161.740          48.800          42.100
 128539359.391 7  99975071.334 6                  24003818.380    24003819.540
  24003818.840          43.400          37.300
 126392314.291 7  98305159.029 6                  23677534.920    23677538.840
  23677538.080          45.200          37.500
 126041240.279 7  98032198.497 6                  23562030.800    23562032.960
  23562031.680          44.450          39.850
 122342192.660 7  95155027.856 5                  22910747.880    22910751.660
  22910749.500          43.750          31.600
 106365648.602 7  82728988.387 7                  19890865.380    19890869.240
  19890867.160          44.150          46.850
 130240105.696 8                  97257353.936 8  24783816.340
                        50.350


 122085660.040 8                  91167971.755 8  23232074.480
                        50.050
 15  1 27  1  4 45.0000000  0 22G31G08G21G25G05G16G18G23G27G29R11R05
                                R21R10R04R22R19R09R20E12E18E11
 111438382.673 8  86835113.729 8                  21206013.780    21206009.380
  21206008.580          49.600          48.100
 109978580.708 8  85697576.48647                  20928225.320
  20928221.400          49.200          46.650
 111397333.079 7  86803173.86147                  21198177.380
  21198171.880          47.750          47.000
 122680202.942 7  95595134.901 7  91611997.864 8  23345185.660    23345184.580
  23345183.760          47.050          43.750
 132078267.091 7 102918138.097 6                  25133654.260    25133650.860
  25133650.100          44.350          39.800
 121297256.803 7  94517342.41546                  23082099.240
  23082094.500          47.250          40.150
 131150641.582 7 102195296.38045                  24957130.640
  24957126.340          42.450          31.500
 134126685.463 7 104514274.65145                  25523460.760
  25523454.380          42.700          33.000
 127752013.522 7  99547029.580 7  95399230.288 8  24310397.780    24310397.000
  24310396.440          44.350          42.750
 116201063.797 8  90546422.430 7                  22112265.140    22112261.100
  22112260.340          48.600          45.000
 108473068.676 7  84367956.273 6                  20299254.300    20299258.000
  20299256.120          47.100          41.550
 131638147.496 7 102385243.336 5                  24625636.940    24625639.740
  24625639.800          42.600          30.250
 107106531.391 8  83305130.075 7                  20015396.760    20015397.940
  20015396.900          48.500          46.750
 103619707.797 8  80593142.029 7                  19438787.480    19438793.800
  19438792.400          48.700          42.000
 128532113.174 7  99969435.414 6                  24002465.140    24002466.360
  24002465.580          43.050          36.800
 126375010.968 7  98291700.951 6                  23674293.460    23674297.260
  23674296.620          44.500          37.350
 126059710.773 7  98046564.433 6                  23565483.620    23565485.860
  23565484.520          44.050          39.400
 122363403.920 7  95171525.515 5                  22914720.100    22914723.780
  22914721.740          43.300          32.900
 106375324.239 7  82736513.876 7                  19892674.740    19892678.640
  19892676.540          43.850          46.900
 130249646.980 8                  97264478.917 8  24785632.000
                        50.050


 122084822.140 8                  91167346.053 8  23231915.020
                        49.900
 15  1 27  1  4 50.0000000  0 22G31G08G21G25G05G16G18G23G27G29R11R05
                                R21R10R04R22R19R09R20E12E18E11
 111447470.526 8  86842195.171 8                  21207743.160    21207738.740
  21207737.940          49.700          48.250
 109973324.823 8  85693480.98547                  20927225.140
  20927221.220          49.250          46.650
 111393089.748 8  86799867.37347                  21197369.900
  21197364.380          48.000          46.750
 122694215.962 7  95606054.135 7  91622462.130 8  23347852.260    23347851.160
  23347850.360          47.300          43.600
 132081057.401 7 102920312.382 6                  25134185.320    25134181.880
  25134181.060          44.300          39.700
 121283182.678 7  94506375.56246                  23079421.060
  23079416.260          47.550          39.350
 131137986.096 7 102185434.99545                  24954722.380
  24954718.060          43.000          30.050
 134128492.964 7 104515683.05944                  25523804.760
  25523798.340          43.450          28.450
 127737891.016 7  99536025.036 7  95388684.275 8  24307710.380    24307709.540
  24307708.940          44.350          42.550
 116213498.254 8  90556111.609 7                  22114631.360    22114627.300
  22114626.520          48.850          44.800
 108460650.761 7  84358297.897 6                  20296930.500    20296934.160
  20296932.280          47.200          41.450
 131622205.136 7 102372843.667 5                  24622654.580    24622657.660
  24622657.120          44.550          32.050
 107099502.908 8  83299663.473 7                  20014083.340    20014084.460
  20014083.420          48.900          46.950
 103628419.810 8  80599918.037 6                  19440421.840    19440428.120
  19440426.740          48.900          41.850
 128524882.572 7  99963811.598 6                  24001114.820    24001115.960
  24001115.220          43.350          36.000
 126357712.774 7  98278246.790 6                  23671052.960    23671056.700
  23671056.040          45.100          37.300
 126078178.726 7  98060928.392 6                  23568936.040    23568938.280
  23568936.840          44.250          39.100
 122384620.076 7  95188026.959 5                  22918693.240    22918696.740
  22918694.840          42.750          32.100
 106385009.237 7  82744046.642 7                  19894485.920    19894489.800
  19894487.680          43.750          47.050
 130259190.723 8                  97271605.744 8  24787448.120
                        50.000


 122083990.646 8                  91166725.136 8  23231756.780
                        50.050
 15  1 27  1  4 55.0000000  0 22G31G08G21G25G05G16G18G23G27G29R11R05
                                R21R10R04R22R19R09R20E12E18E11
 111456572.132 8  86849287.329 8                  21209475.140    21209470.720
  21209469.920          49.850          48.300
 109968086.199 8  85689398.94547                  20926228.280
  20926224.340          49.350          46.800
 111388859.571 8  86796571.14447                  21196564.960
  21196559.420          48.450          46.250
 122708234.888 7  95616977.978 7  91632930.803 8  23350520.000    23350518.880
  23350518.020          47.350          43.700
 132083862.337 7 102922498.044 6                  25134719.140    25134715.620
  25134714.860          44.550          40.000
 121269111.167 7  94495410.75746                  23076743.360
  23076738.500          47.750          40.050
 131125328.515 6 102175571.95745                  24952313.680
  24952309.380          41.650          32.350
 134130313.505 7 104517101.64444                  25524151.240
  25524144.780          42.850          28.550
 127723772.368 7  99525023.492 7  95378141.118 8  24305023.680    24305022.800
  24305022.180          44.550          42.300
 116225936.135 8  90565803.468 7                  22116998.220    22116994.140
  22116993.360          49.100          44.700
 108448249.318 7  84348652.334 6                  20294609.760    20294613.420
  20294611.500          47.350          41.500
 131606266.554 7 102360446.975 5                  24619672.960    24619676.380
  24619675.400          43.650          31.800
 107092488.346 8  83294207.720 7                  20012772.520    20012773.600
  20012772.560          49.000          46.950
 103637152.618 8  80606710.218 7                  19442060.080    19442066.360
  19442065.000          49.000          42.050
 128517668.835 7  99958200.905 6                  23999767.660    23999768.800
  23999768.120          44.250          36.700
 126340420.955 7  98264797.549 6                  23667813.620    23667817.320
  23667816.620          44.650          38.400
 126096645.548 7  98075291.488 6                  23572388.200    23572390.440
  23572388.960          44.700          38.900
 122405842.501 7  95204533.303 5                  22922667.520    22922671.020
  22922669.120          42.950          32.200
 106394704.944 7  82751587.741 7                  19896299.060    19896302.960
  19896300.840          43.750          47.000
 130268738.251 8                  97278735.393 8  24789264.960
                        50.150


 122083166.870 8                  91166109.980 8  23231600.020
                        50.100
 15  1 27  1  5  0.0000000  0 22G31G08G21G25G05G16G18G23G27G29R11R05
                                R21R10R04R22R19R09R20E12E18E11
 111465687.692 8  86856390.358 8                  21211209.780    21211205.360
  21211204.560          49.950          48.350
 109962865.075 8  85685330.53247                  20925234.720
  20925230.780          49.350          47.000
 111384642.799 8  86793285.35447                  21195762.580
  21195756.980          48.700          46.200
 122722259.916 7  95627906.561 7  91643404.020 8  23353188.900    23353187.760
  23353186.920          47.550          43.800
 132086682.084 7 102924695.260 6                  25135255.780    25135252.220
  25135251.440          44.700          40.250
 121255042.497 7  94484448.16046                  23074066.200
  23074061.320          47.750          40.550
 131112669.053 7 102165707.43645                  24949904.620
  24949900.280          42.400          31.650
 134132147.326 7 104518530.62445                  25524500.200
  25524493.900          43.200          31.750
 127709657.776 7  99514025.104 7  95367600.991 8  24302337.760    24302336.900
  24302336.240          44.900          42.300
 116238377.699 8  90575498.194 7                  22119365.780    22119361.700
  22119360.880          49.650          44.850
 108435864.646 7  84339019.813 6                  20292292.200    20292295.740
  20292293.860          47.550          41.350
 131590332.191 7 102348053.615 5                  24616692.040    24616694.540
  24616694.080          42.700          31.800
 107085487.928 8  83288762.963 7                  20011464.320    20011465.360
  20011464.360          49.050          46.900
 103645906.358 8  80613518.681 7                  19443702.280    19443708.500
  19443707.160          49.000          42.200
 128510472.287 7  99952603.584 6                  23998423.780    23998424.940
  23998424.240          44.100          37.100
 126323135.685 7  98251353.484 6                  23664575.520    23664579.280
  23664578.460          44.550          38.750
 126115111.498 7  98089653.898 6                  23575840.240    23575842.500
  23575840.920          44.450          39.400
 122427071.423 7  95221044.688 5                  22926643.020    22926646.580
  22926644.720          43.200          33.500
 106404411.444 7  82759137.248 7                  19898114.240    19898118.140
  19898116.040          43.250          46.950
 130278289.785 8                  97285868.018 8  24791082.560
                        50.150


 122082351.041 8                  91165500.749 8  23231444.780
                        50.200
 15  1 27  1  5  5.0000000  0 22G31G08G21G25G05G16G18G23G27G29R11R05
                                R21R10R04R22R19R09R20E12E18E11
 111474817.589 8  86863504.558 8                  21212947.160    21212942.720
  21212941.920          49.950          48.350
 109957661.875 8  85681276.09247                  20924244.600
  20924240.620          49.450          46.600
 111380439.884 8  86790010.34547                  21194962.820
  21194957.180          48.750          46.500
 122736291.452 7  95638840.221 7  91653882.123 8  23355859.000    23355857.860
  23355856.980          47.550          43.700
 132089517.042 7 102926904.328 6                  25135795.280    25135791.700
  25135790.920          44.650          40.050
 121240977.108 7  94473488.10946                  23071389.680
  23071384.760          47.600          40.150
 131100008.220 7 102155841.83745                  24947495.340
  24947490.960          42.450          32.150
 134133994.865 7 104519970.23244                  25524851.780
  25524845.140          43.750          29.300
 127695547.701 7  99503030.239 7  95357064.235 8  24299652.700    24299651.860
  24299651.120          45.100          42.200
 116250823.321 8  90585196.083 7                  22121734.140    22121730.000
  22121729.180          49.650          44.900
 108423497.144 7  84329400.645 6                  20289977.840    20289981.360
  20289979.480          47.450          41.650
 131574402.229 7 102335663.652 5                  24613712.000    24613714.780
  24613713.880          43.400          33.400
 107078502.022 8  83283329.478 7                  20010158.780    20010159.860
  20010158.840          48.950          46.700
 103654681.435 8  80620343.735 7                  19445348.480    19445354.720
  19445353.360          49.100          42.300
 128503293.285 7  99947019.899 6                  23997083.160    23997084.340
  23997083.660          43.800          38.300
 126305857.387 7  98237914.849 6                  23661338.720    23661342.400
  23661341.660          45.250          39.350
 126133577.020 7  98104015.946 6                  23579292.180    23579294.420
  23579292.780          44.150          39.250
 122448307.230 7  95237561.404 5                  22930619.840    22930623.520
  22930621.640          43.250          32.800
 106414129.318 7  82766695.586 7                  19899931.560    19899935.440
  19899933.340          43.100          46.900
 130287845.757 8                  97293003.971 8  24792900.980
                        50.250


 122081543.581 8                  91164897.790 8  23231291.100
                        50.250
 15  1 27  1  5 10.0000000  0 22G31G08G21G25G05G16G18G23G27G29R11R05
                                R21R10R04R22R19R09R20E12E18E11
 111483960.342 8  86870628.779 8                  21214686.960    21214682.540
  21214681.720          50.100          48.050
 109952475.165 8  85677234.49847                  20923257.580
  20923253.620          49.650          46.300
 111376249.343 8  86786744.99047                  21194165.420
  21194159.720          48.450          46.250
 122750328.056 7  95649777.843 7  91664363.999 8  23358530.080    23358528.940
  23358528.040          47.250          43.550
 132092365.807 7 102929124.143 6                  25136337.400    25136333.800
  25136333.060          44.750          39.900
 121226913.550 7  94462529.49946                  23068713.480
  23068708.580          47.600          39.550
 131087344.472 7 102145974.00045                  24945085.520
  24945081.220          42.050          30.350
 134135854.617 7 104521419.36944                  25525205.680
  25525198.960          43.300          29.150
 127681440.640 7  99492037.715 6  95346529.743 8  24296968.220    24296967.360
  24296966.580          44.650          41.850
 116263271.546 8  90594895.997 7                  22124102.960    22124098.820
  22124097.980          49.700          44.700
 108411145.234 7  84319793.602 6                  20287666.400    20287669.840
  20287668.020          47.550          41.800
 131558475.398 7 102323276.074 5                  24610732.560    24610735.320
  24610734.640          45.650          33.350
 107071529.178 8  83277906.155 7                  20008855.720    20008856.800
  20008855.760          48.900          46.950
 103663476.528 8  80627184.358 7                  19446998.420    19447004.660
  19447003.340          49.300          42.600
 128496130.375 7  99941448.774 6                  23995745.500    23995746.680
  23995746.120          44.200          37.950
 126288584.752 7  98224480.590 6                  23658103.000    23658106.720
  23658105.920          45.250          38.850
 126152040.554 7  98118376.471 6                  23582743.820    23582745.920
  23582744.280          44.200          39.250
 122469548.378 7  95254082.293 5                  22934597.560    22934601.440
  22934599.520          42.200          32.950
 106423856.981 7  82774261.546 7                  19901750.620    19901754.600
  19901752.480          43.700          47.150
 130297404.653 8                  97300142.104 8  24794719.940
                        50.350


 122080743.021 8                  91164299.965 8  23231138.760
                        50.300
 15  1 27  1  5 15.0000000  0 22G31G08G21G25G05G16G18G23G27G29R11R05
                                R21R10R04R22R19R09R20E12E18E11
 111493115.446 8  86877762.627 8                  21216429.120    21216424.680
  21216423.860          50.100          48.000
 109947304.405 8  85673205.33747                  20922273.620
  20922269.660          49.550          46.550
 111372070.631 8  86783488.85347                  21193370.260
  21193364.540          48.150          46.150
 122764369.209 7  95660718.995 7  91674849.273 8  23361202.000    23361200.940
  23361199.960          47.200          43.700
 132095227.783 7 102931354.277 6                  25136882.020    25136878.500
  25136877.680          44.900          39.700
 121212851.330 7  94451571.93146                  23066037.540
  23066032.640          47.700          39.600
 131074677.312 6 102136103.52045                  24942675.000
  24942670.760          41.700          30.950
 134137726.087 7 104522877.64944                  25525561.780
  25525554.920          42.650          27.900
 127667336.077 7  99481047.151 6  95335997.125 8  24294284.240    24294283.320
  24294282.580          44.750          41.950
 116275721.844 8  90604597.532 7                  22126472.180    22126468.040
  22126467.180          49.700          44.900
 108398808.645 7  84310198.481 6                  20285357.800    20285361.180
  20285359.440          47.550          41.950
 131542551.019 7 102310890.396 5                  24607753.560    24607756.400
  24607755.800          44.000          34.450
 107064568.843 8  83272492.561 7                  20007555.000    20007556.120
  20007555.040          49.100          47.150
 103672291.109 8  80634040.144 7                  19448651.980    19448658.280
  19448656.980          49.200          42.750
 128488983.047 7  99935889.752 6                  23994410.780    23994412.040
  23994411.480          44.600          37.600
 126271317.034 7  98211050.120 6                  23654868.100    23654871.960
  23654871.100          44.400          38.900
 126170501.588 7  98132735.063 6                  23586194.940    23586196.900
  23586195.320          44.650          38.900
 122490794.360 7  95270606.925 5                  22938576.220    22938580.060
  22938578.200          43.200          32.750
 106433593.815 7  82781834.637 7                  19903571.480    19903575.460
  19903573.340          44.050          47.100
 130306965.951 8                  97307282.036 8  24796539.380
                        50.350


 122079948.825 8                  91163706.901 8  23230987.640
                        50.300
 15  1 27  1  5 20.0000000  0 22G31G08G21G25G05G16G18G23G27G29R11R05
                                R21R10R04R22R19R09R20E12E18E11
 111502284.818 8  86884907.590 7                  21218173.980    21218169.560
  21218168.720          50.000          47.950
 109942151.577 8  85669190.14247                  20921293.040
  20921289.080          49.550          46.600
 111367905.739 8  86780243.48147                  21192577.740
  21192571.980          48.350          46.650
 122778416.822 7  95671665.179 7  91685339.372 8  23363875.160    23363874.100
  23363873.140          47.300          43.600
 132098104.978 7 102933596.257 6                  25137429.560    25137426.000
  25137425.260          44.600          39.750
 121198792.395 7  94440616.91646                  23063362.220
  23063357.300          47.750          39.600
 131062008.701 7 102126231.87545                  24940264.260
  24940259.940          42.750          30.500
 134139611.205 7 104524346.55245                  25525920.460
  25525913.560          42.750          31.500
 127653236.034 7  99470060.098 6  95325467.867 8  24291601.100    24291600.120
  24291599.420          45.150          41.850
 116288176.173 8  90614302.202 7                  22128842.180    22128838.060
  22128837.160          49.400          45.150
 108386489.302 7  84300616.782 6                  20283052.440    20283055.800
  20283054.100          47.950          41.850
 131526631.234 6 102298508.351 5                  24604775.440    24604778.700
  24604778.100          41.200          35.650
 107057622.994 8  83267090.242 7                  20006257.000    20006258.120
  20006257.060          49.250          47.250
 103681127.023 8  80640912.517 7                  19450309.560    19450315.880
  19450314.620          49.000          42.550
 128481853.335 7  99930344.428 6                  23993079.400    23993080.600
  23993080.120          44.400          38.250
 126254056.349 7  98197625.155 6                  23651634.560    23651638.500
  23651637.560          43.750          38.850
 126188962.218 7  98147093.337 6                  23589645.980    23589647.880
  23589646.300          44.700          39.100
 122512047.151 7  95287136.890 5                  22942556.240    22942560.060
  22942558.200          44.150          33.000
 106443341.902 7  82789416.478 7                  19905394.400    19905398.400
  19905396.300          44.350          47.000
 130316531.658 8                  97314425.253 8  24798359.680
                        50.400


 122079162.953 8                  91163120.052 8  23230838.080
                        50.400
 15  1 27  1  5 25.0000000  0 22G31G08G21G25G05G16G18G23G27G29R11R05
                                R21R10R04R22R19R09R20E12E18E11
 111511468.508 8  86892063.718 8                  21219921.560    21219917.160
  21219916.300          50.050          48.000
 109937016.732 8  85665188.97047                  20920315.920
  20920311.960          49.550          46.900
 111363754.697 8  86777008.90747                  21191787.840
  21191782.060          48.550          46.650
 122792470.986 7  95682616.480 7  91695834.359 8  23366549.540    23366548.560
  23366547.560          46.900          43.800
 132100997.457 7 102935850.151 6                  25137980.000    25137976.400
  25137975.620          45.550          40.100
 121184736.783 7  94429664.49746                  23060687.560
  23060682.640          47.800          39.750
 131049338.734 7 102116359.19245                  24937853.220
  24937848.920          42.450          30.750
 134141509.976 7 104525826.15445                  25526281.740
  25526274.960          42.450          31.650
 127639140.481 7  99459076.545 7  95314941.973 8  24288918.820    24288917.820
  24288917.140          44.500          42.150
 116300634.562 8  90624010.029 7                  22131212.920    22131208.800
  22131207.920          49.250          45.400
 108374187.131 8  84291048.429 6                  20280750.300    20280753.660
  20280751.920          48.000          41.900
 131510716.110 7 102286129.932 6                  24601798.120    24601801.320
  24601800.940          42.550          37.150
 107050691.724 8  83261699.267 7                  20004961.680    20004962.860
  20004961.820          48.850          47.300
 103689984.374 8  80647801.562 7                  19451971.160    19451977.540
  19451976.280          48.750          42.400
 128474741.269 7  99924812.807 6                  23991751.300    23991752.480
  23991752.020          43.850          37.900
 126236802.819 7  98184205.760 6                  23648402.380    23648406.320
  23648405.340          45.250          39.850
 126207422.204 7  98161451.089 6                  23593096.920    23593098.720
  23593097.180          44.800          38.800
 122533306.834 7  95303672.211 5                  22946537.600    22946541.460
  22946539.480          43.250          32.550
 106453101.179 7  82797007.029 7                  19907219.380    19907223.440
  19907221.320          43.550          46.950
 130326101.763 8                  97321571.755 8  24800180.800
                        50.400


 122078385.457 8                  91162539.443 8  23230690.120
                        50.350
 15  1 27  1  5 30.0000000  0 22G31G08G21G25G05G16G18G23G27G29R11R05
                                R21R10R04R22R19R09R20E12E18E11
 111520664.770 8  86899229.637 7                  21221671.540    21221667.120
  21221666.260          50.150          47.950
 109931898.089 8  85661200.42347                  20919341.880
  20919337.920          49.650          46.650
 111359615.768 8  86773783.76747                  21191000.260
  21190994.420          48.750          45.750
 122806529.912 7  95693571.482 7  91706332.919 8  23369224.840    23369223.900
  23369222.940          47.250          43.600
 132103903.416 7 102938114.543 6                  25138533.040    25138529.340
  25138528.620          45.600          39.400
 121170682.758 7  94418713.31946                  23058013.160
  23058008.240          47.800          39.100
 131036665.641 7 102106484.06945                  24935441.580
  24935437.420          42.600          33.700
 134143420.699 7 104527315.02745                  25526645.320
  25526638.620          43.400          30.900
 127625047.669 7  99448095.133 6  95304418.141 8  24286237.060    24286236.040
  24286235.360          44.500          41.750
 116313095.241 8  90633719.637 7                  22133584.100    22133580.000
  22133579.100          49.350          45.250
 108361900.420 8  84281492.096 6                  20278451.060    20278454.360
  20278452.620          48.050          41.400
 131494803.833 7 102273753.715 6                  24598821.420    24598824.820
  24598824.560          42.800          37.050
 107043773.211 8  83256318.208 7                  20003668.760    20003669.940
  20003668.940          48.850          47.000
 103698861.363 8  80654705.894 7                  19453636.440    19453642.860
  19453641.580          48.850          42.100
 128467644.999 7  99919293.498 6                  23990426.160    23990427.380
  23990426.860          43.350          38.300
 126219554.507 7  98170790.400 6                  23645171.200    23645175.040
  23645174.100          44.650          39.050
 126225880.006 7  98175807.176 6                  23596547.440    23596549.180
  23596547.680          45.050          38.150
 122554571.503 7  95320211.388 5                  22950519.760    22950523.500
  22950521.720          43.400          32.250
 106462869.905 7  82804604.917 7                  19909046.120    19909050.240
  19909048.100          44.050          46.550
 130335674.501 8                  97328720.236 8  24802002.440
                        50.500


 122077614.539 8                  91161963.776 8  23230543.440
                        50.400
 15  1 27  1  5 35.0000000  0 22G31G08G21G25G05G16G18G23G27G29R11R05
                                R21R10R04R22R19R09R20E12E18E11
 111529873.642 8  86906405.373 7                  21223423.920    21223419.480
  21223418.620          50.300          47.950
 109926795.778 8  85657224.58647                  20918370.940
  20918366.980          49.850          46.600
 111355489.026 8  86770568.12047                  21190215.000
  21190209.120          48.800          46.000
 122820593.695 7  95704530.262 7  91716835.073 8  23371901.080    23371900.140
  23371899.220          47.050          43.700
 132106822.972 7 102940389.503 6                  25139088.660    25139084.900
  25139084.140          45.250          39.600
 121156630.349 7  94407763.38646                  23055339.060
  23055334.140          47.750          38.850
 131023989.562 7 102096606.60544                  24933029.380
  24933025.240          43.550          29.200
 134145343.406 7 104528813.20845                  25527011.200
  25527004.680          43.950          31.100
 127610957.760 7  99437115.975 6  95293896.422 8  24283555.820    24283554.820
  24283554.100          44.200          41.600
 116325558.309 8  90643431.117 7                  22135955.720    22135951.640
  22135950.760          49.200          45.150
 108349629.243 7  84271947.839 6                  20276154.720    20276158.040
  20276156.220          47.850          41.350
 131478894.478 7 102261379.769 6                  24595845.260    24595848.680
  24595848.460          43.950          37.300
 107036867.527 8  83250947.108 7                  20002378.220    20002379.440
  20002378.480          48.700          46.950
 103707757.960 8  80661625.462 7                  19455305.400    19455311.900
  19455310.600          48.950          42.200
 128460564.750 7  99913786.657 6                  23989103.980    23989105.220
  23989104.620          43.450          38.350
 126202311.574 7  98157379.227 6                  23641940.980    23641944.920
  23641943.940          44.100          39.000
 126244335.600 7  98190161.510 6                  23599997.500    23599999.260
  23599997.820          45.450          38.050
 122575841.313 7  95336754.561 5                  22954502.920    22954506.600
  22954504.940          43.150          32.550
 106472648.163 7  82812210.245 7                  19910874.660    19910878.820
  19910876.680          43.150          46.600
 130345249.943 8                  97335870.724 8  24803824.580
                        50.650


 122076850.293 8                  91161393.072 8  23230398.000
                        50.450
 15  1 27  1  5 40.0000000  0 22G31G08G21G25G05G16G18G23G27G29R11R05
                                R21R10R04R22R19R09R20E12E18E11
 111539097.054 8  86913592.453 8                  21225179.060    21225174.620
  21225173.740          50.300          48.150
 109921711.686 8  85653262.95847                  20917403.460
  20917399.540          50.000          46.500
 111351376.354 8  86767363.44847                  21189432.400
  21189426.500          48.800          46.150
 122834664.202 7  95715494.294 7  91727342.270 8  23374578.560    23374577.680
  23374576.780          47.200          44.050
 132109757.988 7 102942676.526 6                  25139647.180    25139643.420
  25139642.700          45.650          39.550
 121142581.558 8  94396816.28746                  23052665.660
  23052660.700          48.100          39.850
 131011312.365 7 102086728.25744                  24930617.040
  24930612.780          44.400          29.400
 134147280.026 7 104530322.30144                  25527379.740
  25527373.180          44.650          29.050
 127596872.552 7  99426140.492 6  95283378.269 8  24280875.480    24280874.480
  24280873.800          44.300          41.750
 116338025.671 8  90653145.935 7                  22138328.200    22138324.080
  22138323.220          49.650          45.400
 108337375.652 7  84262417.275 6                  20273861.680    20273864.940
  20273863.100          47.600          41.150
 131462990.088 7 102249009.711 6                  24592870.040    24592873.540
  24592873.380          43.050          37.050
 107029976.659 8  83245587.548 7                  20001090.460    20001091.720
  20001090.760          48.950          46.950
 103716676.290 8  80668561.934 7                  19456978.440    19456985.000
  19456983.680          48.750          42.450
 128453502.398 7  99908293.689 6                  23987785.060    23987786.440
  23987785.740          43.700          37.950
 126185075.972 7  98143973.772 6                  23638712.120    23638716.060
  23638715.160          44.500          39.900
 126262790.932 7  98204515.661 6                  23603447.560    23603449.360
  23603447.940          44.700          38.150
 122597118.112 7  95353303.179 5                  22958487.320    22958491.060
  22958489.460          43.150          31.800
 106482437.768 7  82819824.374 7                  19912705.300    19912709.540
  19912707.380          43.300          46.750
 130354830.033 8                  97343024.680 8  24805647.640
                        50.750


 122076094.667 8                  91160828.799 8  23230254.220
                        50.600
 15  1 27  1  5 45.0000000  0 22G31G08G21G25G05G16G18G23G27G29R11R05
                                R21R10R04R22R19R09R20E12E18E11
 111548333.580 8  86920789.753 8                  21226936.700    21226932.280
  21226931.400          50.200          48.050
 109916644.408 8  85649314.43247                  20916439.200
  20916435.280          50.000          46.800
 111347276.367 8  86764168.65647                  21188652.220
  21188646.260          48.700          46.250
 122848740.080 7  95726462.508 7  91737853.482 8  23377257.120    23377256.220
  23377255.360          47.200          43.850
 132112707.111 7 102944974.561 6                  25140208.380    25140204.640
  25140203.880          44.600          38.850
 121128534.946 8  94385870.87646                  23049992.700
  23049987.700          48.100          38.700
 130998632.647 7 102076847.93745                  24928204.180
  24928199.780          43.900          30.750
 134149229.155 7 104531841.10745                  25527750.680
  25527744.160          44.900          31.150
 127582790.725 7  99415167.640 6  95272862.637 8  24278195.800    24278194.820
  24278194.100          44.600          41.750
 116350495.878 8  90662862.972 7                  22140701.220    22140697.060
  22140696.220          49.900          45.450
 108325138.292 7  84252899.330 6                  20271571.680    20271574.860
  20271573.000          47.400          41.150
 131447089.162 7 102236642.329 6                  24589895.420    24589898.960
  24589898.820          42.000          37.100
 107023099.088 8  83240238.332 7                  19999805.200    19999806.480
  19999805.520          49.100          47.000
 103725614.886 8  80675514.170 7                  19458655.280    19458661.880
  19458660.540          48.500          42.400
 128446456.474 7  99902813.551 6                  23986469.260    23986470.740
  23986469.980          43.800          37.300
 126167846.261 7  98130572.910 6                  23635484.420    23635488.320
  23635487.480          44.100          40.300
 126281244.543 7  98218868.464 6                  23606897.340    23606899.100
  23606897.740          45.200          38.300
 122618400.529 7  95369856.157 5                  22962472.840    22962476.520
  22962475.020          43.300          31.800
 106492237.552 7  82827446.436 7                  19914537.880    19914542.160
  19914539.980          43.150          46.800
 130364413.313 8                  97350181.025 8  24807471.280
                        50.750


 122075346.202 8                  91160269.885 8  23230111.820
                        50.600
 15  1 27  1  5 50.0000000  0 22G31G08G21G25G05G16G18G23G27G29R11R05
                                R21R10R04R22R19R09R20E12E18E11
 111557582.148 8  86927996.423 8                  21228696.640    21228692.220
  21228691.320          50.200          48.050
 109911592.926 8  85645378.20847                  20915477.960
  20915474.040          50.050          46.300
 111343187.978 8  86760982.89647                  21187874.220
  21187868.260          48.700          46.200
 122862820.246 7  95737434.058 7  91748367.891 8  23379936.460    23379935.600
  23379934.780          47.200          43.950
 132115669.251 7 102947282.714 6                  25140772.060    25140768.260
  25140767.580          43.800          38.600
 121114489.473 8  94374926.35346                  23047319.920
  23047314.920          48.050          39.600
 130985949.309 7 102066964.83345                  24925790.640
  24925786.280          42.750          31.300
 134151189.743 7 104533368.81645                  25528123.760
  25528117.160          44.900          32.300
 127568711.201 7  99404196.582 6  95262348.698 8  24275516.560    24275515.540
  24275514.780          43.900          41.700
 116362967.911 8  90672581.431 7                  22143074.580    22143070.380
  22143069.560          49.850          45.300
 108312915.943 7  84243393.055 6                  20269284.460    20269287.600
  20269285.740          47.650          41.250
 131431190.834 7 102224276.944 6                  24586921.320    24586924.660
  24586924.800          42.400          36.700
 107016233.771 8  83234898.642 7                  19998522.240    19998523.520
  19998522.580          48.850          46.900
 103734572.604 8  80682481.288 7                  19460335.680    19460342.360
  19460340.980          48.700          42.350
 128439426.096 7  99897345.463 6                  23985156.360    23985157.880
  23985157.100          44.300          37.400
 126150621.402 7  98117175.814 6                  23632257.620    23632261.480
  23632260.680          43.150          40.200
 126299695.384 7  98233219.122 6                  23610346.600    23610348.180
  23610346.960          44.950          37.550
 122639687.400 7  95386412.606 5                  22966459.160    22966462.940
  22966461.440          43.100          31.000
 106502046.114 7  82835075.305 7                  19916372.060    19916376.420
  19916374.260          43.100          46.950
 130373998.729 8                  97357338.971 8  24809295.340
                        50.800


 122074603.860 8                  91159715.535 8  23229970.560
                        50.600
 15  1 27  1  5 55.0000000  0 22G31G08G21G25G05G16G18G23G27G29R11R05
                                R21R10R04R22R19R09R20E12E18E11
 111566845.307 8  86935214.473 8                  21230459.340    21230454.920
  21230454.040          50.100          48.000
 109906559.748 8  85641456.25547                  20914520.220
  20914516.300          50.150          46.250
 111339113.657 8  86757808.10347                  21187098.900
  21187092.940          48.750          46.300
 122876907.196 7  95748410.898 7  91758887.359 8  23382617.120    23382616.260
  23382615.440          47.550          43.750
 132118646.904 7 102949602.965 6                  25141338.660    25141334.920
  25141334.160          43.800          39.250
 121100447.674 8  94363984.70146                  23044647.840
  23044642.840          48.050          38.900
 130973264.951 7 102057080.92245                  24923376.880
  24923372.580          43.250          31.000
 134153164.291 7 104534907.42344                  25528499.540
  25528492.980          45.650          29.850
 127554636.452 7  99393229.260 6  95251838.374 8  24272838.180    24272837.200
  24272836.440          43.950          41.750
 116375444.245 8  90682303.252 7                  22145448.780    22145444.560
  22145443.740          49.950          45.250
 108300711.156 7  84233900.444 6                  20267000.500    20267003.640
  20267001.760          47.700          41.550
 131415297.481 6 102211915.438 6                  24583948.180    24583951.820
  24583951.480          41.900          36.700
 107009383.288 8  83229570.490 7                  19997242.040    19997243.360
  19997242.400          48.700          47.050
 103743551.988 8  80689465.255 7                  19462020.200    19462026.900
  19462025.480          48.650          42.350
 128432413.639 7  99891891.315 6                  23983846.860    23983848.360
  23983847.580          44.500          38.000
 126133404.014 7  98103784.523 6                  23629032.160    23629035.980
  23629035.240          43.250          39.650
 126318145.936 7  98247569.562 6                  23613795.800    23613797.340
  23613796.140          45.450          39.000
 122660981.407 7  95402974.626 5                  22970446.860    22970450.640
  22970449.120          43.300          31.500
 106511866.234 7  82842713.162 7                  19918208.400    19918212.840
  19918210.700          43.800          46.800
 130383588.793 8                  97364500.381 8  24811120.280
                        50.800


 122073870.144 8                  91159167.632 8  23229830.940
                        50.550
 15  1 27  1  6  0.0000000  0 22G31G08G21G25G05G16G18G23G27G29R11R05
                                R21R10R04R22R19R09R20E12E18E11
 111576121.924 8  86942443.003 7                  21232224.600    21232220.200
  21232219.300          50.050          47.950
 109901543.774 8  85637547.70447                  20913565.720
  20913561.820          50.000          46.200
 111335052.335 8  86754643.43247                  21186326.060
  21186320.100          48.500          46.400
 122890999.833 7  95759392.171 7  91769411.071 8  23385298.840    23385297.980
  23385297.220          47.300          44.000
 132121638.969 7 102951934.485 6                  25141908.000    25141904.260
  25141903.520          43.350          38.850
 121086408.432 7  94353045.03446                  23041976.260
  23041971.260          47.850          39.050
 130960578.508 7 102047195.38244                  24920962.720
  24920958.300          42.450          29.850
 134155151.669 7 104536456.03145                  25528877.760
  25528871.260          44.650          32.500
 127540565.441 7  99382264.854 6  95241330.792 8  24270160.520    24270159.540
  24270158.840          44.350          41.850
 116387923.817 8  90692027.598 7                  22147823.580    22147819.340
  22147818.520          49.700          45.300
 108288522.900 7  84224420.689 6                  20264719.660    20264722.740
  20264720.900          47.850          41.550
 131399408.083 7 102199557.014 6                  24580975.740    24580979.180
  24580979.060          43.550          37.950
 107002546.558 8  83224253.035 7                  19995964.400    19995965.760
  19995964.800          48.650          47.200
 103752551.971 8  80696465.246 7                  19463708.560    19463715.260
  19463713.840          48.600          42.450
 128425418.221 7  99886450.421 6                  23982540.540    23982542.020
  23982541.280          44.350          38.900
 126116192.714 7  98090397.991 6                  23625807.880    23625811.660
  23625810.900          44.200          39.400
 126336595.137 7  98261918.932 6                  23617244.680    23617246.120
  23617245.040          45.700          38.000
 122682281.281 7  95419541.207 5                  22974435.640    22974439.240
  22974437.880          42.750          31.750
 106521696.584 7  82850358.992 7                  19920046.720    19920051.180
  19920049.040          43.250          46.750
 130393182.420 8                  97371664.443 8  24812945.900
                        50.700


 122073143.935 8                  91158625.333 8  23229692.740
                        50.450
 15  1 27  1  6  5.0000000  0 22G31G08G21G25G05G16G18G23G27G29R11R05
                                R21R10R04R22R19R09R20E12E18E11
 111585411.786 8  86949681.857 7                  21233992.400    21233988.000
  21233987.080          50.200          47.800
 109896544.832 8  85633652.42147                  20912614.480
  20912610.580          49.950          46.650
 111331003.892 8  86751488.80147                  21185555.660
  21185549.700          48.350          46.550
 122905097.987 7  95770377.746 7  91779938.914 8  23387981.620    23387980.820
  23387980.040          47.350          43.900
 132124645.314 7 102954277.096 6                  25142480.120    25142476.360
  25142475.580          43.550          39.550
 121072371.560 7  94342107.20946                  23039305.120
  23039300.140          47.450          39.050
 130947889.783 7 102037308.08445                  24918548.180
  24918543.680          43.300          31.800
 134157151.720 7 104538014.51245                  25529258.400
  25529251.900          44.350          31.150
 127526497.953 7  99371303.172 7  95230825.856 8  24267483.540    24267482.620
  24267481.880          44.650          42.350
 116400406.365 8  90701754.263 7                  22150198.940    22150194.700
  22150193.900          49.550          45.400
 108276351.059 8  84214953.702 6                  20262441.920    20262444.980
  20262443.120          48.000          41.300
 131383522.421 7 102187201.482 5                  24578003.980    24578007.460
  24578007.220          42.200          34.950
 106995723.339 8  83218946.087 7                  19994689.300    19994690.680
  19994689.740          48.750          47.200
 103761572.275 8  80703481.030 7                  19465400.740    19465407.460
  19465406.020          48.650          42.450
 128418439.400 7  99881022.477 6                  23981237.340    23981238.780
  23981238.120          43.850          38.200
 126098987.675 7  98077016.305 6                  23622584.780    23622588.600
  23622587.760          44.400          40.550
 126355042.760 7  98276267.090 6                  23620693.340    23620694.780
  23620693.600          44.900          37.850
 122703586.822 7  95436112.155 5                  22978425.460    22978429.260
  22978427.760          43.450          32.150
 106531537.035 7  82858012.678 7                  19921886.940    19921891.380
  19921889.240          43.750          46.800
 130402779.410 8                  97378831.034 8  24814772.140
                        50.650


 122072425.057 8                  91158088.518 8  23229555.940
                        50.350
 15  1 27  1  6 10.0000000  0 22G31G08G21G25G05G16G18G23G27G29R11R05
                                R21R10R04R22R19R09R20E12E18E11
 111594714.831 8  86956930.981 7                  21235762.700    21235758.300
  21235757.380          50.150          47.850
 109891562.854 8  85629770.36047                  20911666.460
  20911662.560          49.600          46.800
 111326968.269 8  86748344.16647                  21184787.680
  21184781.720          48.000          46.750
 122919201.537 7  95781367.519 7  91790470.782 8  23390665.420    23390664.600
  23390663.900          47.000          43.900
 132127665.801 7 102956630.730 6                  25143054.900    25143051.140
  25143050.400          44.200          39.750
 121058337.007 7  94331171.19946                  23036634.400
  23036629.500          47.300          39.250
 130935198.691 7 102027418.93845                  24916133.100
  24916128.620          42.950          30.950
 134159164.351 7 104539582.81145                  25529641.400
  25529634.940          44.900          33.350
 127512433.922 7  99360344.186 7  95220323.509 8  24264807.260    24264806.380
  24264805.620          44.100          42.750
 116412891.862 8  90711483.225 7                  22152574.860    22152570.620
  22152569.820          49.100          45.400
 108264195.562 8  84205499.419 6                  20260167.220    20260170.220
  20260168.360          48.050          41.200
 131367640.550 7 102174848.924 5                  24575033.040    24575036.300
  24575036.080          42.400          34.900
 106988913.520 8  83213649.572 7                  19993416.700    19993418.120
  19993417.180          49.050          47.100
 103770612.760 8  80710512.512 6                  19467096.700    19467103.480
  19467102.000          48.850          41.950
 128411477.225 7  99875607.456 6                  23979937.280    23979938.620
  23979938.060          42.800          38.250
 126081788.578 7  98063639.269 6                  23619362.840    23619366.660
  23619365.780          44.950          41.750
 126373488.751 7  98290613.978 6                  23624141.660    23624143.000
  23624141.820          44.600          37.650
 122724897.998 7  95452687.522 5                  22982416.380    22982420.160
  22982418.680          43.450          32.050
 106541387.545 7  82865674.194 7                  19923729.080    19923733.480
  19923731.320          43.550          46.750
 130412379.669 8                  97386000.049 8  24816599.020
                        50.450


 122071713.436 8                  91157557.112 8  23229420.520
                        50.200
 15  1 27  1  6 15.0000000  0 22G31G08G21G25G05G16G18G23G27G29R11R05
                                R21R10R04R22R19R09R20E12E18E11
 111604032.434 8  86964191.447 7                  21237535.780    21237531.360
  21237530.460          50.250          47.900
 109886599.249 8  85625902.61647                  20910721.940
  20910718.040          49.700          46.850
 111322946.859 8  86745210.59947                  21184022.400
  21184016.460          48.150          46.950
 122933311.928 7  95792362.625 7  91801007.766 8  23393350.520    23393349.700
  23393349.060          47.200          44.050
 132130701.866 7 102958996.509 6                  25143632.680    25143628.940
  25143628.160          44.300          39.550
 121044306.149 7  94320238.07146                  23033964.380
  23033959.520          47.100          40.000
 130922506.687 7 102017529.07745                  24913717.840
  24913713.440          42.600          32.300
 134161190.924 7 104541161.96945                  25530027.120
  25530020.660          45.100          31.850
 127498374.745 7  99349388.993 7  95209824.784 8  24262131.880    24262131.000
  24262130.300          43.250          42.750
 116425381.691 8  90721215.550 7                  22154951.580    22154947.360
  22154946.580          48.900          45.400
 108252057.807 7  84196058.942 6                  20257895.820    20257898.780
  20257896.900          47.350          41.050
 131351763.816 7 102162500.349 5                  24572063.080    24572066.260
  24572066.040          42.050          34.600
 106982118.580 8  83208364.631 7                  19992146.880    19992148.320
  19992147.400          48.400          47.000
 103779674.996 8  80717560.924 7                  19468796.760    19468803.520
  19468802.060          48.550          42.000
 128404533.030 6  99870206.447 6                  23978640.480    23978641.920
  23978641.380          41.950          37.650
 126064597.002 7  98050268.070 6                  23616142.280    23616146.100
  23616145.240          43.450          41.350
 126391934.545 7  98304960.709 6                  23627589.920    23627591.280
  23627590.040          44.100          37.900
 122746216.182 7  95469268.346 5                  22986408.640    22986412.180
  22986410.900          42.750          31.200
 106551249.522 7  82873344.608 7                  19925573.280    19925577.700
  19925575.560          43.650          46.800
 130421984.591 8                  97393172.566 8  24818426.800
                        50.550


 122071010.467 8                  91157032.170 8  23229286.760
                        50.150
 15  1 27  1  6 20.0000000  0 22G31G08G21G25G05G16G18G23G27G29R11R05
                                R21R10R04R22R19R09R20E12E18E11
 111613362.387 8  86971461.540 7                  21239311.220    21239306.800
  21239305.880          50.200          47.950
 109881651.833 8  85622047.48447                  20909780.500
  20909776.600          49.750          46.600
 111318937.461 8  86742086.39347                  21183259.420
  21183253.480          48.350          46.600
 122947426.943 7  95803361.337 7  91811548.197 8  23396036.500    23396035.740
  23396035.080          47.200          43.650
 132133751.279 7 102961372.671 6                  25144212.980    25144209.240
  25144208.420          44.800          39.600
 121030276.826 7  94309306.12846                  23031294.660
  23031289.820          47.150          39.450
 130909811.581 7 102007636.79645                  24911302.100
  24911297.640          42.950          32.450
 134163229.250 7 104542750.28545                  25530414.980
  25530408.660          44.300          31.500
 127484318.229 7  99338435.890 7  95199328.038 7  24259457.020    24259456.180
  24259455.480          44.000          42.900
 116437873.636 8  90730949.518 7                  22157328.700    22157324.480
  22157323.740          48.900          45.200
 108239935.513 7  84186630.496 6                  20255627.320    20255630.220
  20255628.360          47.300          41.100
 131335890.000 6 102150154.015 5                  24569093.540    24569096.680
  24569096.400          41.800          35.100
 106975336.284 8  83203089.512 7                  19990879.400    19990880.920
  19990879.960          48.250          46.900
 103788756.676 8  80724624.453 7                  19470500.440    19470507.180
  19470505.740          48.750          42.350
 128397604.817 7  99864817.855 6                  23977346.620    23977348.100
  23977347.620          43.000          36.900
 126047410.628 7  98036900.907 6                  23612922.720    23612926.560
  23612925.680          43.600          41.000
 126410377.787 7  98319305.444 6                  23631037.700    23631039.120
  23631037.800          44.350          37.850
 122767539.158 7  95485852.904 5                  22990401.700    22990405.180
  22990403.920          42.000          31.050
 106561120.631 7  82881022.160 7                  19927419.200    19927423.660
  19927421.500          42.850          46.750
 130431592.010 8                  97400346.933 8  24820255.060
                        50.600


 122070313.962 8                  91156512.051 8  23229154.200
                        50.200
 15  1 27  1  6 25.0000000  0 22G31G08G21G25G05G16G18G23G27G29R11R05
                                R21R10R04R22R19R09R20E12E18E11
 111622704.172 8  86978740.842 7                  21241088.900    21241084.500
  21241083.580          50.000          47.800
 109876720.098 8  85618204.56847                  20908842.040
  20908838.140          49.650          46.650
 111314939.567 8  86738971.14947                  21182498.640
  21182492.720          48.300          46.600
 122961546.072 7  95814363.254 7  91822091.695 8  23398723.280    23398722.540
  23398721.840          47.000          43.600
 132136813.512 7 102963758.831 6                  25144795.720    25144791.960
  25144791.120          45.250          39.600
 121016248.545 7  94298375.00346                  23028625.180
  23028620.320          47.150          38.700
 130897112.850 7 101997741.68445                  24908885.660
  24908881.080          43.400          33.700
 134165278.869 7 104544347.36045                  25530805.040
  25530798.700          44.400          34.550
 127470263.850 7  99327484.422 7  95188832.898 7  24256782.500    24256781.780
  24256781.100          44.100          42.850
 116450367.194 8  90740684.746 7                  22159706.100    22159701.900
  22159701.200          48.900          45.000
 108227828.296 7  84177213.767 6                  20253361.600    20253364.460
  20253362.660          47.300          41.200
 131320018.625 6 102137809.607 5                  24566124.480    24566127.860
  24566127.400          41.700          35.650
 106968566.056 8  83197823.777 7                  19989614.180    19989615.740
  19989614.780          48.450          46.850
 103797857.300 8  80731702.702 7                  19472207.700    19472214.400
  19472213.000          48.950          42.300
 128390691.988 7  99859441.179 5                  23976055.660    23976057.200
  23976056.620          43.600          35.950
 126030228.957 7  98023537.380 6                  23609704.020    23609707.880
  23609707.040          43.900          40.250
 126428818.031 7  98333647.860 6                  23634484.960    23634486.360
  23634484.940          44.000          38.500
 122788866.345 7  95502440.704 5                  22994395.580    22994399.120
  22994397.740          42.800          31.950
 106571000.509 7  82888706.480 7                  19929266.780    19929271.260
  19929269.100          43.350          46.750
 130441201.368 8                  97407522.750 8  24822083.680
                        50.600


 122069623.382 8                  91155996.360 8  23229022.800
                        50.150
 15  1 27  1  6 30.0000000  0 22G31G08G21G25G05G16G18G23G27G29R11R05
                                R21R10R04R22R19R09R20E12E18E11
 111632059.832 8  86986030.967 7                  21242869.220    21242864.820
  21242863.920          49.900          47.850
 109871806.088 8  85614375.47147                  20907906.960
  20907903.020          49.550          47.050
 111310955.217 8  86735866.46747                  21181740.400
  21181734.520          48.200          46.600
 122975671.345 7  95825369.958 7  91832639.780 8  23401411.200    23401410.480
  23401409.800          47.100          43.600
 132139890.705 7 102966156.658 6                  25145381.320    25145377.540
  25145376.660          45.600          39.800
 121002223.329 7  94287446.27946                  23025956.260
  23025951.400          47.050          39.400
 130884412.570 7 101987845.34945                  24906468.900
  24906464.400          43.950          34.000
 134167341.770 7 104545954.80745                  25531197.580
  25531191.120          44.650          31.850
 127456213.700 7  99316536.261 7  95178340.891 7  24254108.860    24254108.160
  24254107.480          44.050          43.000
 116462864.385 8  90750422.817 7                  22162084.220    22162080.020
  22162079.340          48.950          45.300
 108215738.206 7  84167810.372 6                  20251099.100    20251102.000
  20251100.140          47.000          41.000
 131304151.723 6 102125468.636 5                  24563156.280    24563159.660
  24563159.200          40.950          35.200
 106961810.054 8  83192569.112 7                  19988351.620    19988353.220
  19988352.240          48.450          46.900
 103806978.957 8  80738797.319 7                  19473918.920    19473925.620
  19473924.240          48.850          42.200
 128383796.619 7  99854078.110 6                  23974767.940    23974769.560
  23974768.800          43.350          36.650
 126013054.038 7  98010179.110 6                  23606486.580    23606490.500
  23606489.640          44.750          40.800
 126447257.389 7  98347989.573 6                  23637932.000    23637933.500
  23637932.000          43.900          38.400
 122810199.882 7  95519033.438 5                  22998390.700    22998394.340
  22998392.860          43.400          32.550
 106580890.983 7  82896399.075 7                  19931116.340    19931120.840
  19931118.680          42.850          46.750
 130450814.738 8                  97414701.560 8  24823913.040
                        50.500


 122068940.795 8                  91155486.634 8  23228892.900
                        50.200
 15  1 27  1  6 35.0000000  0 22G31G08G21G25G05G16G18G23G27G29R11R05
                                R21R10R04R22R19R09R20E12E18E11
 111641429.313 8  86993331.860 7                  21244652.180    21244647.760
  21244646.880          50.000          47.800
 109866909.743 8  85610560.14147                  20906975.260
  20906971.280          49.700          47.100
 111306984.342 8  86732772.28447                  21180984.720
  21180978.900          48.300          46.650
 122989802.697 7  95836381.396 7  91843192.418 8  23404100.300    23404099.580
  23404098.880          47.400          43.350
 132142982.721 7 102968566.015 6                  25145969.700    25145965.880
  25145965.060          45.750          39.300
 120988201.107 7  94276519.86846                  23023287.880
  23023283.060          47.150          40.300
 130871710.616 7 101977947.71145                  24904051.860
  24904047.280          43.750          32.400
 134169417.858 7 104547572.51945                  25531592.700
  25531586.180          44.800          30.200
 127442167.679 7  99305591.312 7  95167851.979 7  24251436.000    24251435.300
  24251434.640          44.500          43.350
 116475365.161 8  90760163.671 7                  22164463.020    22164458.860
  22164458.180          49.400          45.100
 108203665.112 7  84158420.190 6                  20248839.780    20248842.720
  20248840.800          46.950          40.750
 131288289.462 7 102113131.330 5                  24560188.920    24560192.220
  24560191.880          42.250          35.400
 106955068.141 8  83187325.409 7                  19987091.700    19987093.340
  19987092.380          48.450          46.850
 103816121.557 8  80745908.230 7                  19475634.060    19475640.720
  19475639.400          48.750          42.250
 128376918.656 7  99848728.607 6                  23973483.520    23973485.160
  23973484.200          44.400          36.600
 125995885.923 7  97996826.157 6                  23603270.400    23603274.340
  23603273.500          45.200          41.050
 126465695.731 7  98362330.516 6                  23641378.920    23641380.420
  23641378.860          44.100          38.700
 122831539.658 7  95535631.035 5                  23002387.040    23002390.600
  23002389.140          43.500          31.900
 106590792.192 7  82904100.003 7                  19932967.920    19932972.380
  19932970.260          43.600          46.700
 130460432.028 8                  97421883.301 8  24825743.140
                        50.600


 122068266.109 8                  91154982.812 8  23228764.500
                        50.250
 15  1 27  1  6 40.0000000  0 22G31G08G21G25G05G16G18G23G27G29R11R05
                                R21R10R04R22R19R09R20E12E18E11
 111650813.377 8  87000644.111 7                  21246437.920    21246433.520
  21246432.620          50.050          47.650
 109862031.830 8  85606759.16247                  20906047.040
  20906043.060          49.800          46.800
 111303027.705 8  86729689.19347                  21180231.760
  21180225.980          48.300          46.700
 123003940.910 7  95847398.179 7  91853750.160 8  23406790.700    23406789.980
  23406789.280          47.550          43.150
 132146090.326 7 102970987.509 6                  25146561.060    25146557.200
  25146556.420          45.400          39.250
 120974182.664 7  94265596.41046                  23020620.240
  23020615.440          46.600          40.250
 130859007.808 7 101968049.43345                  24901634.580
  24901630.080          42.200          32.550
 134171507.833 7 104549201.07545                  25531990.460
  25531983.860          45.600          32.650
 127428126.529 7  99294650.160 7  95157366.703 7  24248764.060    24248763.380
  24248762.740          44.950          43.150
 116487870.251 8  90769907.897 7                  22166842.660    22166838.520
  22166837.820          49.400          44.900
 108191609.849 7  84149043.875 6                  20246583.780    20246586.740
  20246584.780          47.000          40.700
 131272432.410 6 102100798.070 6                  24557222.560    24557225.860
  24557225.500          41.250          36.350
 106948341.132 8  83182093.291 7                  19985834.560    19985836.220
  19985835.300          48.350          46.950
 103825285.788 8  80753035.970 7                  19477353.300    19477359.900
  19477358.640          48.700          42.000
 128370058.944 7  99843393.252 6                  23972202.520    23972204.140
  23972203.000          44.050          36.950
 125978725.329 7  97983479.047 6                  23600055.660    23600059.520
  23600058.700          44.800          40.600
 126484133.838 7  98376671.245 6                  23644825.740    23644827.180
  23644825.700          44.250          38.050
 122852886.360 7  95552234.028 5                  23006384.580    23006388.320
  23006386.700          42.300          31.600
 106600704.783 7  82911809.798 7                  19934821.640    19934826.080
  19934823.940          43.700          46.550
 130470054.011 8                  97429068.548 8  24827574.120
                        50.550


 122067600.099 8                  91154485.467 8  23228637.760
                        50.250
 15  1 27  1  6 45.0000000  0 22G31G08G21G25G05G16G18G23G27G29R11R05
                                R21R10R04R22R19R09R20E12E18E11
 111660209.273 8  87007965.591 7                  21248225.900    21248221.500
  21248220.600          50.150          47.650
 109857169.656 8  85602970.45747                  20905121.800
  20905117.800          50.000          46.650
 111299082.597 8  86726615.08547                  21179481.000
  21179475.260          48.300          46.300
 123018083.238 7  95858418.177 7  91864310.997 8  23409481.920    23409481.180
  23409480.460          47.800          43.350
 132149210.813 7 102973419.076 6                  25147154.880    25147151.000
  25147150.180          45.100          39.750
 120960165.307 7  94254673.81246                  23017952.800
  23017948.020          47.000          39.900
 130846301.455 7 101958148.39345                  24899216.640
  24899212.060          42.450          34.400
 134173609.078 7 104550838.41345                  25532390.360
  25532383.740          45.650          33.200
 127414087.604 7  99283710.734 7  95146883.094 7  24246092.560    24246091.880
  24246091.260          46.350          43.100
 116500376.973 8  90779653.400 7                  22169222.620    22169218.460
  22169217.760          49.350          44.700
 108179569.827 7  84139679.413 6                  20244330.660    20244333.640
  20244331.620          47.200          40.850
 131256577.962 6 102088466.797 6                  24554256.660    24554259.880
  24554259.680          41.750          37.650
 106941626.243 8  83176870.610 7                  19984579.700    19984581.380
  19984580.460          48.400          47.000
 103834468.978 8  80760178.447 7                  19479076.060    19479082.700
  19479081.400          48.600          42.350
 128363214.583 7  99838069.860 6                  23970924.360    23970926.000
  23970924.780          43.700          38.100
 125961569.467 7  97970135.607 6                  23596841.820    23596845.660
  23596844.780          44.950          40.200
 126502568.922 7  98391009.656 6                  23648272.000    23648273.400
  23648271.900          44.900          38.200
 122874237.387 7  95568840.363 5                  23010382.860    23010386.720
  23010385.000          42.500          31.950
 106610626.034 7  82919526.325 7                  19936677.000    19936681.380
  19936679.260          43.850          46.850
 130479677.941 8                  97436255.245 8  24829405.480
                        50.600


 122066940.061 8                  91153992.581 8  23228512.160
                        50.350
 15  1 27  1  6 50.0000000  0 22G31G08G21G25G05G16G18G23G27G29R11R05
                                R21R10R04R22R19R09R20E12E18E11
 111669618.012 8  87015297.069 7                  21250016.320    21250011.900
  21250011.020          50.050          47.700
 109852324.237 8  85599194.80247                  20904199.760
  20904195.740          50.050          46.450
 111295150.007 8  86723550.72747                  21178732.620
  21178726.920          48.250          46.200
 123032230.713 7  95869442.179 7  91874875.655 8  23412174.120    23412173.360
  23412172.640          47.700          43.250
 132152345.226 7 102975861.469 6                  25147751.320    25147747.480
  25147746.660          44.550          39.200
 120946150.030 7  94243752.82246                  23015285.800
  23015281.060          47.100          40.350
 130833592.536 7 101948245.37045                  24896798.160
  24896793.480          42.600          31.550
 134175722.640 7 104552485.33645                  25532792.600
  25532785.980          44.950          34.850
 127400051.888 7  99272773.808 7  95136401.864 7  24243421.680    24243421.020
  24243420.380          46.350          43.300
 116512886.356 8  90789400.964 7                  22171603.060    22171598.920
  22171598.200          49.550          44.850
 108167546.034 7  84130327.574 6                  20242080.520    20242083.580
  20242081.500          47.200          41.150
 131240727.017 7 102076138.334 6                  24551291.440    24551294.660
  24551294.400          42.450          38.000
 106934924.499 8  83171658.138 7                  19983327.300    19983329.020
  19983328.080          48.450          46.950
 103843672.096 8  80767336.417 7                  19480802.560    19480809.180
  19480807.900          48.750          42.300
 128356386.690 7  99832759.274 6                  23969649.160    23969651.040
  23969649.760          43.450          37.900
 125944419.411 7  97956796.643 6                  23593629.060    23593632.880
  23593631.960          44.950          40.650
 126521002.038 7  98405346.526 6                  23651717.900    23651719.320
  23651717.860          44.700          38.650
 122895593.584 7  95585450.722 5                  23014382.220    23014385.920
  23014384.360          43.250          32.000
 106620557.020 7  82927250.427 7                  19938534.180    19938538.500
  19938536.420          43.900          46.900
 130489304.835 8                  97443444.155 8  24831237.380
                        50.550


 122066286.973 8                  91153504.882 8  23228387.860
                        50.350
 15  1 27  1  6 55.0000000  0 22G31G08G21G25G05G16G18G23G27G29R11R05
                                R21R10R04R22R19R09R20E12E18E11
 111679041.226 8  87022639.833 7                  21251809.480    21251805.080
  21251804.200          50.050          47.800
 109847497.193 8  85595433.46447                  20903281.220
  20903277.160          49.900          46.600
 111291231.590 8  86720497.41547                  21177986.920
  21177981.280          48.150          46.400
 123046384.954 7  95880471.466 7  91885445.390 8  23414867.600    23414866.800
  23414866.120          47.600          43.300
 132155495.155 7 102978315.961 6                  25148350.740    25148346.840
  25148346.020          44.100          39.200
 120932138.479 7  94232834.73046                  23012619.500
  23012614.700          47.300          39.700
 130820882.815 7 101938341.68345                  24894379.580
  24894374.980          43.300          31.400
 134177850.096 7 104554143.06445                  25533197.540
  25533190.840          45.100          35.500
 127386021.007 7  99261840.668 7  95125924.271 7  24240751.720    24240751.060
  24240750.480          45.750          43.350
 116525399.993 8  90799151.856 7                  22173984.320    22173980.200
  22173979.460          49.150          44.700
 108155540.070 7  84120989.600 6                  20239833.740    20239836.800
  20239834.760          47.050          41.500
 131224881.455 7 102063813.994 6                  24548327.160    24548330.340
  24548330.160          43.000          38.800
 106928237.578 8  83166457.206 7                  19982077.680    19982079.420
  19982078.460          48.550          47.050
 103852896.840 8  80774511.222 7                  19482533.120    19482539.720
  19482538.480          48.900          42.750
 128349577.051 7  99827462.880 6                  23968377.520    23968379.400
  23968378.140          43.200          38.300
 125927276.804 7  97943463.504 6                  23590417.660    23590421.560
  23590420.560          44.900          40.400
 126539434.806 7  98419683.113 6                  23655163.700    23655165.180
  23655163.700          44.500          38.600
 122916956.604 7  95602066.411 5                  23018382.860    23018386.480
  23018384.940          43.350          32.200
 106630499.215 7  82934983.252 7                  19940393.440    19940397.760
  19940395.680          43.200          47.050
 130498936.333 8                  97450636.501 8  24833070.160
                        50.550


 122065642.477 8                  91153023.614 8  23228265.200
                        50.300
 15  1 27  1  7  0.0000000  0 22G31G08G21G25G05G16G18G23G27G29R11R05
                                R21R10R04R22R19R09R20E12E18E11
 111688477.015 8  87029992.388 7                  21253605.040    21253600.640
  21253599.740          49.900          47.800
 109842686.686 8  85591685.01147                  20902365.820
  20902361.760          49.700          46.750
 111287325.459 8  86717453.67547                  21177243.580
  21177237.980          48.150          46.400
 123060544.059 7  95891504.524 7  91896018.743 8  23417562.020    23417561.200
  23417560.500          47.550          43.550
 132158658.741 7 102980781.112 6                  25148952.740    25148948.860
  25148947.920          43.600          39.350
 120918128.788 7  94221918.08246                  23009953.560
  23009948.680          47.350          40.250
 130808170.314 7 101928435.84045                  24891960.520
  24891955.820          43.850          33.800
 134179989.497 7 104555810.13245                  25533604.700
  25533597.940          45.300          32.900
 127371993.002 7  99250909.770 7  95115448.837 7  24238082.300    24238081.640
  24238081.100          45.200          43.500
 116537915.977 8  90808904.560 7                  22176366.020    22176361.900
  22176361.160          49.150          44.950
 108143550.067 7  84111664.042 6                  20237589.940    20237593.060
  20237591.020          47.150          41.550
 131209039.152 7 102051492.225 6                  24545363.520    24545366.660
  24545366.480          43.450          38.200
 106921563.538 8  83161266.292 7                  19980830.440    19980832.240
  19980831.280          48.450          47.150
 103862141.339 8  80781701.382 7                  19484267.380    19484274.000
  19484272.740          48.800          42.600
 128342783.611 7  99822179.081 6                  23967108.900    23967110.820
  23967109.620          43.050          38.950
 125910139.676 7  97930134.669 6                  23587207.280    23587211.240
  23587210.160          45.450          39.400
 126557865.244 7  98434017.892 6                  23658609.000    23658610.540
  23658609.060          44.300          37.900
 122938324.594 7  95618685.946 5                  23022384.400    23022387.980
  23022386.500          43.000          31.650
 106640450.847 7  82942723.402 7                  19942254.480    19942258.780
  19942256.700          44.000          46.900
 130508570.534 8                  97457830.862 8  24834903.480
                        50.550


 122065004.674 8                  91152547.332 8  23228143.820
                        50.250
 15  1 27  1  7  5.0000000  0 22G31G08G21G25G05G16G18G23G27G29R11R05
                                R21R10R04R22R19R09R20E12E18E11
 111697925.942 8  87037355.191 7                  21255403.120    21255398.700
  21255397.800          49.950          47.950
 109837893.297 8  85587949.91047                  20901453.680
  20901449.560          49.650          46.950
 111283432.187 8  86714419.96047                  21176502.660
  21176497.140          48.450          46.550
 123074708.636 7  95902541.853 7  91906596.180 8  23420257.480    23420256.640
  23420255.920          47.600          43.700
 132161836.566 7 102983257.352 6                  25149557.460    25149553.540
  25149552.640          43.100          38.700
 120904121.538 7  94211003.34646                  23007288.080
  23007283.200          47.450          40.000
 130795455.640 7 101918528.29045                  24889541.040
  24889536.300          43.400          32.050
 134182141.511 7 104557487.02745                  25534014.220
  25534007.420          45.250          33.150
 127357968.600 7  99239981.670 7  95104976.073 7  24235413.540    24235412.900
  24235412.360          45.700          43.550
 116550434.935 8  90818659.592 7                  22178748.300    22178744.200
  22178743.400          49.100          45.150
 108131576.622 7  84102351.369 6                  20235349.260    20235352.340
  20235350.400          47.350          41.600
 131193200.924 7 102039173.593 6                  24542400.640    24542403.880
  24542403.620          43.050          37.900
 106914902.988 8  83156085.870 7                  19979585.720    19979587.540
  19979586.620          48.400          47.200
 103871406.030 8  80788907.249 7                  19486005.400    19486012.040
  19486010.800          48.950          42.350
 128336007.149 7  99816908.535 6                  23965843.480    23965845.380
  23965844.340          42.550          38.500
 125893008.831 7  97916810.699 6                  23583998.100    23584001.980
  23584000.920          45.100          39.350
 126576294.115 7  98448351.456 6                  23662054.040    23662055.660
  23662054.120          44.100          37.950
 122959698.065 7  95635309.751 5                  23026386.900    23026390.720
  23026388.960          43.200          30.950
 106650412.418 7  82950471.297 7                  19944117.400    19944121.620
  19944119.560          44.250          46.850
 130518208.001 8                  97465027.682 8  24836737.440
                        50.650


 122064374.182 8                  91152076.513 8  23228023.800
                        50.300
 15  1 27  1  7 10.0000000  0 22G31G08G21G25G05G16G18G23G27G29R11R05
                                R21R10R04R22R19R09R20E12E18E11
 111707388.201 8  87044728.381 8                  21257203.720    21257199.300
  21257198.400          50.050          48.000
 109833117.206 8  85584228.27847                  20900544.820
  20900540.700          49.750          46.850
 111279551.956 8  86711396.40747                  21175764.260
  21175758.760          48.450          46.450
 123088878.839 7  95913583.568 7  91917177.829 8  23422953.980    23422953.160
  23422952.440          47.550          43.750
 132165028.793 7 102985744.801 6                  25150164.880    25150160.980
  25150160.080          43.850          39.250
 120890116.940 7  94200090.68246                  23004623.100
  23004618.200          47.600          39.900
 130782738.977 7 101908619.22445                  24887121.160
  24887116.380          43.400          32.900
 134184306.236 7 104559173.84245                  25534426.200
  25534419.300          44.100          32.700
 127343947.947 7  99229056.476 7  95094506.089 7  24232745.520    24232744.860
  24232744.360          45.700          44.100
 116562957.054 8  90828417.069 7                  22181131.160    22181127.120
  22181126.280          49.350          45.300
 108119619.991 7  84093051.769 6                  20233111.720    20233114.860
  20233112.920          47.400          41.450
 131177366.794 7 102026858.173 6                  24539438.560    24539441.840
  24539441.540          42.700          37.000
 106908256.110 8  83150916.080 7                  19978343.560    19978345.380
  19978344.500          48.450          47.100
 103880691.113 8  80796128.974 7                  19487747.260    19487753.920
  19487752.640          48.950          42.200
 128329247.582 6  99811651.121 6                  23964581.100    23964583.080
  23964582.100          41.750          38.750
 125875884.218 7  97903491.550 6                  23580790.060    23580793.860
  23580792.880          44.650          39.800
 126594721.499 7  98462683.868 6                  23665498.900    23665500.380
  23665498.840          44.750          37.950
 122981077.282 7  95651938.039 5                  23030390.560    23030394.200
  23030392.580          43.650          31.200
 106660384.050 7  82958226.998 7                  19945982.180    19945986.380
  19945984.340          45.100          46.700
 130527848.933 8                  97472227.076 8  24838572.060
                        50.800


 122063751.135 8                  91151611.258 8  23227905.220
                        50.300
 15  1 27  1  7 15.0000000  0 22G31G08G21G25G05G16G18G23G27G29R11R05
                                R21R10R04R22R19R09R20E12E18E11
 111716863.443 8  87052111.682 7                  21259006.800    21259002.380
  21259001.480          50.100          47.900
 109828358.107 8  85580519.88747                  20899639.200
  20899635.040          49.700          46.650
 111275684.433 8  86708382.75247                  21175028.280
  21175022.800          48.350          46.650
 123103054.371 7  95924629.435 7  91927763.447 8  23425651.520    23425650.660
  23425649.940          47.600          43.800
 132168235.127 7 102988243.253 6                  25150775.000    25150771.100
  25150770.280          43.600          39.700
 120876114.661 7  94189179.81346                  23001958.580
  23001953.640          47.650          39.900
 130770020.065 7 101898708.37545                  24884700.880
  24884696.160          43.350          31.000
 134186483.413 7 104560870.30545                  25534840.520
  25534833.640          44.250          34.350
 127329930.681 7  99218133.925 7  95084038.645 8  24230078.140    24230077.500
  24230076.980          44.950          43.700
 116575481.942 8  90838176.718 7                  22183514.560    22183510.520
  22183509.700          49.650          45.150
 108107679.677 7  84083764.858 6                  20230877.240    20230880.420
  20230878.460          47.200          41.800
 131161536.649 7 102014545.828 6                  24536477.240    24536480.400
  24536480.260          42.900          37.600
 106901622.562 8  83145756.650 7                  19977103.940    19977105.760
  19977104.840          48.350          47.100
 103889996.261 8  80803366.300 7                  19489492.880    19489499.580
  19489498.240          48.900          42.250
 128322504.840 6  99806406.787 6                  23963321.880    23963324.020
  23963323.040          41.600          39.000
 125858765.734 7  97890177.150 6                  23577583.140    23577587.000
  23577586.020          44.150          40.900
 126613147.013 7  98477014.819 6                  23668943.360    23668944.800
  23668943.240          44.600          37.450
 123002461.815 7  95668570.445 5                  23034395.180    23034399.040
  23034397.260          43.650          31.850
 106670365.525 7  82965990.369 7                  19947848.820    19947852.940
  19947850.960          44.600          46.850
 130537493.022 8                  97479428.818 8  24840407.320
                        50.800


 122063135.234 8                  91151151.322 8  23227788.000
                        50.250
 15  1 27  1  7 20.0000000  0 22G31G08G21G25G05G16G18G23G27G29R11R05
                                R21R10R04R22R19R09R20E12E18E11
 111726352.342 8  87059505.632 8                  21260812.480    21260808.060
  21260807.140          50.050          48.000
 109823616.672 8  85576825.26047                  20898736.940
  20898732.740          49.850          46.850
 111271830.335 8  86705379.56047                  21174294.860
  21174289.380          48.350          46.750
 123117235.870 7  95935679.960 7  91938353.536 8  23428350.180    23428349.340
  23428348.620          47.400          43.750
 132171456.237 7 102990753.232 6                  25151387.880    25151383.980
  25151383.220          43.200          39.350
 120862115.347 7  94178271.26546                  22999294.620
  22999289.640          47.800          39.650
 130757299.521 7 101888796.29045                  24882280.240
  24882275.540          43.450          33.650
 134188673.733 7 104562577.05445                  25535257.320
  25535250.460          44.500          34.200
 127315917.488 7  99207214.556 7  95073574.245 8  24227411.540    24227410.880
  24227410.340          45.450          43.800
 116588010.301 8  90847939.080 7                  22185898.640    22185894.580
  22185893.800          49.500          45.300
 108095756.524 7  84074491.303 6                  20228645.940    20228649.140
  20228647.220          47.050          41.550
 131145711.075 6 102002237.029 6                  24533516.760    24533519.920
  24533519.840          41.950          36.850
 106895003.010 8  83140608.118 7                  19975866.880    19975868.760
  19975867.800          48.450          47.000
 103899322.352 8  80810619.937 7                  19491242.440    19491249.100
  19491247.780          48.700          42.050
 128315779.549 7  99801175.997 6                  23962065.980    23962068.160
  23962067.300          42.600          39.450
 125841653.959 7  97876868.027 6                  23574377.480    23574381.360
  23574380.440          44.200          40.400
 126631571.396 7  98491344.924 6                  23672387.620    23672389.000
  23672387.380          44.150          38.300
 123023852.355 7  95685207.523 5                  23038400.940    23038404.900
  23038403.020          43.850          31.250
 106680357.544 7  82973761.934 7                  19949717.400    19949721.520
  19949719.540          44.550          46.700
 130547140.891 8                  97486633.404 8  24842243.280
                        50.900


 122062527.143 8                  91150697.234 8  23227672.260
                        50.350
 15  1 27  1  7 25.0000000  0 22G31G08G21G25G05G16G18G23G27G29R11R05
                                R21R10R04R22R19R09R20E12E18E11
 111735855.340 8  87066910.564 7                  21262620.840    21262616.420
  21262615.500          50.050          47.950
 109818893.362 8  85573144.75547                  20897838.120
  20897833.900          49.950          46.750
 111267990.087 8  86702387.16147                  21173564.080
  21173558.620          48.350          46.850
 123131423.814 7  95946735.501 7  91948948.425 8  23431050.040    23431049.200
  23431048.500          47.400          43.800
 132174692.556 7 102993275.053 6                  25152003.700    25151999.840
  25151999.060          43.750          39.250
 120848119.508 7  94167365.42946                  22996631.300
  22996626.260          47.650          39.900
 130744577.844 7 101878883.29945                  24879859.380
  24879854.720          43.750          31.650
 134190877.574 7 104564294.34945                  25535676.720
  25535669.780          44.200          33.650
 127301908.814 7  99196298.702 7  95063113.221 8  24224745.800    24224745.100
  24224744.600          45.400          43.750
 116600542.581 8  90857704.485 7                  22188283.480    22188279.420
  22188278.640          49.600          45.400
 108083851.021 7  84065231.467 6                  20226417.980    20226421.240
  20226419.280          47.050          41.650
 131129890.627 6 101989932.228 6                  24530557.240    24530560.420
  24530560.280          41.750          37.250
 106888397.968 8  83135470.863 7                  19974632.560    19974634.420
  19974633.480          48.400          47.050
 103908669.670 8  80817890.075 7                  19492995.960    19493002.600
  19493001.320          48.650          42.200
 128309072.099 7  99795959.104 6                  23960813.360    23960815.660
  23960814.880          43.050          39.400
 125824549.386 7  97863564.493 6                  23571173.220    23571177.080
  23571176.200          45.000          39.850
 126649995.076 7  98505674.438 6                  23675831.740    23675833.160
  23675831.380          44.500          38.700
 123045249.407 7  95701849.673 5                  23042407.940    23042411.860
  23042409.940          44.000          30.850
 106690360.400 7  82981541.939 7                  19951588.040    19951592.060
  19951590.120          44.100          46.900
 130556793.025 8                  97493841.164 8  24844080.060
                        50.850


 122061927.314 8                  91150249.306 8  23227558.100
                        50.350
 15  1 27  1  7 30.0000000  0 22G31G08G21G25G05G16G18G23G27G29R11R05
                                R21R10R04R22R19R09R20E12E18E11
 111745369.382 8  87074324.105 8                  21264431.300    21264426.900
  21264426.000          50.100          48.100
 109814185.126 8  85569476.00847                  20896942.160
  20896937.940          49.850          47.000
 111264160.685 8  86699403.22147                  21172835.380
  21172829.920          48.250          46.700
 123145615.129 7  95957793.681 7  91959545.842 8  23433750.540    23433749.700
  23433749.020          47.250          43.850
 132177941.032 7 102995806.335 6                  25152621.840    25152618.000
  25152617.220          44.050          39.050
 120834124.085 7  94156459.91246                  22993968.040
  22993963.020          47.350          40.650
 130731852.043 7 101868967.05245                  24877437.720
  24877433.160          42.550          31.800
 134193091.888 7 104566019.78845                  25536098.140
  25536091.160          43.950          32.400
 127287901.659 7  99185384.050 7  95052653.322 8  24222080.320    24222079.700
  24222079.220          45.300          43.750
 116613075.680 8  90867470.553 7                  22190668.480    22190664.420
  22190663.640          49.400          45.300
 108071960.131 7  84055983.001 6                  20224192.740    20224196.060
  20224194.080          47.100          41.800
 131114072.068 6 101977628.915 6                  24527598.120    24527601.340
  24527601.220          40.350          36.300
 106881804.286 8  83130342.456 7                  19973400.380    19973402.240
  19973401.280          48.300          47.100
 103918035.042 8  80825174.256 7                  19494752.880    19494759.540
  19494758.240          48.900          42.250
 128302379.525 7  99790753.783 6                  23959563.480    23959565.900
  23959565.180          43.450          38.750
 125807448.883 7  97850264.083 6                  23567969.720    23567973.520
  23567972.740          43.900          39.750
 126668414.973 7  98520001.015 6                  23679275.220    23679276.620
  23679274.740          45.350          38.750
 123066649.712 7  95718494.390 5                  23046415.540    23046419.400
  23046417.360          43.400          30.750
 106700371.109 7  82989328.048 7                  19953460.100    19953464.120
  19953462.160          43.650          46.750
 130566446.331 8                  97501049.807 8  24845917.040
                        50.750


 122061332.686 8                  91149805.266 8  23227444.940
                        50.300
 15  1 27  1  7 35.0000000  0 22G31G08G21G25G05G16G18G23G27G29R11R05
                                R21R10R04R22R19R09R20E12E18E11
 111754898.023 8  87081749.014 8                  21266244.520    21266240.140
  21266239.240          50.250          48.100
 109809495.553 8  85565821.79147                  20896049.760
  20896045.520          50.000          46.700
 111260345.671 8  86696430.48147                  21172109.400
  21172103.940          48.400          46.700
 123159813.410 7  95968857.270 7  91970148.454 8  23436452.400    23436451.600
  23436450.840          47.250          43.900
 132181205.216 7 102998349.845 6                  25153242.940    25153239.160
  25153238.360          44.100          38.600
 120820132.637 8  94145557.49446                  22991305.540
  22991300.540          48.050          40.200
 130719125.600 6 101859050.39245                  24875015.900
  24875011.380          41.950          34.850
 134195320.262 7 104567756.17445                  25536522.200
  25536515.180          44.150          30.050
 127273899.541 7  99174473.303 7  95042197.195 8  24219415.840    24219415.180
  24219414.740          45.600          43.450
 116625613.212 8  90877240.058 7                  22193054.340    22193050.260
  22193049.500          49.650          45.000
 108060087.449 7  84046748.700 6                  20221970.920    20221974.240
  20221972.300          47.150          41.750
 131098259.254 6 101965330.059 6                  24524640.040    24524643.260
  24524643.060          41.700          36.600
 106875225.644 8  83125225.745 7                  19972170.960    19972172.840
  19972171.880          48.450          47.000
 103927422.299 8  80832475.443 7                  19496513.880    19496520.560
  19496519.280          49.050          42.200
 128295705.453 7  99785562.807 6                  23958317.140    23958319.640
  23958318.880          43.600          38.000
 125790356.064 7  97836969.679 6                  23564767.580    23564771.500
  23564770.680          44.150          40.350
 126686834.676 7  98534327.431 6                  23682718.600    23682720.040
  23682718.140          45.700          38.900
 123088057.094 7  95735144.576 5                  23050424.440    23050428.260
  23050426.220          43.300          30.800
 106710393.119 7  82997122.947 7                  19955334.320    19955338.260
  19955336.300          44.000          46.650
 130576104.434 8                  97508262.032 8  24847754.900
                        50.700


 122060746.821 8                  91149367.773 8  23227333.440
                        50.250
 15  1 27  1  7 40.0000000  0 22G31G08G21G25G05G16G18G23G27G29R11R05
                                R21R10R04R22R19R09R20E12E18E11
 111764439.783 8  87089184.147 8                  21268060.280    21268055.880
  21268054.980          50.300          48.150
 109804823.120 8  85562180.92647                  20895160.620
  20895156.380          49.950          46.750
 111256543.542 8  86693467.78447                  21171385.880
  21171380.420          48.350          47.050
 123174017.120 7  95979925.089 7  91980755.114 8  23439155.280    23439154.480
  23439153.700          47.250          43.850
 132184483.633 7 103000904.468 6                  25153866.760    25153862.980
  25153862.200          44.550          38.050
 120806143.704 7  94134657.01846                  22988643.520
  22988638.540          47.950          39.750
 130706397.061 7 101849132.06645                  24872593.680
  24872589.180          42.750          34.500
 134197561.140 7 104569502.29245                  25536948.640
  25536941.520          43.150          33.850
 127259900.933 7  99163565.288 7  95031743.701 8  24216752.000    24216751.280
  24216750.940          45.100          43.500
 116638153.661 8  90887011.836 7                  22195440.740    22195436.620
  22195435.880          49.400          45.050
 108048231.392 7  84037527.319 6                  20219752.200    20219755.560
  20219753.640          47.150          41.800
 131082450.451 7 101953034.320 6                  24521682.700    24521685.900
  24521685.820          42.800          36.700
 106868660.452 8  83120119.481 7                  19970944.120    19970945.960
  19970945.000          48.850          47.000
 103936829.684 8  80839792.302 7                  19498278.680    19498285.360
  19498284.060          48.800          42.250
 128289048.243 7  99780384.991 6                  23957073.960    23957076.380
  23957075.700          43.900          37.100
 125773269.471 7  97823680.111 6                  23561566.660    23561570.500
  23561569.760          44.300          40.650
 126705252.623 7  98548652.506 6                  23686161.640    23686163.020
  23686161.200          46.050          38.900
 123109469.843 7  95751798.920 5                  23054434.280    23054438.320
  23054436.160          43.000          31.750
 106720425.028 7  83004925.536 7                  19957210.380    19957214.280
  19957212.300          44.300          46.750
 130585765.759 8                  97515476.657 8  24849593.380
                        50.600


 122060168.212 8                  91148935.697 8  23227223.300
                        50.200
 15  1 27  1  7 45.0000000  0 22G31G08G21G25G05G16G18G23G27G29R11R05
                                R21R10R04R22R19R09R20E12E18E11
 111773995.429 8  87096630.109 8                  21269878.680    21269874.280
  21269873.380          50.350          48.100
 109800168.646 8  85558554.06547                  20894274.900
  20894270.660          49.950          46.950
 111252755.077 8  86690515.73347                  21170664.960
  21170659.500          48.350          46.750
 123188227.051 7  95990997.767 7  91991366.440 8  23441859.320    23441858.540
  23441857.740          47.150          43.800
 132187777.119 7 103003470.814 6                  25154493.500    25154489.700
  25154488.900          44.600          37.550
 120792158.068 8  94123759.12246                  22985982.160
  22985977.160          48.100          39.650
 130693667.318 7 101839212.77445                  24870171.280
  24870166.740          43.150          33.900
 134199815.385 7 104571258.81845                  25537377.600
  25537370.580          42.950          31.150
 127245906.708 7  99152660.699 7  95021293.478 8  24214088.960    24214088.320
  24214087.960          45.300          43.350
 116650697.814 8  90896786.495 7                  22197827.820    22197823.680
  22197822.940          49.550          44.850
 108036392.894 7  84028319.603 6                  20217536.760    20217540.180
  20217538.280          47.050          41.700
 131066646.745 7 101940742.525 5                  24518726.260    24518729.380
  24518729.340          42.100          35.850
 106862109.567 8  83115024.344 7                  19969719.940    19969721.740
  19969720.780          48.650          46.850
 103946258.074 8  80847125.491 6                  19500047.420    19500054.080
  19500052.780          48.600          41.950
 128282408.881 7  99775221.022 6                  23955834.140    23955836.680
  23955835.700          43.800          36.650
 125756189.869 7  97810395.984 6                  23558367.080    23558370.920
  23558370.140          44.200          39.200
 126723669.670 7  98562976.873 6                  23689604.600    23689605.960
  23689604.120          46.300          39.250
 123130888.803 7  95768458.088 5                  23058445.340    23058449.500
  23058447.280          43.050          31.050
 106730467.599 7  83012736.423 7                  19959088.440    19959092.320
  19959090.280          44.600          46.700
 130595431.159 8                  97522694.330 8  24851432.600
                        50.450


 122059597.676 8                  91148509.653 8  23227114.700
                        50.250
 15  1 27  1  7 50.0000000  0 22G31G08G21G25G05G16G18G23G27G29R11R05
                                R21R10R04R22R19R09R20E12E18E11
 111783563.382 8  87104085.661 8                  21271699.420    21271695.000
  21271694.120          50.350          48.100
 109795530.559 8  85554939.97047                  20893392.320
  20893388.080          49.950          46.650
 111248978.687 8  86687573.09247                  21169946.340
  21169940.880          48.550          46.800
 123202441.680 7  96002074.095 7  92001981.241 8  23444564.260    23444563.480
  23444562.720          47.150          43.850
 132191084.058 7 103006047.645 6                  25155122.760    25155118.940
  25155118.080          44.450          37.200
 120778174.156 8  94112862.56746                  22983321.120
  22983316.100          48.000          40.300
 130680934.722 7 101829291.27045                  24867748.320
  24867743.900          43.050          31.500
 134202081.367 7 104573024.53045                  25537808.780
  25537801.860          42.250          34.650
 127231915.276 7  99141758.289 7  95010845.332 8  24211426.460    24211425.860
  24211425.480          45.300          43.350
 116663244.088 8  90906562.818 7                  22200215.300    22200211.140
  22200210.420          49.400          44.750
 108024570.365 7  84019124.301 6                  20215324.340    20215327.800
  20215325.880          47.150          41.900
 131050846.372 7 101928453.330 6                  24515770.520    24515773.600
  24515773.480          44.000          36.550
 106855571.324 8  83109939.039 7                  19968498.140    19968499.900
  19968498.920          48.600          46.850
 103955705.924 8  80854473.816 6                  19501819.820    19501826.420
  19501825.160          48.450          41.900
 128275785.651 7  99770069.634 6                  23954597.300    23954599.860
  23954598.760          42.600          37.600
 125739115.707 7  97797116.080 6                  23555168.540    23555172.400
  23555171.480          43.800          38.550
 126742084.154 7  98577299.251 6                  23693047.020    23693048.400
  23693046.560          46.350          39.250
 123152312.405 7  95785120.889 5                  23062457.220    23062461.560
  23062459.160          42.550          31.400
 106740519.283 7  83020554.399 7                  19960968.200    19960972.020
  19960969.960          44.150          46.400
 130605099.022 8                  97529913.824 8  24853272.260
                        50.350


 122059033.613 8                  91148088.433 8  23227007.340
                        50.350
 15  1 27  1  7 55.0000000  0 22G31G08G21G25G05G16G18G23G27G29R11R05
                                R21R10R04R22R19R09R20E12E18E11
 111793144.163 8  87111551.205 8                  21273522.600    21273518.180
  21273517.300          50.350          48.100
 109790909.363 8  85551339.03947                  20892512.920
  20892508.680          49.850          46.800
 111245214.929 8  86684640.28947                  21169230.140
  21169224.640          48.600          46.650
 123216661.454 7  96013154.441 7  92012599.905 8  23447270.200    23447269.420
  23447268.620          47.150          44.000
 132194404.951 7 103008635.363 6                  25155754.660    25155750.860
  25155749.980          44.100          37.950
 120764192.477 8  94101967.75946                  22980660.520
  22980655.480          48.450          40.600
 130668199.822 7 101819368.00045                  24865324.920
  24865320.460          43.400          34.150
 134204359.627 6 104574799.81844                  25538242.300
  25538235.260          41.750          29.250
 127217927.136 7  99130858.450 7  95000399.657 8  24208764.580    24208764.020
  24208763.580          45.300          43.350
 116675792.976 8  90916341.172 7                  22202603.260    22202599.100
  22202598.400          49.550          45.050
 108012764.272 7  84009941.777 6                  20213114.980    20213118.440
  20213116.540          47.250          41.750
 131035049.931 7 101916167.211 6                  24512815.520    24512818.520
  24512818.400          43.550          37.100
 106849046.296 8  83104864.024 7                  19967278.820    19967280.520
  19967279.540          48.450          46.950
 103965173.677 8  80861837.614 7                  19503595.920    19503602.540
  19503601.300          49.050          42.350
 128269179.125 7  99764931.215 6                  23953363.600    23953366.160
  23953365.020          42.550          38.150
 125722047.438 7  97783840.782 6                  23551971.080    23551974.920
  23551973.920          43.100          39.300
 126760496.643 7  98591620.074 6                  23696489.080    23696490.360
  23696488.580          46.250          39.750
 123173741.097 7  95801787.650 5                  23066470.120    23066474.340
  23066471.980          43.550          30.800
 106750580.429 7  83028379.733 7                  19962849.640    19962853.500
  19962851.440          44.400          46.750
 130614769.853 8                  97537135.545 8  24855112.500
                        50.350


 122058476.535 8                  91147672.435 8  23226901.320
                        50.300
 15  1 27  1  8  0.0000000  0 22G31G08G21G25G05G16G18G23G27G29R11R05
                                R21R10R04R22R19R09R20E12E18E11
 111802739.495 8  87119028.087 8                  21275348.560    21275344.140
  21275343.260          50.300          48.100
 109786306.877 8  85547752.69047                  20891637.080
  20891632.880          49.800          46.850
 111241465.597 8  86681718.73847                  21168516.680
  21168511.160          48.600          46.800
 123230888.172 7  96024240.195 7  92023223.757 8  23449977.440    23449976.640
  23449975.860          47.300          44.050
 132197741.599 7 103011235.362 6                  25156389.560    25156385.800
  25156384.860          43.700          38.300
 120750214.858 8  94091076.10546                  22978000.700
  22977995.580          48.300          40.800
 130655464.401 7 101809444.31645                  24862901.500
  24862896.980          42.900          34.050
 134206651.939 6 104576586.01145                  25538678.480
  25538671.380          40.400          35.700
 127203944.052 7  99119962.544 7  94989957.757 8  24206103.660    24206103.100
  24206102.640          44.650          43.650
 116688346.288 8  90926122.975 7                  22204992.080    22204987.940
  22204987.200          49.450          45.350
 108000976.442 7  84000773.466 6                  20210909.040    20210912.480
  20210910.600          47.050          41.900
 131019259.303 7 101903885.593 6                  24509861.560    24509864.440
  24509864.440          43.800          37.600
 106842536.283 8  83099800.689 7                  19966062.280    19966063.960
  19966062.960          48.750          46.950
 103974663.108 8  80869218.288 7                  19505376.100    19505382.720
  19505381.500          49.300          42.250
 128262591.147 7  99759807.236 6                  23952133.420    23952135.900
  23952134.780          42.650          37.700
 125704987.007 7  97770571.559 6                  23548775.100    23548778.960
  23548777.880          43.450          40.900
 126778908.869 7  98605940.672 6                  23699931.080    23699932.380
  23699930.560          46.550          39.250
 123195176.621 7  95818459.757 5                  23070484.360    23070488.500
  23070486.160          43.650          31.050
 106760652.970 7  83036213.929 7                  19964733.260    19964737.120
  19964735.060          44.050          46.650
 130624445.414 8                  97544360.797 8  24856953.640
                        50.300


 122057928.246 8                  91147262.992 8  23226796.960
                        50.300
 15  1 27  1  8  5.0000000  0 22G31G08G21G25G05G16G18G23G27G29R11R05
                                R21R10R04R22R19R09R20E12E18E11
 111812346.000 8  87126513.673 7                  21277176.640    21277172.200
  21277171.340          50.200          47.900
 109781719.704 8  85544178.27047                  20890764.160
  20890759.980          49.800          46.900
 111237727.281 8  86678805.76647                  21167805.320
  21167799.800          48.400          46.900
 123245118.448 7  96035328.724 7  92033850.264 8  23452685.380    23452684.580
  23452683.760          47.050          43.650
 132201090.502 7 103013844.901 6                  25157026.820    25157023.080
  25157022.120          43.200          38.850
 120736237.867 8  94080184.93546                  22975341.040
  22975335.840          48.400          40.400
 130642725.089 7 101799517.56945                  24860477.300
  24860472.700          42.850          32.550
 134208954.922 6 104578380.50845                  25539116.620
  25539109.500          40.250          32.100
 127189962.722 7  99109067.998 7  94979517.138 8  24203443.100    24203442.560
  24203442.100          44.850          43.500
 116700900.589 8  90935905.534 7                  22207381.060    22207376.960
  22207376.180          49.600          45.200
 107989203.445 7  83991616.686 6                  20208705.860    20208709.300
  20208707.480          46.550          41.950
 131003470.985 7 101891605.790 6                  24506908.060    24506910.940
  24506910.960          43.600          37.750
 106836037.799 8  83094746.306 7                  19964847.920    19964849.540
  19964848.560          49.050          47.250
 103984170.881 8  80876613.219 7                  19507159.740    19507166.380
  19507165.140          49.000          42.300
 128256018.280 7  99754694.991 6                  23950905.960    23950908.460
  23950907.340          43.900          38.500
 125687930.818 7  97757305.667 6                  23545579.920    23545583.860
  23545582.680          43.000          40.900
 126797317.488 7  98620258.497 6                  23703372.440    23703373.720
  23703371.840          45.700          39.200
 123216615.685 7  95835134.585 5                  23074499.260    23074503.460
  23074501.000          43.150          31.300
 106770733.433 7  83044054.290 7                  19966618.360    19966622.220
  19966620.120          44.050          46.650
 130634122.325 8                  97551587.070 8  24858795.060
                        50.250


 122057385.319 8                  91146857.566 8  23226693.620
                        50.150
 15  1 27  1  8 10.0000000  0 22G31G08G21G25G05G16G18G23G27G29R11R05
                                R21R10R04R22R19R09R20E12E18E11
 111821966.772 8  87134010.378 7                  21279007.420    21279002.960
  21279002.140          50.300          47.950
 109777150.960 8  85540618.21447                  20889894.740
  20889890.600          49.800          46.950
 111234003.103 8  86675903.81347                  21167096.620
  21167091.080          48.600          46.600
 123259355.375 7  96046422.435 7  92044481.731 8  23455394.580    23455393.760
  23455392.940          46.900          43.700
 132204454.830 7 103016466.475 6                  25157666.980    25157663.260
  25157662.280          43.300          39.450
 120722264.641 8  94069296.71546                  22972682.080
  22972676.800          48.300          40.950
 130629984.951 7 101789590.19145                  24858052.920
  24858048.300          42.950          33.100
 134211271.641 6 104580185.77745                  25539557.420
  25539550.400          41.650          33.600
 127175986.115 7  99098177.141 7  94969080.071 8  24200783.420    24200782.880
  24200782.440          44.850          43.250
 116713459.002 8  90945691.321 7                  22209770.820    22209766.740
  22209765.940          49.550          45.450
 107977448.445 7  83982473.924 7                  20206506.020    20206509.480
  20206507.700          46.400          42.000
 130987688.116 7 101879330.206 6                  24503955.520    24503958.380
  24503958.500          42.100          37.750
 106829554.061 8  83089703.399 7                  19963636.300    19963637.920
  19963636.920          48.950          47.250
 103993700.077 8  80884024.820 7                  19508947.400    19508954.020
  19508952.780          48.750          42.300
 128249463.647 7  99749596.946 6                  23949681.900    23949684.360
  23949683.320          43.050          38.400
 125670882.150 7  97744045.632 6                  23542386.080    23542390.040
  23542388.900          43.650          40.500
 126815725.518 7  98634575.837 6                  23706813.640    23706814.900
  23706813.060          45.400          39.300
 123238061.336 7  95851814.502 5                  23078515.280    23078519.720
  23078517.100          42.650          31.650
 106780824.897 7  83051903.206 7                  19968505.520    19968509.380
  19968507.260          43.850          46.600
 130643803.685 8                  97558816.649 8  24860637.340
                        50.400


 122056850.858 8                  91146458.450 8  23226591.880
                        50.100
 15  1 27  1  8 15.0000000  0 22G31G08G21G25G05G16G18G23G27G29R11R05
                                R21R10R04R22R19R09R20E12E18E11
 111831601.009 8  87141517.572 7                  21280840.800    21280836.300
  21280835.480          50.200          47.800
 109772599.857 8  85537071.89647                  20889028.660
  20889024.560          49.700          46.800
 111230292.212 8  86673012.21447                  21166390.440
  21166384.920          48.350          46.650
 123273598.160 7  96057520.707 7  92055117.564 8  23458104.900    23458104.040
  23458103.260          46.850          43.900
 132207833.826 7 103019099.497 6                  25158309.940    25158306.260
  25158305.320          43.050          38.250
 120708294.373 8  94058410.78846                  22970023.660
  22970018.340          48.250          40.650
 130617243.217 7 101779661.56945                  24855628.220
  24855623.640          43.650          31.200
 134213601.240 6 104582001.00845                  25540000.720
  25539993.980          40.950          31.700
 127162013.522 7  99087289.408 7  94958646.002 8  24198124.520    24198124.000
  24198123.540          44.900          43.050
 116726020.726 8  90955479.662 7                  22212161.240    22212157.160
  22212156.340          49.600          45.200
 107965710.702 7  83973344.571 6                  20204309.400    20204313.000
  20204311.160          46.650          41.800
 130971909.898 7 101867058.282 6                  24501003.880    24501006.840
  24501006.920          42.950          37.150
 106823084.198 8  83084671.283 7                  19962427.260    19962428.880
  19962427.880          48.800          47.250
 104003249.839 8  80891452.406 7                  19510738.880    19510745.560
  19510744.280          49.050          42.200
 128242926.530 6  99744512.502 6                  23948461.140    23948463.540
  23948462.580          41.800          38.700
 125653840.155 7  97730790.730 6                  23539193.520    23539197.540
  23539196.360          44.250          40.500
 126834132.178 7  98648892.118 6                  23710254.620    23710255.900
  23710254.080          45.300          38.850
 123259512.763 7  95868498.906 5                  23082532.420    23082536.820
  23082534.340          43.600          30.900
 106790926.536 7  83059760.026 7                  19970394.600    19970398.460
  19970396.300          43.850          46.450
 130653488.702 8                  97566048.951 8  24862480.340
                        50.550


 122056324.080 8                  91146065.067 8  23226491.620
                        50.000
 15  1 27  1  8 20.0000000  0 22G31G08G21G25G05G16G18G23G27G29R11R05
                                R21R10R04R22R19R09R20E12E18E11
 111841247.641 8  87149034.424 7                  21282676.500    21282672.000
  21282671.200          49.950          47.800
 109768065.303 8  85533538.47947                  20888165.760
  20888161.660          49.650          46.750
 111226593.547 8  86670130.13847                  21165686.600
  21165681.100          48.250          46.650
 123287845.697 7  96068622.678 7  92065756.968 8  23460816.120    23460815.280
  23460814.540          46.900          43.800
 132211226.390 7 103021743.056 6                  25158955.480    25158951.860
  25158950.840          43.000          38.850
 120694325.956 8  94047526.30546                  22967365.580
  22967360.220          48.250          39.450
 130604498.807 7 101769730.85845                  24853203.040
  24853198.580          43.150          33.800
 134215942.687 6 104583825.51645                  25540446.240
  25540439.500          41.400          31.000
 127148043.869 7  99076403.962 7  94948214.111 8  24195466.200    24195465.680
  24195465.280          45.600          43.050
 116738584.648 8  90965269.732 7                  22214552.060    22214548.000
  22214547.180          49.150          45.100
 107953989.180 7  83964227.834 6                  20202115.820    20202119.480
  20202117.640          46.650          41.650
 130956135.310 7 101854789.137 6                  24498052.880    24498056.000
  24498055.980          42.050          37.300
 106816627.162 8  83079649.146 7                  19961220.620    19961222.240
  19961221.260          48.800          47.150
 104012819.126 8  80898895.177 7                  19512534.080    19512540.760
  19512539.460          49.100          42.100
 128236405.807 6  99739440.856 6                  23947243.400    23947245.840
  23947244.980          41.550          38.250
 125636803.684 7  97717540.110 6                  23536002.020    23536005.980
  23536004.800          44.200          40.950
 126852536.469 7  98663206.566 6                  23713695.100    23713696.360
  23713694.600          45.600          38.750
 123280968.797 7  95885186.958 5                  23086550.500    23086554.940
  23086552.360          43.650          30.650
 106801037.397 7  83067624.037 7                  19972285.420    19972289.280
  19972287.080          43.850          46.550
 130663176.263 8                  97573283.177 8  24864323.840
                        50.550


 122055803.882 8                  91145676.615 8  23226392.600
                        49.950
 15  1 27  1  8 25.0000000  0 23G31G08G21G25G05G16G18G23G27G29R11R05
                                R21R10R04R22R12R19R09R20E12E18E11
 111850907.600 8  87156561.661 7                  21284514.740    21284510.240
  21284509.420          49.950          47.700
 109763548.251 8  85530018.70247                  20887306.180
  20887302.100          49.800          46.350
 111222908.054 8  86667258.32347                  21164985.280
  21164979.760          48.250          46.800
 123302098.945 7  96079729.103 7  92076400.609 8  23463528.420    23463527.560
  23463526.900          46.950          43.650
 132214633.498 7 103024397.939 6                  25159603.780    25159600.260
  25159599.160          43.750          38.800
 120680360.386 8  94036644.04946                  22964708.040
  22964702.640          48.150          40.250
 130591752.742 7 101759798.87845                  24850777.520
  24850773.060          42.650          32.150
 134218296.943 6 104585660.00145                  25540894.240
  25540887.540          41.900          32.800
 127134078.061 7  99065521.498 7  94937785.070 8  24192808.640    24192808.060
  24192807.620          44.750          42.850
 116751151.729 8  90975062.255 7                  22216943.500    22216939.420
  22216938.620          49.300          44.800
 107942284.804 7  83955124.432 6                  20199925.440    20199929.100
  20199927.300          47.050          41.600
 130940365.439 7 101842523.686 6                  24495102.700    24495105.900
  24495106.020          42.300          36.850
 106810183.855 8  83074637.689 7                  19960016.540    19960018.200
  19960017.200          48.900          47.200
 104022408.774 8  80906353.796 7                  19514333.060    19514339.740
  19514338.460          49.000          42.250
 128229902.443 6  99734382.711 6                  23946028.900    23946031.340
  23946030.600          41.050          38.250
 125619773.846 7  97704294.714 6                  23532811.740    23532815.680
  23532814.500          45.350          41.450
 131663532.143 6 102404987.85414                  24647690.200    24647697.060
                        37.750          29.750
 126870939.153 7  98677519.787 6                  23717135.340    23717136.560
  23717134.840          45.250          39.150
 123302430.399 7  95901879.314 5                  23090569.600    23090573.800
  23090571.340          43.650          31.050
 106811158.146 7  83075495.731 7                  19974178.080    19974181.900
  19974179.720          43.900          46.700
 130672867.320 8                  97580519.998 8  24866168.000
                        50.700


 122055291.208 8                  91145293.767 8  23226295.040
                        50.000
 15  1 27  1  8 30.0000000  0 23G31G08G21G25G05G16G18G23G27G29R11R05
                                R21R10R04R22R12R19R09R20E12E18E11
 111860580.052 8  87164098.635 7                  21286355.360    21286350.860
  21286350.020          49.950          47.500
 109759047.938 8  85526511.95747                  20886449.780
  20886445.740          49.650          46.650
 111219234.992 8  86664396.19547                  21164286.300
  21164280.780          48.100          46.550
 123316357.099 7  96090839.351 7  92087047.938 8  23466241.660    23466240.760
  23466240.140          46.850          43.550
 132218054.342 7 103027063.552 6                  25160254.720    25160251.220
  25160250.200          44.050          38.400
 120666396.911 7  94025763.41746                  22962050.900
  22962045.500          47.950          40.150
 130579004.268 7 101749865.00045                  24848351.540
  24848347.060          43.250          34.850
 134220663.196 6 104587503.84145                  25541344.500
  25541337.680          40.500          31.850
 127120115.318 7  99054641.443 7  94927358.367 8  24190151.680    24190151.020
  24190150.600          45.050          42.850
 116763721.193 8  90984856.640 7                  22219335.380    22219331.320
  22219330.520          48.900          44.800
 107930596.701 7  83946033.686 6                  20197738.100    20197741.800
  20197739.980          47.000          41.500
 130924599.283 7 101830261.126 6                  24492153.240    24492156.320
  24492156.600          42.550          37.000
 106803753.519 8  83069636.316 7                  19958814.900    19958816.540
  19958815.540          49.000          47.250
 104032018.081 8  80913827.691 7                  19516135.780    19516142.440
  19516141.120          48.800          42.100
 128223415.560 7  99729337.349 6                  23944817.520    23944819.980
  23944819.220          42.600          38.300
 125602749.755 7  97691053.779 6                  23529622.580    23529626.480
  23529625.360          45.700          41.250
 131641651.635 6 102387969.669 5                  24643594.060    24643598.300
                        36.900          31.300
 126889339.592 7  98691831.215 6                  23720575.080    23720576.300
  23720574.640          45.750          39.000
 123323896.761 7  95918575.363 5                  23094589.640    23094593.760
  23094591.340          43.700          30.900
 106821288.161 7  83083374.630 7                  19976072.420    19976076.260
  19976074.100          44.050          46.700
 130682561.045 8                  97587758.828 8  24868012.660
                        50.600


 122054785.259 8                  91144915.951 8  23226198.740
                        50.000
 15  1 27  1  8 35.0000000  0 23G31G08G21G25G05G16G18G23G27G29R11R05
                                R21R10R04R22R12R19R09R20E12E18E11
 111870266.546 8  87171646.546 7                  21288198.640    21288194.120
  21288193.280          50.150          47.750
 109754565.871 8  85523019.43747                  20885596.880
  20885592.840          49.600          46.850
 111215575.864 8  86661544.92447                  21163590.000
  21163584.500          48.300          46.600
 123330621.719 7  96101954.639 7  92097700.076 8  23468956.140    23468955.260
  23468954.620          46.750          43.700
 132221490.449 7 103029741.040 6                  25160908.540    25160905.140
  25160904.120          44.050          38.600
 120652437.027 8  94014885.60046                  22959394.400
  22959389.040          48.000          40.600
 130566254.858 7 101739930.40745                  24845925.380
  24845921.000          42.950          33.000
 134223042.931 6 104589358.14145                  25541797.340
  25541790.460          40.600          35.100
 127106157.167 7  99043764.965 7  94916935.087 8  24187495.580    24187494.880
  24187494.500          45.900          43.050
 116776294.533 8  90994654.038 7                  22221728.000    22221723.940
  22221723.180          49.100          44.800
 107918926.538 7  83936956.894 6                  20195554.160    20195557.860
  20195556.000          46.900          41.100
 130908838.606 6 101818002.806 6                  24489204.880    24489208.000
  24489208.260          40.150          37.550
 106797337.676 8  83064646.221 7                  19957615.940    19957617.620
  19957616.600          49.050          47.250
 104041648.667 8  80921318.139 7                  19517942.420    19517949.100
  19517947.780          49.000          42.000
 128216946.957 7  99724306.224 6                  23943609.560    23943612.040
  23943611.340          43.250          37.800
 125585733.014 7  97677818.544 6                  23526434.820    23526438.720
  23526437.620          44.850          41.550
 131619772.577 5 102370952.634 5                  24639498.280    24639501.120
                        35.150          30.600
 126907739.336 7  98706142.104 6                  23724014.760    23724015.880
  23724014.380          45.650          39.100
 123345369.478 7  95935276.365 5                  23098610.760    23098614.940
  23098612.460          43.300          30.900
 106831429.046 7  83091261.984 7                  19977968.840    19977972.660
  19977970.540          44.150          46.700
 130692259.029 8                  97595000.833 8  24869858.140
                        50.650


 122054287.578 8                  91144544.316 8  23226104.040
                        50.100
 15  1 27  1  8 40.0000000  0 22G31G08G21G25G05G16G18G23G27G29R11R05
                                R21R10R04R22R19R09R20E12E18E11
 111879965.445 8  87179204.127 7                  21290044.280    21290039.760
  21290038.920          50.200          47.400
 109750100.441 8  85519539.88647                  20884747.120
  20884743.080          49.650          46.750
 111211929.019 8  86658703.23547                  21162896.040
  21162890.520          48.500          46.300
 123344891.130 7  96113073.658 7  92108355.814 8  23471671.540    23471670.660
  23471670.020          46.750          43.650
 132224940.146 7 103032429.116 6                  25161564.980    25161561.580
  25161560.600          44.350          39.200
 120638479.109 7  94004009.30446                  22956738.240
  22956732.980          47.650          39.800
 130553502.908 7 101729993.83945                  24843498.720
  24843494.380          43.150          34.500
 134225434.571 6 104591221.78345                  25542252.400
  25542245.560          41.550          30.450
 127092202.026 7  99032890.833 7  94906514.025 8  24184840.020    24184839.300
  24184838.880          46.300          43.000
 116788870.104 8  91004453.187 7                  22224121.060    22224117.020
  22224116.260          49.000          44.750
 107907272.646 7  83927892.760 6                  20193373.280    20193376.980
  20193375.100          46.900          41.250
 130893081.642 6 101805747.383 6                  24486257.240    24486260.360
  24486260.540          40.700          37.200
 106790934.680 8  83059666.121 7                  19956419.420    19956421.120
  19956420.080          49.050          47.250
 104051298.758 8  80928823.774 6                  19519752.740    19519759.400
  19519758.060          49.150          41.850
 128210494.759 7  99719287.877 6                  23942404.660    23942407.140
  23942406.500          42.800          37.750
 125568721.870 7  97664587.684 7                  23523248.100    23523252.020
  23523250.960          45.550          42.100
 126926136.624 7  98720451.121 6                  23727453.900    23727455.040
  23727453.580          45.250          38.650
 123366846.776 7  95951980.928 5                  23102632.740    23102637.020
  23102634.460          43.600          31.100
 106841578.975 7  83099156.370 7                  19979866.940    19979870.760
  19979868.640          44.550          46.400
 130701959.596 8                  97602244.767 8  24871704.120
                        50.550


 122053796.532 8                  91144177.620 8  23226010.580
                        50.050
 15  1 27  1  8 45.0000000  0 22G31G08G21G25G05G16G18G23G27G29R11R05
                                R21R10R04R22R19R09R20E12E18E11
 111889678.408 8  87186772.672 7                  21291892.580    21291888.060
  21291887.220          50.150          47.600
 109745653.341 8  85516074.61947                  20883900.860
  20883896.840          49.800          46.700
 111208296.155 8  86655872.43647                  21162204.720
  21162199.220          48.750          46.150
 123359167.027 7  96124197.734 7  92119016.385 8  23474388.140    23474387.240
  23474386.640          46.800          43.650
 132228405.141 7 103035129.099 6                  25162224.300    25162220.920
  25162220.020          44.300          39.550
 120624524.833 7  93993135.85346                  22954082.780
  22954077.600          47.650          40.650
 130540750.145 7 101720056.62746                  24841071.920
  24841067.660          42.300          36.300
 134227839.730 6 104593095.94145                  25542710.020
  25542703.320          41.750          34.850
 127078251.512 7  99022020.307 7  94896096.443 8  24182185.340    24182184.560
  24182184.140          46.200          43.100
 116801449.563 8  91014255.361 7                  22226514.840    22226510.820
  22226510.080          49.250          44.750
 107895636.634 7  83918842.530 6                  20191195.720    20191199.420
  20191197.560          46.800          41.350
 130877330.155 6 101793496.180 6                  24483310.560    24483313.720
  24483313.900          39.850          37.350
 106784546.201 8  83054697.318 7                  19955225.560    19955227.280
  19955226.280          49.050          47.250
 104060970.014 8  80936345.872 6                  19521567.060    19521573.740
  19521572.340          49.050          41.800
 128204060.746 7  99714283.618 6                  23941203.160    23941205.620
  23941204.980          42.950          38.750
 125551718.151 7  97651362.573 7                  23520062.780    23520066.640
  23520065.660          46.050          42.950
 126944533.084 7  98734759.497 6                  23730892.900    23730894.120
  23730892.640          45.350          39.450
 123388330.397 7  95968690.397 5                  23106655.960    23106660.220
  23106657.760          44.050          31.350
 106851739.741 7  83107059.198 7                  19981767.080    19981770.880
  19981768.760          44.500          46.550
 130711664.428 8                  97609491.873 8  24873550.880
                        50.450


 122053313.780 8                  91143817.130 8  23225918.720
                        50.050
 15  1 27  1  8 50.0000000  0 22G31G08G21G25G05G16G18G23G27G29R11R05
                                R21R10R04R22R19R09R20E12E18E11
 111899404.031 8  87194351.077 7                  21293743.300    21293738.780
  21293737.920          50.050          47.600
 109741223.189 8  85512622.54247                  20883057.820
  20883053.780          49.750          46.750
 111204675.851 8  86653051.42347                  21161515.820
  21161510.300          48.500          46.350
 123373447.986 7  96135325.750 7  92129680.735 8  23477105.720    23477104.800
  23477104.240          46.650          43.850
 132231883.972 7 103037839.880 6                  25162886.220    25162882.920
  25162882.060          43.800          39.050
 120610572.824 7  93982264.16846                  22951427.760
  22951422.640          47.800          40.350
 130527995.089 6 101710117.63345                  24838644.680
  24838640.340          41.850          33.300
 134230256.996 6 104594979.50145                  25543170.000
  25543163.480          41.700          31.600
 127064304.259 7  99011152.306 7  94885681.297 8  24179531.280    24179530.480
  24179530.060          45.700          43.350
 116814031.516 8  91024059.485 7                  22228909.100    22228905.080
  22228904.380          49.300          44.850
 107884017.214 7  83909805.210 6                  20189021.260    20189025.020
  20189023.140          46.900          41.400
 130861582.837 6 101781248.289 6                  24480364.700    24480367.820
  24480367.980          41.300          37.600
 106778170.856 8  83049738.715 7                  19954034.180    19954035.920
  19954034.920          48.750          47.200
 104070661.071 8  80943883.350 6                  19523385.100    19523391.740
  19523390.320          48.950          41.750
 128197643.489 7  99709292.441 6                  23940004.760    23940007.240
  23940006.620          43.750          38.150
 125534720.411 7  97638142.103 7                  23516878.580    23516882.360
  23516881.440          46.050          42.150
 126962927.543 7  98749066.284 6                  23734331.520    23734332.820
  23734331.340          45.400          38.850
 123409818.930 7  95985403.694 5                  23110680.160    23110684.460
  23110681.960          44.050          31.050
 106861909.764 7  83114969.209 7                  19983668.940    19983672.720
  19983670.620          44.250          46.550
 130721372.120 8                  97616741.124 8  24875398.180
                        50.400


 122052837.916 8                  91143461.784 8  23225828.140
                        50.050
 15  1 27  1  8 55.0000000  0 22G31G08G21G25G05G16G18G23G27G29R11R05
                                R21R10R04R22R19R09R20E12E18E11
 111909142.271 8  87201939.316 7                  21295596.400    21295591.900
  21295591.040          50.050          47.750
 109736809.910 8  85509183.62447                  20882218.000
  20882213.960          49.850          46.700
 111201068.075 8  86650240.17147                  21160829.300
  21160823.760          48.350          46.350
 123387733.999 7  96146457.696 7  92140348.860 8  23479824.280    23479823.340
  23479822.760          46.750          43.850
 132235376.691 7 103040561.486 6                  25163550.840    25163547.520
  25163546.760          43.550          39.050
 120596623.070 8  93971394.23546                  22948773.180
  22948768.140          48.000          40.250
 130515237.784 7 101700176.86745                  24836216.960
  24836212.740          42.200          32.950
 134232686.399 7 104596872.54245                  25543632.280
  25543625.840          42.000          30.300
 127050360.230 7  99000286.837 7  94875268.561 8  24176877.800    24176877.040
  24176876.580          45.750          43.300
 116826615.962 8  91033865.540 7                  22231303.820    22231299.840
  22231299.160          49.200          45.100
 107872414.504 7  83900780.874 6                  20186849.980    20186853.760
  20186851.860          47.000          41.400
 130845839.504 6 101769003.498 6                  24477419.620    24477422.820
  24477422.840          41.350          38.550
 106771808.606 8  83044790.290 7                  19952845.220    19952846.980
  19952845.980          48.800          47.000
 104080371.791 8  80951436.122 6                  19525206.820    19525213.380
  19525212.000          48.900          41.800
 128191243.055 7  99704314.315 6                  23938809.520    23938811.980
  23938811.280          44.350          37.000
 125517728.607 7  97624926.257 6                  23513695.500    23513699.260
  23513698.320          44.650          41.100
 126981319.699 7  98763371.304 6                  23737769.720    23737771.000
  23737769.560          45.250          38.100
 123431312.291 7  96002120.780 5                  23114705.340    23114709.360
  23114707.020          43.350          30.800
 106872089.160 7  83122886.520 7                  19985572.560    19985576.360
  19985574.200          43.850          46.550
 130731082.609 8                  97623992.473 8  24877246.020
                        50.450


 122052368.915 8                  91143111.560 8  23225738.880
                        49.950
 15  1 27  1  9  0.0000000  0 23G31G08G21G25G05G16G18G23G27G29R11R05
                                R21R10R04R22R12R19R09R20E12E18E11
 111918893.155 8  87209537.404 7                  21297451.900    21297447.420
  21297446.540          49.950          47.600
 109732413.608 8  85505757.92747                  20881381.420
  20881377.380          49.950          46.450
 111197472.937 8  86647438.75947                  21160145.180
  21160139.620          48.100          46.850
 123402025.139 7  96157593.645 7  92151020.808 8  23482543.800    23482542.860
  23482542.320          46.750          43.800
 132238883.337 7 103043293.932 6                  25164218.080    25164214.780
  25164214.100          42.900          38.950
 120582675.591 8  93960526.06846                  22946119.020
  22946114.020          48.050          40.400
 130502478.324 7 101690234.42445                  24833788.940
  24833784.680          43.200          31.400
 134235127.925 7 104598775.04645                  25544096.840
  25544090.500          42.450          33.000
 127036419.533 7  98989423.960 7  94864858.296 8  24174224.940    24174224.200
  24174223.680          46.400          43.300
 116839202.954 8  91043673.580 7                  22233699.060    22233695.080
  22233694.420          49.100          45.000
 107860828.428 7  83891769.478 6                  20184681.800    20184685.620
  20184683.660          47.050          41.200
 130830100.404 6 101756761.953 6                  24474475.420    24474478.480
  24474478.480          39.300          38.750
 106765459.480 8  83039852.079 7                  19951658.740    19951660.500
  19951659.520          48.900          47.100
 104090102.358 8  80959004.341 6                  19527032.280    19527038.860
  19527037.400          49.050          41.900
 128184859.435 7  99699349.250 6                  23937617.460    23937619.800
  23937619.040          44.150          37.200
 125500742.638 7  97611714.978 6                  23510513.460    23510517.220
  23510516.260          45.550          40.250
 131510392.92116                                  24619021.440    24619021.040
                        38.000          31.350
 126999709.752 7  98777674.673 6                  23741207.500    23741208.780
  23741207.300          45.350          38.150
 123452810.661 7  96018841.715 5                  23118731.280    23118735.320
  23118732.920          42.450          31.000
 106882277.902 7  83130811.088 7                  19987477.880    19987481.720
  19987479.540          44.050          46.750
 130740795.977 8                  97631245.952 8  24879094.420
                        50.550


 122051906.847 8                  91142766.502 8  23225650.960
                        50.100
 15  1 27  1  9  5.0000000  0 23G31G08G21G25G05G16G18G23G27G29R11R05
                                R21R10R04R22R12R19R09R20E12E18E11
 111928658.346 8  87217146.647 7                  21299310.120    21299305.700
  21299304.760          50.100          47.600
 109728035.914 8  85502346.74147                  20880548.380
  20880544.340          49.950          46.550
 111193892.084 8  86644648.49147                  21159463.760
  21159458.200          48.350          46.300
 123416323.000 7  96168734.840 7  92161697.780 8  23485264.620    23485263.660
  23485263.100          46.750          43.650
 132242405.525 7 103046038.497 6                  25164888.200    25164885.100
  25164884.460          42.800          39.600
 120568732.095 8  93949661.01646                  22943465.660
  22943460.660          48.000          40.600
 130489718.301 7 101680291.56645                  24831360.760
  24831356.620          43.250          34.050
 134237583.259 7 104600688.31845                  25544564.180
  25544557.820          42.550          34.200
 127022483.764 7  98978564.909 7  94854451.687 8  24171573.040    24171572.300
  24171571.780          45.300          43.350
 116851794.114 8  91053484.871 7                  22236095.060    22236091.080
  22236090.460          49.250          45.000
 107849260.704 7  83882772.365 6                  20182517.060    20182520.880
  20182518.920          47.250          41.600
 130814367.143 6 101744524.988 6                  24471532.180    24471535.320
  24471535.220          39.550          39.850
 106759125.158 8  83034925.392 7                  19950475.040    19950476.800
  19950475.800          48.900          47.200
 104099854.449 8  80966589.311 7                  19528861.740    19528868.300
  19528866.880          48.950          42.000
 128178494.396 7  99694398.662 6                  23936428.860    23936431.240
  23936430.300          43.450          37.550
 125483764.510 7  97598509.751 6                  23507332.900    23507336.660
  23507335.680          46.000          41.100
 131488518.030 6 102268849.513 5                  24614926.640    24614929.720
                        39.150          32.100
 127018099.325 7  98791977.695 6                  23744645.220    23744646.500
  23744645.020          44.800          38.000
 123474315.524 7  96035567.708 5                  23122758.340    23122762.500
  23122760.060          43.250          31.550
 106892477.736 7  83138744.301 7                  19989385.300    19989389.180
  19989386.980          44.200          46.850
 130750513.875 8                  97638502.818 8  24880943.660
                        50.550


 122051453.340 8                  91142427.838 8  23225564.660
                        50.150
 15  1 27  1  9 10.0000000  0 23G31G08G21G25G05G16G18G23G27G29R11R05
                                R21R10R04R22R12R19R09R20E12E18E11
 111938435.224 8  87224764.994 7                  21301170.580    21301166.140
  21301165.220          50.200          47.700
 109723674.232 8  85498948.03047                  20879718.400
  20879714.320          50.050          46.600
 111190322.859 8  86641867.27047                  21158784.580
  21158779.000          48.600          46.150
 123430624.992 7  96179879.243 7  92172377.837 8  23487986.200    23487985.240
  23487984.680          46.750          43.800
 132245940.658 7 103048793.161 6                  25165560.840    25165557.880
  25165557.240          42.750          39.350
 120554789.989 8  93938797.04246                  22940812.600
  22940807.520          48.300          39.900
 130476955.155 7 101670346.28045                  24828932.000
  24828927.840          44.050          31.950
 134240049.823 7 104602610.30245                  25545033.600
  25545027.080          42.200          31.650
 127008550.285 7  98967707.647 7  94844046.835 8  24168921.580    24168920.860
  24168920.360          44.400          43.450
 116864386.842 8  91063297.383 7                  22238491.380    22238487.420
  22238486.800          49.300          45.250
 107837708.628 7  83873787.421 6                  20180355.240    20180359.100
  20180357.120          47.300          41.800
 130798636.992 6 101732290.416 6                  24468589.600    24468592.760
  24468592.520          39.350          39.650
 106752803.001 8  83030008.168 7                  19949293.580    19949295.360
  19949294.360          49.050          47.300
 104109625.346 8  80974188.896 7                  19530694.740    19530701.320
  19530699.880          48.750          42.100
 128172145.209 7  99689460.414 6                  23935243.240    23935245.540
  23935244.500          42.000          36.850
 125466791.255 7  97585308.346 6                  23504153.180    23504156.980
  23504156.000          45.800          41.400
 131466642.215 6 102251834.973 5                  24610830.800    24610833.700
                        36.050          30.450
 127036485.666 7  98806278.189 6                  23748082.340    23748083.660
  23748082.080          44.200          38.150
 123495824.181 7  96052296.661 5                  23126786.300    23126790.300
  23126788.020          44.350          32.200
 106902685.860 7  83146683.946 7                  19991294.280    19991298.140
  19991295.960          44.900          46.950
 130760233.667 8                  97645761.097 8  24882793.240
                        50.450


 122051005.761 8                  91142093.609 8  23225479.500
                        50.150
 15  1 27  1  9 15.0000000  0 23G31G08G21G25G05G16G18G23G27G29R11R05
                                R21R10R04R22R12R19R09R20E12E18E11
 111948225.946 8  87232394.126 7                  21303033.660    21303029.260
  21303028.320          50.150          47.700
 109719330.774 8  85495563.50747                  20878891.880
  20878887.800          50.150          46.750
 111186767.510 8  86639096.86847                  21158108.040
  21158102.440          48.750          46.350
 123444933.308 7  96191028.582 7  92183062.620 8  23490709.000    23490708.040
  23490707.460          46.850          43.800
 132249490.947 7 103051559.612 6                  25166236.360    25166233.500
  25166232.820          42.650          39.600
 120540851.410 8  93927935.81946                  22938160.200
  22938155.100          48.350          40.450
 130464191.058 7 101660400.25045                  24826503.100
  24826499.000          44.100          33.250
 134242529.740 7 104604542.68245                  25545505.520
  25545498.920          42.000          33.550
 126994621.351 7  98956853.954 7  94833645.371 8  24166270.980    24166270.320
  24166269.760          44.300          43.150
 116876983.330 8  91073112.820 7                  22240888.400    22240884.460
  22240883.800          49.300          45.300
 107826174.533 7  83864816.448 6                  20178196.800    20178200.660
  20178198.720          47.250          41.950
 130782912.366 6 101720060.145 6                  24465648.020    24465651.180
  24465650.860          41.300          40.000
 106746495.269 8  83025102.158 7                  19948114.840    19948116.620
  19948115.600          48.900          47.150
 104119417.268 8  80981804.828 7                  19532531.700    19532538.280
  19532536.840          48.950          42.100
 128165814.073 7  99684536.238 6                  23934060.960    23934063.200
  23934062.120          43.150          37.850
 125449825.303 7  97572112.649 6                  23500974.900    23500978.680
  23500977.660          45.400          40.100
 131444768.007 5 102234821.715 4                  24606735.380    24606738.840
                        35.300          29.700
 127054871.154 7  98820577.998 6                  23751519.300    23751520.680
  23751519.020          43.950          38.850
 123517339.003 7  96069030.403 5                  23130815.420    23130819.320
  23130817.160          44.300          32.600
 106912904.571 7  83154631.827 7                  19993205.220    19993209.120
  19993206.920          45.350          46.900
 130769957.553 8                  97653022.444 8  24884643.620
                        50.550


 122050566.330 8                  91141765.470 8  23225395.900
                        50.150
 15  1 27  1  9 20.0000000  0 23G31G08G21G25G05G16G18G23G27G29R11R05
                                R21R10R04R22R12R19R09R20E12E18E11
 111958029.685 8  87240033.405 7                  21304899.220    21304894.840
  21304893.900          50.100          47.850
 109715004.674 8  85492192.52847                  20878068.680
  20878064.560          50.050          47.000
 111183225.106 8  86636336.56647                  21157433.940
  21157428.340          48.550          46.350
 123459247.081 7  96202182.178 7  92193751.483 8  23493432.840    23493431.860
  23493431.300          46.700          43.900
 132253055.482 7 103054337.188 6                  25166914.640    25166911.860
  25166911.200          43.500          39.950
 120526915.521 8  93917076.68946                  22935508.320
  22935503.160          48.450          40.200
 130451425.218 7 101650452.85545                  24824073.880
  24824069.720          44.250          32.300
 134245022.112 7 104606484.79545                  25545979.840
  25545973.180          42.000          34.000
 126980696.072 7  98946003.100 7  94823246.619 8  24163621.060    24163620.400
  24163619.860          44.800          43.100
 116889582.693 8  91082930.507 7                  22243285.940    22243282.040
  22243281.360          49.200          45.150
 107814657.507 7  83855858.773 7                  20176041.540    20176045.440
  20176043.500          47.100          42.050
 130767192.219 6 101707833.406 6                  24462707.260    24462710.360
  24462710.040          39.900          39.050
 106740200.996 8  83020206.610 7                  19946938.600    19946940.360
  19946939.340          48.800          47.150
 104129229.288 8  80989436.393 6                  19534372.420    19534379.020
  19534377.560          49.100          41.900
 128159500.260 7  99679625.516 6                  23932881.920    23932884.080
  23932883.040          42.700          38.250
 125432865.818 7  97558921.926 6                  23497797.820    23497801.500
  23497800.520          44.550          38.800
 131422894.654 6 102217809.079 5                  24602640.360    24602644.460
                        38.250          32.650
 127073254.818 7  98834876.387 6                  23754955.940    23754957.380
  23754955.620          44.800          38.350
 123538859.021 7  96085768.195 5                  23134845.480    23134849.300
  23134847.240          43.400          32.700
 106923133.006 7  83162587.281 7                  19995118.020    19995121.880
  19995119.700          44.950          47.000
 130779684.653 8                  97660286.189 8  24886494.600
                        50.450


 122050134.166 8                  91141442.740 8  23225313.680
                        50.150
 15  1 27  1  9 25.0000000  0 23G31G08G21G25G05G16G18G23G27G29R11R05
                                R21R10R04R22R12R19R09R20E12E18E11
 111967846.222 8  87247682.651 7                  21306767.200    21306762.860
  21306761.920          50.000          47.900
 109710695.763 8  85488834.92747                  20877248.740
  20877244.620          49.850          47.050
 111179695.472 8  86633586.19547                  21156762.280
  21156756.680          48.400          47.200
 123473566.120 7  96213339.858 7  92204444.260 8  23496157.700    23496156.660
  23496156.140          46.850          44.050
 132256634.085 7 103057125.720 6                  25167595.600    25167592.880
  25167592.200          43.800          40.050
 120512982.136 8  93906219.49246                  22932856.880
  22932851.680          48.300          40.750
 130438657.426 7 101640503.88845                  24821644.300
  24821640.040          44.300          32.900
 134247526.830 7 104608436.50745                  25546456.460
  25546449.780          42.050          31.500
 126966774.277 7  98935154.929 7  94812850.464 8  24160971.800    24160971.120
  24160970.680          45.550          43.650
 116902184.738 8  91092750.277 7                  22245684.020    22245680.140
  22245679.420          49.050          45.400
 107803157.372 7  83846914.218 6                  20173889.460    20173893.380
  20173891.480          47.000          41.850
 130751476.726 6 101695610.235 6                  24459767.300    24459770.480
  24459770.100          39.200          39.050
 106733920.068 8  83015321.437 7                  19945764.880    19945766.600
  19945765.560          48.700          47.250
 104139061.239 8  80997083.452 7                  19536216.840    19536223.420
  19536222.040          49.100          42.050
 128153203.605 7  99674728.123 6                  23931706.060    23931708.100
  23931707.240          43.150          38.550
 125415912.472 7  97545735.986 6                  23494621.980    23494625.500
  23494624.520          45.900          39.750
 131401021.705 6 102200796.789 5                  24598545.500    24598549.220
  24598548.560          37.800          31.250
 127091636.489 7  98849173.240 6                  23758392.260    23758393.600
  23758391.860          44.300          38.950
 123560384.045 7  96102509.856 5                  23138876.340    23138880.280
  23138878.180          43.050          31.950
 106933370.856 7  83170550.046 7                  19997032.560    19997036.400
  19997034.260          44.800          47.050
 130789414.753 8                  97667552.148 8  24888346.160
                        50.550


 122049709.089 8                  91141125.307 8  23225232.820
                        50.100
