     2.11           OBSERVATION DATA    M (MIXED)           RINEX VERSION / TYPE
teqc  2011Oct11     IGN-E (SPG)         20150127 14:00:49UTCPGM / RUN BY / DATE
Linux 2.4.21-27.ELsmp|Opteron|gcc -static|Linux x86_64|=+   COMMENT
BIT 2 OF LLI FLAGS DATA COLLECTED UNDER A/S CONDITION       COMMENT
VALE                                                        MARKER NAME
13439M001                                                   MARKER NUMBER
Programas GeodesicosInstituto Geografico Nacional           OBSERVER / AGENCY
1700071             LEICA GR10          3.03/6.214          REC # / TYPE / VERS
10190012            LEIAR25.R3      LEIT                    ANT # / TYPE
  4929534.0457   -29050.6755  4033709.9250                  APPROX POSITION XYZ
        3.0390        0.0000        0.0000                  ANTENNA: DELTA H/E/N
     1     1                                                WAVELENGTH FACT L1/2
     8    L1    L2    L5    C1    C2    P2    S1    S2      # / TYPES OF OBSERV
     5.0000                                                 INTERVAL
Forced Modulo Decimation to 5 seconds                       COMMENT
DefaultJobName                                              COMMENT
DefaultUserDiscription                                      COMMENT
Project creator:                                            COMMENT
 SNR is mapped to RINEX snr flag value [0-9]                COMMENT
  L1 & L2: min(max(int(snr_dBHz/6), 0), 9)                  COMMENT
  2015     1    27    13     0    0.0000000     GPS         TIME OF FIRST OBS
    15                                                      LEAP SECONDS
                                                            END OF HEADER
 15  1 27 13  0  0.0000000  0 21G30G06G07G13G02G03G23G09G10G20G16G05
                                R14R02R12R13R19R03R18R20R04
 112346567.798 8  87542868.630 8  83895262.497 8  21378808.600    21378809.480
  21378808.840          50.100          48.150
 112047426.517 8  87309684.300 8  83671778.100 8  21321916.580    21321918.280
  21321917.480          49.300          48.700
 108669763.424 8  84677810.238 7                  20679142.560    20679139.560
  20679138.800          49.700          47.800
 132037805.595 7 102886641.78245                  25125954.000
  25125957.500          43.400          32.350
 112427669.627 8  87605979.16247                  21394266.820
  21394261.380          49.050          44.650
                                 100717441.374 6

 124278587.652 8  96840417.39446                  23649429.760
  23649426.060          48.000          37.200
 112547879.790 8  87699672.107 8  84045528.452 8  21417136.600    21417135.840
  21417135.620          50.000          48.550
 105861118.529 8  82489202.63647                  20144693.940
  20144690.720          49.750          46.350
 113108502.537 8  88136454.38647                  21523837.240
  21523834.220          49.600          43.600
 131616600.343 6 102558391.70245                  25045802.600
  25045802.840          41.800          31.550
 123491956.931 7  96227506.200 7                  23499729.960    23499730.260
  23499729.420          46.900          42.950
 115141803.627 6  89554821.651 6                  21600274.360    21600283.800
  21600282.880          40.700          38.150
 121617408.192 7  94591322.385 6                  22791060.740    22791067.800
  22791067.580          45.700          41.150
 119942145.010 6  93288359.783 6                  22453422.100    22453428.320
  22453427.200          41.650          38.550
 107095351.189 7  83296485.808 7                  20055488.820    20055493.860
  20055492.280          42.650          46.450
 118063196.011 7  91826934.060 6                  22070664.460    22070667.920
  22070665.800          46.250          41.700
 106739636.656 7  83019745.461 7                  19939853.600    19939855.760
  19939854.420          47.250          46.350
 124591014.710 7  96904116.163 6                  23340110.600    23340119.340
  23340118.680          45.050          38.750
 126819994.185 6  98637811.719 6                  23715978.040    23715986.140
  23715983.920          38.800          36.900
 113184502.961 7  88032429.899 7                  21136398.460    21136401.020
  21136399.980          47.850          44.650
 15  1 27 13  0  5.0000000  0 21G30G06G07G13G02G03G23G09G10G20G16G05
                                R14R02R12R13R19R03R18R20R04
 112334261.753 8  87533279.508 8  83886072.918 8  21376466.820    21376467.740
  21376467.080          50.050          49.850
 112058820.154 8  87318562.447 8  83680286.335 8  21324084.740    21324086.440
  21324085.640          49.400          50.150
 108667761.865 8  84676250.579 8                  20678761.680    20678758.660
  20678757.920          49.650          49.650
 132022553.641 7 102874757.15445                  25123051.640
  25123055.220          42.700          35.750
 112423321.201 8  87602590.78447                  21393439.320
  21393433.920          49.100          47.250
 134889492.005 5 105108761.34645 100729203.800 6  25668616.960
  25668630.020          35.300          31.250
 124292138.442 7  96850976.44346                  23652008.400
  23652004.660          47.700          38.950
 112557736.466 8  87707352.631 8  84052888.954 8  21419012.300    21419011.540
  21419011.300          49.800          49.900
 105859932.271 8  82488278.28148                  20144468.180
  20144464.980          49.750          48.400
 113119774.625 8  88145237.82047                  21525982.260
  21525979.240          49.850          45.750
 131618409.699 7 102559801.57345                  25046146.860
  25046147.180          42.400          31.300
 123476980.968 7  96215836.639 7                  23496880.120    23496880.420
  23496879.620          47.200          44.700
 115121507.512 6  89539035.788 6                  21596466.880    21596476.200
  21596475.340          40.900          38.850
 121630386.592 7  94601416.675 6                  22793492.900    22793499.920
  22793499.780          45.850          41.350
 119958071.221 6  93300746.812 6                  22456403.560    22456409.820
  22456408.640          41.600          38.800
 107092703.300 7  83294426.333 7                  20054992.860    20054998.000
  20054996.460          42.600          46.400
 118069584.221 7  91831902.652 6                  22071858.700    22071862.160
  22071860.080          46.150          41.700
 106741553.826 7  83021236.585 7                  19940211.720    19940213.880
  19940212.580          47.700          46.300
 124610256.638 7  96919082.082 6                  23343715.280    23343723.940
  23343723.340          44.600          39.550
 126810059.715 6  98630084.915 6                  23714120.220    23714128.400
  23714126.140          38.550          37.400
 113172872.588 8  88023384.062 7                  21134226.560    21134229.160
  21134228.100          48.100          44.800
 15  1 27 13  0 10.0000000  0 21G30G06G07G13G02G03G23G09G10G20G16G05
                                R14R02R12R13R19R03R18R20R04
 112321965.135 8  87523697.729 8  83876890.385 8  21374126.860    21374127.760
  21374127.100          49.850          49.450
 112070224.088 8  87327448.627 8  83688802.246 8  21326254.900    21326256.560
  21326255.780          49.150          50.000
 108665773.294 8  84674701.046 8                  20678383.280    20678380.280
  20678379.500          49.650          49.200
 132007301.783 6 102862872.66546                  25120149.300
  25120152.960          41.550          36.500
 112418985.883 8  87599212.61547                  21392614.320
  21392608.940          48.900          46.800
 134905243.443 5                 100740966.141 6  25671614.420
                        35.100
 124305688.075 7  96861534.58246                  23654586.840
  23654583.100          47.550          39.750
 112567595.798 8  87715035.224 8  84060251.435 8  21420888.460    21420887.700
  21420887.440          49.450          49.700
 105858754.531 8  82487360.56148                  20144244.040
  20144240.840          49.700          48.250
 113131052.774 8  88154025.98347                  21528128.440
  21528125.400          49.750          45.550
 131620231.775 7 102561221.37345                  25046493.580
  25046493.840          42.800          35.800
 123462004.333 7  96204166.538 7                  23494030.160    23494030.500
  23494029.680          46.750          44.350
 115101218.388 6  89523255.364 6                  21592660.700    21592670.000
  21592669.100          40.700          40.350
 121643367.100 7  94611512.604 7                  22795925.440    22795932.500
  22795932.320          45.650          42.750
 119974009.076 7  93313142.904 6                  22459387.140    22459393.380
  22459392.240          42.200          40.000
 107090076.184 7  83292383.010 7                  20054500.840    20054506.040
  20054504.520          42.400          47.800
 118075989.672 7  91836884.665 7                  22073056.100    22073059.600
  22073057.580          45.950          43.400
 106743476.587 7  83022732.060 7                  19940570.880    19940573.060
  19940571.780          47.700          47.800
 124629498.793 7  96934048.173 6                  23347319.960    23347328.660
  23347328.120          45.000          41.550
 126800140.710 6  98622370.127 6                  23712265.320    23712273.500
  23712271.220          38.750          39.450
 113161242.773 7  88014338.650 7                  21132054.800    21132057.440
  21132056.340          47.900          46.250
 15  1 27 13  0 15.0000000  0 21G30G06G07G13G02G03G23G09G10G20G16G05
                                R14R02R12R13R19R03R18R20R04
 112309682.141 8  87514126.565 8  83867718.018 8  21371789.500    21371790.400
  21371789.720          50.050          49.400
 112081642.447 8  87336346.039 8  83697328.939 8  21328427.780    21328429.440
  21328428.640          49.150          49.800
 108663801.864 8  84673164.865 8                  20678008.140    20678005.140
  20678004.360          49.800          49.000
 131992054.348 7 102850991.54945                  25117247.780
  25117251.480          42.200          32.100
 112414667.800 8  87595847.87247                  21391792.580
  21391787.260          48.950          46.750
 134920998.788 6                 100752731.359 6  25674612.780
                        37.400
 124319240.575 7  96872094.95246                  23657165.800
  23657162.060          47.800          39.200
 112577461.891 8  87722723.082 8  84067618.970 8  21422765.900    21422765.160
  21422764.880          49.250          49.400
 105857589.437 8  82486452.69447                  20144022.320
  20144019.120          49.700          47.950
 113142341.137 8  88162822.09347                  21530276.560
  21530273.520          49.700          44.950
 131622070.698 6 102562654.28445                  25046843.480
  25046843.760          41.900          34.200
 123447031.215 7  96192499.190 7                  23491180.880    23491181.220
  23491180.400          47.550          44.400
 115080940.389 6  89507483.600 6                  21588856.660    21588865.940
  21588864.960          41.250          40.050
 121656354.061 7  94621613.564 7                  22798359.220    22798366.240
  22798366.100          45.850          42.450
 119989962.872 7  93325551.391 6                  22462373.740    22462380.040
  22462378.820          42.100          39.700
 107087474.034 7  83290359.111 7                  20054013.520    20054018.720
  20054017.240          42.350          47.450
 118082416.387 7  91841883.208 7                  22074257.480    22074261.020
  22074258.980          46.050          42.700
 106745409.217 7  83024235.216 7                  19940931.880    19940934.100
  19940932.800          47.700          47.650
 124648745.295 7  96949017.644 6                  23350925.520    23350934.280
  23350933.720          44.500          41.250
 126790241.431 6  98614670.713 6                  23710414.140    23710422.300
  23710419.980          39.250          38.350
 113149617.841 7  88005297.047 7                  21129883.920    21129886.560
  21129885.460          47.850          45.600
 15  1 27 13  0 20.0000000  0 21G30G06G07G13G02G03G23G09G10G20G16G05
                                R14R02R12R13R19R03R18R20R04
 112297410.898 8  87504564.559 8  83858554.419 8  21369454.380    21369455.260
  21369454.600          50.100          49.150
 112093073.360 8  87345253.234 8  83705864.979 8  21330603.040    21330604.700
  21330603.920          49.450          49.600
 108661845.688 8  84671640.580 8                  20677635.900    20677632.880
  20677632.100          49.850          48.850
 131976809.392 7 102839112.38746                  25114346.780
  25114350.380          42.000          36.600
 112410365.116 8  87592495.13847                  21390973.800
  21390968.520          49.050          46.100
 134936756.062 6 105145547.25644 100764498.056 6  25677611.680
  25677619.320          38.250          25.600
 124332794.223 7  96882656.23446                  23659745.020
  23659741.200          47.750          38.950
 112587332.873 8  87730414.761 8  84074990.152 8  21424644.220    21424643.540
  21424643.240          49.050          49.050
 105856435.142 8  82485553.24747                  20143802.660
  20143799.440          49.750          47.250
 113153637.816 8  88171624.70047                  21532426.260
  21532423.220          49.850          44.600
 131623924.638 7 102564098.91045                  25047196.240
  25047196.560          42.000          35.100
 123432059.730 7  96180833.116 7                  23488331.940    23488332.260
  23488331.460          47.600          44.450
 115060671.625 6  89491719.004 6                  21585054.280    21585063.460
  21585062.600          41.400          39.850
 121669345.505 7  94631718.000 7                  22800793.800    22800800.800
  22800800.720          45.950          42.300
 120005930.813 6  93337970.890 6                  22465362.960    22465369.340
  22465368.080          41.950          39.600
 107084894.758 7  83288353.023 7                  20053530.480    20053535.680
  20053534.220          42.600          47.300
 118088862.543 7  91846896.875 7                  22075462.500    22075466.080
  22075464.000          45.550          42.100
 106747349.735 7  83025744.518 7                  19941294.400    19941296.600
  19941295.320          47.000          47.350
 124667994.293 7  96963989.049 6                  23354531.460    23354540.320
  23354539.780          43.400          40.950
 126780360.104 6  98606985.253 6                  23708566.280    23708574.500
  23708572.100          38.250          37.850
 113137995.822 7  87996257.709 7                  21127713.600    21127716.220
  21127715.100          47.850          45.300
 15  1 27 13  0 25.0000000  0 21G30G06G07G13G02G03G23G09G10G20G16G05
                                R14R02R12R13R19R03R18R20R04
 112285150.721 8  87495011.177 8  83849399.106 8  21367121.360    21367122.220
  21367121.580          50.200          48.900
 112104516.129 8  87354169.661 8  83714409.894 8  21332780.540    21332782.200
  21332781.440          49.350          49.250
 108659904.113 8  84670127.664 8                  20677266.460    20677263.400
  20677262.640          49.800          48.550
 131961566.132 7 102827234.54345                  25111446.060
  25111449.580          43.100          33.800
 112406077.136 8  87589153.85347                  21390157.780
  21390152.580          49.100          45.800
 134952514.775 5 105157833.60545 100776265.813 6  25680610.600
  25680615.660          35.350          31.400
 124346348.347 7  96893217.86646                  23662324.320
  23662320.500          47.600          37.800
 112597208.096 8  87738109.727 8  84082364.499 8  21426523.360    21426522.720
  21426522.380          49.050          48.800
 105855290.953 8  82484661.67547                  20143584.920
  20143581.700          49.800          47.300
 113164942.199 8  88180433.30447                  21534577.440
  21534574.380          49.900          44.350
 131625792.892 6 102565554.68445                  25047551.740
  25047552.220          41.900          34.150
 123417089.158 7  96169167.756 7                  23485483.140    23485483.480
  23485482.720          47.600          44.000
 115040411.396 6  89475961.062 6                  21581253.500    21581262.760
  21581261.840          41.400          39.400
 121682340.626 7  94641825.295 7                  22803229.120    22803236.100
  22803236.080          45.750          42.200
 120021912.004 6  93350400.695 6                  22468354.640    22468361.120
  22468359.820          41.500          39.550
 107082338.017 7  83286364.442 7                  20053051.600    20053056.880
  20053055.420          42.850          47.200
 118095327.441 7  91851925.130 7                  22076671.000    22076674.660
  22076672.520          45.950          42.450
 106749297.482 7  83027259.424 7                  19941658.200    19941660.480
  19941659.160          46.950          47.350
 124687245.058 7  96978961.813 6                  23358137.700    23358146.700
  23358146.180          43.600          41.250
 126770496.004 6  98599313.173 6                  23706721.600    23706729.920
  23706727.460          38.650          38.350
 113126375.967 7  87987220.048 7                  21125543.680    21125546.300
  21125545.140          47.600          45.400
 15  1 27 13  0 30.0000000  0 21G30G06G07G13G02G03G23G09G10G20G16G05
                                R14R02R12R13R19R03R18R20R04
 112272902.532 8  87485467.139 8  83840252.731 8  21364790.640    21364791.460
  21364790.820          50.200          48.900
 112115971.620 8  87363096.010 8  83722964.315 8  21334960.480    21334962.140
  21334961.380          49.350          49.150
 108657978.034 8  84668626.828 8                  20676899.960    20676896.880
  20676896.120          49.700          48.600
 131946325.568 7 102815358.79445                  25108545.940
  25108549.300          43.200          35.000
 112401804.750 8  87585824.72947                  21389344.760
  21389339.600          49.100          46.050
 134968275.741 5 105170119.85444                  25683610.000
  25683617.160          33.750          29.250
 124359903.800 7  96903780.53946                  23664903.880
  23664899.980          47.800          37.850
 112607088.417 8  87745808.668 8  84089742.649 8  21428403.440    21428402.880
  21428402.480          49.000          48.650
 105854157.775 8  82483778.68047                  20143369.280
  20143366.060          49.850          46.950
 113176255.129 8  88189248.56447                  21536730.240
  21536727.160          49.900          44.200
 131627676.355 6 102567022.31645                  25047910.200
  25047910.680          40.900          34.650
 123402120.442 7  96157503.835 7                  23482634.740    23482635.040
  23482634.300          47.800          43.850
 115020160.719 6  89460210.542 6                  21577454.520    21577463.780
  21577462.820          41.300          39.100
 121695340.477 7  94651936.255 6                  22805665.340    22805672.260
  22805672.260          46.050          41.850
 120037907.436 6  93362841.568 6                  22471349.020    22471355.540
  22471354.220          41.400          39.650
 107079804.449 7  83284393.889 7                  20052577.080    20052582.400
  20052580.960          42.850          47.150
 118101811.932 7  91856968.611 7                  22077883.240    22077886.900
  22077884.780          46.100          42.750
 106751253.457 7  83028780.740 7                  19942023.540    19942025.900
  19942024.560          46.700          47.400
 124706498.501 7  96993936.673 6                  23361744.520    23361753.620
  23361753.140          43.600          41.200
 126760649.906 6  98591655.105 6                  23704880.220    23704888.680
  23704886.180          39.300          37.950
 113114759.317 7  87978184.893 7                  21123374.360    21123376.920
  21123375.760          47.800          45.050
 15  1 27 13  0 35.0000000  0 21G30G06G07G13G02G03G23G09G10G20G16G05
                                R14R02R12R13R19R03R18R20R04
 112260667.509 8  87475933.354 8  83831116.195 8  21362462.400    21362463.220
  21362462.560          50.250          48.800
 112127441.045 8  87372033.202 8  83731529.124 8  21337143.060    21337144.720
  21337143.960          49.550          48.900
 108656068.638 8  84667138.979 8                  20676536.620    20676533.520
  20676532.780          49.600          48.450
 131931088.860 7 102803486.00745                  25105646.540
  25105649.580          43.900          30.650
 112397549.193 8  87582508.70747                  21388534.960
  21388529.820          49.050          45.550
 134984040.183 5 105182397.61345 100799811.315 6  25686609.940
  25686614.220          34.950          33.200
 124373461.781 7  96914345.18146                  23667483.900
  23667479.960          47.800          37.800
 112616975.025 8  87753512.513 8  84097125.494 8  21430284.760    21430284.240
  21430283.800          49.000          48.600
 105853036.802 8  82482905.19347                  20143155.960
  20143152.740          49.750          46.850
 113187577.796 8  88198071.41347                  21538884.900
  21538881.820          49.850          44.750
 131629576.255 6 102568502.77245                  25048271.780
  25048272.260          41.400          35.400
 123387154.732 7  96145842.247 7                  23479786.900    23479787.160
  23479786.420          47.850          43.650
 114999920.753 6  89444468.344 6                  21573657.520    21573666.780
  21573665.840          41.700          39.200
 121708346.212 7  94662051.827 7                  22808102.680    22808109.620
  22808109.560          46.300          42.000
 120053918.291 6  93375294.432 6                  22474346.280    22474352.800
  22474351.520          41.850          39.250
 107077295.711 7  83282442.646 7                  20052107.260    20052112.580
  20052111.160          43.000          46.900
 118108317.212 7  91862028.261 7                  22079099.320    22079103.020
  22079100.960          45.500          42.900
 106753218.751 7  83030309.302 7                  19942390.640    19942393.020
  19942391.700          47.050          47.250
 124725755.743 7  97008914.483 6                  23365352.040    23365361.280
  23365360.760          43.800          40.950
 126750823.149 6  98584012.082 6                  23703042.500    23703051.040
  23703048.520          38.650          37.900
 113103146.978 7  87969153.077 7                  21121205.820    21121208.400
  21121207.180          47.850          44.600
 15  1 27 13  0 40.0000000  0 21G30G06G07G13G02G03G23G09G10G20G16G05
                                R14R02R12R13R19R03R18R20R04
 112248444.096 8  87466408.620 8  83821988.332 8  21360136.400    21360137.180
  21360136.500          50.300          48.750
 112138922.772 8  87380979.994 8  83740103.143 8  21339328.000    21339329.660
  21339328.880          49.550          49.000
 108654174.345 8  84665662.908 8                  20676176.160    20676173.020
  20676172.300          49.750          48.600
 131915854.415 7 102791615.03345                  25102747.560
  25102750.440          42.900          33.300
 112393308.871 8  87579204.55947                  21387728.040
  21387722.940          49.250          45.750
 134999806.487 5                 100811584.741 6  25689609.960
                        35.550
 124387020.653 8  96924910.52546                  23670064.080
  23670060.160          48.300          37.700
 112626866.316 8  87761220.006 8  84104511.849 8  21432166.980    21432166.500
  21432166.020          49.350          48.700
 105851926.463 8  82482039.99847                  20142944.660
  20142941.440          49.850          47.000
 113198908.609 8  88206900.60647                  21541041.120
  21541038.000          50.050          44.000
 131631490.967 6 102569994.75945                  25048636.160
  25048636.560          41.950          33.700
 123372190.498 7  96134181.823 7                  23476939.340    23476939.540
  23476938.800          47.800          43.550
 114979689.933 6  89428733.261 6                  21569862.280    21569871.460
  21569870.580          41.850          39.300
 121721356.202 7  94672170.701 7                  22810540.840    22810547.760
  22810547.720          46.350          42.200
 120069942.895 6  93387758.011 6                  22477346.180    22477352.720
  22477351.420          41.700          39.250
 107074809.716 7  83280509.086 7                  20051641.720    20051647.020
  20051645.600          43.100          46.850
 118114841.712 7  91867102.860 7                  22080319.000    22080322.780
  22080320.740          45.650          42.450
 106755191.775 7  83031843.873 7                  19942759.160    19942761.640
  19942760.280          47.300          46.900
 124745015.164 7  97023893.978 6                  23368959.960    23368969.260
  23368968.780          44.500          40.650
 126741014.226 6  98576382.941 6                  23701208.060    23701216.680
  23701214.220          37.950          38.150
 113091537.361 8  87960123.384 7                  21119037.800    21119040.360
  21119039.080          48.000          44.450
 15  1 27 13  0 45.0000000  0 21G30G06G07G13G02G03G23G09G10G20G16G05
                                R14R02R12R13R19R03R18R20R04
 112236232.684 8  87456893.238 8  83812869.421 8  21357812.680    21357813.400
  21357812.740          50.300          48.650
 112150417.209 8  87389936.685 8  83748686.631 8  21341515.340    21341517.000
  21341516.220          49.650          49.000
 108652295.523 8  84664198.889 8                  20675818.660    20675815.500
  20675814.800          49.800          48.450
 131900622.603 7 102779746.08245                  25099849.020
  25099851.960          42.000          34.050
 112389084.174 8  87575912.58847                  21386924.120
  21386919.020          49.000          45.500
 135015575.114 5                 100823359.836 6  25692610.520
                        32.750
 124400580.854 7  96935476.89546                  23672644.500
  23672640.520          47.850          38.000
 112636762.675 8  87768931.454 8  84111901.983 8  21434050.240    21434049.720
  21434049.220          49.550          48.650
 105850827.136 8  82481183.37747                  20142735.480
  20142732.220          49.800          47.000
 113210247.959 8  88215736.45347                  21543198.980
  21543195.780          49.900          44.050
 131633420.900 7 102571498.60345                  25049003.420
  25049003.800          42.600          33.200
 123357228.143 7  96122522.856 7                  23474092.140    23474092.260
  23474091.540          47.900          43.350
 114959468.579 6  89413005.554 6                  21566068.760    21566077.960
  21566077.120          41.550          39.800
 121734370.962 7  94682293.270 6                  22812979.900    22812986.820
  22812986.740          46.250          41.800
 120085987.67816  93400238.60316                  22480348.720    22480355.260
  22480353.940          41.500          39.400
 107072347.086 7  83278593.705 7                  20051180.540    20051185.840
  20051184.420          43.050          46.900
 118121385.737 7  91872192.641 7                  22081542.340    22081546.140
  22081544.140          45.650          42.650
 106757172.979 7  83033384.803 7                  19943129.220    19943131.740
  19943130.400          47.400          47.150
 124764277.126 7  97038875.475 6                  23372568.380    23372577.700
  23372577.280          44.250          40.400
 126731223.381 6  98568767.839 6                  23699377.120    23699385.720
  23699383.300          38.850          38.100
 113079930.920 7  87951096.156 7                  21116870.400    21116872.920
  21116871.600          47.900          44.600
 15  1 27 13  0 50.0000000  0 20G30G06G07G13G02G23G09G10G20G16G05R14
                                R02R12R13R19R03R18R20R04
 112224033.553 8  87447387.421 8  83803759.674 8  21355491.300    21355491.980
  21355491.320          50.450          48.500
 112161924.585 8  87398903.460 8  83757279.784 8  21343705.140    21343706.820
  21343706.020          49.800          48.850
 108650432.460 8  84662747.152 8                  20675464.140    20675460.960
  20675460.280          49.750          48.400
 131885393.736 6 102767879.48045                  25096950.960
  25096953.860          41.650          32.800
 112384875.430 8  87572633.04347                  21386123.220
  21386118.120          49.000          45.950
 124414142.621 7  96946044.49646                  23675225.240
  23675221.300          47.800          36.700
 112646664.376 8  87776647.059 8  84119296.097 8  21435934.520    21435933.980
  21435933.480          49.900          48.650
 105849739.089 8  82480335.54647                  20142528.420
  20142525.180          49.750          46.800
 113221596.074 8  88224579.12947                  21545358.500
  21545355.260          50.100          43.950
 131635366.277 7 102573014.48345                  25049373.660
  25049374.120          43.100          32.550
 123342267.905 7  96110865.526 7                  23471245.320    23471245.440
  23471244.720          47.600          43.300
 114939257.121 6  89397285.550 6                  21562277.180    21562286.320
  21562285.540          41.500          40.150
 121747390.699 7  94692419.717 7                  22815419.860    22815426.840
  22815426.680          45.400          42.100
 120102040.810 6  93412724.358 6                  22483353.920    22483360.420
  22483359.180          41.050          39.450
 107069908.018 7  83276696.650 7                  20050723.780    20050729.080
  20050727.660          42.750          46.900
 118127949.622 7  91877297.887 7                  22082769.400    22082773.200
  22082771.220          46.000          42.650
 106759162.576 7  83034932.273 7                  19943500.880    19943503.400
  19943502.080          47.550          47.200
 124783541.887 7  97053859.147 6                  23376177.340    23376186.740
  23376186.260          44.300          41.450
 126721450.930 6  98561167.067 6                  23697549.480    23697558.380
  23697555.780          38.950          37.700
 113068327.919 8  87942071.600 7                  21114703.620    21114706.160
  21114704.760          48.250          44.800
 15  1 27 13  0 55.0000000  0 20G30G06G07G13G02G23G09G10G20G16G05R14
                                R02R12R13R19R03R18R20R04
 112211846.103 8  87437890.709 8  83794658.656 8  21353172.160    21353172.800
  21353172.100          50.550          48.450
 112173444.309 8  87407879.860 8  83765882.162 8  21345897.280    21345898.980
  21345898.140          49.800          48.900
 108648584.561 8  84661307.232 8                  20675112.500    20675109.320
  20675108.640          49.650          48.300
 131870167.213 7 102756014.67945                  25094053.360
  25094056.240          43.000          34.800
 112380681.985 8  87569365.42747                  21385325.240
  21385320.140          49.050          45.900
 124427705.374 7  96956612.85846                  23677806.140
  23677802.220          47.200          37.550
 112656570.798 8  87784366.351 8  84126693.752 8  21437819.720    21437819.100
  21437818.640          50.150          48.650
 105848661.731 8  82479496.05047                  20142323.420
  20142320.160          49.800          46.900
 113232952.395 8  88233428.20047                  21547519.600
  21547516.280          50.150          43.950
 131637326.552 7 102574541.96445                  25049746.680
  25049747.180          42.650          33.750
 123327309.187 7  96099209.394 7                  23468398.800    23468398.880
  23468398.180          47.800          43.450
 114919054.939 6  89381572.760 6                  21558487.300    21558496.480
  21558495.720          41.350          40.000
 121760414.720 7  94702549.485 6                  22817860.540    22817867.560
  22817867.400          45.250          41.900
 120118107.799 6  93425220.884 6                  22486361.640    22486368.120
  22486366.980          40.950          39.100
 107067491.846 7  83274817.411 7                  20050271.280    20050276.600
  20050275.180          43.000          46.850
 118134532.735 7  91882418.082 7                  22084000.020    22084003.880
  22084001.880          45.900          42.450
 106761159.944 7  83036485.779 7                  19943874.020    19943876.540
  19943875.200          47.450          47.050
 124802808.904 7  97068844.561 6                  23379786.700    23379796.040
  23379795.640          44.400          41.400
 126711696.324 6  98553580.155 6                  23695725.260    23695734.200
  23695731.580          38.300          37.150
 113056727.701 8  87933049.208 7                  21112537.440    21112539.900
  21112538.480          48.050          44.850
 15  1 27 13  1  0.0000000  0 20G30G06G07G13G02G23G09G10G20G16G05R14
                                R02R12R13R19R03R18R20R04
 112199672.680 8  87428404.927 8  83785568.125 8  21350855.680    21350856.260
  21350855.580          50.200          48.500
 112184978.691 8  87416867.670 8  83774495.491 8  21348092.220    21348093.880
  21348093.080          49.850          49.000
 108646754.182 8  84659880.965 8                  20674764.180    20674761.020
  20674760.360          49.400          48.350
 131854945.396 7 102744153.52545                  25091156.720
  25091159.600          43.300          34.050
 112376506.158 8  87566111.53447                  21384530.620
  21384525.500          49.150          45.250
 124441271.398 7  96967183.76546                  23680387.660
  23680383.760          47.200          37.650
 112666484.275 8  87792091.139 8  84134096.683 8  21439706.260    21439705.580
  21439705.160          49.900          48.750
 105847597.363 8  82478666.66847                  20142120.860
  20142117.620          49.650          46.850
 113244319.239 8  88242285.47547                  21549682.680
  21549679.300          50.150          44.350
 131639304.046 7 102576082.87445                  25050122.980
  25050123.500          42.950          30.500
 123312354.320 7  96087556.261 7                  23465553.020    23465553.080
  23465552.380          47.200          43.600
 114898864.324 6  89365868.957 6                  21554699.620    21554708.860
  21554708.060          41.400          40.200
 121773445.434 7  94712684.453 6                  22820302.440    22820309.520
  22820309.360          45.050          41.550
 120134190.933 6  93437729.976 6                  22489372.460    22489378.900
  22489377.760          41.150          39.050
 107065101.102 7  83272957.931 7                  20049823.540    20049828.900
  20049827.460          42.950          46.900
 118141137.419 7  91887555.035 7                  22085234.720    22085238.600
  22085236.600          45.850          42.700
 106763167.549 7  83038047.246 7                  19944249.060    19944251.560
  19944250.240          47.200          47.000
 124822080.488 7  97083833.520 6                  23383396.940    23383406.340
  23383405.900          44.300          41.300
 126701961.878 6  98546008.911 6                  23693904.860    23693913.860
  23693911.120          38.400          36.650
 113045132.650 8  87924030.835 7                  21110372.220    21110374.620
  21110373.160          48.250          45.000
 15  1 27 13  1  5.0000000  0 20G30G06G07G13G02G23G09G10G20G16G05R14
                                R02R12R13R19R03R18R20R04
 112187510.510 8  87418927.917 8  83776485.977 8  21348541.320    21348541.860
  21348541.180          50.150          48.500
 112196524.958 8  87425864.746 8  83783117.672 8  21350289.440    21350291.080
  21350290.260          49.800          49.000
 108644938.534 8  84658466.172 8                  20674418.660    20674415.520
  20674414.840          49.600          48.150
 131839725.442 7 102732293.86345                  25088260.520
  25088263.240          43.550          33.850
 112372345.207 8  87562869.22947                  21383738.840
  21383733.680          49.400          45.400
 124454837.921 7  96977755.07246                  23682969.280
  23682965.420          47.400          37.400
 112676402.014 8  87799819.249 8  84141502.777 8  21441593.600    21441592.900
  21441592.520          50.000          48.900
 105846543.242 8  82477845.27347                  20141920.280
  20141917.020          49.650          46.900
 113255693.829 8  88251148.78447                  21551847.260
  21551843.820          50.150          44.000
 131641295.941 7 102577634.98045                  25050502.020
  25050502.560          42.700          34.200
 123297400.597 7  96075904.025 7                  23462707.440    23462707.460
  23462706.760          47.200          42.850
 114878682.592 6  89350172.065 6                  21550913.560    21550922.860
  21550922.040          41.700          39.600
 121786480.077 7  94722822.492 6                  22822745.100    22822752.280
  22822751.940          46.350          40.700
 120150287.347 6  93450249.391 6                  22492385.720    22492392.120
  22492391.060          41.100          38.750
 107062732.847 7  83271115.951 7                  20049380.040    20049385.400
  20049383.960          43.050          46.800
 118147760.762 7  91892706.505 7                  22086472.860    22086476.880
  22086474.800          46.000          42.650
 106765182.549 7  83039614.470 7                  19944625.420    19944627.960
  19944626.660          47.300          46.850
 124841353.761 7  97098823.798 6                  23387007.520    23387016.940
  23387016.440          44.550          40.300
 126692244.787 6  98538451.195 6                  23692087.660    23692096.600
  23692093.940          39.100          36.300
 113033540.041 8  87915014.373 7                  21108207.400    21108209.800
  21108208.340          48.150          44.850
 15  1 27 13  1 10.0000000  0 20G30G06G07G13G02G23G09G10G20G16G05R14
                                R02R12R13R19R03R18R20R04
 112175360.613 8  87409460.467 8  83767413.006 8  21346229.280    21346229.800
  21346229.120          50.100          48.450
 112208084.066 8  87434871.829 8  83791749.473 8  21352489.100    21352490.700
  21352489.880          49.750          48.900
 108643138.608 8  84657063.634 8                  20674076.140    20674073.000
  20674072.340          49.550          48.100
 131824508.351 7 102720436.38045                  25085364.800
  25085367.500          43.150          30.550
 112368200.091 8  87559639.26447                  21382950.060
  21382944.880          49.200          44.700
 124468405.936 7  96988327.53946                  23685551.200
  23685547.340          47.450          38.000
 112686325.024 8  87807551.467 8  84148912.825 8  21443481.940    21443481.200
  21443480.860          50.050          48.850
 105845500.375 8  82477032.65247                  20141721.820
  20141718.580          49.600          46.550
 113267077.129 8  88260018.87647                  21554013.480
  21554010.000          50.050          43.800
 131643303.283 7 102579199.14945                  25050883.980
  25050884.400          42.100          31.800
 123282448.985 7  96064253.427 7                  23459862.280    23459862.260
  23459861.540          47.200          43.350
 114858510.682 6  89334482.802 6                  21547129.440    21547138.720
  21547137.880          41.700          39.650
 121799519.616 7  94732964.341 6                  22825188.720    22825195.900
  22825195.500          45.900          41.150
 120166398.088 6  93462779.949 6                  22495401.700    22495408.040
  22495407.040          41.200          38.600
 107060388.225 7  83269292.354 7                  20048940.960    20048946.340
  20048944.860          42.850          46.750
 118154403.886 7  91897873.363 7                  22087714.740    22087718.780
  22087716.700          45.800          42.700
 106767205.873 7  83041188.159 7                  19945003.400    19945005.920
  19945004.620          47.300          46.750
 124860629.708 7  97113816.175 6                  23390618.560    23390628.000
  23390627.460          44.250          40.000
 126682546.225 6  98530907.871 5                  23690273.940    23690282.760
  23690280.220          38.500          35.900
 113021950.891 8  87906000.594 7                  21106043.200    21106045.620
  21106044.160          48.150          44.950
 15  1 27 13  1 15.0000000  0 20G30G06G07G13G02G23G09G10G20G16G05R14
                                R02R12R13R19R03R18R20R04
 112163221.928 8  87400001.755 8  83758348.411 8  21343919.360    21343919.860
  21343919.180          50.200          48.550
 112219654.949 8  87443888.094 8  83800390.060 8  21354690.980    21354692.580
  21354691.780          49.900          48.900
 108641353.307 8  84655672.495 8                  20673736.420    20673733.300
  20673732.620          49.500          48.300
 131809293.066 7 102708580.35145                  25082469.420
  25082472.260          43.900          32.150
 112364069.735 8  87556420.81147                  21382164.080
  21382158.860          49.350          45.100
 124481974.370 7  96998900.33446                  23688133.200
  23688129.320          47.350          38.250
 112696252.207 8  87815286.938 8  84156325.992 8  21445371.080    21445370.300
  21445370.000          49.800          48.900
 105844467.679 8  82476227.95647                  20141525.320
  20141522.060          49.750          46.850
 113278468.099 8  88268894.95647                  21556181.180
  21556177.640          50.050          44.200
 131645324.979 6 102580774.48445                  25051268.640
  25051269.160          41.200          31.350
 123267498.399 7  96052603.644 7                  23457017.300    23457017.240
  23457016.480          47.500          42.900
 114838347.527 7  89318800.369 6                  21543346.860    21543356.220
  21543355.340          42.350          39.350
 121812562.896 7  94743109.100 6                  22827633.040    22827640.120
  22827639.720          46.500          40.750
 120182521.880 6  93475320.667 6                  22498420.100    22498426.420
  22498425.460          41.400          38.850
 107058065.928 7  83267486.132 7                  20048506.080    20048511.440
  20048509.960          42.950          46.700
 118161065.580 7  91903054.681 7                  22088960.120    22088964.140
  22088962.080          46.300          42.650
 106769236.574 7  83042767.593 7                  19945382.740    19945385.260
  19945383.960          47.200          46.750
 124879907.235 7  97128809.772 6                  23394229.920    23394239.380
  23394238.780          44.600          40.000
 126672864.829 6  98523377.929 5                  23688463.520    23688472.260
  23688469.720          38.700          35.700
 113010363.891 8  87896988.494 7                  21103879.400    21103881.920
  21103880.360          48.250          45.100
 15  1 27 13  1 20.0000000  0 20G30G06G07G13G02G23G09G10G20G16G05R14
                                R02R12R13R19R03R18R20R04
 112151095.978 8  87390552.968 8  83749293.326 8  21341611.880    21341612.380
  21341611.660          50.050          48.400
 112231239.150 8  87452914.739 8  83809040.580 8  21356895.420    21356896.980
  21356896.180          49.650          48.850
 108639584.162 8  84654293.942 8                  20673399.760    20673396.660
  20673395.980          49.450          48.300
 131794081.152 7 102696726.90745                  25079574.700
  25079577.520          43.100          31.400
 112359955.718 8  87553215.08547                  21381381.220
  21381375.980          49.050          45.300
 124495544.768 7  97009474.65846                  23690715.560
  23690711.660          47.350          37.750
 112706185.114 8  87823026.868 8  84163743.427 8  21447261.260    21447260.480
  21447260.200          49.600          48.850
 105843446.710 8  82475432.39547                  20141331.040
  20141327.800          49.700          46.550
 113289868.249 8  88277778.19047                  21558350.620
  21558347.040          49.950          43.800
 131647362.585 6 102582362.23745                  25051656.360
  25051656.820          40.900          34.700
 123252550.440 7  96040955.882 7                  23454172.820    23454172.720
  23454171.940          47.150          42.800
 114818194.818 6  89303126.039 6                  21539566.220    21539575.640
  21539574.740          41.200          39.350
 121825611.627 7  94753258.109 6                  22830078.440    22830085.360
  22830084.880          46.400          40.650
 120198660.516 6  93487872.918 6                  22501441.340    22501447.680
  22501446.700          41.750          39.100
 107055767.833 7  83265698.720 7                  20048075.720    20048081.060
  20048079.580          42.800          46.750
 118167747.463 7  91908251.703 7                  22090209.280    22090213.260
  22090211.240          46.300          42.800
 106771276.049 7  83044353.853 7                  19945763.780    19945766.240
  19945764.920          47.250          46.900
 124899187.923 7  97143805.823 6                  23397841.880    23397851.300
  23397850.700          44.550          39.800
 126663202.466 6  98515862.772 6                  23686656.580    23686665.320
  23686662.760          39.100          36.750
 112998780.851 8  87887979.469 7                  21101716.340    21101718.880
  21101717.340          48.100          45.250
 15  1 27 13  1 25.0000000  0 20G30G06G07G13G02G23G09G10G20G16G05R14
                                R02R12R13R19R03R18R20R04
 112138982.262 8  87381113.700 8  83740247.366 8  21339306.700    21339307.200
  21339306.460          50.150          48.500
 112242836.104 8  87461951.312 8  83817700.629 8  21359102.280    21359103.800
  21359103.020          49.700          48.950
 108637830.657 8  84652927.570 8                  20673066.080    20673063.000
  20673062.300          49.600          48.450
 131778872.052 7 102684875.67145                  25076680.480
  25076683.280          43.300          33.700
 112355857.507 8  87550021.67147                  21380601.380
  21380596.100          49.050          45.950
 124509116.581 7  97020050.06246                  23693298.180
  23693294.260          47.550          36.750
 112716123.217 8  87830770.840 8  84171164.726 8  21449152.400    21449151.660
  21449151.400          49.350          48.850
 105842436.960 8  82474645.56747                  20141138.900
  20141135.620          49.700          46.600
 113301277.071 8  88286668.16247                  21560521.680
  21560518.080          49.950          44.350
 131649415.559 6 102583961.98246                  25052047.020
  25052047.460          40.100          36.550
 123237604.507 7  96029309.707 7                  23451328.720    23451328.560
  23451327.760          47.000          43.150
 114798052.058 6  89287459.463 6                  21535787.480    21535797.000
  21535796.060          41.300          39.700
 121838665.195 7  94763410.851 6                  22832524.700    22832531.560
  22832531.020          45.950          40.350
 120214813.203 7  93500436.087 6                  22504465.180    22504471.600
  22504470.580          42.100          39.100
 107053493.144 7  83263929.514 7                  20047649.720    20047655.060
  20047653.580          42.650          46.650
 118174448.962 7  91913463.959 7                  22091462.060    22091466.060
  22091464.040          46.000          42.900
 106773323.901 7  83045946.623 7                  19946146.360    19946148.780
  19946147.460          47.100          46.900
 124918471.144 7  97158803.840 6                  23401454.300    23401463.700
  23401463.120          43.750          39.450
 126653558.464 6  98508361.878 6                  23684853.120    23684861.780
  23684859.260          38.900          36.650
 112987201.099 7  87878972.999 7                  21099553.880    21099556.440
  21099554.920          47.950          45.350
 15  1 27 13  1 30.0000000  0 20G30G06G07G13G02G23G09G10G20G16G05R14
                                R02R12R13R19R03R18R20R04
 112126881.187 8  87371684.293 8  83731210.847 8  21337003.920    21337004.440
  21337003.680          50.150          48.350
 112254446.209 8  87470998.137 8  83826370.495 8  21361311.640    21361313.140
  21361312.360          49.750          48.850
 108636093.187 8  84651573.702 8                  20672735.440    20672732.380
  20672731.700          49.550          48.500
 131763666.218 7 102673026.99745                  25073786.880
  25073789.740          43.000          32.900
 112351775.517 8  87546840.90547                  21379824.620
  21379819.280          49.100          45.400
 124522690.198 7  97030626.91746                  23695881.160
  23695877.220          47.150          38.000
 112726066.884 8  87838519.148 8  84178590.184 8  21451044.560    21451043.900
  21451043.640          48.950          48.800
 105841438.803 8  82473867.78647                  20140948.940
  20140945.680          49.650          46.600
 113312694.938 8  88295565.20047                  21562694.480
  21562690.840          49.850          43.800
 131651484.272 6 102585573.98246                  25052440.700
  25052441.100          40.400          36.000
 123222661.031 7  96017665.458 7                  23448485.120    23448484.900
  23448484.100          47.300          43.050
 114777919.557 6  89271800.873 6                  21532010.640    21532020.200
  21532019.300          41.350          40.050
 121851723.960 7  94773567.670 6                  22834971.940    22834978.700
  22834978.060          46.050          40.150
 120230980.530 7  93513010.664 6                  22507491.800    22507498.180
  22507497.220          42.100          39.450
 107051242.294 7  83262178.861 7                  20047228.260    20047233.540
  20047232.040          42.950          46.650
 118181170.564 7  91918691.861 7                  22092718.580    22092722.640
  22092720.600          46.050          42.850
 106775380.573 7  83047546.260 7                  19946530.600    19946532.960
  19946531.640          47.500          46.800
 124937757.351 7  97173804.192 6                  23405067.300    23405076.640
  23405076.120          43.700          39.400
 126643933.256 6  98500875.636 6                  23683053.120    23683061.760
  23683059.280          38.850          36.950
 112975625.176 8  87869969.514 7                  21097392.140    21097394.680
  21097393.200          48.050          45.350
 15  1 27 13  1 35.0000000  0 20G30G06G07G13G02G23G09G10G20G16G05R14
                                R02R12R13R19R03R18R20R04
 112114793.100 8  87362265.000 8  83722184.032 8  21334703.620    21334704.140
  21334703.380          49.850          48.350
 112266069.777 8  87480055.449 8  83835050.423 8  21363523.560    21363525.060
  21363524.280          49.600          49.050
 108634372.118 8  84650232.601 8                  20672407.940    20672404.880
  20672404.200          49.350          48.650
 131748463.939 7 102661181.08845                  25070893.960
  25070896.700          43.200          32.600
 112347710.111 8  87543673.05047                  21379051.020
  21379045.620          49.250          45.250
 124536265.946 7  97041205.38546                  23698464.540
  23698460.640          47.700          37.450
 112736016.456 8  87846272.046 8  84186020.055 8  21452937.820    21452937.240
  21452936.960          48.700          48.800
 105840452.574 8  82473099.29747                  20140761.260
  20140758.000          49.450          46.850
 113324122.186 8  88304469.53347                  21564869.040
  21564865.400          49.800          44.200
 131653569.055 6 102587198.51545                  25052837.440
  25052837.840          40.600          33.250
 123207720.408 7  96006023.418 7                  23445642.060    23445641.780
  23445641.000          47.100          43.350
 114757797.722 7  89256150.578 6                  21528235.840    21528245.340
  21528244.540          42.100          40.100
 121864788.377 7  94783728.869 6                  22837420.200    22837426.940
  22837426.260          45.900          40.550
 120247162.643 6  93525596.729 6                  22510521.160    22510527.520
  22510526.600          41.950          39.400
 107049015.748 7  83260447.094 7                  20046811.300    20046816.540
  20046815.060          43.050          46.600
 118187912.453 7  91923935.529 7                  22093978.880    22093982.980
  22093980.940          45.750          42.900
 106777446.251 7  83049152.892 7                  19946916.500    19946918.840
  19946917.500          47.300          46.900
 124957046.798 7  97188807.052 6                  23408680.880    23408690.240
  23408689.740          43.300          39.800
 126634327.146 6  98493404.211 6                  23681256.740    23681265.240
  23681262.820          38.500          37.300
 112964053.253 8  87860969.125 7                  21095231.180    21095233.700
  21095232.220          48.100          45.200
 15  1 27 13  1 40.0000000  0 20G30G06G07G13G02G23G09G10G20G16G05R14
                                R02R12R13R19R03R18R20R04
 112102715.202 8  87352853.664 8  83713164.841 8  21332405.240    21332405.800
  21332405.020          49.850          48.650
 112277704.026 8  87489121.089 8  83843738.332 8  21365737.520    21365739.000
  21365738.240          49.750          49.100
 108632664.649 8  84648902.108 8                  20672083.000    20672079.980
  20672079.300          49.350          48.750
 131733262.527 7 102649335.83645                  25068001.220
  25068003.720          42.850          34.200
 112343658.518 8  87540515.96747                  21378280.040
  21378274.620          49.400          45.350
 124549841.069 7  97051783.40546                  23701047.820
  23701043.920          47.550          38.850
 112745969.151 8  87854027.385 8  84193452.266 8  21454831.660    21454831.160
  21454830.860          48.650          48.750
 105839475.513 8  82472337.95247                  20140575.340
  20140572.080          49.600          47.000
 113335556.048 8  88313379.02947                  21567044.840
  21567041.200          49.850          44.550
 131655667.154 6 102588833.41845                  25053236.700
  25053237.240          41.300          34.200
 123192779.832 7  95994381.434 7                  23442798.960    23442798.660
  23442797.880          47.200          43.400
 114737683.710 7  89240506.346 6                  21524462.460    21524471.960
  21524471.220          42.150          40.400
 121877855.530 7  94793892.179 6                  22839868.920    22839875.760
  22839875.000          46.050          40.900
 120263356.765 7  93538192.147 6                  22513552.780    22513559.180
  22513558.260          42.000          39.550
 107046810.562 7  83258731.950 7                  20046398.340    20046403.580
  20046402.100          43.150          46.650
 118194671.895 7  91929192.870 7                  22095242.520    22095246.600
  22095244.560          46.250          42.700
 106779518.194 7  83050764.404 7                  19947303.560    19947305.880
  19947304.540          47.250          46.900
 124976336.667 7  97203810.235 6                  23412294.480    23412303.920
  23412303.420          43.650          39.800
 126624737.311 6  98485945.456 6                  23679463.360    23679471.820
  23679469.440          39.000          37.600
 112952482.709 8  87851969.822 7                  21093070.460    21093072.960
  21093071.500          48.700          45.350
 15  1 27 13  1 45.0000000  0 20G30G06G07G13G02G23G09G10G20G16G05R14
                                R02R12R13R19R03R18R20R04
 112090650.613 8  87343452.691 8  83704155.570 8  21330109.400    21330109.980
  21330109.200          50.150          48.350
 112289352.041 8  87498197.446 8  83852436.503 8  21367954.080    21367955.540
  21367954.800          49.850          49.100
 108630973.852 8  84647584.600 8                  20671761.260    20671758.240
  20671757.540          49.600          48.450
 131718064.988 7 102637493.60945                  25065109.240
  25065111.660          43.550          33.600
 112339623.773 8  87537372.00547                  21377512.260
  21377506.780          49.550          45.300
 124563418.649 7  97062363.31646                  23703631.560
  23703627.700          47.800          37.850
 112755928.048 8  87861787.554 8  84200889.081 8  21456726.680    21456726.280
  21456725.940          48.850          48.600
 105838510.694 8  82471586.14347                  20140391.740
  20140388.460          49.650          47.050
 113346999.571 8  88322296.05047                  21569222.460
  21569218.840          49.650          44.200
 131657781.610 7 102590481.01945                  25053639.060
  25053639.500          42.200          33.700
 123177842.354 7  95982741.847 7                  23439956.480    23439956.120
  23439955.360          47.450          43.400
 114717580.641 7  89224870.639 6                  21520691.200    21520700.600
  21520699.940          42.100          40.050
 121890928.562 7  94804060.070 6                  22842318.780    22842325.620
  22842324.940          45.950          41.400
 120279566.121 6  93550799.409 6                  22516587.260    22516593.620
  22516592.720          41.700          39.550
 107044630.033 7  83257035.975 7                  20045990.020    20045995.220
  20045993.740          42.650          46.700
 118201451.941 7  91934466.228 7                  22096509.980    22096514.020
  22096512.020          46.150          42.350
 106781599.573 7  83052383.250 7                  19947692.440    19947694.680
  19947693.340          47.650          46.750
 124995630.099 7  97218816.197 6                  23415908.860    23415918.200
  23415917.740          43.100          39.800
 126615167.037 6  98478501.904 6                  23677673.720    23677682.100
  23677679.740          39.100          37.600
 112940916.473 8  87842973.862 7                  21090910.580    21090913.020
  21090911.620          48.400          45.100
 15  1 27 13  1 50.0000000  0 20G30G06G07G13G02G23G09G10G20G16G05R14
                                R02R12R13R19R03R18R20R04
 112078597.934 8  87334060.996 8  83695155.193 8  21327815.820    21327816.420
  21327815.640          50.350          48.400
 112301012.371 8  87507283.405 8  83861143.885 8  21370173.000    21370174.460
  21370173.720          49.650          49.000
 108629298.295 8  84646278.971 8                  20671442.420    20671439.400
  20671438.700          49.750          48.350
 131702869.919 7 102625653.33445                  25062217.720
  25062220.160          43.800          30.950
 112335604.501 8  87534240.10547                  21376747.440
  21376741.920          49.600          45.050
 124576997.232 7  97072944.00646                  23706215.480
  23706211.620          47.750          37.550
 112765891.711 8  87869551.437 8  84208329.469 8  21458622.660    21458622.300
  21458621.900          49.200          48.350
 105837556.706 8  82470842.77547                  20140210.220
  20140206.920          49.550          47.300
 113358451.347 8  88331219.50347                  21571401.660
  21571398.060          49.700          44.250
 131659911.084 7 102592140.39145                  25054044.240
  25054044.580          42.450          33.200
 123162906.606 7  95971103.613 7                  23437114.320    23437113.940
  23437113.200          47.350          43.550
 114697487.240 6  89209242.440 6                  21516921.680    21516931.060
  21516930.440          41.600          39.300
 121904006.119 7  94814231.460 6                  22844769.500    22844776.380
  22844775.800          46.000          41.650
 120295789.142 6  93563417.298 6                  22519624.240    22519630.660
  22519629.740          40.950          39.300
 107042472.608 7  83255357.973 7                  20045585.980    20045591.200
  20045589.720          43.050          46.400
 118208251.185 7  91939754.521 7                  22097781.080    22097785.060
  22097783.060          46.000          42.250
 106783688.874 7  83054008.258 7                  19948082.800    19948084.980
  19948083.640          47.300          46.600
 125014925.589 7  97233823.748 6                  23419523.560    23419532.880
  23419532.440          43.250          39.450
 126605614.760 6  98471072.392 6                  23675887.360    23675895.760
  23675893.460          39.000          37.750
 112929353.364 8  87833980.342 7                  21088751.260    21088753.720
  21088752.320          48.450          45.300
 15  1 27 13  1 55.0000000  0 20G30G06G07G13G02G23G09G10G20G16G05R14
                                R02R12R13R19R03R18R20R04
 112066557.032 8  87324678.481 8  83686163.618 8  21325524.500    21325525.100
  21325524.340          50.250          48.400
 112312684.895 8  87516378.868 8  83869860.364 8  21372394.240    21372395.680
  21372394.920          49.650          48.950
 108627637.890 8  84644985.153 8                  20671126.460    20671123.440
  20671122.740          49.800          48.400
 131687677.194 7 102613814.89045                  25059326.720
  25059329.040          43.900          35.050
 112331600.584 8  87531120.17047                  21375985.520
  21375980.000          49.400          45.350
 124590576.761 7  97083525.44546                  23708799.600
  23708795.720          47.750          37.900
 112775860.011 8  87877318.944 8  84215773.332 8  21460519.580    21460519.180
  21460518.760          49.550          48.350
 105836613.432 8  82470107.75947                  20140030.740
  20140027.420          49.600          47.050
 113369911.299 8  88340149.33147                  21573582.400
  21573578.840          49.550          44.400
 131662055.449 7 102593811.29545                  25054452.280
  25054452.740          42.750          33.750
 123147972.415 7  95959466.594 7                  23434272.440    23434272.020
  23434271.320          47.200          43.500
 114677403.214 7  89193621.537 6                  21513154.000    21513163.420
  21513162.680          42.200          39.600
 121917087.894 7  94824406.149 6                  22847221.060    22847228.000
  22847227.440          45.850          41.100
 120312025.749 6  93576045.754 6                  22522663.760    22522670.240
  22522669.300          40.800          38.900
 107040338.163 7  83253697.847 7                  20045186.280    20045191.520
  20045190.000          43.200          46.350
 118215069.455 7  91945057.607 7                  22099055.700    22099059.740
  22099057.660          46.400          42.100
 106785786.103 7  83055639.446 7                  19948474.620    19948476.740
  19948475.420          47.550          46.600
 125034223.012 7  97248832.838 6                  23423138.660    23423147.960
  23423147.460          43.600          39.950
 126596080.444 6  98463656.828 6                  23674104.320    23674112.820
  23674110.500          38.950          37.800
 112917793.168 8  87824989.078 7                  21086592.500    21086594.940
  21086593.600          48.250          45.450
 15  1 27 13  2  0.0000000  0 20G30G06G07G13G02G23G09G10G20G16G05R14
                                R02R12R13R19R03R18R20R04
 112054529.922 8  87315306.710 8  83677182.342 8  21323235.800    21323236.420
  21323235.640          50.200          48.650
 112324371.602 8  87525485.383 8  83878587.441 8  21374618.160    21374619.580
  21374618.840          49.550          49.050
 108625994.604 8  84643704.672 8                  20670813.740    20670810.740
  20670810.040          49.600          48.450
 131672488.825 7 102601979.80945                  25056436.460
  25056438.860          43.350          30.850
 112327613.986 8  87528013.73247                  21375226.920
  21375221.360          49.450          45.550
 124604159.128 7  97094109.09846                  23711384.260
  23711380.360          47.650          38.250
 112785834.941 8  87885091.627 8  84223222.143 8  21462417.780    21462417.340
  21462416.880          49.750          48.450
 105835682.854 8  82469382.63247                  20139853.660
  20139850.320          49.650          47.250
 113381381.384 8  88349087.04447                  21575765.020
  21575761.560          49.550          44.250
 131664216.653 7 102595495.37345                  25054863.560
  25054864.000          42.550          31.700
 123133041.827 7  95947832.381 7                  23431431.240    23431430.820
  23431430.100          47.550          43.300
 114657330.722 6  89178009.599 6                  21509388.400    21509397.780
  21509397.080          41.700          39.350
 121930176.043 7  94834585.804 6                  22849673.800    22849680.820
  22849680.240          45.850          40.950
 120328277.902 6  93588686.298 6                  22525706.220    22525712.640
  22525711.760          40.850          39.050
 107038228.652 7  83252057.123 7                  20044791.200    20044796.460
  20044794.960          42.700          46.650
 118221908.744 7  91950377.040 7                  22100334.260    22100338.240
  22100336.160          46.250          42.300
 106787893.166 7  83057278.273 7                  19948868.260    19948870.340
  19948869.020          47.800          46.600
 125053524.320 7  97263844.954 6                  23426754.540    23426763.840
  23426763.220          43.350          40.050
 126586566.081 6  98456256.780 6                  23672325.080    23672333.620
  23672331.280          39.250          38.150
 112906237.688 8  87816001.493 7                  21084434.580    21084437.040
  21084435.740          48.450          45.300
 15  1 27 13  2  5.0000000  0 20G30G06G07G13G02G23G09G10G20G16G05R14
                                R02R12R13R19R03R18R20R04
 112042513.994 8  87305943.660 8  83668209.411 8  21320949.240    21320949.880
  21320949.080          50.550          48.600
 112336069.850 8  87534600.895 8  83887323.134 8  21376844.280    21376845.700
  21376844.940          49.600          48.950
 108624365.800 8  84642435.477 8                  20670503.780    20670500.800
  20670500.100          49.450          48.400
 131657302.132 7 102590146.06045                  25053546.460
  25053548.960          43.200          35.000
 112323642.091 8  87524918.75247                  21374471.100
  21374465.520          49.600          45.450
 124617741.753 8  97104692.94246                  23713968.980
  23713965.040          48.100          37.100
 112795813.846 8  87892867.407 8  84230673.932 8  21464316.760    21464316.240
  21464315.760          50.150          48.400
 105834762.361 8  82468665.37347                  20139678.500
  20139675.160          49.750          47.050
 113392858.962 8  88358030.60447                  21577949.100
  21577945.680          49.450          43.900
 131666392.083 7 102597190.52345                  25055277.500
  25055277.820          42.050          33.600
 123118112.229 7  95936198.937 7                  23428590.240    23428589.820
  23428589.040          47.450          43.500
 114637267.113 6  89162404.580 6                  21505624.500    21505633.800
  21505633.120          41.950          39.700
 121943267.957 7  94844768.383 6                  22852127.240    22852134.260
  22852133.720          45.900          40.700
 120344542.888 6  93601336.832 6                  22528751.060    22528757.500
  22528756.640          41.100          39.000
 107036141.466 7  83250433.768 7                  20044400.300    20044405.600
  20044404.100          42.700          46.650
 118228766.499 7  91955710.843 7                  22101616.260    22101620.180
  22101618.160          46.600          42.350
 106790007.361 7  83058922.643 7                  19949263.260    19949265.320
  19949263.960          47.350          46.650
 125072826.873 7  97278858.024 6                  23430370.600    23430379.920
  23430379.260          42.450          40.600
 126577069.029 6  98448870.212 6                  23670549.140    23670557.620
  23670555.280          38.750          38.150
 112894684.512 8  87807015.698 7                  21082277.120    21082279.600
  21082278.300          48.400          45.300
 15  1 27 13  2 10.0000000  0 20G30G06G07G13G02G23G09G10G20G16G05R14
                                R02R12R13R19R03R18R20R04
 112030510.122 8  87296589.989 8  83659245.478 8  21318664.980    21318665.640
  21318664.800          50.450          48.650
 112347780.500 8  87543726.062 8  83896068.080 8  21379072.740    21379074.200
  21379073.400          49.700          49.000
 108622752.399 8  84641178.275 8                  20670196.760    20670193.780
  20670193.100          49.450          48.450
 131642118.078 7 102578314.35845                  25050657.020
  25050659.400          42.550          33.600
 112319685.777 8  87521835.90647                  21373718.240
  21373712.660          49.350          45.300
 124631325.526 8  97115277.68846                  23716553.940
  23716549.860          48.250          36.950
 112805797.625 8  87900646.986 8  84238129.358 8  21466216.680    21466216.080
  21466215.600          50.300          48.550
 105833852.825 8  82467956.64347                  20139505.440
  20139502.080          49.800          46.850
 113404344.948 8  88366980.71547                  21580134.760
  21580131.420          49.250          44.000
 131668582.620 6 102598897.46545                  25055694.300
  25055694.760          41.650          34.550
 123103184.481 7  95924566.940 7                  23425749.600    23425749.140
  23425748.380          47.600          43.200
 114617213.405 6  89146807.260 6                  21501862.460    21501871.740
  21501871.080          41.850          40.000
 121956364.479 7  94854954.564 6                  22854581.580    22854588.520
  22854587.960          46.250          40.600
 120360821.554 6  93613998.001 6                  22531798.460    22531804.940
  22531804.060          40.850          39.450
 107034077.511 7  83248828.453 7                  20044013.760    20044019.080
  20044017.600          42.550          46.850
 118235643.403 7  91961059.535 7                  22102901.840    22102905.760
  22102903.740          46.600          42.900
 106792129.707 7  83060573.361 7                  19949659.760    19949661.800
  19949660.420          47.550          46.900
 125092131.576 7  97293872.754 6                  23433987.100    23433996.400
  23433995.720          42.300          40.650
 126567590.162 6  98441497.765 6                  23668776.600    23668785.060
  23668782.740          38.800          38.300
 112883134.365 7  87798032.254 7                  21080120.220    21080122.660
  21080121.400          47.950          45.600
 15  1 27 13  2 15.0000000  0 20G30G06G07G13G02G23G09G10G20G16G05R14
                                R02R12R13R19R03R18R20R04
 112018519.515 8  87287246.662 8  83650291.454 8  21316383.240    21316383.900
  21316383.060          50.250          48.650
 112359504.752 8  87552861.838 8  83904823.182 8  21381303.820    21381305.240
  21381304.480          49.700          48.950
 108621155.578 8  84639933.992 8                  20669892.880    20669889.900
  20669889.240          49.500          48.400
 131626937.820 7 102566485.58945                  25047768.300
  25047770.620          42.450          35.900
 112315746.261 8  87518766.15347                  21372968.620
  21372963.000          49.450          45.250
 124644911.642 8  97125864.25446                  23719139.320
  23719135.240          48.100          37.050
 112815787.487 8  87908431.300 8  84245589.317 8  21468117.760    21468117.080
  21468116.600          50.300          48.550
 105832955.446 8  82467257.38947                  20139334.680
  20139331.320          49.650          46.950
 113415840.496 8  88375938.27047                  21582322.240
  21582318.960          49.100          44.100
 131670789.444 6 102600617.07845                  25056114.240
  25056114.560          41.050          31.900
 123088259.804 7  95912937.328 7                  23422909.540    23422909.080
  23422908.300          47.700          43.150
 114597170.618 7  89131218.446 6                  21498102.480    21498111.720
  21498111.080          42.900          39.600
 121969466.737 7  94865145.205 6                  22857037.080    22857043.860
  22857043.320          46.300          40.550
 120377115.191 6  93626670.819 6                  22534848.640    22534855.200
  22534854.300          41.250          39.050
 107032038.082 7  83247242.226 7                  20043631.840    20043637.160
  20043635.680          42.750          46.750
 118242540.764 7  91966424.141 7                  22104191.220    22104195.160
  22104193.140          46.600          42.600
 106794261.391 7  83062231.329 7                  19950058.020    19950060.020
  19950058.600          47.500          46.900
 125111439.592 7  97308890.058 6                  23437604.140    23437613.520
  23437612.800          43.050          40.700
 126558130.807 6  98434140.504 6                  23667007.640    23667016.120
  23667013.820          39.300          37.900
 112871588.591 8  87789052.220 7                  21077964.120    21077966.600
  21077965.300          48.300          45.400
 15  1 27 13  2 20.0000000  0 20G30G06G07G13G02G23G09G10G20G16G05R14
                                R02R12R13R19R03R18R20R04
 112006541.214 8  87277912.928 8  83641346.634 8  21314103.840    21314104.500
  21314103.660          50.250          48.650
 112371241.597 8  87562007.418 8  83913587.709 8  21383537.280    21383538.720
  21383537.940          49.850          48.900
 108619574.359 8  84638701.873 8                  20669591.960    20669589.020
  20669588.360          49.450          48.400
 131611760.403 7 102554659.04145                  25044880.080
  25044882.460          42.650          33.400
 112311822.573 8  87515708.73447                  21372221.960
  21372216.360          49.250          45.850
 124658499.096 8  97136451.87246                  23721724.980
  23721720.880          48.150          36.350
 112825782.420 8  87916219.563 8  84253053.084 8  21470019.800    21470019.080
  21470018.600          50.250          48.650
 105832069.282 8  82466566.87147                  20139166.040
  20139162.700          49.600          46.950
 113427344.607 8  88384902.50247                  21584511.380
  21584508.160          49.150          44.000
 131673011.620 6 102602348.68045                  25056537.080
  25056537.280          40.550          34.200
 123073337.259 7  95901309.380 7                  23420069.860    23420069.400
  23420068.620          47.400          43.400
 114577137.872 7  89115637.422 6                  21494344.360    21494353.560
  21494352.980          42.600          40.100
 121982573.768 7  94875339.540 6                  22859493.420    22859500.060
  22859499.560          46.650          40.500
 120393422.722 6  93639354.446 6                  22537901.440    22537908.020
  22537907.180          41.250          39.850
 107030022.181 7  83245674.307 7                  20043254.300    20043259.660
  20043258.180          42.350          47.100
 118249457.691 7  91971803.969 7                  22105484.260    22105488.200
  22105486.180          46.700          42.650
 106796401.322 7  83063895.719 7                  19950457.820    19950459.820
  19950458.360          47.650          47.100
 125130749.957 7  97323909.185 6                  23441221.660    23441231.020
  23441230.360          43.650          41.100
 126548689.778 6  98426797.490 6                  23665242.120    23665250.560
  23665248.280          39.400          38.250
 112860046.238 8  87780074.845 7                  21075808.660    21075811.100
  21075809.860          48.300          45.600
 15  1 27 13  2 25.0000000  0 20G30G06G07G13G02G23G09G10G20G16G05R14
                                R02R12R13R19R03R18R20R04
 111994573.916 8  87268587.759 8  83632410.014 8  21311826.540    21311827.200
  21311826.400          50.200          48.550
 112382989.739 8  87571161.804 8  83922360.656 8  21385772.920    21385774.340
  21385773.580          49.900          48.900
 108618007.452 8  84637480.907 8                  20669293.780    20669290.840
  20669290.200          49.200          48.500
 131596584.504 7 102542833.68845                  25041992.160
  25041994.640          42.700          32.850
 112307913.423 8  87512662.64147                  21371478.100
  21371472.480          49.250          45.400
 124672086.592 8  97147039.52346                  23724310.620
  23724306.520          48.000          37.300
 112835781.131 8  87924010.777 8  84260519.656 8  21471922.540    21471921.780
  21471921.300          49.950          48.650
 105831193.031 8  82465884.07847                  20138999.300
  20138995.960          49.450          47.100
 113438856.006 8  88393872.41147                  21586701.880
  21586698.720          49.150          44.050
 131675247.779 6 102604091.13845                  25056962.620
  25056962.880          40.000          34.400
 123058415.483 7  95889682.045 7                  23417230.340    23417229.880
  23417229.120          47.150          43.000
 114557113.856 7  89100063.204 6                  21490587.880    21490597.120
  21490596.540          42.350          40.300
 121995684.242 7  94885536.567 6                  22861950.360    22861956.960
  22861956.420          46.100          41.050
 120409742.836 6  93652047.843 6                  22540956.620    22540963.220
  22540962.420          41.350          39.700
 107028028.336 7  83244123.539 7                  20042880.880    20042886.280
  20042884.800          42.650          46.850
 118256392.640 7  91977197.804 7                  22106780.680    22106784.580
  22106782.580          46.550          42.100
 106798548.318 7  83065565.605 7                  19950858.900    19950860.880
  19950859.440          47.750          46.900
 125150061.213 7  97338928.999 6                  23444839.320    23444848.840
  23444848.060          43.550          40.350
 126539266.046 6  98419467.947 6                  23663479.880    23663488.360
  23663486.000          39.900          37.700
 112848505.941 8  87771099.071 7                  21073653.560    21073656.040
  21073654.820          48.300          45.650
 15  1 27 13  2 30.0000000  0 20G30G06G07G13G02G23G09G10G20G16G05R14
                                R02R12R13R19R03R18R20R04
 111982620.051 8  87259273.053 8  83623483.420 8  21309551.820    21309552.460
  21309551.660          50.300          48.700
 112394751.554 8  87580326.845 8  83931143.816 8  21388011.140    21388012.560
  21388011.800          49.800          48.900
 108616457.237 8  84636272.948 8                  20668998.760    20668995.860
  20668995.220          49.250          48.450
 131581412.589 7 102531011.44945                  25039105.020
  25039107.540          43.050          33.350
 112304021.194 8  87509629.73247                  21370737.440
  21370731.820          49.200          45.700
 124685676.552 7  97157629.08446                  23726896.720
  23726892.620          47.600          37.700
 112845785.993 8  87931806.774 8  84267990.825 8  21473826.440    21473825.640
  21473825.200          49.750          48.800
 105830329.087 8  82465210.87347                  20138834.900
  20138831.580          49.550          47.200
 113450377.096 8  88402849.87447                  21588894.240
  21588891.140          49.350          44.350
 131677500.387 6 102605846.42745                  25057391.360
  25057391.520          40.350          31.750
 123043496.905 7  95878057.188 7                  23414391.420    23414390.920
  23414390.200          47.150          42.950
 114537101.023 7  89084497.683 6                  21486833.480    21486842.720
  21486842.200          42.000          40.600
 122008800.707 7  94895738.237 6                  22864408.360    22864415.040
  22864414.480          45.650          40.950
 120426078.014 6  93664752.960 6                  22544014.620    22544021.220
  22544020.480          41.550          39.850
 107026059.085 7  83242591.887 7                  20042512.040    20042517.500
  20042516.020          42.450          46.750
 118263348.226 7  91982607.686 7                  22108080.980    22108084.800
  22108082.800          46.650          42.300
 106800704.776 7  83067242.848 7                  19951261.760    19951263.700
  19951262.300          47.950          47.050
 125169375.931 7  97353951.497 6                  23448457.620    23448467.180
  23448466.400          44.000          40.100
 126529861.789 6  98412153.527 6                  23661721.380    23661729.700
  23661727.340          40.400          38.200
 112836970.145 8  87762126.785 7                  21071499.300    21071501.820
  21071500.600          48.100          45.550
 15  1 27 13  2 35.0000000  0 20G30G06G07G13G02G23G09G10G20G16G05R14
                                R02R12R13R19R03R18R20R04
 111970677.675 8  87249967.306 8  83614565.418 8  21307279.300    21307279.900
  21307279.100          50.200          48.450
 112406525.122 8  87589501.035 8  83939935.751 8  21390251.600    21390253.020
  21390252.240          50.000          48.700
 108614921.823 8  84635076.521 8                  20668706.540    20668703.660
  20668703.040          49.300          48.300
 131566242.636 7 102519190.71745                  25036218.240
  25036220.700          43.150          34.100
 112300143.995 8  87506608.52947                  21369999.640
  21369994.020          49.050          45.750
 124699267.023 7  97168219.03446                  23729482.920
  23729478.800          47.400          37.150
 112855795.118 8  87939606.085 8  84275465.167 8  21475731.120    21475730.320
  21475729.920          49.350          48.850
 105829475.538 8  82464545.76247                  20138672.480
  20138669.160          49.650          46.800
 113461905.966 8  88411833.39247                  21591088.120
  21591085.040          49.350          44.350
 131679767.485 6 102607613.01845                  25057822.780
  25057822.980          41.100          35.250
 123028579.635 7  95866433.347 7                  23411552.720    23411552.220
  23411551.500          47.100          42.850
 114517097.396 6  89068939.326 6                  21483080.840    21483090.080
  21483089.600          41.850          40.250
 122021921.138 7  94905942.998 6                  22866867.140    22866873.820
  22866873.280          45.900          40.950
 120442426.164 6  93677468.175 6                  22547075.040    22547081.660
  22547080.960          41.300          39.350
 107024112.507 7  83241077.880 7                  20042147.480    20042152.980
  20042151.480          42.700          46.750
 118270322.284 7  91988031.940 7                  22109384.760    22109388.520
  22109386.520          46.900          42.250
 106802868.833 7  83068925.993 7                  19951666.060    19951667.980
  19951666.560          47.900          46.850
 125188691.964 7  97368975.051 6                  23452076.280    23452085.800
  23452084.980          44.600          40.100
 126520475.216 6  98404852.880 6                  23659966.120    23659974.420
  23659972.000          40.800          38.550
 112825436.826 8  87753156.432 7                  21069345.560    21069348.060
  21069346.840          48.300          45.650
 15  1 27 13  2 40.0000000  0 20G30G06G07G13G02G23G09G10G20G16G05R14
                                R02R12R13R19R03R18R20R04
 111958748.206 8  87240671.626 8  83605657.056 8  21305009.200    21305009.780
  21305009.020          50.450          48.700
 112418311.823 8  87598685.467 8  83948737.502 8  21392494.560    21392495.960
  21392495.200          49.950          48.900
 108613402.614 8  84633892.722 8                  20668417.420    20668414.580
  20668413.940          49.450          48.450
 131551076.123 7 102507372.70545                  25033332.060
  25033334.480          43.450          33.050
 112296283.209 8  87503600.13147                  21369264.980
  21369259.360          49.150          45.650
 124712859.400 7  97178810.46546                  23732069.480
  23732065.380          47.850          37.750
 112865809.873 8  87947409.790 8  84282943.724 8  21477636.820    21477636.080
  21477635.720          49.000          48.950
 105828633.779 8  82463889.84647                  20138512.300
  20138508.980          49.800          46.950
 113473443.980 8  88420824.04047                  21593283.720
  21593280.660          49.550          44.150
 131682050.522 6 102609392.00146                  25058257.220
  25058257.480          40.900          36.400
 123013665.078 7  95854811.626 7                  23408714.520    23408714.040
  23408713.360          47.350          43.000
 114497104.569 6  89053389.366 6                  21479330.220    21479339.540
  21479339.020          41.650          40.100
 122035046.974 7  94916151.957 6                  22869326.880    22869333.580
  22869333.080          45.700          40.800
 120458788.737 6  93690194.603 6                  22550138.180    22550144.800
  22550144.120          41.500          39.350
 107022190.098 7  83239582.673 7                  20041787.500    20041792.940
  20041791.480          42.600          46.700
 118277316.426 7  91993471.820 7                  22110692.280    22110695.960
  22110693.980          46.900          42.350
 106805041.640 7  83070615.966 7                  19952071.980    19952073.860
  19952072.440          47.850          46.600
 125208010.835 7  97384000.815 6                  23455695.440    23455704.900
  23455704.140          43.850          40.900
 126511107.706 6  98397567.050 6                  23658214.440    23658222.720
  23658220.240          40.800          38.850
 112813907.518 7  87744189.192 7                  21067192.540    21067195.040
  21067193.840          47.900          45.700
 15  1 27 13  2 45.0000000  0 20G30G06G07G13G02G23G09G10G20G16G05R14
                                R02R12R13R19R03R18R20R04
 111946832.261 8  87231386.480 8  83596758.787 8  21302741.700    21302742.260
  21302741.480          50.350          48.750
 112430112.225 8  87607880.577 8  83957549.481 8  21394740.120    21394741.520
  21394740.740          49.900          48.750
 108611900.147 8  84632721.972 8                  20668131.480    20668128.640
  20668128.040          49.350          48.450
 131535913.561 7 102495557.75145                  25030446.700
  25030449.180          43.500          33.400
 112292439.419 8  87500604.97247                  21368533.540
  21368527.940          49.050          45.700
 124726454.274 7  97189403.86946                  23734656.520
  23734652.340          47.600          37.300
 112875830.857 8  87955218.344 8  84290426.917 8  21479543.640    21479543.020
  21479542.700          48.450          48.950
 105827804.390 8  82463243.57447                  20138354.480
  20138351.140          49.800          46.800
 113484991.686 8  88429822.25547                  21595481.200
  21595478.140          49.550          44.200
 131684350.015 6 102611183.83145                  25058694.740
  25058695.080          41.300          34.350
 122998753.799 7  95843192.462 7                  23405876.960    23405876.520
  23405875.820          46.900          42.900
 114477123.003 6  89037848.156 6                  21475581.680    21475590.980
  21475590.520          41.550          40.100
 122048178.808 7  94926365.599 6                  22871787.740    22871794.500
  22871793.980          45.600          41.100
 120475166.310 6  93702932.700 6                  22553204.140    22553210.700
  22553210.040          41.650          39.600
 107020292.194 7  83238106.535 7                  20041432.060    20041437.540
  20041436.060          42.250          46.700
 118284331.034 7  91998927.635 7                  22112003.600    22112007.360
  22112005.300          46.450          42.250
 106807224.167 8  83072313.492 7                  19952479.700    19952481.600
  19952480.140          48.050          46.700
 125227333.069 7  97399029.157 6                  23459315.180    23459324.680
  23459323.960          43.450          41.400
 126501759.907 6  98390296.550 6                  23656466.380    23656474.660
  23656472.200          41.100          38.600
 112802382.807 8  87735225.549 7                  21065040.360    21065042.900
  21065041.680          48.000          45.650
 15  1 27 13  2 50.0000000  0 20G30G06G07G13G02G23G09G10G20G16G05R14
                                R02R12R13R19R03R18R20R04
 111934927.527 8  87222110.068 8  83587868.895 8  21300476.320    21300476.860
  21300476.080          50.350          48.700
 112441924.055 8  87617084.589 8  83966369.984 8  21396987.840    21396989.240
  21396988.440          49.900          48.750
 108610412.165 8  84631562.504 8                  20667848.320    20667845.500
  20667844.900          49.250          48.600
 131520752.739 7 102483744.12645                  25027561.640
  25027564.180          43.400          30.400
 112288610.356 8  87497621.28847                  21367804.880
  21367799.300          49.100          45.550
 124740049.306 7  97199997.38646                  23737243.560
  23737239.380          47.700          36.650
 112885855.762 8  87963029.935 8  84297913.036 8  21481451.200    21481450.700
  21481450.420          48.250          48.700
 105826985.117 8  82462605.17647                  20138198.580
  20138195.240          49.900          46.550
 113496546.860 8  88438826.26647                  21597680.100
  21597677.020          49.750          43.950
 131686663.734 6 102612986.75145                  25059135.000
  25059135.400          41.500          32.300
 122983843.574 7  95831574.121 7                  23403039.580    23403039.180
  23403038.480          47.050          42.950
 114457150.466 6  89022313.977 6                  21471834.860    21471844.160
  21471843.720          41.800          39.950
 122061314.230 7  94936582.024 6                  22874249.300    22874256.080
  22874255.580          45.150          41.000
 120491556.615 6  93715680.699 6                  22556272.500    22556278.920
  22556278.340          41.700          39.550
 107018416.717 7  83236647.829 7                  20041080.820    20041086.320
  20041084.840          42.200          46.650
 118291363.902 7  92004397.635 7                  22113318.320    22113322.140
  22113320.040          46.800          42.550
 106809413.766 8  83074016.518 7                  19952888.720    19952890.640
  19952889.140          48.000          46.800
 125246656.351 7  97414058.320 6                  23462935.140    23462944.640
  23462943.980          43.200          41.300
 126492429.434 6  98383039.517 6                  23654721.600    23654729.880
  23654727.360          40.800          38.000
 112790860.299 7  87726263.595 7                  21062888.600    21062891.180
  21062889.960          47.950          45.700
 15  1 27 13  2 55.0000000  0 20G30G06G07G13G02G23G09G10G20G16G05R14
                                R02R12R13R19R03R18R20R04
 111923034.651 8  87212842.896 8  83578987.855 8  21298213.200    21298213.720
  21298212.940          50.400          48.700
 112453747.885 8  87626297.958 8  83975199.461 8  21399237.860    21399239.240
  21399238.440          49.850          48.750
 108608939.307 8  84630414.829 8                  20667568.020    20667565.240
  20667564.620          49.300          48.400
 131505594.269 7 102471932.38244                  25024676.980
  25024679.540          43.350          29.950
 112284796.629 8  87494649.55647                  21367079.160
  21367073.580          49.250          45.350
 124753645.144 7  97210591.52346                  23739830.780
  23739826.580          47.900          36.850
 112895885.197 8  87970845.077 8  84305402.543 8  21483359.640    21483359.240
  21483359.000          48.250          48.600
 105826176.543 8  82461975.12047                  20138044.700
  20138041.360          49.800          46.650
 113508110.088 8  88447836.56947                  21599880.520
  21599877.440          49.650          44.150
 131688992.251 6 102614801.14945                  25059578.080
  25059578.380          41.550          32.950
 122968934.930 7  95819957.007 7                  23400202.500    23400202.160
  23400201.420          46.700          42.850
 114437187.693 6  89006787.371 6                  21468089.860    21468099.160
  21468098.720          41.650          40.000
 122074454.023 7  94946801.857 6                  22876711.680    22876718.460
  22876717.940          45.900          40.750
 120507960.203 6  93728439.036 6                  22559343.320    22559349.680
  22559349.140          41.800          39.650
 107016564.202 7  83235206.993 7                  20040733.900    20040739.420
  20040737.920          42.200          46.400
 118298415.640 7  92009882.289 6                  22114636.520    22114640.400
  22114638.280          46.900          41.950
 106811611.301 8  83075725.710 7                  19953299.260    19953301.180
  19953299.640          48.000          46.700
 125265981.265 7  97429088.771 6                  23466555.340    23466564.860
  23466564.280          43.250          41.050
 126483117.001 6  98375796.541 6                  23652980.180    23652988.440
  23652985.900          40.750          38.800
 112779340.675 7  87717303.904 7                  21060737.380    21060740.020
  21060738.780          47.800          45.550
 15  1 27 13  3  0.0000000  0 20G30G06G07G13G02G23G09G10G20G16G05R14
                                R02R12R13R19R03R18R20R04
 111911154.832 8  87203585.886 8  83570116.553 8  21295952.560    21295953.060
  21295952.280          50.450          48.700
 112465584.900 8  87635521.588 8  83984038.767 8  21401490.360    21401491.760
  21401490.940          49.900          48.850
 108607482.680 8  84629279.780 8                  20667290.800    20667288.040
  20667287.440          49.350          48.450
 131490439.291 7 102460123.31045                  25021793.000
  25021795.540          43.650          30.950
 112280999.435 8  87491690.69147                  21366356.560
  21366351.000          49.250          45.050
 124767242.956 7  97221187.21246                  23742418.400
  23742414.200          47.650          37.250
 112905920.323 8  87978664.642 8  84312896.280 8  21485269.200    21485268.860
  21485268.600          48.800          48.600
 105825379.877 8  82461354.32947                  20137893.120
  20137889.720          49.800          46.750
 113519682.527 8  88456854.03247                  21602082.700
  21602079.620          49.800          44.050
 131691336.727 6 102616628.03445                  25060024.220
  25060024.520          41.150          33.850
 122954029.119 7  95808342.108 7                  23397365.960    23397365.660
  23397364.940          46.700          42.750
 114417235.693 6  88991269.161 6                  21464346.840    21464356.220
  21464355.760          41.850          40.300
 122087599.190 7  94957025.838 6                  22879175.080    22879181.880
  22879181.360          46.000          40.950
 120524378.160 6  93741208.542 6                  22562416.860    22562423.220
  22562422.660          41.750          39.650
 107014735.869 7  83233784.950 7                  20040391.440    20040397.040
  20040395.520          42.700          46.700
 118305487.350 7  92015382.497 6                  22115958.520    22115962.400
  22115960.240          47.200          41.850
 106813817.961 8  83077441.992 7                  19953711.520    19953713.380
  19953711.880          48.150          46.850
 125285308.973 7  97444121.392 6                  23470176.060    23470185.740
  23470185.140          43.800          41.050
 126473823.743 6  98368568.441 6                  23651242.300    23651250.540
  23651248.000          41.100          37.600
 112767825.218 7  87708347.435 7                  21058586.920    21058589.620
  21058588.380          47.650          45.400
 15  1 27 13  3  5.0000000  0 20G30G06G07G13G02G23G09G10G20G16G05R14
                                R02R12R13R19R03R18R20R04
 111899286.597 8  87194337.912 8  83561253.912 8  21293694.120    21293694.620
  21293693.840          50.450          48.850
 112477433.617 8  87644754.349 8  83992886.823 8  21403745.100    21403746.500
  21403745.700          49.800          48.950
 108606040.853 8  84628156.276 8                  20667016.420    20667013.660
  20667013.060          49.550          48.550
 131475286.346 7 102448315.87645                  25018909.440
  25018912.000          43.650          32.800
 112277217.289 8  87488743.56847                  21365636.820
  21365631.300          49.250          45.550
 124780841.282 7  97231783.29246                  23745006.100
  23745001.920          47.750          38.200
 112915959.680 8  87986487.509 8  84320393.206 8  21487179.600    21487179.280
  21487179.020          49.550          48.600
 105824593.629 8  82460741.67047                  20137743.500
  20137740.100          49.700          46.950
 113531262.718 8  88465877.54747                  21604286.360
  21604283.260          49.850          44.050
 131693695.731 6 102618466.22745                  25060473.120
  25060473.300          41.000          34.300
 122939124.675 7  95796728.273 7                  23394529.720    23394529.440
  23394528.680          47.000          43.100
 114397293.077 6  88975758.252 6                  21460605.600    21460614.940
  21460614.580          41.600          40.550
 122100748.374 7  94967252.958 6                  22881639.220    22881646.060
  22881645.540          45.750          40.600
 120540809.114 6  93753988.177 6                  22565492.800    22565499.140
  22565498.600          41.900          39.800
 107012930.242 7  83232380.569 7                  20040053.360    20040058.880
  20040057.380          42.700          46.650
 118312577.656 7  92020897.182 6                  22117284.000    22117287.900
  22117285.700          47.000          41.950
 106816031.996 7  83079164.024 7                  19954125.120    19954127.000
  19954125.500          47.650          47.100
 125304637.954 7  97459155.004 6                  23473797.020    23473806.780
  23473806.200          44.500          41.550
 126464548.274 6  98361354.175 6                  23649507.800    23649515.920
  23649513.400          41.350          38.650
 112756312.285 7  87699392.958 7                  21056436.920    21056439.660
  21056438.440          47.700          45.550
 15  1 27 13  3 10.0000000  0 20G30G06G07G13G02G23G09G10G20G16G05R14
                                R02R12R13R19R03R18R20R04
 111887431.972 8  87185100.547 8  83552401.437 8  21291438.280    21291438.760
  21291437.980          50.400          48.900
 112489296.048 8  87653997.793 8  84001745.132 8  21406002.420    21406003.860
  21406003.060          49.800          49.050
 108604615.976 8  84627045.979 8                  20666745.280    20666742.520
  20666741.920          49.550          48.450
 131460137.529 7 102436511.59945                  25016026.760
  25016029.220          43.650          31.150
 112273452.253 8  87485809.77447                  21364920.380
  21364914.840          49.200          45.950
 124794442.092 7  97242381.31246                  23747594.280
  23747590.140          47.700          37.700
 112926005.284 8  87994315.261 8  84327894.796 8  21489091.240    21489090.900
  21489090.600          50.000          48.600
 105823819.856 8  82460138.73147                  20137596.260
  20137592.840          49.750          46.950
 113542852.722 8  88474908.71347                  21606491.900
  21606488.820          49.750          43.900
 131696071.264 6 102620317.34145                  25060925.180
  25060925.360          41.200          31.850
 122924223.604 7  95785117.060 7                  23391694.100    23391693.840
  23391693.060          47.100          42.950
 114377362.004 6  88960256.338 6                  21456866.540    21456875.960
  21456875.580          41.950          40.350
 122113903.613 7  94977484.804 6                  22884104.480    22884111.300
  22884110.760          45.700          40.250
 120557255.032 6  93766779.447 6                  22568571.560    22568577.900
  22568577.380          41.950          39.950
 107011149.333 7  83230995.422 7                  20039719.860    20039725.340
  20039723.860          42.550          46.400
 118319688.494 7  92026427.829 7                  22118613.320    22118617.200
  22118615.000          46.950          42.200
 106818255.828 7  83080893.673 7                  19954540.580    19954542.420
  19954540.940          47.850          46.850
 125323970.370 7  97474191.274 6                  23477418.680    23477428.420
  23477427.920          45.350          41.350
 126455292.625 6  98354155.385 6                  23647776.960    23647785.140
  23647782.580          41.150          38.250
 112744804.019 7  87690442.099 7                  21054287.740    21054290.600
  21054289.340          47.750          45.350
 15  1 27 13  3 15.0000000  0 20G30G06G07G13G02G23G09G10G20G16G05R14
                                R02R12R13R19R03R18R20R04
 111875587.945 8  87175871.430 8  83543556.873 8  21289184.420    21289184.920
  21289184.140          50.350          48.850
 112501169.181 8  87663249.564 8  84010611.411 8  21408261.780    21408263.240
  21408262.460          49.900          49.000
 108603204.907 8  84625946.443 8                  20666476.740    20666474.000
  20666473.400          49.650          48.400
 131444989.740 7 102424708.14145                  25013144.220
  25013146.780          43.250          32.350
 112269701.301 8  87482886.95247                  21364206.600
  21364201.080          49.250          45.650
 124808042.352 8  97252978.90946                  23750182.360
  23750178.240          48.000          37.550
 112936054.081 8  88002145.498 8  84335398.782 8  21491003.540    21491003.120
  21491002.780          50.150          48.500
 105823055.493 8  82459543.11947                  20137450.820
  20137447.380          49.700          46.850
 113554449.463 8  88483945.11447                  21608698.680
  21608695.620          49.700          44.000
 131698460.303 6 102622178.90745                  25061379.800
  25061379.860          41.350          34.250
 122909322.843 7  95773506.081 7                  23388858.560    23388858.240
  23388857.500          47.250          42.950
 114357439.338 6  88944760.952 6                  21453129.020    21453138.520
  21453138.140          41.900          40.250
 122127061.887 7  94987719.002 6                  22886570.300    22886577.180
  22886576.680          45.700          41.100
 120573715.93216  93779583.01816                  22571652.500    22571658.880
  22571658.380          41.800          39.900
 107009390.051 7  83229627.096 7                  20039390.380    20039395.900
  20039394.360          42.850          46.350
 118326816.893 7  92031972.123 7                  22119945.920    22119949.780
  22119947.580          46.800          42.100
 106820486.199 7  83082628.406 7                  19954957.240    19954959.080
  19954957.600          47.950          46.800
 125343302.944 7  97489227.674 6                  23481040.360    23481050.060
  23481049.620          45.400          40.850
 126446053.736 6  98346969.573 6                  23646049.320    23646057.460
  23646054.860          40.750          38.600
 112733297.234 7  87681492.378 7                  21052138.920    21052141.760
  21052140.520          47.750          45.250
 15  1 27 13  3 20.0000000  0 20G30G06G07G13G02G23G09G10G20G16G05R14
                                R02R12R13R19R03R18R20R04
 111863757.646 8  87166653.018 8  83534722.561 8  21286933.200    21286933.680
  21286932.920          50.300          48.900
 112513056.060 8  87672512.055 8  84019487.965 8  21410523.760    21410525.260
  21410524.460          49.750          49.000
 108601810.697 8  84624860.051 8                  20666211.420    20666208.680
  20666208.080          49.650          48.400
 131429846.115 7 102412907.96145                  25010262.480
  25010265.140          43.250          32.750
 112265967.511 8  87479977.51047                  21363496.080
  21363490.580          49.300          45.700
 124821645.261 7  97263578.55446                  23752770.920
  23752766.860          47.750          38.900
 112946109.203 8  88009980.666 8  84342907.482 8  21492917.060    21492916.560
  21492916.160          50.350          48.500
 105822303.684 8  82458957.29447                  20137307.740
  20137304.300          49.650          47.000
 113566055.998 8  88492989.16147                  21610907.340
  21610904.320          49.600          44.550
 131700866.014 6 102624053.50545                  25061837.600
  25061837.720          41.300          34.150
 122894425.574 7  95761897.822 7                  23386023.660    23386023.340
  23386022.600          46.950          43.050
 114337528.391 7  88929274.678 6                  21449393.800    21449403.360
  21449402.900          42.350          40.150
 122140226.296 7  94997957.949 6                  22889037.240    22889044.180
  22889043.780          45.800          40.750
 120590188.817 7  93792395.251 6                  22574736.220    22574742.700
  22574742.220          42.050          39.850
 107007655.541 7  83228278.043 7                  20039065.540    20039071.100
  20039069.520          43.150          46.200
 118333965.785 7  92037532.356 7                  22121282.300    22121286.260
  22121284.020          46.800          42.250
 106822726.104 8  83084370.552 7                  19955375.700    19955377.520
  19955376.060          48.150          46.950
 125362638.918 7  97504266.730 6                  23484662.700    23484672.300
  23484671.940          45.050          40.750
 126436834.703 6  98339799.231 6                  23644325.360    23644333.480
  23644330.880          40.900          39.250
 112721795.249 7  87672546.396 7                  21049990.960    21049993.880
  21049992.600          47.650          45.300
 15  1 27 13  3 25.0000000  0 20G30G06G07G13G02G23G09G10G20G16G05R14
                                R02R12R13R19R03R18R20R04
 111851940.120 8  87157444.562 8  83525897.787 8  21284684.380    21284684.880
  21284684.100          50.150          48.750
 112524955.789 8  87681784.554 8  84028374.104 8  21412788.180    21412789.700
  21412788.900          49.700          48.900
 108600432.437 8  84623786.082 8                  20665949.140    20665946.380
  20665945.780          49.450          48.300
 131414705.751 7 102401110.30745                  25007381.380
  25007383.920          43.600          33.250
 112262249.928 8  87477080.69047                  21362788.640
  21362783.160          49.400          45.750
 124835249.841 8  97274179.49646                  23755359.820
  23755355.740          48.300          37.800
 112956169.687 8  88017820.021 8  84350420.187 8  21494831.600    21494831.000
  21494830.540          50.350          48.450
 105821563.478 8  82458380.50847                  20137166.880
  20137163.440          49.650          46.900
 113577671.476 8  88502040.17447                  21613117.700
  21613114.700          49.350          44.350
 131703287.371 6 102625940.29045                  25062298.360
  25062298.460          41.200          35.000
 122879530.867 7  95750291.577 7                  23383189.280    23383188.880
  23383188.200          47.200          42.850
 114317628.054 6  88913796.661 6                  21445660.560    21445670.020
  21445669.620          41.750          39.750
 122153395.822 7  95008200.891 6                  22891505.160    22891512.140
  22891511.800          45.500          40.850
 120606675.721 6  93805218.390 6                  22577822.560    22577829.040
  22577828.660          41.650          40.100
 107005944.917 7  83226947.555 7                  20038745.260    20038750.740
  20038749.140          42.650          46.400
 118341134.424 7  92043107.956 7                  22122622.400    22122626.440
  22122624.160          46.950          42.400
 106824974.908 7  83086119.613 7                  19955795.820    19955797.620
  19955796.160          47.800          46.950
 125381977.294 7  97519307.664 6                  23488285.460    23488295.040
  23488294.720          45.150          40.950
 126427634.572 6  98332643.594 6                  23642604.920    23642613.120
  23642610.440          41.150          38.650
 112710297.125 7  87663603.421 7                  21047843.760    21047846.680
  21047845.400          47.450          45.450
 15  1 27 13  3 30.0000000  0 20G30G06G07G13G02G23G09G10G20G16G05R14
                                R02R12R13R19R03R18R20R04
 111840133.926 8  87148244.930 8  83517081.475 8  21282437.720    21282438.220
  21282437.440          49.950          48.000
 112536866.852 8  87691065.886 8  84037268.716 8  21415054.740    21415056.300
  21415055.480          49.700          48.300
 108599068.645 8  84622723.379 7                  20665689.620    20665686.840
  20665686.260          49.200          47.750
 131399567.134 7 102389313.97645                  25004500.620
  25004503.260          43.550          32.450
 112258547.128 8  87474195.38547                  21362084.000
  21362078.560          49.550          44.850
 124848854.660 7  97284780.64446                  23757948.760
  23757944.660          47.850          37.750
 112966234.081 8  88025662.412 7  84357935.818 8  21496746.860    21496746.180
  21496745.680          50.200          47.750
 105820833.420 8  82457811.62747                  20137027.960
  20137024.500          49.550          46.100
 113589294.392 8  88511096.98047                  21615329.480
  21615326.480          49.350          43.700
 131705722.949 6 102627838.14646                  25062761.820
  25062762.120          40.100          37.100
 122864637.209 7  95738686.119 7                  23380355.120    23380354.700
  23380354.020          47.150          42.450
 114297736.875 7  88898325.753 6                  21441929.060    21441938.460
  21441938.020          42.300          40.300
 122166568.990 7  95018446.682 6                  22893973.820    22893980.840
  22893980.480          45.950          41.750
 120623175.274 6  93818051.359 6                  22580911.320    22580917.780
  22580917.500          41.650          40.700
 107004256.755 7  83225634.540 7                  20038429.100    20038434.580
  20038433.000          42.850          47.100
 118348321.123 7  92048697.596 7                  22123965.920    22123969.940
  22123967.640          47.050          42.250
 106827230.842 8  83087874.219 7                  19956217.280    19956219.040
  19956217.600          48.050          47.450
 125401316.612 7  97534349.308 6                  23491908.440    23491918.000
  23491917.660          44.850          41.950
 126418452.012 6  98325501.597 6                  23640887.700    23640895.920
  23640893.260          41.050          39.600
 112698801.253 7  87654662.200 7                  21045696.980    21045699.860
  21045698.640          47.700          46.050
 15  1 27 13  3 35.0000000  0 20G30G06G07G13G02G23G09G10G20G16G05R14
                                R02R12R13R19R03R18R20R04
 111828341.327 8  87139055.900 8  83508275.325 8  21280193.640    21280194.160
  21280193.380          49.850          48.250
 112548791.500 8  87700357.817 8  84046173.465 8  21417323.920    21417325.500
  21417324.660          49.350          48.400
 108597721.562 8  84621673.704 8                  20665433.260    20665430.520
  20665429.920          49.100          48.000
 131384432.490 7 102377520.80645                  25001620.580
  25001623.100          43.200          33.650
 112254861.333 8  87471323.34047                  21361382.620
  21361377.200          49.250          44.850
 124862461.921 7  97295383.68746                  23760538.180
  23760534.060          47.550          37.550
 112976304.618 8  88033509.598 7  84365456.028 8  21498663.300    21498662.540
  21498662.000          49.950          47.800
 105820115.737 8  82457252.39647                  20136891.380
  20136887.920          49.450          46.600
 113600926.997 8  88520161.33947                  21617543.100
  21617540.100          49.350          44.000
 131708175.025 6 102629748.84645                  25063228.360
  25063228.720          39.900          35.700
 122849746.887 7  95727083.291 7                  23377521.580    23377521.160
  23377520.480          46.950          42.800
 114277857.211 7  88882863.796 6                  21438199.700    21438209.060
  21438208.560          42.100          39.800
 122179748.199 7  95028697.163 6                  22896443.640    22896450.680
  22896450.340          46.000          41.900
 120639689.515 6  93830895.756 6                  22584002.840    22584009.300
  22584009.060          41.550          40.350
 107002593.325 7  83224340.776 7                  20038117.580    20038123.140
  20038121.520          43.250          47.000
 118355528.312 7  92054303.183 7                  22125313.240    22125317.180
  22125314.940          47.000          42.200
 106829496.543 7  83089636.441 7                  19956640.580    19956642.300
  19956640.880          47.750          47.350
 125420659.104 7  97549393.427 7                  23495531.980    23495541.560
  23495541.240          45.000          42.000
 126409289.187 6  98318374.974 6                  23639174.280    23639182.360
  23639179.800          40.850          39.650
 112687309.989 7  87645724.550 7                  21043551.060    21043553.920
  21043552.740          47.900          45.650
 15  1 27 13  3 40.0000000  0 20G30G06G07G13G02G23G09G10G20G16G05R14
                                R02R12R13R19R03R18R20R04
 111816560.880 8  87129876.333 8  83499478.240 8  21277951.840    21277952.400
  21277951.620          49.850          48.350
 112560728.260 8  87709659.181 8  84055087.284 8  21419595.400    21419597.000
  21419596.140          49.350          48.600
 108596389.804 8  84620635.971 8                  20665179.820    20665177.100
  20665176.480          49.200          48.250
 131369300.397 7 102365729.58645                  24998741.000
  24998743.480          43.450          34.500
 112251191.108 8  87468463.42347                  21360684.200
  21360678.800          49.250          45.250
 124876070.190 7  97305987.51546                  23763127.720
  23763123.700          47.250          37.800
 112986379.832 8  88041360.419 8  84372979.733 8  21500580.560    21500579.780
  21500579.200          49.650          48.050
 105819408.995 8  82456701.68647                  20136756.880
  20136753.440          49.550          46.300
 113612567.825 8  88529232.11247                  21619758.280
  21619755.300          49.400          43.850
 131710642.124 6 102631671.31145                  25063697.780
  25063698.200          40.750          35.550
 122834858.468 7  95715481.950 7                  23374688.400    23374688.000
  23374687.300          47.100          42.850
 114257987.623 7  88867409.689 6                  21434472.220    21434481.540
  21434481.040          42.100          39.700
 122192931.861 7  95038951.097 6                  22898914.200    22898921.260
  22898921.020          46.200          41.650
 120656217.076 6  93843750.511 6                  22587096.800    22587103.260
  22587103.100          41.350          40.250
 107000953.009 7  83223064.981 7                  20037810.460    20037815.960
  20037814.360          42.800          46.850
 118362754.454 7  92059923.507 7                  22126664.080    22126668.100
  22126665.780          47.100          42.300
 106831770.245 7  83091404.882 7                  19957065.340    19957067.040
  19957065.640          47.800          47.150
 125440003.208 7  97564438.793 7                  23499155.900    23499165.420
  23499165.100          45.650          42.000
 126400144.570 6  98311262.490 6                  23637464.200    23637472.280
  23637469.760          40.400          40.100
 112675821.874 7  87636789.366 7                  21041405.740    21041408.640
  21041407.420          47.900          45.950
 15  1 27 13  3 45.0000000  0 20G30G06G07G13G02G23G09G10G20G16G05R14
                                R02R12R13R19R03R18R20R04
 111804793.042 8  87120706.592 8  83490690.569 8  21275712.440    21275713.040
  21275712.260          49.950          48.400
 112572677.599 8  87718970.348 8  84064010.472 8  21421869.260    21421870.880
  21421870.020          49.400          48.600
 108595073.802 8  84619610.512 8                  20664929.380    20664926.660
  20664926.060          49.300          48.100
 131354171.373 7 102353940.78345                  24995862.020
  24995864.460          43.550          32.800
 112247536.930 8  87465616.01047                  21359988.820
  21359983.440          49.100          45.200
 124889679.888 7  97316592.45046                  23765717.580
  23765713.620          47.750          37.250
 112996460.210 8  88049215.260 8  84380507.285 8  21502498.780    21502498.040
  21502497.420          49.200          48.000
 105818713.662 8  82456159.87047                  20136624.560
  20136621.120          49.350          46.700
 113624217.345 8  88538309.65147                  21621975.100
  21621972.140          49.550          43.950
 131713124.698 6 102633605.78045                  25064170.120
  25064170.480          40.600          32.600
 122819972.408 7  95703882.433 7                  23371855.660    23371855.260
  23371854.560          47.250          42.650
 114238128.588 6  88851963.785 6                  21430746.760    21430756.000
  21430755.500          41.700          39.800
 122206120.461 7  95049208.873 6                  22901385.760    22901392.760
  22901392.600          46.250          41.600
 120672758.432 6  93856615.995 6                  22590193.340    22590200.000
  22590199.720          41.350          40.150
 106999336.367 7  83221807.593 7                  20037507.700    20037513.220
  20037511.620          42.750          46.800
 118369999.980 7  92065558.908 7                  22128018.540    22128022.620
  22128020.260          47.050          42.300
 106834052.637 8  83093180.079 7                  19957491.740    19957493.460
  19957492.020          48.050          46.950
 125459349.473 7  97579485.854 6                  23502780.220    23502789.700
  23502789.400          45.650          41.300
 126391018.907 6  98304164.773 6                  23635757.700    23635765.700
  23635763.260          40.450          39.450
 112664337.502 7  87627857.076 7                  21039261.100    21039263.960
  21039262.800          47.950          45.850
 15  1 27 13  3 50.0000000  0 20G30G06G07G13G02G23G09G10G20G16G05R14
                                R02R12R13R19R03R18R20R04
 111793037.539 8  87111546.457 8  83481912.107 8  21273475.400    21273476.040
  21273475.260          49.900          48.350
 112584639.179 8  87728291.059 8  84072942.812 8  21424145.480    21424147.120
  21424146.260          49.350          48.650
 108593773.207 8  84618597.061 8                  20664681.880    20664679.160
  20664678.560          49.500          48.150
 131339045.045 7 102342154.06145                  24992983.520
  24992986.000          43.450          32.300
 112243898.475 8  87462780.85247                  21359296.460
  21359291.060          49.100          45.650
 124903290.750 7  97327198.30746                  23768307.640
  23768303.740          47.550          37.350
 113006545.424 8  88057073.860 8  84388038.442 8  21504417.900    21504417.180
  21504416.560          49.000          48.100
 105818029.446 8  82455626.71447                  20136494.360
  20136490.940          49.450          46.650
 113635875.269 8  88547393.72847                  21624193.540
  21624190.580          49.700          43.800
 131715622.479 6 102635552.11945                  25064645.440
  25064645.800          41.050          34.750
 122805088.387 7  95692284.505 7                  23369023.340    23369022.940
  23369022.200          47.500          42.700
 114218279.755 7  88836525.820 6                  21427023.160    21427032.400
  21427031.900          42.100          39.900
 122219313.805 7  95059470.348 6                  22903858.240    22903865.300
  22903865.100          46.500          41.650
 120689313.300 6  93869491.983 6                  22593292.400    22593299.120
  22593298.840          41.750          39.800
 106997743.078 7  83220568.372 7                  20037209.300    20037214.860
  20037213.240          42.950          46.850
 118377264.556 7  92071209.120 7                  22129376.600    22129380.660
  22129378.320          47.100          42.750
 106836343.160 8  83094961.593 7                  19957919.640    19957921.360
  19957919.920          48.050          46.950
 125478697.437 7  97594534.228 6                  23506404.820    23506414.220
  23506414.000          44.800          41.300
 126381911.607 6  98297081.311 6                  23634054.580    23634062.540
  23634060.160          40.600          39.600
 112652856.278 8  87618927.251 7                  21037117.060    21037119.920
  21037118.780          48.300          45.950
 15  1 27 13  3 55.0000000  0 20G30G06G07G13G02G23G09G10G20G16G05R14
                                R02R12R13R19R03R18R20R04
 111781294.148 8  87102395.767 8  83473142.699 8  21271240.640    21271241.340
  21271240.580          50.000          48.350
 112596612.809 8  87737621.144 8  84081884.152 8  21426423.980    21426425.640
  21426424.800          49.400          48.650
 108592487.877 8  84617595.512 8                  20664437.280    20664434.560
  20664433.980          49.450          48.150
 131323921.250 7 102330369.31445                  24990105.500
  24990108.140          43.200          32.450
 112240275.590 8  87459957.82747                  21358607.020
  21358601.660          49.150          45.100
 124916902.532 7  97337804.87246                  23770897.880
  23770894.020          47.600          38.300
 113016635.242 8  88064936.050 8  84395573.050 8  21506337.840    21506337.200
  21506336.580          48.600          48.300
 105817356.149 8  82455102.06447                  20136366.220
  20136362.800          49.350          46.700
 113647541.374 8  88556484.18747                  21626413.520
  21626410.560          49.450          43.600
 131718135.193 6 102637510.05346                  25065123.580
  25065123.800          41.500          36.300
 122790206.253 7  95680688.049 7                  23366191.360    23366191.000
  23366190.180          47.750          42.600
 114198440.973 6  88821095.665 6                  21423301.420    21423310.680
  21423310.140          41.600          39.700
 122232511.605 7  95069735.285 6                  22906331.540    22906338.620
  22906338.400          45.850          41.150
 120705881.367 6  93882378.254 6                  22596393.900    22596400.760
  22596400.440          41.600          39.550
 106996172.955 7  83219347.165 7                  20036915.280    20036920.800
  20036919.200          43.050          46.750
 118384548.016 7  92076874.027 7                  22130738.240    22130742.260
  22130739.880          46.850          42.100
 106838641.775 8  83096749.409 7                  19958349.020    19958350.800
  19958349.320          48.000          47.050
 125498047.023 7  97609583.848 6                  23510029.700    23510039.040
  23510038.860          44.350          40.900
 126372822.742 6  98290012.219 6                  23632354.920    23632362.860
  23632360.520          40.300          39.750
 112641378.139 7  87609999.822 7                  21034973.560    21034976.460
  21034975.320          47.750          45.850
 15  1 27 13  4  0.0000000  0 20G30G06G07G13G02G23G09G10G20G16G05R14
                                R02R12R13R19R03R18R20R04
 111769563.232 8  87093254.800 8  83464382.606 8  21269008.260    21269009.020
  21269008.240          49.950          48.400
 112608598.804 8  87746960.866 8  84090834.715 8  21428704.840    21428706.500
  21428705.700          49.300          48.700
 108591218.166 8  84616606.125 8                  20664195.620    20664192.920
  20664192.360          49.250          48.000
 131308800.325 7 102318586.79545                  24987228.040
  24987230.640          42.850          31.200
 112236668.589 8  87457147.17247                  21357920.640
  21357915.260          49.300          45.150
 124930515.586 7  97348412.43246                  23773488.360
  23773484.580          47.600          36.350
 113026730.026 8  88072802.107 8  84403111.349 8  21508258.680    21508258.160
  21508257.600          48.350          48.350
 105816694.107 8  82454586.18747                  20136240.240
  20136236.840          49.200          47.050
 113659215.987 8  88565581.28447                  21628635.140
  21628632.160          49.350          43.900
 131720663.204 6 102639479.96545                  25065604.600
  25065604.760          41.400          32.100
 122775326.286 7  95669093.272 7                  23363359.820    23363359.420
  23363358.560          47.650          42.850
 114178612.645 7  88805673.642 6                  21419581.680    21419590.900
  21419590.320          42.450          39.550
 122245714.146 7  95080003.917 6                  22908805.700    22908812.780
  22908812.560          46.200          41.050
 120722462.923 6  93895275.026 6                  22599498.040    22599504.860
  22599504.540          41.700          39.250
 106994626.302 7  83218144.210 7                  20036625.700    20036631.160
  20036629.560          43.300          46.600
 118391850.549 7  92082553.772 6                  22132103.380    22132107.440
  22132105.020          47.000          41.700
 106840948.807 8  83098543.757 7                  19958780.020    19958781.780
  19958780.280          48.150          46.700
 125517398.493 7  97624634.950 6                  23513654.900    23513664.280
  23513664.080          43.900          40.850
 126363752.439 6  98282957.557 6                  23630658.660    23630666.600
  23630664.300          40.250          38.900
 112629903.508 8  87601075.112 7                  21032830.700    21032833.640
  21032832.520          48.050          45.400
 15  1 27 13  4  5.0000000  0 20G30G06G07G13G02G23G09G10G20G16G05R14
                                R02R12R13R19R03R18R20R04
 111757844.866 8  87084123.615 8  83455631.874 8  21266778.300    21266779.080
  21266778.300          50.000          48.450
 112620597.242 8  87756310.289 8  84099794.564 8  21430988.060    21430989.740
  21430988.960          49.250          48.750
 108589964.099 8  84615628.934 8                  20663956.980    20663954.300
  20663953.720          49.200          48.100
 131293682.334 7 102306806.58545                  24984351.120
  24984353.700          42.800          32.750
 112233077.558 8  87454348.96447                  21357237.300
  21357231.900          49.200          45.750
 124944129.975 7  97359021.03846                  23776079.120
  23776075.380          47.400          37.500
 113036829.833 8  88080672.081 8  84410653.402 8  21510180.480    21510180.100
  21510179.560          48.550          48.450
 105816043.386 8  82454079.13247                  20136116.400
  20136113.020          49.150          47.200
 113670899.179 8  88574685.06447                  21630858.380
  21630855.420          49.250          44.000
 131723206.623 6 102641461.84645                  25066088.640
  25066088.760          41.400          34.150
 122760448.653 7  95657500.325 7                  23360528.720    23360528.260
  23360527.460          47.600          43.200
 114158794.841 6  88790259.803 6                  21415863.820    21415873.100
  21415872.500          41.900          39.400
 122258921.506 7  95090276.294 6                  22911280.760    22911287.800
  22911287.600          46.150          40.500
 120739058.079 7  93908182.371 6                  22602604.640    22602611.460
  22602611.160          42.250          39.600
 106993103.152 7  83216959.547 7                  20036340.480    20036345.920
  20036344.340          43.100          46.600
 118399172.466 7  92088248.584 6                  22133472.120    22133476.200
  22133473.760          46.450          41.300
 106843264.270 8  83100344.677 7                  19959212.600    19959214.360
  19959212.820          48.300          46.700
 125536751.874 7  97639687.524 6                  23517280.460    23517289.820
  23517289.620          43.250          40.700
 126354700.899 6  98275917.465 6                  23628965.860    23628973.900
  23628971.560          40.200          39.400
 112618432.424 7  87592153.167 7                  21030688.480    21030691.480
  21030690.340          47.800          45.150
 15  1 27 13  4 10.0000000  0 20G30G06G07G13G02G23G09G10G20G16G05R14
                                R02R12R13R19R03R18R20R04
 111746140.401 8  87075003.252 8  83446891.535 8  21264550.980    21264551.780
  21264551.020          50.150          48.650
 112632609.400 8  87765670.395 8  84108764.674 8  21433273.880    21433275.560
  21433274.820          49.300          48.750
 108588727.009 8  84614664.961 8                  20663721.560    20663718.880
  20663718.320          49.200          48.300
 131278568.581 7 102295029.65645                  24981475.080
  24981477.640          43.200          32.900
 112229503.795 8  87451564.21047                  21356557.240
  21356551.840          49.150          45.900
 124957746.980 7  97369631.67146                  23778670.340
  23778666.620          47.200          37.950
 113046935.960 8  88088546.977 8  84418200.177 8  21512103.540    21512103.240
  21512102.760          48.650          48.800
 105815405.320 8  82453581.93547                  20135994.980
  20135991.600          49.100          47.200
 113682592.266 8  88583796.55247                  21633083.500
  21633080.540          49.450          44.100
 131725766.716 6 102643456.72745                  25066575.800
  25066575.840          41.700          32.200
 122745574.609 7  95645910.179 7                  23357698.280    23357697.840
  23357697.060          47.600          43.600
 114138988.837 7  88774855.160 6                  21412148.260    21412157.480
  21412156.940          42.250          39.600
 122272135.131 7  95100553.534 6                  22913757.020    22913764.020
  22913763.760          46.350          40.150
 120755668.192 7  93921101.338 6                  22605714.160    22605720.940
  22605720.600          42.600          38.950
 106991604.996 7  83215794.325 7                  20036059.920    20036065.380
  20036063.820          43.000          46.600
 118406514.870 7  92093959.326 6                  22134844.700    22134848.740
  22134846.320          46.650          40.900
 106845589.580 8  83102153.262 7                  19959646.980    19959648.740
  19959647.220          48.100          46.700
 125556108.496 7  97654742.597 6                  23520906.680    23520916.000
  23520915.780          43.400          40.200
 126345669.429 6  98268893.004 6                  23627276.960    23627284.900
  23627282.560          40.550          38.300
 112606966.103 7  87583234.930 7                  21028547.180    21028550.220
  21028549.040          47.900          45.250
 15  1 27 13  4 15.0000000  0 20G30G06G07G13G02G23G09G10G20G16G05R14
                                R02R12R13R19R03R18R20R04
 111734445.688 8  87065890.484 8  83438158.468 8  21262325.540    21262326.360
  21262325.580          50.100          48.600
 112644631.137 8  87775037.974 8  84117741.931 8  21435561.520    21435563.220
  21435562.500          49.000          48.650
 108587502.762 8  84613710.994 8                  20663488.580    20663485.900
  20663485.360          49.350          48.400
 131263454.962 7 102283252.82245                  24978599.000
  24978601.620          43.200          32.300
 112225943.206 8  87448789.72347                  21355879.660
  21355874.280          49.150          45.700
 124971362.501 7  97380241.14146                  23781261.300
  23781257.580          47.350          37.350
 113057044.281 8  88096423.574 8  84425748.596 8  21514027.060    21514026.780
  21514026.360          49.250          48.800
 105814775.764 8  82453091.36847                  20135875.160
  20135871.800          49.150          47.150
 113694291.133 8  88592912.54147                  21635309.720
  21635306.760          49.600          44.050
 131728339.371 6 102645461.40845                  25067065.360
  25067065.520          41.400          32.950
 122730700.049 7  95634319.628 7                  23354867.740    23354867.300
  23354866.520          47.700          43.600
 114119190.578 6  88759456.541 6                  21408434.140    21408443.400
  21408442.800          41.850          39.450
 122285350.817 7  95110832.406 6                  22916233.680    22916240.580
  22916240.280          45.900          40.200
 120772288.935 7  93934028.582 6                  22608825.620    22608832.380
  22608832.040          42.200          39.200
 106990127.548 7  83214645.203 7                  20035783.280    20035788.700
  20035787.180          42.750          46.750
 118413873.640 7  92099682.808 6                  22136220.320    22136224.420
  22136221.900          46.850          41.000
 106847920.527 8  83103966.217 7                  19960082.400    19960084.200
  19960082.680          48.150          46.750
 125575464.146 7  97669796.944 6                  23524532.640    23524541.960
  23524541.760          43.350          39.700
 126336653.902 6  98261880.913 6                  23625590.960    23625598.920
  23625596.540          39.650          38.650
 112595500.541 7  87574317.268 7                  21026406.020    21026409.100
  21026407.860          47.800          45.250
 15  1 27 13  4 20.0000000  0 20G30G06G07G13G02G23G09G10G20G16G05R14
                                R02R12R13R19R03R18R20R04
 111722765.284 8  87056788.874 8  83429436.086 8  21260102.800    21260103.660
  21260102.880          50.050          48.650
 112656666.994 8  87784416.554 8  84126729.733 8  21437851.860    21437853.580
  21437852.840          49.200          48.700
 108586295.890 8  84612770.581 8                  20663258.920    20663256.260
  20663255.700          49.450          48.650
 131248345.976 7 102271479.65645                  24975723.820
  24975726.580          42.950          35.250
 112222400.282 8  87446029.00747                  21355205.460
  21355200.080          49.100          45.950
 124984981.089 7  97390853.00946                  23783852.820
  23783849.140          47.650          37.900
 113067159.300 8  88104305.415 8  84433302.023 8  21515951.900    21515951.600
  21515951.240          49.600          48.950
 105814159.296 8  82452610.99947                  20135757.860
  20135754.500          49.250          47.150
 113706000.325 8  88602036.58247                  21637537.920
  21637534.960          49.650          44.300
 131730929.123 6 102647479.40545                  25067558.100
  25067558.320          40.700          34.050
 122715829.558 7  95622732.240 7                  23352037.980    23352037.500
  23352036.740          47.850          43.550
 114099404.686 7  88744067.537 6                  21404722.320    21404731.540
  21404730.980          42.600          39.700
 122298573.009 7  95121116.319 6                  22918711.540    22918718.500
  22918718.100          45.850          40.100
 120788924.994 7  93946967.735 6                  22611939.940    22611946.780
  22611946.360          42.300          39.800
 106988675.350 7  83213515.716 7                  20035511.340    20035516.740
  20035515.240          42.800          46.750
 118421253.244 7  92105422.497 6                  22137599.880    22137603.980
  22137601.420          46.550          41.350
 106850261.675 7  83105787.117 7                  19960519.720    19960521.540
  19960520.040          47.850          47.000
 125594823.421 7  97684854.133 6                  23528159.280    23528168.660
  23528168.420          43.700          39.800
 126327658.802 6  98254884.777 6                  23623908.720    23623916.800
  23623914.360          39.650          38.550
 112584040.362 8  87565403.806 7                  21024265.940    21024268.940
  21024267.660          48.100          45.050
 15  1 27 13  4 25.0000000  0 20G30G06G07G13G02G23G09G10G20G16G05R14
                                R02R12R13R19R03R18R20R04
 111711097.854 8  87047697.367 8  83420723.395 8  21257882.560    21257883.420
  21257882.620          50.100          48.700
 112668715.629 8  87793805.088 8  84135727.073 8  21440144.620    21440146.380
  21440145.640          48.950          48.800
 108585105.041 8  84611842.645 8                  20663032.320    20663029.660
  20663029.080          49.550          48.700
 131233240.324 7 102259709.04245                  24972849.240
  24972852.000          42.950          31.350
 112218873.704 8  87443281.02047                  21354534.380
  21354529.000          49.100          45.900
 124998601.316 7  97401466.16346                  23786444.680
  23786441.000          47.850          37.600
 113077279.720 8  88112191.453 8  84440859.476 8  21517877.780    21517877.460
  21517877.140          49.950          48.950
 105813554.533 8  82452139.75147                  20135642.760
  20135639.420          49.350          47.050
 113717718.478 8  88611167.59047                  21639767.780
  21639764.880          49.650          44.200
 131733534.593 6 102649509.63545                  25068053.840
  25068054.020          41.350          33.750
 122700961.772 7  95611146.954 7                  23349208.760    23349208.300
  23349207.480          47.900          43.600
 114079629.836 7  88728687.104 6                  21401012.600    21401021.860
  21401021.260          42.050          39.650
 122311800.468 7  95131404.304 6                  22921190.400    22921197.340
  22921196.880          45.600          40.150
 120805574.978 7  93959917.710 6                  22615056.860    22615063.800
  22615063.300          42.400          39.950
 106987247.065 7  83212404.823 7                  20035243.820    20035249.240
  20035247.780          42.850          46.850
 118428652.479 7  92111177.448 6                  22138983.060    22138987.240
  22138984.660          46.400          41.650
 106852611.754 7  83107614.946 7                  19960958.720    19960960.580
  19960959.100          47.800          47.050
 125614184.945 7  97699913.061 6                  23531786.380    23531795.780
  23531795.500          43.800          40.900
 126318682.921 6  98247903.540 6                  23622230.140    23622238.240
  23622235.760          39.100          38.150
 112572584.058 8  87556493.339 7                  21022126.560    21022129.500
  21022128.180          48.450          45.100
 15  1 27 13  4 30.0000000  0 20G30G06G07G13G02G23G09G10G20G16G05R14
                                R02R12R13R19R03R18R20R04
 111699443.197 8  87038615.824 8  83412020.248 8  21255664.760    21255665.620
  21255664.840          50.300          48.700
 112680776.792 8  87803203.391 8  84144733.771 8  21442439.740    21442441.560
  21442440.820          49.150          48.750
 108583930.047 8  84610927.067 8                  20662808.720    20662806.060
  20662805.480          49.600          48.600
 131218137.775 7 102247940.83545                  24969975.280
  24969978.120          43.100          31.600
 112215363.293 8  87440545.63547                  21353866.360
  21353860.980          49.250          45.900
 125012222.995 8  97412080.44046                  23789036.800
  23789033.220          48.000          37.400
 113087405.299 8  88120081.518 8  84448420.790 8  21519804.720    21519804.320
  21519804.020          50.200          48.900
 105812961.290 8  82451677.48847                  20135529.840
  20135526.540          49.400          46.950
 113729445.334 8  88620305.39247                  21641999.320
  21641996.460          49.650          44.400
 131736155.653 6 102651552.04045                  25068552.580
  25068552.940          41.650          34.650
 122686096.456 7  95599563.596 7                  23346379.980    23346379.520
  23346378.720          47.700          43.650
 114059865.698 7  88713315.026 6                  21397304.860    21397314.100
  21397313.580          42.250          39.450
 122325033.003 7  95141696.252 6                  22923670.180    22923677.160
  22923676.660          44.950          40.650
 120822238.720 7  93972878.392 6                  22618176.360    22618183.320
  22618182.820          42.100          39.900
 106985842.550 7  83211312.426 7                  20034980.800    20034986.200
  20034984.780          43.250          46.850
 118436071.111 7  92116947.487 6                  22140369.920    22140374.060
  22140371.520          46.250          41.550
 106854970.441 7  83109449.472 7                  19961399.320    19961401.160
  19961399.760          47.700          47.150
 125633548.466 7  97714973.521 6                  23535413.920    23535423.260
  23535423.000          44.100          40.450
 126309725.965 6  98240937.021 6                  23620555.060    23620563.240
  23620560.740          38.950          38.700
 112561131.486 8  87547585.798 7                  21019987.900    21019990.780
  21019989.420          48.350          44.650
 15  1 27 13  4 35.0000000  0 20G30G06G07G13G02G23G09G10G20G16G05R14
                                R02R12R13R19R03R18R20R04
 111687799.468 8  87029542.794 8  83403325.255 8  21253449.040    21253449.880
  21253449.100          50.350          48.650
 112692848.649 8  87812610.017 8  84153748.454 8  21444736.880    21444738.780
  21444738.040          49.200          48.850
 108582768.999 8  84610022.348 8                  20662587.760    20662585.140
  20662584.560          49.550          48.400
 131203036.522 7 102236173.67145                  24967101.580
  24967104.460          43.800          32.200
 112211867.210 8  87437821.40647                  21353201.060
  21353195.720          49.250          45.750
 125025844.336 7  97422694.44646                  23791628.840
  23791625.300          47.850          37.800
 113097534.182 8  88127974.155 8  84455984.565 8  21521732.240    21521731.760
  21521731.500          50.250          48.850
 105812377.710 8  82451222.74647                  20135418.780
  20135415.480          49.600          46.600
 113741179.064 8  88629448.54647                  21644232.180
  21644229.320          49.650          44.200
 131738790.367 6 102653605.06045                  25069053.900
  25069054.400          41.500          34.250
 122671231.766 7  95587980.735 7                  23343551.300    23343550.820
  23343550.060          47.800          43.350
 114040110.427 6  88697949.828 6                  21393598.820    21393608.080
  21393607.540          41.900          39.800
 122338268.765 7  95151990.717 6                  22926150.500    22926157.560
  22926157.080          44.950          41.500
 120838914.249 6  93985848.244 6                  22621298.060    22621305.080
  22621304.560          41.700          39.900
 106984459.932 7  83210237.055 7                  20034721.900    20034727.280
  20034725.900          43.300          46.950
 118443507.166 7  92122731.068 6                  22141760.000    22141764.160
  22141761.620          46.250          41.300
 106857335.958 7  83111289.317 7                  19961841.220    19961843.060
  19961841.680          47.500          47.150
 125652912.089 7  97730034.065 6                  23539041.400    23539050.780
  23539050.480          44.250          40.100
 126300786.040 6  98233983.771 6                  23618883.160    23618891.360
  23618888.900          39.300          37.950
 112549680.719 8  87538679.656 7                  21017849.580    21017852.420
  21017851.040          48.400          45.100
 15  1 27 13  4 40.0000000  0 20G30G06G07G13G02G23G09G10G20G16G05R14
                                R02R12R13R19R03R18R20R04
 111676169.079 8  87020480.159 8  83394640.240 8  21251235.900    21251236.700
  21251235.920          50.350          48.800
 112704933.559 8  87822026.820 8  84162772.894 8  21447036.540    21447038.480
  21447037.740          49.100          48.850
 108581624.332 8  84609130.397 8                  20662369.940    20662367.300
  20662366.720          49.400          48.600
 131187938.918 7 102224409.32545                  24964228.580
  24964231.520          42.900          32.500
 112208387.801 8  87435110.17647                  21352538.960
  21352533.600          49.200          45.800
 125039467.669 8  97433310.01946                  23794221.300
  23794217.740          48.050          38.150
 113107668.752 8  88135871.226 8  84463552.600 8  21523660.880    21523660.320
  21523660.060          50.200          48.900
 105811806.207 8  82450777.41747                  20135310.020
  20135306.720          49.550          46.750
 113752922.050 8  88638598.92047                  21646466.800
  21646463.960          49.600          44.300
 131741441.183 6 102655670.66045                  25069558.340
  25069558.880          41.400          35.250
 122656370.121 7  95576400.240 7                  23340723.220    23340722.760
  23340721.940          47.650          43.650
 114020366.500 6  88682593.465 6                  21389894.820    21389904.180
  21389903.620          41.800          40.250
 122351510.042 7  95162289.477 6                  22928631.860    22928639.040
  22928638.560          45.350          41.600
 120855603.835 6  93998829.027 6                  22624422.440    22624429.320
  22624428.920          41.950          39.950
 106983101.706 7  83209180.671 7                  20034467.540    20034472.940
  20034471.560          43.300          46.900
 118450963.073 7  92128530.106 6                  22143153.780    22143157.880
  22143155.400          46.300          41.350
 106859710.682 7  83113136.327 7                  19962284.860    19962286.700
  19962285.340          47.600          47.100
 125672278.300 7  97745096.630 6                  23542669.380    23542678.840
  23542678.480          45.000          39.700
 126291865.687 6  98227045.695 6                  23617214.940    23617223.240
  23617220.700          39.350          39.000
 112538234.305 8  87529776.900 7                  21015712.020    21015714.820
  21015713.460          48.100          44.750
 15  1 27 13  4 45.0000000  0 20G30G06G07G13G02G23G09G10G20G16G05R14
                                R02R12R13R19R03R18R20R04
 111664550.763 8  87011426.924 8  83385964.223 8  21249025.040    21249025.840
  21249025.020          50.200          48.900
 112717030.236 8  87831452.789 8  84171806.119 8  21449338.420    21449340.420
  21449339.680          48.950          48.800
 108580494.762 8  84608250.217 8                  20662155.000    20662152.360
  20662151.760          49.350          48.500
 131172843.686 7 102212646.86745                  24961355.980
  24961358.800          42.350          31.600
 112204923.824 8  87432410.97547                  21351879.780
  21351874.420          49.150          45.900
 125053091.758 7  97443926.18946                  23796813.900
  23796810.400          47.850          38.250
 113117807.731 8  88143771.735 8  84471123.927 8  21525590.340    21525589.700
  21525589.420          50.000          48.750
 105811245.523 8  82450340.51947                  20135203.300
  20135200.020          49.600          47.000
 113764673.006 8  88647755.50147                  21648702.940
  21648700.100          49.550          44.600
 131744106.779 6 102657747.74945                  25070065.600
  25070066.020          41.600          32.550
 122641510.274 7  95564821.150 7                  23337895.500    23337895.000
  23337894.200          47.550          43.800
 114000632.762 6  88667245.031 6                  21386192.800    21386202.180
  21386201.600          41.350          40.100
 122364755.619 7  95172591.572 6                  22931114.040    22931121.340
  22931120.880          45.550          41.900
 120872306.311 6  94011819.838 6                  22627549.180    22627556.120
  22627555.700          41.950          39.850
 106981766.368 7  83208142.091 7                  20034217.480    20034222.920
  20034221.500          43.550          46.800
 118458437.602 7  92134343.623 6                  22144551.080    22144555.080
  22144552.660          46.550          41.350
 106862093.509 8  83114989.630 7                  19962729.980    19962731.840
  19962730.500          48.100          47.150
 125691645.614 7  97760160.078 6                  23546297.520    23546307.100
  23546306.640          45.100          39.750
 126282963.521 6  98220121.797 6                  23615550.120    23615558.460
  23615555.980          38.550          38.750
 112526790.896 8  87520876.481 7                  21013575.040    21013577.820
  21013576.440          48.400          44.950
 15  1 27 13  4 50.0000000  0 20G30G06G07G13G02G23G09G10G20G16G05R14
                                R02R12R13R19R03R18R20R04
 111652946.055 8  87002384.286 8  83377298.362 8  21246816.760    21246817.500
  21246816.700          50.100          48.950
 112729140.221 8  87840889.122 8  84180849.270 8  21451642.840    21451644.880
  21451644.140          48.750          48.700
 108579381.816 8  84607382.983 8                  20661943.200    20661940.580
  20661939.960          49.200          48.450
 131157752.381 7 102200887.43245                  24958484.180
  24958486.940          42.650          33.800
 112201476.815 8  87429724.98447                  21351223.840
  21351218.480          49.050          45.800
 125066718.121 7  97454544.11146                  23799406.920
  23799403.520          47.650          38.150
 113127952.664 8  88151676.878 8  84478699.679 8  21527520.900    21527520.200
  21527519.920          49.550          48.700
 105810697.187 8  82449913.23747                  20135098.940
  20135095.700          49.400          47.250
 113776433.497 8  88656919.50347                  21650940.900
  21650938.080          49.550          44.350
 131746788.739 6 102659837.57246                  25070575.960
  25070576.320          41.600          36.700
 122626653.721 7  95553244.624 7                  23335068.380    23335067.920
  23335067.100          47.200          43.700
 113980910.754 6  88651905.710 6                  21382493.040    21382502.400
  21382501.800          41.700          40.050
 122378007.099 7  95182898.237 6                  22933597.360    22933604.760
  22933604.300          45.400          41.550
 120889023.322 6  94024821.940 6                  22630678.640    22630685.620
  22630685.220          41.600          39.850
 106980455.713 7  83207122.691 7                  20033972.040    20033977.420
  20033976.040          43.100          46.750
 118465932.176 7  92140172.734 6                  22145952.100    22145956.100
  22145953.680          46.550          41.400
 106864485.714 7  83116850.236 7                  19963176.860    19963178.740
  19963177.440          47.650          47.200
 125711015.677 7  97775225.632 6                  23549926.260    23549935.780
  23549935.320          44.650          39.650
 126274081.255 6  98213213.366 6                  23613889.120    23613897.520
  23613895.020          38.200          39.350
 112515352.084 8  87511979.623 7                  21011438.900    21011441.680
  21011440.280          48.050          44.950
 15  1 27 13  4 55.0000000  0 20G30G06G07G13G02G23G09G10G20G16G05R14
                                R02R12R13R19R03R18R20R04
 111641353.843 8  86993351.400 8  83368641.844 8  21244610.860    21244611.600
  21244610.780          50.150          48.800
 112741262.355 8  87850334.937 8  84189901.499 8  21453949.580    21453951.700
  21453950.920          48.700          48.450
 108578284.368 8  84606527.838 8                  20661734.340    20661731.740
  20661731.120          49.350          48.400
 131142663.900 7 102189130.21945                  24955612.920
  24955615.800          43.250          33.800
 112198045.671 8  87427051.36947                  21350570.920
  21350565.560          49.050          45.650
 125080345.639 7  97465162.94446                  23802000.160
  23801996.860          47.450          38.350
 113138102.407 8  88159585.775 8  84486279.035 8  21529452.340    21529451.620
  21529451.320          49.450          48.550
 105810160.064 8  82449494.70247                  20134996.700
  20134993.480          49.400          46.800
 113788202.380 8  88666090.06047                  21653180.460
  21653177.640          49.700          44.150
 131749485.859 6 102661939.24045                  25071089.260
  25071089.560          41.650          34.800
 122611799.367 7  95541669.825 7                  23332241.660    23332241.240
  23332240.400          47.450          43.300
 113961199.253 6  88636574.567 6                  21378795.200    21378804.520
  21378804.020          41.900          39.800
 122391263.178 7  95193208.506 6                  22936081.540    22936088.980
  22936088.520          45.300          41.300
 120905753.519 6  94037834.314 6                  22633810.520    22633817.480
  22633817.160          40.800          40.100
 106979168.464 7  83206121.510 7                  20033730.960    20033736.400
  20033734.960          43.050          46.750
 118473445.767 7  92146016.642 7                  22147356.680    22147360.620
  22147358.300          46.300          42.000
 106866886.310 8  83118717.379 7                  19963625.320    19963627.200
  19963625.920          48.000          47.350
 125730387.328 7  97790292.430 6                  23553555.260    23553564.780
  23553564.280          44.600          39.200
 126265217.617 6  98206319.460 6                  23612231.480    23612239.980
  23612237.520          37.650          39.200
 112503916.624 7  87503085.384 7                  21009303.420    21009306.140
  21009304.760          47.950          45.150
 15  1 27 13  5  0.0000000  0 20G30G06G07G13G02G23G09G10G20G16G05R14
                                R02R12R13R19R03R18R20R04
 111629773.085 8  86984327.425 8  83359993.870 8  21242407.140    21242407.820
  21242407.040          50.100          48.900
 112753395.591 8  87859789.391 8  84198962.019 8  21456258.440    21456260.560
  21456259.780          48.700          48.450
 108577201.386 8  84605683.951 8                  20661528.240    20661525.640
  20661525.040          49.100          48.400
 131127577.213 7 102177374.38245                  24952742.020
  24952744.940          42.650          32.650
 112194629.357 8  87424389.30447                  21349920.820
  21349915.460          49.050          45.550
 125093973.204 7  97475781.80246                  23804593.400
  23804590.140          47.350          39.350
 113148255.908 8  88167497.592 8  84493861.187 8  21531384.440    21531383.740
  21531383.420          49.050          48.400
 105809633.092 8  82449084.06847                  20134896.420
  20134893.220          49.250          46.800
 113799978.620 8  88675266.34147                  21655421.440
  21655418.580          49.700          44.150
 131752197.166 6 102664051.95345                  25071605.200
  25071605.560          41.650          35.600
 122596946.149 7  95530095.893 7                  23329415.140    23329414.760
  23329413.940          47.250          43.200
 113941497.314 6  88621250.833 6                  21375099.140    21375108.520
  21375107.980          41.900          40.100
 122404522.856 7  95203521.564 6                  22938566.360    22938573.860
  22938573.380          44.800          40.800
 120922495.853 6  94050856.117 6                  22636944.660    22636951.700
  22636951.400          40.600          40.500
 106977903.548 7  83205137.687 7                  20033494.080    20033499.480
  20033498.060          43.000          46.850
 118480977.139 7  92151874.355 7                  22148764.620    22148768.560
  22148766.280          46.050          42.150
 106869294.130 7  83120590.121 7                  19964075.080    19964077.000
  19964075.740          47.600          47.150
 125749759.454 7  97805359.598 6                  23557184.340    23557193.840
  23557193.340          44.200          38.950
 126256371.566 6  98199439.203 6                  23610577.100    23610585.740
  23610583.300          38.400          38.350
 112492483.509 8  87494192.968 7                  21007168.360    21007171.080
  21007169.660          48.000          44.950
 15  1 27 13  5  5.0000000  0 20G30G06G07G13G02G23G09G10G20G16G05R14
                                R02R12R13R19R03R18R20R04
 111618206.424 8  86975314.440 8  83351356.429 8  21240206.100    21240206.760
  21240205.960          50.550          48.700
 112765542.553 8  87869254.533 8  84208032.788 8  21458569.920    21458572.060
  21458571.280          49.000          48.350
 108576135.471 8  84604853.359 8                  20661325.400    20661322.800
  20661322.200          49.100          48.250
 131112494.914 7 102165621.97245                  24949871.920
  24949874.760          42.400          30.800
 112191230.494 8  87421740.83647                  21349274.040
  21349268.660          49.200          45.000
 125107603.479 7  97486402.77046                  23807187.140
  23807183.900          47.850          37.150
 113158415.784 8  88175414.370 8  84501448.107 8  21533317.740    21533317.100
  21533316.720          48.750          48.300
 105809118.902 8  82448683.39347                  20134798.540
  20134795.380          49.300          46.750
 113811764.853 8  88684450.40647                  21657664.340
  21657661.420          49.850          43.850
 131754925.268 7 102666177.75745                  25072124.320
  25072124.680          42.050          35.000
 122582096.732 7  95518524.929 7                  23326589.360    23326588.960
  23326588.180          47.300          42.950
 113921807.647 7  88605936.674 6                  21371405.460    21371414.740
  21371414.260          42.100          40.050
 122417788.922 7  95213839.595 6                  22941052.420    22941059.900
  22941059.340          45.600          40.550
 120939253.040 6  94063889.459 6                  22640081.640    22640088.700
  22640088.420          40.650          40.650
 106976663.763 7  83204173.411 7                  20033261.900    20033267.320
  20033265.860          43.050          46.800
 118488529.057 7  92157748.059 7                  22150176.360    22150180.300
  22150178.080          46.050          42.000
 106871711.981 7  83122470.675 7                  19964526.740    19964528.700
  19964527.440          47.300          47.550
 125769134.705 7  97820429.203 6                  23560813.960    23560823.400
  23560823.040          44.200          39.050
 126247545.879 6  98192574.771 6                  23608926.600    23608935.380
  23608932.860          38.700          38.650
 112481055.452 8  87485304.486 7                  21005034.280    21005036.960
  21005035.500          48.150          45.100
 15  1 27 13  5 10.0000000  0 20G30G06G07G13G02G23G09G10G20G16G05R14
                                R02R12R13R19R03R18R20R04
 111606651.184 8  86966310.365 8  83342727.521 8  21238007.260    21238007.860
  21238007.080          50.600          48.650
 112777700.550 8  87878728.295 8  84217111.793 8  21460883.500    21460885.640
  21460884.860          48.950          48.400
 108575083.975 8  84604034.013 8                  20661125.300    20661122.680
  20661122.100          49.000          48.250
 131097414.326 6 102153870.90645                  24947002.080
  24947005.160          41.950          30.050
 112187846.391 8  87419103.87447                  21348630.080
  21348624.680          49.100          45.250
 125121233.801 7  97497023.79846                  23809780.900
  23809777.720          47.450          38.400
 113168579.361 8  88183334.042 8  84509037.785 8  21535251.700    21535251.180
  21535250.740          48.350          48.250
 105808614.855 8  82448290.63147                  20134702.620
  20134699.460          49.350          46.650
 113823558.379 8  88693640.16147                  21659908.600
  21659905.660          49.800          43.800
 131757667.535 6 102668314.60245                  25072646.120
  25072646.420          41.150          35.000
 122567248.456 7  95506954.867 7                  23323763.780    23323763.420
  23323762.640          47.250          43.050
 113902127.385 7  88590629.825 6                  21367713.480    21367722.780
  21367722.280          42.000          39.800
 122431058.606 7  95224160.445 6                  22943539.120    22943546.680
  22943546.020          44.850          40.650
 120956022.374 6  94076932.271 6                  22643220.780    22643227.940
  22643227.720          40.650          40.750
 106975446.274 7  83203226.488 7                  20033033.920    20033039.320
  20033037.820          43.050          46.800
 118496098.816 7  92163635.639 7                  22151591.420    22151595.420
  22151593.220          46.150          42.050
 106874137.172 7  83124356.940 7                  19964979.780    19964981.720
  19964980.480          47.850          47.400
 125788510.392 7  97835499.148 6                  23564443.700    23564453.180
  23564452.820          44.800          39.650
 126238737.662 6  98185723.959 6                  23607279.420    23607288.140
  23607285.660          39.050          37.250
 112469629.712 8  87476417.803 7                  21002900.640    21002903.300
  21002901.800          48.250          44.800
 15  1 27 13  5 15.0000000  0 20G30G06G07G13G02G23G09G10G20G16G05R14
                                R02R12R13R19R03R18R20R04
 111595109.597 8  86957316.923 8  83334108.801 8  21235810.980    21235811.580
  21235810.800          50.350          48.650
 112789871.764 8  87888212.344 8  84226200.679 8  21463199.600    21463201.760
  21463200.980          49.150          48.650
 108574049.064 8  84603227.585 8                  20660928.340    20660925.740
  20660925.180          49.000          48.350
 131082337.637 7 102142122.91045                  24944133.000
  24944136.080          42.000          32.750
 112184479.253 8  87416480.12647                  21347989.340
  21347983.940          48.950          45.450
 125134866.345 7  97507646.53646                  23812375.100
  23812371.940          47.250          38.200
 113178748.858 8  88191258.318 8  84516631.867 8  21537186.780    21537186.400
  21537185.900          48.150          48.300
 105808123.128 8  82447907.46547                  20134609.020
  20134605.900          49.050          46.450
 113835361.389 8  88702837.30547                  21662154.680
  21662151.680          49.650          43.850
 131760426.168 6 102670464.16045                  25073170.980
  25073171.420          41.400          33.000
 122552403.412 7  95495387.306 7                  23320938.860    23320938.500
  23320937.700          47.350          43.000
 113882458.899 7  88575332.138 6                  21364023.780    21364032.980
  21364032.520          42.700          39.900
 122444334.002 7  95234485.726 6                  22946026.920    22946034.440
  22946033.720          45.600          40.650
 120972805.885 6  94089986.092 6                  22646362.600    22646369.880
  22646369.660          40.800          40.600
 106974253.106 7  83202298.483 7                  20032810.500    20032815.900
  20032814.380          42.950          46.800
 118503688.637 7  92169538.819 7                  22153010.260    22153014.240
  22153012.100          46.000          42.000
 106876571.720 7  83126250.469 7                  19965434.540    19965436.520
  19965435.300          47.750          47.150
 125807888.667 7  97850571.082 6                  23568073.980    23568083.500
  23568083.120          44.700          39.850
 126229949.383 6  98178888.631 6                  23605636.000    23605644.720
  23605642.180          39.600          37.150
 112458208.606 8  87467534.724 7                  21000767.860    21000770.460
  21000768.920          48.250          45.000
 15  1 27 13  5 20.0000000  0 20G30G06G07G13G02G23G09G10G20G16G05R14
                                R02R12R13R19R03R18R20R04
 111583580.306 8  86948333.064 8  83325499.274 8  21233617.040    21233617.620
  21233616.860          50.150          48.650
 112802054.844 8  87897705.645 8  84235298.421 8  21465517.980    21465520.160
  21465519.360          49.100          48.650
 108573029.406 8  84602433.050 8                  20660734.260    20660731.720
  20660731.140          48.900          48.200
 131067263.544 7 102130376.91545                  24941264.460
  24941267.580          42.100          31.600
 112181127.717 8  87413868.53447                  21347351.560
  21347346.160          48.650          45.100
 125148499.791 7  97518269.99046                  23814969.480
  23814966.320          46.700          39.300
 113188922.886 8  88199186.127 8  84524229.357 8  21539122.760    21539122.420
  21539121.920          48.400          48.300
 105807642.377 8  82447532.85847                  20134517.520
  20134514.420          48.950          47.100
 113847172.522 8  88712040.78147                  21664402.300
  21664399.260          49.450          43.850
 131763199.784 6 102672625.44445                  25073698.800
  25073699.280          41.300          32.850
 122537560.404 7  95483821.332 7                  23318114.300    23318113.940
  23318113.140          47.150          43.100
 113862800.796 7  88560042.526 6                  21360336.000    21360345.080
  21360344.700          42.600          39.700
 122457613.952 7  95244814.573 6                  22948515.560    22948523.100
  22948522.360          45.600          40.900
 120989602.358 6  94103050.009 6                  22649506.960    22649514.220
  22649514.060          41.350          41.050
 106973083.306 7  83201388.649 7                  20032591.400    20032596.820
  20032595.320          43.150          46.800
 118511297.050 7  92175456.475 7                  22154432.580    22154436.520
  22154434.480          46.050          42.050
 106879014.549 7  83128150.450 7                  19965890.840    19965892.860
  19965891.640          47.700          47.100
 125827268.144 7  97865643.942 6                  23571704.460    23571713.920
  23571713.520          44.550          39.200
 126221179.510 6  98172067.645 6                  23603995.980    23604004.780
  23604002.200          39.750          38.100
 112446790.785 8  87458654.205 7                  20998635.700    20998638.240
  20998636.700          48.350          44.950
 15  1 27 13  5 25.0000000  0 20G30G06G07G13G02G23G09G10G20G16G05R14
                                R02R12R13R19R03R18R20R04
 111572062.819 8  86939358.403 8  83316898.561 8  21231425.340    21231425.900
  21231425.160          50.100          48.650
 112814249.267 8  87907207.780 8  84244404.636 8  21467838.520    21467840.700
  21467839.900          49.250          48.500
 108572024.475 8  84601649.992 8                  20660543.000    20660540.500
  20660539.900          49.050          48.100
 131052191.548 7 102118632.51045                  24938396.400
  24938399.360          43.050          34.700
 112177791.316 8  87411268.74147                  21346716.640
  21346711.260          48.750          45.600
 125162133.616 7  97528893.72646                  23817563.880
  23817560.760          46.800          37.950
 113199100.941 8  88207117.075 8  84531829.848 8  21541059.520    21541059.240
  21541058.760          48.850          48.350
 105807172.101 8  82447166.40347                  20134428.020
  20134424.940          48.950          46.550
 113858991.284 8  88721250.19747                  21666651.340
  21666648.280          49.450          43.800
 131765987.837 6 102674797.95145                  25074229.380
  25074229.960          41.550          34.150
 122522718.925 7  95472256.559 7                  23315290.060    23315289.720
  23315288.920          47.250          43.100
 113843152.689 7  88544760.674 6                  21356650.120    21356659.140
  21356658.820          43.150          40.250
 122470897.817 7  95255146.447 6                  22951004.940    22951012.480
  22951011.740          45.700          40.800
 121006411.254 6  94116123.593 6                  22652653.660    22652660.880
  22652660.800          41.950          40.950
 106971936.230 7  83200496.489 7                  20032376.540    20032382.020
  20032380.500          43.200          47.050
 118518923.501 7  92181388.153 7                  22155858.220    22155862.220
  22155860.260          45.950          42.700
 106881464.862 8  83130056.253 7                  19966348.560    19966350.620
  19966349.380          48.100          47.400
 125846648.349 7  97880717.393 6                  23575335.100    23575344.440
  23575344.060          45.000          39.100
 126212427.738 6  98165260.709 6                  23602359.400    23602368.140
  23602365.600          39.800          38.050
 112435375.609 8  87449775.748 7                  20996504.020    20996506.480
  20996504.980          48.300          45.450
 15  1 27 13  5 30.0000000  0 20G30G06G07G13G02G23G09G10G20G16G05R14
                                R02R12R13R19R03R18R20R04
 111560559.189 8  86930394.535 8  83308308.182 8  21229236.280    21229236.840
  21229236.080          50.100          48.600
 112826457.059 8  87916720.328 8  84253520.823 8  21470161.600    21470163.780
  21470163.000          49.250          48.450
 108571036.321 8  84600880.003 7                  20660354.960    20660352.460
  20660351.860          48.900          47.950
 131037123.693 7 102106891.35745                  24935529.100
  24935531.800          42.950          32.700
 112174472.042 8  87408682.28747                  21346084.980
  21346079.620          48.800          45.400
 125175769.841 7  97539519.34146                  23820158.700
  23820155.680          46.800          37.700
 113209285.052 8  88215052.738 8  84539434.861 8  21542997.520    21542997.240
  21542996.760          49.400          48.550
 105806714.361 8  82446809.71647                  20134340.900
  20134337.820          48.900          47.000
 113870819.699 8  88730467.12847                  21668902.220
  21668899.140          49.550          43.600
 131768792.353 6 102676983.28845                  25074763.060
  25074763.660          41.400          33.550
 122507880.996 7  95460694.549 7                  23312466.480    23312466.160
  23312465.360          47.200          43.100
 113823516.561 7  88529488.141 6                  21352966.460    21352975.460
  21352975.140          42.600          40.800
 122484187.746 7  95265483.029 6                  22953495.460    22953502.920
  22953502.280          45.800          40.700
 121023234.605 7  94129208.404 6                  22655803.040    22655810.280
  22655810.260          42.200          40.900
 106970813.808 7  83199623.486 7                  20032166.380    20032171.820
  20032170.300          42.800          47.050
 118526570.212 7  92187335.578 7                  22157287.720    22157291.760
  22157289.840          46.000          43.050
 106883924.981 7  83131969.671 7                  19966808.120    19966810.180
  19966808.940          47.850          47.000
 125866031.290 7  97895792.981 6                  23578966.240    23578975.560
  23578975.120          45.300          39.600
 126203695.912 6  98158469.289 6                  23600726.520    23600735.220
  23600732.700          39.450          37.550
 112423965.087 8  87440900.898 7                  20994373.200    20994375.660
  20994374.140          48.400          45.400
 15  1 27 13  5 35.0000000  0 20G30G06G07G13G02G23G09G10G20G16G05R14
                                R02R12R13R19R03R18R20R04
 111549067.656 8  86921440.090 8  83299726.842 8  21227049.520    21227050.060
  21227049.320          50.050          48.650
 112838676.456 8  87926241.924 8  84262645.684 8  21472486.900    21472489.080
  21472488.280          49.200          48.450
 108570063.167 8  84600121.702 7                  20660169.740    20660167.280
  20660166.660          48.750          47.950
 131022058.161 7 102095152.01645                  24932662.280
  24932664.780          42.900          31.400
 112171168.138 8  87406107.81747                  21345456.240
  21345450.880          48.750          45.550
 125189406.711 7  97550145.45246                  23822753.680
  23822750.700          47.150          38.150
 113219473.460 8  88222991.753 8  84547043.078 8  21544936.360    21544936.040
  21544935.600          49.700          48.650
 105806267.423 8  82446461.45347                  20134255.840
  20134252.760          48.950          46.850
 113882656.030 8  88739690.23547                  21671154.580
  21671151.520          49.450          43.750
 131771611.611 6 102679180.09845                  25075299.580
  25075300.160          41.650          34.500
 122493044.820 7  95449133.915 7                  23309643.220    23309642.900
  23309642.120          47.200          43.000
 113803890.725 7  88514223.629 6                  21349284.780    21349293.740
  21349293.400          42.950          40.800
 122497481.907 7  95275822.928 6                  22955986.800    22955994.200
  22955993.580          46.000          40.850
 121040070.487 7  94142302.969 6                  22658954.800    22658961.980
  22658962.020          42.050          40.950
 106969714.367 7  83198768.376 7                  20031960.520    20031965.900
  20031964.420          42.600          47.100
 118534235.229 7  92193297.247 7                  22158720.640    22158724.680
  22158722.860          46.000          43.150
 106886392.898 8  83133889.165 7                  19967269.120    19967271.180
  19967269.960          48.050          47.100
 125885415.173 7  97910869.288 6                  23582597.580    23582606.900
  23582606.380          45.000          40.400
 126194982.425 6  98151692.139 6                  23599097.060    23599105.640
  23599103.140          39.750          37.250
 112412557.698 8  87432028.490 7                  20992242.940    20992245.420
  20992243.880          48.500          45.250
 15  1 27 13  5 40.0000000  0 20G30G06G07G13G02G23G09G10G20G16G05R14
                                R02R12R13R19R03R18R20R04
 111537588.659 8  86912495.421 8  83291154.864 8  21224865.160    21224865.680
  21224864.960          50.150          48.850
 112850907.874 8  87935772.890 8  84271779.519 8  21474814.480    21474816.640
  21474815.860          49.250          48.450
 108569105.500 8  84599375.467 8                  20659987.480    20659985.040
  20659984.420          48.600          48.000
 131006995.413 7 102083414.87045                  24929795.920
  24929798.360          43.350          32.550
 112167880.120 8  87403545.72347                  21344830.520
  21344825.200          48.650          45.450
 125203044.679 7  97560772.43446                  23825348.880
  23825345.940          47.000          37.800
 113229666.581 8  88230934.445 8  84554654.824 8  21546876.120    21546875.740
  21546875.340          50.050          48.650
 105805831.715 8  82446121.94047                  20134172.920
  20134169.860          48.850          47.250
 113894500.707 8  88748919.84347                  21673408.540
  21673405.500          49.350          43.700
 131774446.030 6 102681388.74245                  25075839.000
  25075839.560          41.300          34.000
 122478210.869 7  95437575.002 7                  23306820.380    23306820.060
  23306819.280          47.350          42.950
 113784275.523 7  88498967.398 6                  21345605.000    21345614.080
  21345613.660          42.850          40.150
 122510780.727 7  95286166.448 6                  22958479.060    22958486.400
  22958485.840          46.050          41.600
 121056919.537 7  94155407.771 6                  22662109.000    22662116.200
  22662116.200          42.050          40.150
 106968638.320 7  83197931.463 7                  20031759.040    20031764.360
  20031762.900          42.400          47.000
 118541919.035 7  92199273.525 7                  22160157.040    22160161.100
  22160159.400          46.100          43.050
 106888869.259 8  83135815.226 7                  19967731.720    19967733.760
  19967732.540          48.000          47.100
 125904800.396 7  97925946.611 6                  23586229.120    23586238.460
  23586237.940          44.750          40.800
 126186287.566 6  98144929.466 6                  23597471.060    23597479.560
  23597477.080          40.000          37.500
 112401153.706 8  87423158.717 7                  20990113.360    20990115.760
  20990114.260          48.300          45.300
 15  1 27 13  5 45.0000000  0 20G30G06G07G13G02G23G09G10G20G16G05R14
                                R02R12R13R19R03R18R20R04
 111526121.533 8  86903560.004 8  83282591.756 8  21222683.040    21222683.560
  21222682.860          50.250          48.950
 112863150.617 8  87945312.675 8  84280921.815 8  21477144.200    21477146.360
  21477145.600          49.350          48.550
 108568162.641 8  84598640.768 8                  20659808.040    20659805.600
  20659805.000          48.750          48.250
 130991934.773 7 102071679.34145                  24926929.980
  24926932.580          43.250          32.300
 112164607.252 8  87400995.43847                  21344207.680
  21344202.400          48.850          45.550
 125216683.017 7  97571399.70746                  23827944.180
  23827941.220          47.150          36.900
 113239863.746 8  88238880.294 8  84562269.600 8  21548816.680    21548816.220
  21548815.840          50.100          48.900
 105805406.512 8  82445790.61547                  20134091.980
  20134088.940          49.000          46.950
 113906353.011 8  88758155.39447                  21675663.960
  21675660.920          49.350          43.800
 131777294.924 6 102683608.69245                  25076381.160
  25076381.740          41.200          33.900
 122463378.471 7  95426017.304 7                  23303997.860    23303997.500
  23303996.720          47.400          43.050
 113764670.294 7  88483718.901 6                  21341927.100    21341936.180
  21341935.720          42.700          40.050
 122524083.455 7  95296512.985 6                  22960972.060    22960979.380
  22960978.900          46.400          41.350
 121073780.844 6  94168522.119 6                  22665265.380    22665272.680
  22665272.680          41.300          39.750
 106967585.008 7  83197112.218 7                  20031561.780    20031567.100
  20031565.640          42.750          46.950
 118549620.967 7  92205263.896 7                  22161596.840    22161600.920
  22161599.320          46.300          42.850
 106891353.255 7  83137747.229 7                  19968195.740    19968197.760
  19968196.560          47.700          46.850
 125924186.302 7  97941024.468 6                  23589860.760    23589870.180
  23589869.620          45.000          40.800
 126177610.832 6  98138180.893 6                  23595848.480    23595856.960
  23595854.440          39.950          37.150
 112389752.424 8  87414291.055 7                  20987984.280    20987986.620
  20987985.140          48.050          45.350
 15  1 27 13  5 50.0000000  0 20G30G06G07G13G02G23G09G10G20G16G05R14
                                R02R12R13R19R03R18R20R04
 111514667.934 8  86894635.128 8  83274038.750 8  21220503.500    21220504.000
  21220503.320          50.200          49.050
 112875406.327 8  87954862.566 8  84290073.795 8  21479476.420    21479478.540
  21479477.800          49.350          48.650
 108567236.208 8  84597918.876 8                  20659631.720    20659629.320
  20659628.700          48.950          48.400
 130976877.933 7 102059946.79545                  24924064.720
  24924067.360          43.650          33.200
 112161351.203 8  87398458.25747                  21343588.040
  21343582.780          49.000          45.350
 125230323.405 7  97582028.55646                  23830539.840
  23830536.900          47.300          37.750
 113250066.579 8  88246830.551 8  84569888.608 8  21550758.320    21550757.800
  21550757.460          50.300          49.000
 105804993.516 8  82445468.80047                  20134013.380
  20134010.360          49.050          47.100
 113918214.595 8  88767398.17747                  21677921.120
  21677918.120          49.600          44.300
 131780159.969 6 102685841.16145                  25076926.400
  25076926.800          41.350          34.000
 122448549.307 7  95414462.128 7                  23301175.960    23301175.600
  23301174.800          47.700          43.050
 113745076.830 7  88468479.557 6                  21338251.460    21338260.420
  21338260.060          42.650          40.450
 122537391.922 7  95306863.997 6                  22963466.160    22963473.440
  22963473.000          46.250          40.900
 121090656.186 6  94181647.369 6                  22668424.440    22668431.740
  22668431.740          41.450          39.650
 106966556.121 7  83196311.987 7                  20031369.060    20031374.420
  20031372.940          42.450          46.900
 118557342.561 7  92211269.573 7                  22163040.340    22163044.440
  22163042.900          45.550          43.050
 106893846.695 7  83139686.582 7                  19968661.480    19968663.580
  19968662.340          47.850          47.200
 125943574.451 7  97956104.083 6                  23593492.860    23593502.300
  23593501.720          45.450          40.850
 126168953.841 6  98131447.676 6                  23594229.500    23594237.940
  23594235.440          40.100          37.400
 112378355.632 7  87405426.886 7                  20985856.000    20985858.320
  20985856.880          47.850          45.300
 15  1 27 13  5 55.0000000  0 20G30G06G07G13G02G23G09G10G20G16G05R14
                                R02R12R13R19R03R18R20R04
 111503227.327 8  86885720.368 8  83265495.440 8  21218326.440    21218326.940
  21218326.280          50.200          48.950
 112887674.446 8  87964422.117 8  84299235.027 8  21481810.980    21481813.080
  21481812.340          49.400          48.600
 108566325.607 8  84597209.313 8                  20659458.400    20659456.060
  20659455.440          49.250          48.400
 130961824.253 7 102048216.66445                  24921200.080
  24921202.680          44.150          32.750
 112158111.385 8  87395933.71547                  21342971.460
  21342966.260          48.950          45.750
 125243965.264 7  97592658.56446                  23833135.780
  23833132.940          46.800          38.650
 113260274.554 8  88254784.811 8  84577511.443 8  21552700.940    21552700.320
  21552700.040          50.350          48.850
 105804592.152 8  82445156.03747                  20133937.000
  20133933.960          49.200          46.600
 113930084.903 8  88776647.75847                  21680179.960
  21680177.000          49.400          43.950
 131783040.617 6 102688085.81345                  25077474.580
  25077474.980          41.950          34.500
 122433722.805 7  95402909.003 7                  23298354.580    23298354.180
  23298353.360          47.900          43.200
 113725494.581 7  88453248.933 6                  21334577.920    21334586.900
  21334586.460          42.650          40.000
 122550705.525 7  95317218.990 6                  22965961.200    22965968.480
  22965968.020          46.050          40.850
 121107544.942 6  94194783.057 6                  22671586.060    22671593.360
  22671593.280          41.500          39.200
 106965550.909 7  83195530.151 7                  20031180.820    20031186.160
  20031184.700          42.700          46.850
 118565083.346 7  92217290.175 7                  22164487.420    22164491.520
  22164490.100          45.000          42.900
 106896348.914 7  83141632.735 7                  19969128.880    19969131.000
  19969129.740          47.750          46.900
 125962964.366 7  97971185.093 6                  23597125.320    23597134.740
  23597134.160          45.050          41.300
 126160316.031 6  98124729.361 6                  23592614.140    23592622.500
  23592620.020          39.400          37.550
 112366962.726 8  87396565.746 7                  20983728.440    20983730.800
  20983729.340          48.000          45.300
 15  1 27 13  6  0.0000000  0 20G30G06G07G13G02G23G09G10G20G16G05R14
                                R02R12R13R19R03R18R20R04
 111491799.719 8  86876815.738 8  83256961.840 8  21216151.840    21216152.360
  21216151.680          50.150          49.050
 112899954.957 8  87973991.336 8  84308405.523 8  21484147.880    21484149.980
  21484149.240          49.300          48.800
 108565430.890 8  84596512.137 8                  20659288.140    20659285.800
  20659285.180          49.300          48.500
 130946773.805 7 102036489.06245                  24918336.020
  24918338.680          44.300          33.200
 112154887.838 8  87393421.86347                  21342358.000
  21342352.840          49.000          45.100
 125257608.613 7  97603289.72446                  23835732.000
  23835729.180          47.050          39.350
 113270487.642 8  88262743.074 8  84585138.109 8  21554644.500    21554643.820
  21554643.560          50.000          48.850
 105804202.441 8  82444852.36847                  20133862.840
  20133859.800          49.250          46.900
 113941963.943 8  88785904.14447                  21682440.460
  21682437.520          49.350          44.100
 131785936.861 6 102690342.62745                  25078025.700
  25078026.020          41.550          34.050
 122418898.981 7  95391357.994 7                  23295533.700    23295533.260
  23295532.520          47.800          43.600
 113705923.546 7  88438027.027 6                  21330906.420    21330915.420
  21330914.980          42.650          40.400
 122564024.075 7  95327577.846 6                  22968457.160    22968464.440
  22968463.960          46.150          41.100
 121124447.138 6  94207929.205 6                  22674750.140    22674757.560
  22674757.360          41.150          39.800
 106964569.633 7  83194766.945 7                  20030997.000    20031002.420
  20031000.940          43.550          46.950
 118572843.310 7  92223325.687 7                  22165938.020    22165942.200
  22165940.860          45.500          43.100
 106898859.944 7  83143585.771 7                  19969597.940    19969600.120
  19969598.820          47.900          46.950
 125982355.930 7  97986267.360 6                  23600758.080    23600767.480
  23600766.900          44.900          41.650
 126151697.330 6  98118025.939 6                  23591002.380    23591010.720
  23591008.180          39.600          37.400
 112355573.701 7  87387707.626 7                  20981601.620    20981603.960
  20981602.540          47.900          45.300
 15  1 27 13  6  5.0000000  0 20G30G06G07G13G02G23G09G10G20G16G05R14
                                R02R12R13R19R03R18R20R04
 111480384.697 8  86867920.913 8  83248437.631 8  21213979.660    21213980.160
  21213979.480          50.050          48.950
 112912247.428 8  87983569.871 8  84317584.956 8  21486487.080    21486489.180
  21486488.420          49.200          48.750
 108564551.628 8  84595826.998 8                  20659120.780    20659118.480
  20659117.860          49.150          48.400
 130931726.153 7 102024763.65045                  24915472.540
  24915475.200          44.250          32.950
 112151680.149 8  87390922.36247                  21341747.560
  21341742.460          48.850          45.650
 125271253.000 7  97613921.68746                  23838328.420
  23838325.660          47.100          38.950
 113280705.428 8  88270704.985 8  84592768.270 8  21556588.940    21556588.220
  21556587.980          49.600          48.700
 105803823.950 8  82444557.43747                  20133790.820
  20133787.760          49.300          46.750
 113953851.319 8  88795167.01847                  21684702.540
  21684699.640          49.450          44.200
 131788848.269 7 102692611.26845                  25078579.720
  25078580.220          42.000          34.050
 122404077.429 7  95379808.743 7                  23292713.240    23292712.840
  23292712.080          47.900          43.650
 113686363.328 7  88422813.539 6                  21327236.980    21327246.060
  21327245.540          42.350          40.400
 122577347.364 7  95337940.383 6                  22970954.000    22970961.240
  22970960.780          46.150          41.150
 121141362.256 6  94221085.396 6                  22677916.620    22677924.140
  22677923.860          41.100          39.050
 106963611.748 7  83194021.925 7                  20030817.660    20030823.020
  20030821.560          43.100          46.800
 118580621.965 7  92229375.735 7                  22167392.140    22167396.340
  22167395.100          45.850          43.400
 106901379.271 8  83145545.242 7                  19970068.540    19970070.740
  19970069.440          48.200          46.850
 126001748.795 7  98001350.623 6                  23604391.060    23604400.440
  23604399.920          45.000          41.400
 126143097.396 6  98111337.087 6                  23589394.120    23589402.420
  23589399.880          39.650          38.250
 112344188.085 7  87378852.151 7                  20979475.460    20979477.760
  20979476.340          47.850          45.150
 15  1 27 13  6 10.0000000  0 20G30G06G07G13G02G23G09G10G20G16G05R14
                                R02R12R13R19R03R18R20R04
 111468981.974 8  86859035.675 8  83239922.607 8  21211809.800    21211810.300
  21211809.620          49.700          48.900
 112924551.531 8  87993157.473 8  84326773.069 8  21488828.460    21488830.580
  21488829.800          48.800          48.750
 108563687.500 8  84595153.654 8                  20658956.320    20658954.040
  20658953.420          48.650          48.400
 130916680.966 7 102013040.16645                  24912609.500
  24912612.160          43.650          33.400
 112148488.022 8  87388434.99947                  21341140.100
  21341135.040          48.400          46.200
 125284898.110 7  97624554.22446                  23840925.040
  23840922.260          46.800          38.850
 113290927.599 8  88278670.311 8  84600401.699 8  21558534.160    21558533.440
  21558533.200          48.700          48.450
 105803456.373 8  82444271.01047                  20133720.860
  20133717.820          48.900          47.350
 113965746.678 8  88804436.12047                  21686966.160
  21686963.280          49.200          44.500
 131791774.504 6 102694891.45245                  25079136.600
  25079137.040          41.150          35.600
 122389257.817 7  95368261.013 7                  23289893.160    23289892.740
  23289891.980          47.650          43.500
 113666813.466 7  88407608.117 6                  21323569.480    21323578.640
  21323578.020          42.250          40.250
 122590674.969 7  95348306.298 6                  22973451.660    22973458.960
  22973458.400          46.100          40.850
 121158290.052 6  94234251.449 6                  22681085.520    22681093.120
  22681092.740          40.950          39.200
 106962676.930 7  83193294.852 7                  20030642.580    20030647.960
  20030646.500          42.950          46.550
 118588419.108 7  92235440.160 7                  22168849.780    22168853.940
  22168852.820          46.100          43.250
 106903906.749 7  83147511.060 7                  19970540.680    19970542.900
  19970541.560          47.800          46.650
 126021142.532 7  98016434.603 6                  23608024.240    23608033.620
  23608033.080          44.250          40.250
 126134516.087 6  98104662.761 6                  23587789.340    23587797.640
  23587795.140          39.250          38.900
 112332805.593 7  87369999.113 7                  20977349.820    20977352.200
  20977350.760          47.950          45.300
 15  1 27 13  6 15.0000000  0 20G30G06G07G13G02G23G09G10G20G16G05R14
                                R02R12R13R19R03R18R20R04
 111457591.638 8  86850160.090 8  83231416.840 8  21209642.300    21209642.780
  21209642.120          50.250          48.900
 112936867.398 8  88002754.245 8  84335969.969 8  21491172.120    21491174.220
  21491173.440          49.300          48.750
 108562838.610 8  84594492.183 8                  20658794.760    20658792.500
  20658791.880          49.050          48.350
 130901638.450 7 102001318.77445                  24909747.000
  24909749.600          44.650          31.950
 112145311.569 8  87385959.84147                  21340535.620
  21340530.600          49.050          45.700
 125298544.118 7  97635187.46746                  23843521.820
  23843519.000          47.100          38.000
 113301154.263 8  88286639.134 8  84608038.482 8  21560480.140    21560479.520
  21560479.280          48.800          48.400
 105803099.824 8  82443993.18247                  20133653.000
  20133649.960          49.150          46.850
 113977650.105 8  88813711.51347                  21689231.300
  21689228.460          49.750          44.050
 131794715.750 7 102697183.30945                  25079696.300
  25079696.660          42.050          33.700
 122374440.296 8  95356714.899 7                  23287073.500    23287073.000
  23287072.300          48.000          43.150
 113647274.264 7  88392410.979 6                  21319903.920    21319913.080
  21319912.540          42.600          40.150
 122604007.068 7  95358675.683 6                  22975950.180    22975957.340
  22975956.860          47.150          40.400
 121175230.480 6  94247427.327 6                  22684256.840    22684264.400
  22684264.000          41.550          39.250
 106961765.268 7  83192585.797 7                  20030471.840    20030477.240
  20030475.760          43.700          46.400
 118596234.593 7  92241518.857 7                  22170310.840    22170315.000
  22170313.940          46.250          43.000
 106906442.430 8  83149483.262 7                  19971014.340    19971016.560
  19971015.220          48.300          46.550
 126040537.302 7  98031519.397 6                  23611657.600    23611667.060
  23611666.480          44.400          39.950
 126125953.211 6  98098002.763 6                  23586187.960    23586196.300
  23586193.820          40.450          38.100
 112321426.454 8  87361148.677 7                  20975224.840    20975227.220
  20975225.820          48.400          44.950
 15  1 27 13  6 20.0000000  0 20G30G06G07G13G02G23G09G10G20G16G05R14
                                R02R12R13R19R03R18R20R04
 111446214.901 8  86841295.104 8  83222921.239 8  21207477.380    21207477.860
  21207477.200          50.400          48.950
 112949196.174 8  88012361.077 8  84345176.514 8  21493518.220    21493520.340
  21493519.560          49.200          48.850
 108562006.183 8  84593843.537 8                  20658636.320    20658634.120
  20658633.480          49.000          48.400
 130886599.713 7 101989600.31945                  24906885.200
  24906887.840          44.250          33.600
 112142152.002 8  87383497.83547                  21339934.340
  21339929.380          49.000          45.900
 125312192.136 7  97645822.25746                  23846118.960
  23846116.160          47.100          38.700
 113311386.605 8  88294612.376 8  84615679.511 8  21562427.140    21562426.700
  21562426.400          48.300          48.400
 105802755.527 8  82443724.89247                  20133587.480
  20133584.420          49.000          47.500
 113989562.872 8  88822994.16947                  21691498.240
  21691495.400          49.700          43.650
 131797673.119 6 102699487.74245                  25080259.020
  25080259.540          41.350          32.850
 122359626.030 7  95345171.324 7                  23284254.420    23284253.940
  23284253.200          47.900          43.200
 113627746.965 7  88377223.101 6                  21316240.600    21316249.860
  21316249.260          42.650          40.150
 122617344.927 7  95369049.547 6                  22978449.780    22978456.800
  22978456.400          46.750          39.950
 121192184.713 6  94260613.927 6                  22687430.700    22687438.200
  22687437.860          41.300          39.400
 106960878.049 7  83191895.738 7                  20030305.680    20030311.100
  20030309.620          43.150          46.550
 118604069.873 7  92247612.945 7                  22171775.620    22171779.720
  22171778.740          46.000          42.950
 106908987.500 7  83151462.753 7                  19971489.760    19971492.000
  19971490.660          47.650          46.550
 126059934.248 7  98046605.863 6                  23615291.380    23615300.800
  23615300.260          44.500          39.900
 126117410.238 6  98091358.230 6                  23584590.280    23584598.800
  23584596.260          40.400          38.800
 112310051.773 8  87352301.714 7                  20973100.640    20973103.120
  20973101.700          48.600          45.300
 15  1 27 13  6 25.0000000  0 20G30G06G07G13G02G23G09G10G20G16G05R14
                                R02R12R13R19R03R18R20R04
 111434850.987 8  86832440.112 8  83214435.187 8  21205314.880    21205315.400
  21205314.720          50.450          48.900
 112961537.033 8  88021977.323 8  84354392.073 8  21495866.660    21495868.740
  21495867.960          49.550          48.800
 108561189.370 8  84593207.062 8                  20658480.860    20658478.680
  20658478.060          49.000          48.550
 130871563.948 7 101977884.18145                  24904023.960
  24904026.520          44.350          32.800
 112139008.477 8  87381048.33247                  21339336.160
  21339331.200          49.150          45.700
 125325841.358 7  97656458.02346                  23848716.340
  23848713.520          47.250          38.200
 113321623.801 8  88302589.397 8  84623324.151 8  21564375.060    21564374.780
  21564374.420          48.250          48.350
 105802422.626 8  82443465.49147                  20133524.120
  20133521.060          49.050          47.150
 114001484.117 8  88832283.44547                  21693766.780
  21693763.960          49.700          44.150
 131800645.811 6 102701804.12145                  25080824.700
  25080825.060          41.250          31.100
 122344814.163 7  95333629.626 7                  23281435.820    23281435.320
  23281434.600          47.900          43.650
 113608230.840 7  88362043.907 6                  21312579.400    21312588.720
  21312588.080          42.550          40.050
 122630687.530 7  95379427.125 6                  22980950.200    22980957.120
  22980956.720          46.600          39.950
 121209152.119 6  94273810.799 6                  22690607.020    22690614.560
  22690614.180          41.000          39.100
 106960014.316 7  83191223.949 7                  20030143.980    20030149.340
  20030147.860          43.700          46.550
 118611923.991 7  92253721.695 7                  22173243.880    22173247.980
  22173247.040          45.800          42.950
 106911541.159 7  83153448.941 7                  19971966.760    19971969.040
  19971967.680          47.550          46.650
 126079332.543 7  98061693.362 6                  23618925.380    23618934.760
  23618934.300          44.650          39.700
 126108886.292 6  98084728.515 6                  23582996.220    23583004.780
  23583002.320          40.050          38.900
 112298680.703 8  87343457.555 7                  20970977.180    20970979.640
  20970978.260          48.300          45.300
 15  1 27 13  6 30.0000000  0 19G30G06G07G13G02G23G09G10G20G16G05R14
                                R02R13R19R03R18R20R04
 111423499.994 8  86823595.187 8  83205958.805 8  21203154.860    21203155.380
  21203154.700          50.550          48.800
 112973890.106 8  88031603.083 8  84363616.757 8  21498217.420    21498219.480
  21498218.700          49.600          48.750
 108560388.313 8  84592582.869 8                  20658328.400    20658326.260
  20658325.600          48.900          48.450
 130856531.294 7 101966170.46445                  24901163.340
  24901165.760          44.700          31.900
 112135881.118 8  87378611.42447                  21338741.040
  21338736.100          49.150          45.050
 125339491.932 7  97667094.80146                  23851313.940
  23851311.160          47.050          37.950
 113331865.962 8  88310570.285 8  84630972.500 8  21566323.920    21566323.780
  21566323.380          48.400          48.300
 105802101.260 8  82443215.07347                  20133462.960
  20133459.900          49.100          46.800
 114013413.961 8  88841579.41747                  21696036.960
  21696034.120          49.700          44.050
 131803633.997 6 102704132.58245                  25081393.320
  25081393.720          41.200          35.050
 122330004.885 7  95322089.939 7                  23278617.740    23278617.160
  23278616.420          47.950          43.950
 113588725.820 7  88346873.365 6                  21308920.240    21308929.620
  21308928.980          42.850          39.900
 122644035.106 7  95389808.558 6                  22983451.580    22983458.520
  22983458.060          46.250          40.550
 106959174.385 7  83190570.678 7                  20029986.680    20029992.060
  20029990.560          43.600          46.450
 118619797.030 7  92259845.159 7                  22174715.660    22174719.760
  22174718.860          45.850          43.000
 106914103.528 7  83155441.909 7                  19972445.400    19972447.700
  19972446.360          47.600          46.650
 126098732.267 7  98076781.978 6                  23622559.600    23622568.980
  23622568.560          44.600          39.750
 126100381.374 6  98078113.581 6                  23581405.840    23581414.380
  23581411.960          40.400          39.250
 112287313.498 8  87334616.399 7                  20968854.400    20968856.940
  20968855.540          48.300          44.950
 15  1 27 13  6 35.0000000  0 20G30G06G07G13G02G23G09G10G20G16G05R14
                                R02R12R13R19R03R18R20R04
 111412159.662 8  86814758.567 8  83197490.383 8  21200996.840    21200997.400
  21200996.700          50.400          48.850
 112986253.094 8  88041236.570 8  84372848.852 8  21500570.080    21500572.080
  21500571.320          49.650          48.700
 108559600.762 8  84591969.170 8                  20658178.500    20658176.380
  20658175.760          48.850          48.400
 130841499.522 7 101954457.43045                  24898302.920
  24898305.320          44.400          33.650
 112132767.647 8  87376185.34047                  21338148.600
  21338143.660          49.000          45.650
 125353141.540 7  97677730.83546                  23853911.380
  23853908.580          47.400          38.800
 113342110.806 8  88318553.270 8  84638622.861 8  21568273.380    21568273.300
  21568272.840          48.800          48.400
 105801789.184 8  82442971.89447                  20133403.560
  20133400.520          49.300          46.900
 114025350.131 8  88850880.31047                  21698308.360
  21698305.520          49.850          44.000
 131806635.350 6 102706471.29945                  25081964.440
  25081964.860          40.550          35.150
 122315195.945 7  95310550.522 7                  23275799.720    23275799.100
  23275798.340          47.950          43.850
 113569229.727 7  88331709.752 6                  21305262.780    21305272.140
  21305271.520          42.200          39.700
 122657385.377 7  95400192.069 6                  22985953.460    22985960.340
  22985959.900          46.200          40.550
 121243121.204 6  94300236.490 6                  22696966.680    22696974.260
  22696973.840          39.900          39.000
 106958355.812 7  83189934.012 7                  20029833.400    20029838.720
  20029837.240          43.750          46.850
 118627686.732 7  92265981.583 7                  22176190.580    22176194.680
  22176193.800          46.200          43.000
 106916672.232 7  83157439.777 7                  19972925.240    19972927.520
  19972926.200          47.550          46.850
 126118131.169 7  98091869.948 6                  23626193.720    23626203.100
  23626202.740          44.550          40.000
 126091893.314 6  98071511.763 6                  23579818.560    23579827.160
  23579824.780          40.800          39.450
 112275947.826 8  87325776.438 7                  20966731.920    20966734.520
  20966733.080          48.100          45.350
 15  1 27 13  6 40.0000000  0 20G30G06G07G13G02G23G09G10G20G16G05R14
                                R02R12R13R19R03R18R20R04
 111400833.390 8  86805932.900 8  83189032.456 8  21198841.520    21198842.060
  21198841.360          50.250          48.700
 112998629.396 8  88050880.422 8  84382090.875 8  21502925.260    21502927.240
  21502926.460          49.700          48.550
 108558830.019 8  84591368.591 8                  20658031.800    20658029.700
  20658029.080          48.900          48.300
 130826471.949 7 101942747.67645                  24895443.260
  24895445.660          44.700          33.850
 112129671.472 8  87373772.73247                  21337559.440
  21337554.500          48.900          45.950
 125366793.578 7  97688368.77446                  23856509.300
  23856506.500          47.800          38.050
 113352361.720 8  88326540.985 8  84646277.756 8  21570224.040    21570223.980
  21570223.480          49.300          48.300
 105801489.768 8  82442738.57047                  20133346.580
  20133343.560          49.400          46.950
 114037295.980 8  88860188.75247                  21700581.620
  21700578.720          49.850          43.700
 131809653.296 6 102708822.94745                  25082538.780
  25082539.180          40.350          33.850
 122300390.721 7  95299013.981 7                  23272982.420    23272981.720
  23272981.040          47.800          43.800
 113549746.046 7  88316555.798 6                  21301607.620    21301617.020
  21301616.360          42.450          39.600
 122670741.798 7  95410580.376 6                  22988456.460    22988463.320
  22988462.900          45.900          40.350
 121260126.850 6  94313463.086 6                  22700150.100    22700157.700
  22700157.340          39.900          39.100
 106957562.131 7  83189316.707 7                  20029684.800    20029690.080
  20029688.580          43.550          46.550
 118635596.491 7  92272133.606 7                  22177669.260    22177673.360
  22177672.480          46.400          42.800
 106919250.852 7  83159445.363 7                  19973406.920    19973409.240
  19973407.880          47.700          46.700
 126137532.628 7  98106959.917 6                  23629828.300    23629837.640
  23629837.380          44.650          40.100
 126083425.526 6  98064925.706 6                  23578235.060    23578243.660
  23578241.360          40.700          40.150
 112264586.931 8  87316940.189 7                  20964610.380    20964612.940
  20964611.540          48.500          45.500
 15  1 27 13  6 45.0000000  0 20G30G06G07G13G02G23G09G10G20G16G05R14
                                R02R12R13R19R03R18R20R04
 111389521.145 8  86797118.168 8  83180585.005 8  21196688.860    21196689.420
  21196688.700          50.150          48.700
 113011018.907 8  88060534.570 8  84391342.772 8  21505282.980    21505284.900
  21505284.100          49.650          48.450
 108558076.063 8  84590781.095 8                  20657888.300    20657886.220
  20657885.640          48.650          48.400
 130811448.544 7 101931041.14945                  24892584.420
  24892586.740          44.400          31.250
 112126592.541 8  87371373.56747                  21336973.560
  21336968.600          48.900          45.700
 125380448.008 7  97699008.57746                  23859107.660
  23859104.860          47.450          37.750
 113362618.629 8  88334533.380 8  84653937.129 8  21572175.900    21572175.800
  21572175.260          49.700          48.350
 105801202.938 8  82442515.06247                  20133292.000
  20133288.980          49.350          46.900
 114049251.456 8  88869504.69747                  21702856.680
  21702853.780          49.750          43.550
 131812687.761 6 102711187.45345                  25083116.200
  25083116.620          40.800          32.600
 122285589.147 7  95287480.299 7                  23270165.800    23270165.080
  23270164.400          47.450          43.850
 113530274.622 6  88301411.362 6                  21297954.720    21297964.260
  21297963.500          41.700          39.650
 122684104.206 7  95420973.352 6                  22990960.580    22990967.520
  22990967.020          45.550          41.000
 121277146.731 6  94326700.747 6                  22703336.280    22703343.880
  22703343.500          39.950          39.300
 106956793.262 7  83188718.710 7                  20029540.760    20029546.100
  20029544.560          43.150          46.350
 118643526.246 7  92278301.184 7                  22179151.680    22179155.780
  22179154.900          46.250          42.850
 106921839.186 7  83161458.511 7                  19973890.460    19973892.740
  19973891.400          47.650          46.700
 126156936.518 7  98122051.764 6                  23633463.320    23633472.760
  23633472.480          44.350          40.050
 126074978.038 6  98058355.445 6                  23576655.460    23576663.940
  23576661.800          40.800          40.200
 112253231.065 8  87308107.856 7                  20962489.740    20962492.300
  20962490.960          48.250          45.500
 15  1 27 13  6 50.0000000  0 20G30G06G07G13G02G23G09G10G20G16G05R14
                                R02R12R13R19R03R18R20R04
 111378220.665 8  86788312.601 8  83172146.332 8  21194538.440    21194539.000
  21194538.260          50.300          48.700
 113023419.385 8  88070197.271 8  84400602.852 8  21507642.780    21507644.640
  21507643.840          49.650          48.450
 108557336.659 8  84590204.938 8                  20657747.560    20657745.520
  20657744.920          48.750          48.350
 130796427.072 7 101919336.15545                  24889725.920
  24889728.160          44.050          33.900
 112123528.595 8  87368986.07547                  21336390.520
  21336385.580          49.100          45.750
 125394102.558 7  97709648.46046                  23861706.060
  23861703.240          47.400          38.250
 113372879.286 8  88342528.697 8  84661599.301 8  21574128.520    21574128.320
  21574127.780          50.050          48.350
 105800926.470 8  82442299.63147                  20133239.400
  20133236.400          49.400          46.350
 114061214.350 8  88878826.42047                  21705133.160
  21705130.260          49.700          43.800
 131815736.470 6 102713563.07445                  25083696.400
  25083696.580          41.150          33.700
 122270788.988 7  95275947.724 7                  23267349.420    23267348.680
  23267348.020          47.600          43.900
 113510813.244 6  88286274.761 6                  21294303.700    21294313.240
  21294312.520          41.850          39.550
 122697470.280 7  95431369.170 6                  22993465.440    22993472.400
  22993471.880          45.800          40.950
 121294178.506 6  94339947.652 6                  22706524.620    22706532.260
  22706531.880          40.550          39.100
 106956046.793 7  83188138.140 7                  20029401.020    20029406.300
  20029404.740          43.550          46.650
 118651473.664 7  92284482.493 7                  22180637.340    22180641.440
  22180640.620          46.050          42.850
 106924435.087 7  83163477.545 7                  19974375.400    19974377.680
  19974376.320          47.700          46.800
 126176340.606 7  98137143.782 6                  23637098.360    23637107.840
  23637107.640          43.150          40.300
 126066548.449 6  98051799.096 6                  23575079.080    23575087.680
  23575085.540          40.700          39.550
 112241877.854 8  87299277.588 7                  20960369.600    20960372.120
  20960370.840          48.650          45.750
 15  1 27 13  6 55.0000000  0 20G30G06G07G13G02G23G09G10G20G16G05R14
                                R02R12R13R19R03R18R20R04
 111366932.302 8  86779516.472 8  83163716.704 8  21192390.320    21192390.900
  21192390.160          50.400          48.800
 113035831.132 8  88079868.751 8  84409871.351 8  21510004.720    21510006.520
  21510005.720          49.800          48.450
 108556612.126 8  84589640.371 8                  20657609.680    20657607.640
  20657607.040          49.000          48.350
 130781407.818 7 101907632.88545                  24886867.820
  24886870.140          43.300          35.950
 112120480.013 8  87366610.55247                  21335810.420
  21335805.440          49.150          45.450
 125407757.557 7  97720288.70946                  23864304.560
  23864301.780          47.150          38.850
 113383144.002 8  88350527.181 8  84669264.517 8  21576081.940    21576081.640
  21576081.100          50.150          48.450
 105800660.689 8  82442092.52247                  20133188.820
  20133185.840          49.400          46.600
 114073184.945 8  88888154.14647                  21707411.120
  21707408.180          49.700          43.800
 131818799.806 6 102715950.08845                  25084279.360
  25084279.540          41.550          31.650
 122255990.606 7  95264416.538 7                  23264533.420    23264532.620
  23264532.000          47.400          44.050
 113491362.202 7  88271146.189 6                  21290654.620    21290664.240
  21290663.500          42.250          39.550
 122710840.551 7  95441768.245 6                  22995971.020    22995978.060
  22995977.520          45.800          41.400
 121311222.493 6  94353204.071 6                  22709715.300    22709722.980
  22709722.560          40.700          38.850
 106955323.124 7  83187575.288 7                  20029265.540    20029270.740
  20029269.220          43.450          46.650
 118659439.141 7  92290677.850 7                  22182126.440    22182130.540
  22182129.700          46.300          42.800
 106927038.789 7  83165502.657 7                  19974861.780    19974864.080
  19974862.700          47.550          46.800
 126195745.131 7  98152236.116 6                  23640733.520    23640743.020
  23640742.900          43.350          40.200
 126058137.155 6  98045256.983 6                  23573506.160    23573514.840
  23573512.660          40.850          39.850
 112230527.498 8  87290449.554 7                  20958249.960    20958252.520
  20958251.300          48.600          45.800
 15  1 27 13  7  0.0000000  0 20G30G06G07G13G02G23G09G10G20G16G05R14
                                R02R12R13R19R03R18R20R04
 111355657.994 8  86770731.307 8  83155297.592 8  21190244.880    21190245.460
  21190244.700          50.450          48.700
 113048256.091 8  88089550.528 8  84419149.723 8  21512369.180    21512370.920
  21512370.140          49.850          48.450
 108555904.394 8  84589088.899 8                  20657474.980    20657472.980
  20657472.360          49.300          48.250
 130766392.784 7 101895932.88945                  24884010.480
  24884012.820          43.600          34.300
 112117448.666 8  87364248.46047                  21335233.600
  21335228.600          49.300          45.100
 125421414.979 7  97730930.83546                  23866903.480
  23866900.700          47.100          38.150
 113393414.745 8  88358530.364 8  84676934.232 8  21578036.500    21578036.100
  21578035.580          50.200          48.450
 105800407.543 8  82441895.26447                  20133140.660
  20133137.700          49.550          46.350
 114085165.183 8  88897489.39147                  21709690.900
  21709687.940          49.650          43.900
 131821879.654 7 102718349.95445                  25084865.460
  25084865.460          43.150          32.400
 122241195.910 7  95252888.218 7                  23261718.060    23261717.280
  23261716.640          47.650          43.850
 113471923.692 7  88256027.355 6                  21287007.980    21287017.620
  21287016.840          42.300          39.850
 122724216.910 7  95452172.057 6                  22998477.760    22998484.820
  22998484.320          45.650          41.550
 121328280.702 6  94366471.559 6                  22712908.660    22712916.380
  22712915.900          40.850          39.000
 106954624.264 7  83187031.729 7                  20029134.660    20029139.820
  20029138.340          43.000          46.750
 118667424.454 7  92296888.647 7                  22183619.200    22183623.280
  22183622.460          46.200          42.700
 106929652.264 7  83167535.364 7                  19975350.000    19975352.320
  19975350.920          47.550          46.850
 126215152.096 7  98167330.378 6                  23644369.160    23644378.640
  23644378.560          43.300          40.200
 126049746.138 6  98038730.638 6                  23571936.940    23571945.920
  23571943.600          40.550          39.650
 112219182.183 8  87281625.410 7                  20956131.280    20956133.900
  20956132.660          48.550          45.750
 15  1 27 13  7  5.0000000  0 20G30G06G07G13G02G23G09G10G20G16G05R14
                                R02R12R13R19R03R18R20R04
 111344396.366 8  86761956.015 8  83146887.931 8  21188101.880    21188102.420
  21188101.680          50.450          48.800
 113060692.871 8  88099241.513 8  84428436.915 8  21514735.880    21514737.580
  21514736.780          49.800          48.550
 108555212.095 8  84588549.464 8                  20657343.220    20657341.220
  20657340.600          49.350          48.300
 130751380.543 7 101884235.08845                  24881153.700
  24881156.100          43.450          34.850
 112114433.217 8  87361898.75447                  21334659.800
  21334654.760          49.300          45.600
 125435073.405 7  97741573.73846                  23869502.580
  23869499.860          47.250          38.250
 113403690.124 8  88366537.152 8  84684607.397 8  21579991.960    21579991.440
  21579990.980          50.100          48.700
 105800165.652 8  82441706.76847                  20133094.640
  20133091.700          49.600          46.800
 114097153.664 8  88906831.04947                  21711972.260
  21711969.260          49.650          44.350
 131824974.636 7 102720761.62745                  25085454.480
  25085454.500          42.900          33.200
 122226403.540 7  95241361.704 7                  23258903.160    23258902.380
  23258901.740          47.750          43.950
 113452496.262 6  88240917.160 6                  21283363.440    21283373.100
  21283372.260          41.950          39.400
 122737597.867 7  95462579.472 6                  23000985.400    23000992.500
  23000991.960          45.900          41.300
 121345351.509 6  94379748.833 6                  22716104.440    22716112.040
  22716111.600          41.650          38.800
 106953948.842 7  83186506.408 7                  20029008.180    20029013.340
  20029011.880          42.900          46.400
 118675428.351 7  92303113.887 7                  22185115.500    22185119.540
  22185118.720          46.450          42.300
 106932274.204 7  83169574.653 7                  19975839.800    19975842.100
  19975840.720          47.350          46.750
 126234560.038 7  98182425.399 6                  23648004.920    23648014.520
  23648014.440          42.750          39.100
 126041373.978 6  98032218.950 6                  23570371.260    23570380.380
  23570378.060          40.050          39.900
 112207840.228 8  87272803.889 7                  20954013.220    20954015.880
  20954014.660          48.550          45.450
 15  1 27 13  7 10.0000000  0 20G30G06G07G13G02G23G09G10G20G16G05R14
                                R02R12R13R19R03R18R20R04
 111333147.048 8  86753190.321 7  83138487.478 8  21185961.200    21185961.740
  21185960.980          50.600          47.900
 113073141.070 8  88108941.396 7  84437732.638 8  21517104.740    21517106.400
  21517105.600          49.750          47.700
 108554534.842 8  84588021.753 7                  20657214.340    20657212.360
  20657211.720          49.300          47.450
 130736370.756 7 101872539.20444                  24878297.360
  24878299.960          43.400          29.900
 112111433.259 8  87359561.12547                  21334088.960
  21334083.880          49.200          44.300
 125448732.438 7  97752217.12246                  23872101.800
  23872099.140          47.300          37.500
 113413969.696 8  88374547.210 7  84692283.714 8  21581948.180    21581947.620
  21581947.180          49.950          47.850
 105799934.643 8  82441526.75847                  20133050.700
  20133047.740          49.550          45.750
 114109150.019 8  88916178.84947                  21714255.120
  21714252.100          49.650          42.650
 131828084.395 7 102723184.79344                  25086046.320
  25086046.320          43.250          27.950
 122211613.127 7  95229836.719 7                  23256088.620    23256087.840
  23256087.220          47.650          42.800
 113433079.434 7  88225815.201 6                  21279720.840    21279730.520
  21279729.660          42.000          40.900
 122750983.101 7  95472990.183 7                  23003493.800    23003500.960
  23003500.420          45.750          42.100
 121362434.635 6  94393035.707 6                  22719302.520    22719310.100
  22719309.620          41.350          39.900
 106953296.252 7  83185998.847 7                  20028886.020    20028891.100
  20028889.660          43.200          47.200
 118683450.360 7  92309353.215 7                  22186615.180    22186619.160
  22186618.320          46.500          43.450
 106934904.139 7  83171620.154 7                  19976331.060    19976333.400
  19976332.020          47.300          47.400
 126253968.572 7  98197520.880 6                  23651640.760    23651650.320
  23651650.400          43.200          40.200
 126033020.273 6  98025721.641 6                  23568808.980    23568818.240
  23568815.920          39.600          41.150
 112196501.503 8  87263984.891 7                  20951895.780    20951898.460
  20951897.220          48.300          46.250
 15  1 27 13  7 15.0000000  0 20G30G06G07G13G02G23G09G10G20G16G05R14
                                R02R12R13R19R03R18R20R04
 111321910.913 8  86744434.893 8  83130096.859 8  21183823.040    21183823.580
  21183822.820          50.700          48.250
 113085601.542 8  88118650.839 7  84447037.511 8  21519475.920    21519477.560
  21519476.760          49.800          47.850
 108553873.504 8  84587506.414 7                  20657088.480    20657086.500
  20657085.860          49.100          47.800
 130721364.290 7 101860845.86444                  24875441.660
  24875444.160          43.050          28.700
 112108449.670 8  87357236.24347                  21333521.220
  21333516.080          49.350          44.650
 125462392.974 7  97762861.68346                  23874701.320
  23874698.680          47.400          37.200
 113424254.381 8  88382561.248 8  84699963.826 8  21583905.340    21583904.740
  21583904.380          49.750          48.050
 105799715.374 8  82441355.89047                  20133008.980
  20133006.040          49.550          45.950
 114121155.108 8  88925533.45147                  21716539.660
  21716536.620          49.650          43.350
 131831209.767 7 102725620.15444                  25086641.100
  25086641.000          43.400          29.800
 122196825.523 7  95218313.923 7                  23253274.640    23253273.900
  23253273.260          47.550          43.300
 113413674.011 7  88210722.109 6                  21276080.380    21276090.080
  21276089.200          42.350          40.500
 122764373.535 7  95483404.936 6                  23006003.220    23006010.440
  23006009.780          45.750          41.600
 121379530.929 6  94406332.809 6                  22722502.960    22722510.560
  22722510.060          41.500          39.600
 106952667.725 7  83185509.992 7                  20028768.320    20028773.420
  20028771.940          43.200          47.100
 118691491.453 7  92315607.399 7                  22188118.380    22188122.320
  22188121.480          46.300          43.250
 106937543.073 7  83173672.647 7                  19976824.000    19976826.340
  19976825.000          47.250          47.600
 126273378.583 7  98212617.488 6                  23655276.980    23655286.440
  23655286.600          44.500          39.300
 126024685.958 6  98019239.387 6                  23567250.340    23567259.720
  23567257.420          38.750          40.900
 112185166.770 8  87255168.975 7                  20949779.120    20949781.720
  20949780.540          48.400          46.000
 15  1 27 13  7 20.0000000  0 20G30G06G07G13G02G23G09G10G20G16G05R14
                                R02R12R13R19R03R18R20R04
 111310688.067 8  86735689.820 8  83121716.169 8  21181687.420    21181687.940
  21181687.160          50.550          48.450
 113098074.361 8  88128369.902 8  84456351.613 8  21521849.460    21521851.080
  21521850.260          49.850          48.250
 108553228.175 8  84587003.565 8                  20656965.680    20656963.680
  20656963.060          49.050          48.050
 130706361.180 7 101849155.16945                  24872586.600
  24872589.060          43.100          33.900
 112105482.533 8  87354924.18947                  21332956.600
  21332951.440          49.400          44.650
 125476055.067 7  97773507.46246                  23877301.160
  23877298.500          47.450          37.500
 113434544.231 8  88390579.316 8  84707647.814 8  21585863.440    21585862.860
  21585862.560          49.200          48.500
 105799507.929 8  82441194.24347                  20132969.520
  20132966.580          49.450          46.600
 114133169.002 8  88934894.91547                  21718825.840
  21718822.800          49.750          43.550
 131834350.833 7 102728067.72045                  25087238.860
  25087238.740          42.700          31.500
 122182040.814 7  95206793.395 7                  23250461.180    23250460.440
  23250459.880          47.700          43.700
 113394280.373 7  88195638.179 6                  21272442.160    21272451.860
  21272450.940          42.050          40.400
 122777769.259 7  95493823.816 6                  23008513.600    23008520.860
  23008520.140          46.050          41.550
 121396640.449 6  94419640.201 6                  22725705.940    22725713.520
  22725712.960          41.550          39.100
 106952063.016 7  83185039.670 7                  20028655.060    20028660.200
  20028658.680          43.200          46.950
 118699551.547 7  92321876.348 7                  22189625.120    22189629.060
  22189628.200          46.400          43.000
 106940191.032 7  83175732.171 7                  19977318.660    19977320.980
  19977319.660          47.700          47.400
 126292790.103 7  98227715.292 6                  23658913.440    23658923.000
  23658923.060          45.350          39.050
 126016371.150 6  98012772.333 6                  23565695.420    23565704.800
  23565702.540          39.900          40.300
 112173836.087 8  87246356.235 7                  20947663.220    20947665.800
  20947664.600          48.350          45.950
 15  1 27 13  7 25.0000000  0 20G30G06G07G13G02G23G09G10G20G16G05R14
                                R02R12R13R19R03R18R20R04
 111299478.840 8  86726955.362 8  83113345.648 8  21179554.400    21179554.900
  21179554.120          50.600          48.600
 113110559.841 8  88138098.838 8  84465675.178 8  21524225.400    21524227.020
  21524226.180          49.950          48.300
 108552599.165 8  84586513.428 8                  20656845.980    20656844.000
  20656843.360          49.100          48.100
 130691361.803 7 101837467.36645                  24869732.280
  24869734.720          43.200          32.700
 112102532.201 8  87352625.23047                  21332395.180
  21332389.980          49.550          44.650
 125489719.040 7  97784154.70346                  23879901.360
  23879898.740          47.750          37.000
 113444839.613 8  88398601.681 8  84715335.910 8  21587822.480    21587821.980
  21587821.760          48.500          48.450
 105799312.638 8  82441042.06947                  20132932.340
  20132929.420          49.350          46.300
 114145192.042 8  88944263.51347                  21721113.760
  21721110.700          49.700          43.250
 131837507.927 7 102730527.80545                  25087839.660
  25087839.540          42.350          34.050
 122167259.361 8  95195275.398 7                  23247648.360    23247647.620
  23247647.080          48.000          43.850
 113374898.796 7  88180563.648 6                  21268806.200    21268815.860
  21268814.960          42.200          40.350
 122791170.440 7  95504246.932 6                  23011025.000    23011032.200
  23011031.480          45.900          40.400
 121413763.550 6  94432958.167 6                  22728911.500    22728918.960
  22728918.400          41.600          39.000
 106951482.687 7  83184588.309 7                  20028546.360    20028551.520
  20028549.980          43.100          46.800
 118707631.177 7  92328160.492 7                  22191135.520    22191139.420
  22191138.520          46.300          42.750
 106942848.429 7  83177799.035 7                  19977815.080    19977817.360
  19977816.100          47.800          47.200
 126312203.453 7  98242814.507 6                  23662550.300    23662559.840
  23662559.900          45.700          39.900
 126008076.117 6  98006320.661 6                  23564144.200    23564153.600
  23564151.280          39.850          39.950
 112162509.941 8  87237547.009 7                  20945548.200    20945550.700
  20945549.520          48.300          45.650
 15  1 27 13  7 30.0000000  0 20G30G06G07G13G02G23G09G10G20G16G05R14
                                R02R12R13R19R03R18R20R04
 111288280.367 8  86718229.279 8  83104983.156 8  21177423.420    21177423.900
  21177423.120          50.600          48.600
 113123055.099 8  88147835.394 8  84475006.035 8  21526603.200    21526604.780
  21526603.960          49.950          48.100
 108551983.554 8  84586033.730 8                  20656728.860    20656726.840
  20656726.220          49.350          48.000
 130676363.270 7 101825780.24045                  24866878.100
  24866880.400          43.350          32.950
 112099595.763 8  87350337.09447                  21331836.400
  21331831.180          49.450          45.000
 125503382.029 7  97794801.17446                  23882501.380
  23882498.740          47.550          36.850
 113455137.601 8  88406626.069 8  84723025.956 8  21589781.980    21589781.620
  21589781.460          48.250          48.400
 105799126.636 8  82440897.13247                  20132896.960
  20132894.060          49.550          45.950
 114157221.333 8  88953636.97547                  21723402.860
  21723399.800          49.850          42.900
 131840678.200 7 102732998.15245                  25088442.980
  25088442.780          42.450          32.500
 122152478.231 7  95183757.643 7                  23244835.560    23244834.900
  23244834.340          47.800          43.250
 113355526.183 6  88165496.068 6                  21265171.920    21265181.540
  21265180.660          41.850          40.200
 122804574.340 7  95514672.164 6                  23013536.820    23013544.080
  23013543.280          45.500          40.000
 121430897.156 6  94446284.293 6                  22732119.000    22732126.360
  22732125.800          41.200          38.700
 106950923.803 7  83184153.621 7                  20028441.720    20028446.860
  20028445.300          42.900          46.750
 118715727.116 7  92334457.326 7                  22192649.000    22192652.860
  22192651.900          46.350          42.600
 106945512.139 7  83179870.814 7                  19978312.660    19978315.000
  19978313.720          47.750          47.200
 126331615.724 7  98257912.872 6                  23666186.960    23666196.480
  23666196.500          45.850          40.350
 125999797.968 6  97999882.099 6                  23562596.160    23562605.560
  23562603.160          40.700          40.200
 112151185.347 8  87228739.004 7                  20943433.440    20943435.900
  20943434.720          48.400          45.750
 15  1 27 13  7 35.0000000  0 20G30G06G07G13G02G23G09G10G20G16G05R14
                                R02R12R13R19R03R18R20R04
 111277096.709 8  86709514.742 8  83096631.725 8  21175295.240    21175295.700
  21175294.920          50.400          48.750
 113135564.191 8  88157582.728 8  84484347.230 8  21528983.640    21528985.220
  21528984.340          49.850          48.150
 108551385.399 8  84585567.622 7                  20656615.020    20656613.020
  20656612.380          49.250          47.950
 130661369.637 7 101814096.92445                  24864024.900
  24864027.220          43.050          35.500
 112096677.293 8  87348062.96347                  21331281.040
  21331275.800          49.400          45.200
 125517048.096 7  97805450.03246                  23885101.960
  23885099.320          47.050          37.850
 113465442.287 8  88414655.670 8  84730720.990 8  21591742.700    21591742.520
  21591742.380          48.000          48.650
 105798953.987 8  82440762.59647                  20132864.100
  20132861.220          49.400          46.750
 114169260.969 8  88963018.50147                  21725693.940
  21725690.860          49.800          43.050
 131843865.676 7 102735481.89645                  25089049.580
  25089049.400          42.650          31.200
 122137701.599 7  95172243.393 7                  23242023.660    23242023.000
  23242022.460          47.700          43.800
 113336166.872 7  88150438.847 6                  21261540.160    21261549.700
  21261548.880          42.350          40.600
 122817985.011 7  95525102.647 6                  23016049.880    23016057.220
  23016056.400          45.250          40.300
 121448045.631 6  94459621.979 6                  22735329.260    22735336.560
  22735336.000          41.350          38.750
 106950390.332 7  83183738.699 7                  20028341.800    20028346.960
  20028345.380          43.000          46.750
 118723843.669 7  92340770.192 7                  22194166.320    22194170.120
  22194169.120          46.450          42.300
 106948186.468 7  83181950.847 7                  19978812.240    19978814.560
  19978813.300          47.800          47.150
 126351030.971 7  98273013.545 6                  23669824.140    23669833.720
  23669833.700          46.000          40.850
 125991540.929 6  97993459.943 6                  23561052.080    23561061.440
  23561058.960          41.400          39.900
 112139866.432 8  87219935.402 7                  20941319.700    20941322.180
  20941321.000          48.400          45.700
 15  1 27 13  7 40.0000000  0 20G30G06G07G13G02G23G09G10G20G16G05R14
                                R02R12R13R19R03R18R20R04
 111265924.902 8  86700809.446 8  83088289.150 8  21173169.320    21173169.800
  21173169.000          50.300          49.600
 113148084.105 8  88167338.505 8  84493696.513 8  21531366.120    21531367.700
  21531366.800          49.400          49.100
 108550801.801 8  84585112.884 8                  20656503.980    20656501.960
  20656501.320          49.000          48.950
 130646377.927 7 101802415.12045                  24861172.060
  24861174.440          42.750          34.600
 112093773.857 8  87345800.54847                  21330728.540
  21330723.280          49.000          46.450
 125530714.247 7  97816098.96546                  23887702.560
  23887699.880          46.850          38.500
 113475750.649 8  88422688.135 8  84738418.771 8  21593704.160    21593704.140
  21593704.020          48.000          49.200
 105798791.712 8  82440636.15047                  20132833.220
  20132830.360          49.300          47.850
 114181307.954 8  88972405.75247                  21727986.400
  21727983.320          49.550          44.350
 131847067.396 7 102737976.75445                  25089658.880
  25089658.620          42.400          34.300
 122122926.463 7  95160730.322 7                  23239212.020    23239211.400
  23239210.860          47.500          44.450
 113316817.939 6  88135389.696 6                  21257910.320    21257919.920
  21257919.060          41.900          40.900
 122831399.378 7  95535536.010 6                  23018563.580    23018571.060
  23018570.200          45.650          40.300
 121465205.722 6  94472968.700 6                  22738541.680    22738548.880
  22738548.380          41.050          39.350
 106949879.353 7  83183341.273 7                  20028246.080    20028251.260
  20028249.660          43.000          47.000
 118731977.734 7  92347096.689 7                  22195686.900    22195690.700
  22195689.640          46.400          42.550
 106950868.317 7  83184036.730 7                  19979313.220    19979315.560
  19979314.320          47.550          47.350
 126370446.148 7  98288114.170 6                  23673461.340    23673470.900
  23673470.880          45.800          41.500
 125983301.969 6  97987051.874 6                  23559511.400    23559520.700
  23559518.180          40.300          40.250
 112128550.168 8  87211133.886 7                  20939206.460    20939208.920
  20939207.740          48.400          45.900
 15  1 27 13  7 45.0000000  0 20G30G06G07G13G02G23G09G10G20G16G05R14
                                R02R12R13R19R03R18R20R04
 111254765.380 8  86692113.717 8  83079955.741 8  21171045.740    21171046.220
  21171045.400          50.600          49.350
 113160615.252 8  88177103.023 8  84503054.182 8  21533750.760    21533752.320
  21533751.420          49.600          48.950
 108550233.159 8  84584669.786 8                  20656395.760    20656393.740
  20656393.120          48.950          48.850
 130631388.577 7 101790735.15645                  24858319.680
  24858321.940          43.100          34.100
 112090885.860 8  87343550.16147                  21330178.960
  21330173.700          49.050          46.200
 125544380.862 7  97826748.25746                  23890303.240
  23890300.560          47.000          38.700
 113486063.086 8  88430723.786 8  84746119.609 8  21595666.460    21595666.540
  21595666.400          48.850          48.850
 105798640.201 8  82440518.08647                  20132804.400
  20132801.520          49.200          47.550
 114193362.701 8  88981799.05047                  21730280.340
  21730277.260          49.700          43.800
 131850283.762 7 102740483.02145                  25090270.960
  25090270.620          42.650          33.800
 122108153.202 7  95149218.698 7                  23236400.740    23236400.140
  23236399.580          47.550          44.700
 113297479.644 6  88120348.816 6                  21254282.420    21254292.100
  21254291.260          41.800          40.800
 122844817.899 7  95545972.633 6                  23021078.160    23021085.680
  23021084.760          45.750          40.450
 121482377.947 6  94486324.852 6                  22741756.420    22741763.520
  22741763.060          40.550          39.100
 106949391.410 7  83182961.766 7                  20028154.740    20028159.880
  20028158.260          43.200          46.950
 118740129.750 7  92353437.127 7                  22197210.820    22197214.580
  22197213.500          46.250          42.450
 106953558.105 7  83186128.794 7                  19979815.700    19979818.020
  19979816.800          47.550          47.350
 126389861.697 7  98303215.096 7                  23677098.580    23677108.180
  23677108.120          44.350          42.100
 125975081.469 6  97980658.189 6                  23557974.200    23557983.400
  23557980.900          40.650          39.950
 112117236.852 8  87202334.644 7                  20937093.760    20937096.240
  20937095.040          48.250          46.000
 15  1 27 13  7 50.0000000  0 20G30G06G07G13G02G23G09G10G20G16G05R14
                                R02R12R13R19R03R18R20R04
 111243619.208 8  86683428.386 8  83071632.300 8  21168924.700    21168925.160
  21168924.360          50.650          49.200
 113173158.728 8  88186877.152 8  84512421.043 8  21536137.720    21536139.280
  21536138.380          49.700          48.900
 108549680.561 8  84584239.192 8                  20656290.600    20656288.580
  20656287.960          49.000          48.750
 130616402.682 7 101779057.85545                  24855467.920
  24855470.200          43.900          32.700
 112088014.372 8  87341312.63647                  21329632.540
  21329627.260          49.100          45.750
 125558049.070 7  97837398.80146                  23892904.260
  23892901.520          47.000          38.250
 113496380.707 8  88438763.488 8  84753824.300 8  21597629.820    21597629.900
  21597629.720          49.250          48.750
 105798500.594 8  82440409.29647                  20132777.860
  20132774.960          49.250          47.300
 114205426.310 8  88991199.25347                  21732575.960
  21732572.880          49.650          43.800
 131853515.879 7 102743001.53645                  25090886.020
  25090885.580          42.000          33.900
 122093382.948 7  95137709.429 7                  23233590.040    23233589.460
  23233588.920          47.300          44.250
 113278153.092 6  88105317.070 6                  21250656.720    21250666.540
  21250665.640          41.550          40.750
 122858241.750 7  95556413.411 6                  23023593.760    23023601.260
  23023600.280          45.500          40.350
 121499563.313 6  94499691.222 6                  22744973.540    22744980.640
  22744980.180          40.450          38.800
 106948927.324 7  83182600.814 7                  20028067.860    20028072.980
  20028071.320          43.550          46.900
 118748300.792 7  92359792.376 7                  22198738.300    22198742.080
  22198740.920          46.150          42.400
 106956256.932 7  83188227.877 7                  19980319.820    19980322.160
  19980320.960          47.850          47.250
 126409278.671 7  98318317.133 7                  23680736.100    23680745.700
  23680745.660          43.900          42.250
 125966880.452 6  97974279.601 6                  23556440.620    23556449.700
  23556447.280          40.050          40.150
 112105927.750 8  87193538.674 7                  20934981.880    20934984.360
  20934983.160          48.750          46.150
 15  1 27 13  7 55.0000000  0 20G30G06G07G13G02G23G09G10G20G16G05R14
                                R02R12R13R19R03R18R20R04
 111232486.363 8  86674753.446 8  83063318.820 8  21166806.220    21166806.660
  21166805.860          50.600          49.000
 113185714.445 8  88196660.815 8  84521797.056 8  21538527.060    21538528.560
  21538527.660          49.850          48.800
 108549143.917 8  84583821.036 8                  20656188.480    20656186.460
  20656185.840          49.100          48.500
 130601420.160 7 101767383.21145                  24852616.840
  24852619.140          44.150          31.700
 112085159.340 8  87339087.93547                  21329089.240
  21329083.960          49.250          45.400
 125571718.781 7  97848050.50346                  23895505.580
  23895502.780          47.200          37.750
 113506703.415 8  88446807.151 8  84761532.818 8  21599594.220    21599594.220
  21599594.000          49.900          48.350
 105798372.794 8  82440309.71247                  20132753.540
  20132750.640          49.250          47.300
 114217498.674 8  89000606.27847                  21734873.240
  21734870.160          49.600          43.550
 131856763.662 7 102745532.28045                  25091504.080
  25091503.660          42.650          34.050
 122078615.620 7  95126202.431 7                  23230779.900    23230779.340
  23230778.760          47.550          43.800
 113258838.237 6  88090294.426 6                  21247033.300    21247043.060
  21247042.200          41.200          40.350
 122871670.829 7  95566858.229 6                  23026110.340    23026117.820
  23026116.840          45.050          40.450
 121516761.838 6  94513067.834 6                  22748193.100    22748200.180
  22748199.780          40.600          38.950
 106948487.203 7  83182258.496 7                  20027985.520    20027990.560
  20027988.900          43.800          46.950
 118756490.810 7  92366162.386 6                  22200269.300    22200273.100
  22200271.860          46.400          41.950
 106958964.784 8  83190333.967 7                  19980825.660    19980828.020
  19980826.800          48.000          46.900
 126428697.014 7  98333420.249 7                  23684373.880    23684383.540
  23684383.400          43.600          42.200
 125958699.031 6  97967916.301 6                  23554910.740    23554919.780
  23554917.300          40.700          39.900
 112094622.887 8  87184746.009 7                  20932870.800    20932873.280
  20932872.080          48.400          46.150
 15  1 27 13  8  0.0000000  0 20G30G06G07G13G02G23G09G10G20G16G05R14
                                R02R12R13R19R03R18R20R04
 111221366.884 8  86666088.923 8  83055015.321 8  21164690.260    21164690.700
  21164689.900          50.300          48.950
 113198282.427 8  88206454.034 8  84531182.224 8  21540918.700    21540920.160
  21540919.300          49.900          48.900
 108548623.232 8  84583415.312 8                  20656089.380    20656087.360
  20656086.760          49.100          48.450
 130586441.076 7 101755711.23844                  24849766.400
  24849768.720          43.950          29.500
 112082320.835 8  87336876.11347                  21328549.080
  21328543.800          49.250          45.800
 125585390.064 7  97858703.43646                  23898107.180
  23898104.340          47.000          37.850
 113517031.275 8  88454854.842 8  84769245.183 8  21601559.640    21601559.520
  21601559.240          50.050          48.250
 105798256.889 8  82440219.39447                  20132731.480
  20132728.580          49.150          47.200
 114229579.843 8  89010020.16347                  21737172.180
  21737169.120          49.250          43.950
 131860027.115 7 102748075.21645                  25092125.120
  25092124.700          42.900          31.250
 122063851.270 7  95114697.747 7                  23227970.320    23227969.780
  23227969.160          47.400          43.950
 113239535.366 6  88075281.097 6                  21243412.100    21243421.840
  21243421.020          41.850          40.450
 122885105.083 7  95577307.071 6                  23028627.940    23028635.380
  23028634.440          45.600          40.050
 121533973.542 6  94526454.686 6                  22751415.160    22751422.140
  22751421.840          40.200          39.250
 106948071.055 7  83181934.824 7                  20027907.640    20027912.620
  20027910.960          43.550          46.800
 118764699.730 7  92372547.091 7                  22201803.840    22201807.680
  22201806.360          46.550          42.350
 106961681.701 8  83192447.134 7                  19981333.240    19981335.560
  19981334.320          48.050          47.000
 126448116.718 7  98348524.414 6                  23688011.880    23688021.560
  23688021.400          42.850          41.700
 125950537.144 6  97961568.142 6                  23553384.520    23553393.420
  23553390.940          39.950          39.450
 112083322.208 8  87175956.597 7                  20930760.500    20930762.960
  20930761.780          48.700          46.000
 15  1 27 13  8  5.0000000  0 20G30G06G07G13G02G23G09G10G20G16G05R14
                                R02R12R13R19R03R18R20R04
 111210259.334 8  86657433.689 8  83046720.720 8  21162576.580    21162577.000
  21162576.200          50.050          49.050
 113210861.221 8  88216255.679 8  84540575.473 8  21543312.420    21543313.840
  21543313.000          49.950          48.950
 108548117.135 8  84583020.951 8                  20655993.080    20655991.060
  20655990.460          49.250          48.400
 130571463.952 7 101744040.75745                  24846916.340
  24846918.600          43.850          34.600
 112079497.405 8  87334676.03147                  21328011.780
  21328006.520          49.200          45.450
 125599061.443 7  97869356.43246                  23900708.780
  23900705.920          47.200          36.950
 113527362.819 8  88462905.396 8  84776960.297 8  21603525.800    21603525.540
  21603525.220          50.250          48.150
 105798151.425 8  82440137.20547                  20132711.400
  20132708.500          49.250          46.700
 114241668.382 8  89019439.78647                  21739472.500
  21739469.480          49.250          43.550
 131863304.878 7 102750629.32945                  25092748.840
  25092748.580          42.050          35.050
 122049088.446 7  95103194.253 7                  23225161.020    23225160.500
  23225159.880          47.400          44.100
 113220242.852 6  88060275.804 6                  21239792.840    21239802.560
  21239801.740          41.550          40.100
 122898543.153 7  95587758.876 6                  23031146.260    23031153.660
  23031152.700          45.750          39.950
 121551196.674 6  94539850.428 6                  22754639.340    22754646.420
  22754646.040          40.300          38.850
 106947677.445 7  83181628.683 7                  20027833.900    20027838.880
  20027837.260          43.600          46.750
 118772926.183 7  92378945.432 7                  22203341.700    22203345.600
  22203344.140          46.300          42.550
 106964406.134 8  83194566.123 7                  19981842.180    19981844.560
  19981843.260          48.000          46.850
 126467536.291 7  98363628.449 6                  23691649.840    23691659.540
  23691659.360          42.750          40.850
 125942393.334 6  97955234.071 6                  23551861.600    23551870.420
  23551868.000          39.950          38.950
 112072024.188 8  87167169.246 7                  20928650.680    20928653.120
  20928651.940          48.300          45.800
 15  1 27 13  8 10.0000000  0 20G30G06G07G13G02G23G09G10G20G16G05R14
                                R02R12R13R19R03R18R20R04
 111199165.886 8  86648789.458 8  83038436.659 8  21160465.540    21160466.000
  21160465.220          49.950          49.000
 113223453.009 8  88226067.454 8  84549978.408 8  21545708.580    21545710.000
  21545709.160          49.850          48.900
 108547627.757 8  84582639.632 8                  20655899.960    20655897.940
  20655897.340          49.350          48.450
 130556490.968 7 101732373.55745                  24844067.060
  24844069.260          44.050          32.450
 112076691.210 8  87332489.39747                  21327477.780
  21327472.520          49.250          45.600
 125612735.064 7  97880011.19346                  23903310.780
  23903307.940          46.650          37.500
 113537700.218 8  88470960.526 8  84784679.785 8  21605493.080    21605492.660
  21605492.300          50.400          48.150
 105798058.571 8  82440064.85347                  20132693.740
  20132690.820          49.200          46.850
 114253766.446 8  89028866.84847                  21741774.640
  21741771.660          49.300          43.800
 131866599.047 6 102753196.19045                  25093375.700
  25093375.420          41.700          30.100
 122034329.347 7  95091693.684 7                  23222352.440    23222351.940
  23222351.280          47.250          43.950
 113200962.972 6  88045280.377 6                  21236175.920    21236185.640
  21236184.840          41.850          40.600
 122911987.184 7  95598215.329 6                  23033665.720    23033673.080
  23033672.140          45.750          40.200
 121568433.709 6  94553256.998 6                  22757866.060    22757873.160
  22757872.860          40.500          39.250
 106947308.632 7  83181341.840 7                  20027764.800    20027769.800
  20027768.180          43.550          46.850
 118781172.233 7  92385359.035 7                  22204883.200    22204887.140
  22204885.640          46.450          42.300
 106967140.476 7  83196692.845 7                  19982353.000    19982355.340
  19982354.040          47.900          46.900
 126486957.952 7  98378734.146 6                  23695288.200    23695297.940
  23695297.700          43.750          41.050
 125934269.928 6  97948915.873 6                  23550342.500    23550351.220
  23550348.840          40.800          38.900
 112060731.090 8  87158385.737 7                  20926541.780    20926544.240
  20926543.060          48.150          45.750
 15  1 27 13  8 15.0000000  0 20G30G06G07G13G02G23G09G10G20G16G05R14
                                R02R12R13R19R03R18R20R04
 111188084.952 8  86640154.971 8  83030161.940 8  21158356.920    21158357.380
  21158356.600          50.250          48.950
 113236056.103 8  88235888.038 8  84559389.805 8  21548106.880    21548108.300
  21548107.480          49.600          48.900
 108547153.475 8  84582270.067 8                  20655809.700    20655807.700
  20655807.100          49.300          48.450
 130541520.586 7 101720708.32845                  24841218.300
  24841220.360          44.100          33.500
 112073900.610 8  87330314.89747                  21326946.760
  21326941.480          49.150          45.800
 125626409.352 7  97890666.46246                  23905912.920
  23905910.140          47.100          37.950
 113548041.873 8  88479018.965 8  84792402.450 8  21607461.180    21607460.620
  21607460.220          50.350          48.350
 105797976.677 8  82440001.03747                  20132678.140
  20132675.220          49.150          47.200
 114265872.384 8  89038300.03747                  21744078.280
  21744075.340          49.000          43.800
 131869908.048 6 102755774.66945                  25094005.320
  25094005.200          41.700          31.600
 122019572.270 7  95080194.679 7                  23219544.240    23219543.720
  23219543.100          47.450          43.850
 113181694.113 7  88030293.517 6                  21232561.140    21232570.820
  21232570.020          42.100          39.900
 122925435.547 7  95608675.151 6                  23036185.980    23036193.260
  23036192.360          46.150          40.250
 121585682.893 6  94566673.016 6                  22761095.160    22761102.260
  22761102.000          40.700          39.100
 106946962.734 7  83181072.810 7                  20027700.040    20027705.040
  20027703.400          43.450          46.750
 118789436.457 7  92391786.746 6                  22206428.140    22206432.060
  22206430.500          46.100          41.800
 106969882.935 7  83198825.876 7                  19982865.320    19982867.660
  19982866.340          47.800          46.900
 126506380.013 7  98393840.142 6                  23698926.660    23698936.380
  23698936.140          44.100          41.050
 125926165.192 6  97942612.193 6                  23548826.840    23548835.520
  23548833.200          40.550          38.700
 112049441.317 8  87149604.807 7                  20924433.440    20924435.980
  20924434.760          48.300          45.850
 15  1 27 13  8 20.0000000  0 20G30G06G07G13G02G23G09G10G20G16G05R14
                                R02R12R13R19R03R18R20R04
 111177016.784 8  86631530.417 8  83021896.755 8  21156250.720    21156251.180
  21156250.400          50.350          48.950
 113248670.794 8  88245717.660 8  84568809.863 8  21550507.380    21550508.780
  21550508.000          49.700          48.900
 108546694.545 8  84581912.465 8                  20655722.380    20655720.360
  20655719.760          49.250          48.450
 130526553.013 7 101709045.31545                  24838370.080
  24838372.080          43.900          32.550
 112071125.891 8  87328152.78147                  21326418.760
  21326413.480          49.250          45.450
 125640084.462 7  97901322.38046                  23908515.180
  23908512.500          46.650          37.200
 113558388.000 8  88487080.884 8  84800128.459 8  21609430.100    21609429.420
  21609429.000          50.300          48.300
 105797906.031 8  82439945.98647                  20132664.700
  20132661.780          49.300          46.600
 114277986.494 8  89047739.58547                  21746383.480
  21746380.580          49.300          43.450
 131873232.131 6 102758364.84545                  25094637.860
  25094637.660          41.800          33.750
 122004817.620 7  95068697.557 7                  23216736.500    23216736.000
  23216735.380          47.400          44.100
 113162436.461 7  88015315.345 6                  21228948.420    21228958.020
  21228957.280          42.400          39.850
 122938888.489 7  95619138.548 6                  23038707.100    23038714.340
  23038713.440          45.800          40.050
 121602944.436 6  94580098.623 6                  22764326.600    22764333.560
  22764333.420          40.200          39.250
 106946640.295 7  83180822.031 7                  20027639.680    20027644.640
  20027643.040          44.050          46.700
 118797718.876 7  92398228.599 6                  22207976.420    22207980.380
  22207978.740          45.700          41.550
 106972633.789 7  83200965.428 7                  19983379.220    19983381.540
  19983380.220          47.700          47.150
 126525802.728 7  98408946.598 6                  23702565.200    23702575.020
  23702574.700          44.400          40.850
 125918079.321 6  97936323.200 6                  23547314.780    23547323.380
  23547321.040          40.300          38.150
 112038155.174 8  87140826.700 7                  20922325.860    20922328.320
  20922327.160          48.750          45.700
 15  1 27 13  8 25.0000000  0 20G30G06G07G13G02G23G09G10G20G16G05R14
                                R02R12R13R19R03R18R20R04
 111165961.553 8  86622915.954 8  83013641.227 8  21154146.980    21154147.420
  21154146.660          50.350          48.900
 113261297.228 8  88255556.440 8  84578238.686 8  21552910.100    21552911.540
  21552910.760          49.600          48.800
 108546251.122 8  84581566.972 8                  20655638.040    20655636.000
  20655635.400          49.300          48.400
 130511588.356 7 101697384.57845                  24835522.440
  24835524.320          44.100          30.050
 112068367.237 8  87326003.18447                  21325893.820
  21325888.520          49.300          45.050
 125653760.611 7  97911979.08246                  23911117.660
  23911114.960          47.100          36.900
 113568738.793 8  88495146.437 8  84807857.944 8  21611399.880    21611399.140
  21611398.700          50.150          48.400
 105797846.801 8  82439899.83147                  20132653.440
  20132650.480          49.400          46.900
 114290108.913 8  89057185.62547                  21748690.260
  21748687.380          49.200          43.550
 131876571.467 7 102760966.95245                  25095273.240
  25095273.120          42.100          33.550
 121990065.524 7  95057202.440 7                  23213929.260    23213928.740
  23213928.140          47.800          43.900
 113143190.211 7  88000346.052 6                  21225337.880    21225347.420
  21225346.700          42.550          40.600
 122952346.244 7  95629605.675 6                  23041229.140    23041236.300
  23041235.460          45.850          40.450
 121620218.543 6  94593534.021 6                  22767560.420    22767567.360
  22767567.180          40.800          39.300
 106946341.303 7  83180589.484 7                  20027583.680    20027588.680
  20027587.060          44.100          46.700
 118806019.786 7  92404684.858 6                  22209528.180    22209532.160
  22209530.420          46.000          41.650
 106975393.418 7  83203111.805 7                  19983894.740    19983897.080
  19983895.740          47.400          47.000
 126545226.225 7  98424053.673 6                  23706203.900    23706213.800
  23706213.480          44.900          40.950
 125910012.681 6  97930049.137 6                  23545806.280    23545814.840
  23545812.460          39.850          38.600
 112026872.673 8  87132051.424 7                  20920218.940    20920221.380
  20920220.220          48.800          45.650
 15  1 27 13  8 30.0000000  0 20G30G06G07G13G02G23G09G10G20G16G05R14
                                R02R12R13R19R03R18R20R04
 111154920.568 8  86614312.597 8  83005396.340 8  21152045.940    21152046.400
  21152045.640          50.350          49.900
 113273936.698 8  88265405.362 8  84587677.225 8  21555315.300    21555316.760
  21555315.980          49.650          49.650
 108545824.537 8  84581234.568 8                  20655556.900    20655554.820
  20655554.220          49.250          49.400
 130496627.966 7 101685727.17645                  24832675.620
  24832677.320          44.850          34.950
 112065625.921 8  87323867.09247                  21325372.180
  21325366.880          49.200          46.850
 125667439.158 7  97922637.67846                  23913720.600
  23913717.860          47.100          38.650
 113579095.512 8  88503216.601 8  84815591.851 8  21613370.720    21613370.000
  21613369.540          49.850          49.400
 105797800.300 8  82439863.59448                  20132644.600
  20132641.620          49.450          48.400
 114302240.919 8  89066639.12047                  21750998.880
  21750996.040          49.250          44.700
 131879927.335 7 102763581.86145                  25095911.840
  25095911.640          42.300          35.300
 121975317.270 7  95045710.298 7                  23211122.720    23211122.220
  23211121.600          47.750          45.300
 113123956.786 7  87985386.743 6                  21221729.720    21221739.320
  21221738.520          42.650          41.350
 122965810.053 7  95640077.493 6                  23043752.300    23043759.500
  23043758.680          45.800          41.500
 121637506.466 6  94606980.165 6                  22770796.780    22770803.700
  22770803.580          41.100          40.800
 106946067.185 7  83180376.287 7                  20027532.400    20027537.380
  20027535.740          43.950          47.800
 118814340.333 7  92411156.391 7                  22211083.580    22211087.620
  22211085.820          45.850          42.950
 106978162.713 7  83205265.694 7                  19984412.080    19984414.420
  19984413.080          47.850          47.850
 126564651.838 7  98439162.411 6                  23709843.000    23709852.940
  23709852.640          43.850          41.950
 125901966.406 6  97923790.955 6                  23544301.600    23544310.100
  23544307.740          40.150          39.700
 112015595.230 8  87123280.070 7                  20918112.980    20918115.420
  20918114.220          48.850          46.850
 15  1 27 13  8 35.0000000  0 20G30G06G07G13G02G23G09G10G20G16G05R14
                                R02R12R13R19R03R18R20R04
 111143891.081 8  86605718.190 8  82997160.037 8  21149947.080    21149947.540
  21149946.800          50.250          49.700
 113286586.419 8  88275262.274 8  84597123.434 8  21557722.460    21557723.940
  21557723.120          49.650          49.250
 108545412.024 8  84580913.117 8                  20655478.420    20655476.300
  20655475.720          49.350          49.100
 130481669.114 7 101674070.91545                  24829829.060
  24829830.680          44.400          33.650
 112062899.167 8  87321742.34247                  21324853.300
  21324848.000          49.400          46.300
 125681117.324 7  97933295.97746                  23916323.460
  23916320.740          47.100          37.500
 113589455.420 8  88511289.241 8  84823328.133 8  21615342.120    21615341.420
  21615341.020          49.250          49.200
 105797763.772 8  82439835.11947                  20132637.640
  20132634.680          49.450          47.600
 114314379.780 8  89076097.95247                  21753308.800
  21753306.000          49.250          44.600
 131883296.977 7 102766207.57845                  25096553.040
  25096552.920          42.250          35.550
 121960570.192 7  95034219.075 7                  23208316.440    23208315.920
  23208315.320          47.500          44.750
 113104733.300 7  87970435.137 6                  21218123.420    21218133.000
  21218132.220          42.400          41.350
 122979277.200 7  95650551.912 6                  23046276.100    23046283.220
  23046282.480          45.250          41.300
 121654805.410 6  94620434.863 6                  22774035.260    22774042.120
  22774042.040          41.700          40.150
 106945814.993 7  83180180.127 7                  20027485.140    20027490.160
  20027488.560          43.450          47.450
 118822677.883 7  92417641.150 7                  22212642.200    22212646.280
  22212644.420          45.750          42.750
 106980939.328 7  83207425.280 7                  19984930.780    19984933.120
  19984931.780          47.750          47.600
 126584076.718 7  98454270.553 7                  23713482.020    23713492.000
  23713491.680          43.600          42.000
 125893937.855 6  97917546.495 6                  23542800.220    23542808.680
  23542806.320          39.400          39.900
 112004319.974 8  87114510.442 7                  20916007.420    20916009.840
  20916008.640          48.650          46.400
 15  1 27 13  8 40.0000000  0 20G30G06G07G13G02G23G09G10G20G16G05R14
                                R02R12R13R19R03R18R20R04
 111132873.490 8  86597133.066 8  82988932.627 8  21147850.480    21147850.980
  21147850.220          50.100          49.000
 113299246.764 8  88285127.469 8  84606577.580 8  21560131.620    21560133.120
  21560132.300          49.650          48.450
 108545013.958 8  84580602.940 8                  20655402.700    20655400.540
  20655399.960          49.350          48.300
 130466712.150 7 101662416.18045                  24826982.860
  24826984.260          44.200          35.200
 112060187.401 8  87319629.27347                  21324337.280
  21324331.960          49.400          45.200
 125694795.519 7  97943954.29146                  23918926.320
  23918923.620          46.550          37.800
 113599818.891 8  88519364.659 8  84831067.087 8  21617314.140    21617313.520
  21617313.180          48.900          48.650
 105797737.612 8  82439814.72647                  20132632.680
  20132629.700          49.450          46.800
 114326525.849 8  89085562.41147                  21755620.100
  21755617.320          49.200          43.200
 131886680.791 7 102768844.32345                  25097196.960
  25097196.880          42.250          34.050
 121945824.594 7  95022729.009 7                  23205510.420    23205509.900
  23205509.320          47.300          43.900
 113085520.281 7  87955491.704 6                  21214519.120    21214528.700
  21214527.920          42.200          41.400
 122992748.024 7  95661029.202 6                  23048800.520    23048807.680
  23048806.920          44.650          41.050
 121672115.758 7  94633898.461 6                  22777275.860    22777282.700
  22777282.620          42.050          39.950
 106945585.245 7  83180001.432 7                  20027442.120    20027447.140
  20027445.580          43.600          47.600
 118831032.730 7  92424139.356 7                  22214204.040    22214208.200
  22214206.260          45.850          42.950
 106983723.410 8  83209590.677 7                  19985450.900    19985453.240
  19985451.860          48.000          47.500
 126603501.165 7  98469378.388 7                  23717120.920    23717130.980
  23717130.640          43.800          42.600
 125885927.424 6  97911316.185 6                  23541302.280    23541310.660
  23541308.340          39.550          40.050
 111993047.476 8  87105742.945 7                  20913902.380    20913904.760
  20913903.580          48.500          46.250
 15  1 27 13  8 45.0000000  0 20G30G06G07G13G02G23G09G10G20G16G05R14
                                R02R12R13R19R03R18R20R04
 111121872.018 8  86588560.499 8  82980717.248 8  21145756.960    21145757.460
  21145756.720          50.350          48.900
 113311921.967 8  88295004.241 8  84616042.815 8  21562543.620    21562545.140
  21562544.320          49.750          48.450
 108544634.565 8  84580307.313 8                  20655330.540    20655328.340
  20655327.760          49.550          48.300
 130451761.243 7 101650766.14745                  24824137.800
  24824139.160          44.700          32.600
 112057494.823 8  87317531.15947                  21323824.900
  21323819.580          49.550          45.050
 125708477.871 7  97954615.85646                  23921530.000
  23921527.240          47.150          36.900
 113610190.137 8  88527446.139 8  84838811.834 8  21619287.580    21619287.120
  21619286.820          48.250          48.600
 105797726.028 8  82439805.70147                  20132630.520
  20132627.480          49.650          46.600
 114338683.394 8  89095035.81147                  21757933.580
  21757930.840          49.300          43.300
 131890082.954 7 102771495.33845                  25097844.380
  25097844.260          42.800          30.750
 121931084.706 7  95011243.406 7                  23202705.440    23202705.000
  23202704.380          47.200          43.700
 113066321.969 6  87940559.704 6                  21210917.580    21210927.180
  21210926.320          41.950          40.750
 123006226.777 7  95671512.662 6                  23051326.340    23051333.580
  23051332.880          44.850          41.700
 121689441.755 7  94647374.220 6                  22780519.480    22780526.260
  22780526.120          42.050          39.650
 106945382.116 7  83179843.432 7                  20027404.080    20027409.100
  20027407.600          43.200          47.300
 118839409.159 7  92430654.327 7                  22215769.900    22215774.120
  22215772.120          46.150          42.700
 106986519.307 8  83211765.259 7                  19985973.220    19985975.540
  19985974.140          48.100          47.150
 126622929.623 7  98484489.330 6                  23720760.580    23720770.720
  23720770.360          43.750          41.950
 125877939.297 6  97905103.210 6                  23539808.420    23539816.840
  23539814.540          39.950          39.700
 111981781.939 8  87096980.872 7                  20911798.600    20911801.020
  20911799.800          48.150          46.050
 15  1 27 13  8 50.0000000  0 20G30G06G07G13G02G23G09G10G20G16G05R14
                                R02R12R13R19R03R18R20R04
 111110882.648 8  86579997.347 8  82972510.890 8  21143665.740    21143666.220
  21143665.520          50.300          48.850
 113324607.946 8  88304889.399 8  84625516.091 8  21564957.640    21564959.180
  21564958.360          49.600          48.250
 108544269.790 8  84580023.079 8                  20655261.160    20655258.920
  20655258.340          49.550          48.300
 130436812.451 7 101639117.72145                  24821293.160
  24821294.460          44.250          32.800
 112054817.433 8  87315444.87447                  21323315.440
  21323310.100          49.300          45.700
 125722160.412 7  97965277.54946                  23924133.700
  23924130.900          47.300          36.650
 113620565.127 8  88535530.514 8  84846559.361 8  21621261.700    21621261.420
  21621261.180          48.150          48.550
 105797724.963 8  82439804.86447                  20132630.360
  20132627.280          49.550          46.400
 114350848.336 8  89104514.97447                  21760248.460
  21760245.800          49.250          43.300
 131893499.455 7 102774157.53445                  25098494.520
  25098494.280          42.750          32.050
 121916346.549 7  94999759.143 7                  23199900.780    23199900.380
  23199899.760          47.650          43.650
 113047134.345 7  87925635.994 6                  21207318.020    21207327.600
  21207326.720          42.350          41.000
 123019709.393 7  95681999.102 6                  23053852.920    23053860.220
  23053859.580          45.450          41.250
 121706779.266 7  94660858.933 6                  22783765.180    22783771.800
  22783771.760          42.450          39.650
 106945201.674 7  83179703.091 7                  20027370.240    20027375.320
  20027373.820          43.450          47.250
 118847802.973 7  92437182.828 6                  22217339.020    22217343.280
  22217341.220          46.400          41.950
 106989322.899 8  83213945.841 7                  19986496.960    19986499.280
  19986497.880          48.100          47.250
 126642357.850 7  98499600.096 6                  23724400.180    23724410.360
  23724409.960          43.250          41.750
 125869969.477 6  97898904.471 6                  23538318.020    23538326.480
  23538324.180          40.700          40.650
 111970519.201 8  87088220.953 7                  20909695.340    20909697.740
  20909696.520          48.000          46.000
 15  1 27 13  8 55.0000000  0 20G30G06G07G13G02G23G09G10G20G16G05R14
                                R02R12R13R19R03R18R20R04
 111099905.349 8  86571443.612 8  82964313.571 8  21141576.820    21141577.320
  21141576.600          50.550          48.850
 113337304.706 8  88314782.963 8  84634997.412 8  21567373.720    21567375.300
  21567374.480          49.600          48.400
 108543919.639 8  84579750.248 8                  20655194.560    20655192.280
  20655191.700          49.600          48.350
 130421865.754 7 101627470.99145                  24818448.900
  24818450.220          43.700          31.600
 112052155.200 8  87313370.41447                  21322808.860
  21322803.500          49.350          45.550
 125735843.116 7  97975939.37646                  23926737.440
  23926734.580          47.350          36.600
 113630943.820 8  88543617.786 8  84854309.673 8  21623236.560    21623236.440
  21623236.220          48.600          48.450
 105797734.428 8  82439812.23547                  20132632.200
  20132629.080          49.600          46.700
 114363020.693 8  89113999.91647                  21762564.800
  21762562.140          49.400          43.250
 131896930.289 7 102776830.89945                  25099147.380
  25099147.020          42.600          31.150
 121901610.069 7  94988276.177 7                  23197096.480    23197096.120
  23197095.500          47.800          43.950
 113027957.355 7  87910720.572 6                  21203720.460    21203730.060
  21203729.160          42.250          40.950
 123033195.839 7  95692488.537 6                  23056380.200    23056387.560
  23056386.980          45.700          40.900
 121724128.378 7  94674352.673 6                  22787013.060    22787019.560
  22787019.560          42.250          39.550
 106945043.716 7  83179580.243 7                  20027340.620    20027345.740
  20027344.260          43.450          47.000
 118856214.296 7  92443724.947 6                  22218911.480    22218915.720
  22218913.600          46.050          41.900
 106992134.188 7  83216132.404 7                  19987022.140    19987024.420
  19987023.020          47.800          47.050
 126661785.860 7  98514710.684 6                  23728039.740    23728050.060
  23728049.540          43.150          41.700
 125862017.873 6  97892719.905 6                  23536831.080    23536839.500
  23536837.240          41.050          40.500
 111959259.431 7  87079463.372 7                  20907592.660    20907595.040
  20907593.820          47.900          45.900
 15  1 27 13  9  0.0000000  0 20G30G06G07G13G02G23G09G10G20G16G05R14
                                R02R12R13R19R03R18R20R04
 111088941.561 8  86562900.409 8  82956126.334 8  21139490.460    21139490.980
  21139490.280          50.500          48.750
 113350013.610 8  88324685.993 8  84644487.824 8  21569792.120    21569793.740
  21569792.920          49.350          48.400
 108543585.482 8  84579489.870 8                  20655131.000    20655128.680
  20655128.120          49.400          48.250
 130406922.540 7 101615826.94945                  24815605.240
  24815606.680          43.400          32.750
 112049509.550 8  87311308.86847                  21322305.440
  21322300.060          49.350          45.400
 125749527.373 7  97986602.40146                  23929341.520
  23929338.620          47.600          37.200
 113641327.625 8  88551709.045 8  84862063.796 8  21625212.500    21625212.400
  21625212.200          49.150          48.300
 105797755.850 8  82439828.92547                  20132636.300
  20132633.180          49.400          46.750
 114375201.852 8  89123491.72447                  21764882.800
  21764880.160          49.400          43.300
 131900376.825 7 102779516.48345                  25099803.260
  25099802.860          42.600          31.850
 121886876.681 7  94976795.637 7                  23194292.780    23194292.460
  23194291.800          47.750          43.800
 113008792.457 7  87895814.547 6                  21200125.220    21200134.780
  21200133.820          42.350          40.950
 123046687.596 7  95702982.113 6                  23058908.580    23058915.880
  23058915.400          45.950          41.000
 121741490.328 7  94687856.390 6                  22790263.300    22790269.760
  22790269.760          42.350          39.300
 106944909.838 7  83179476.118 7                  20027315.520    20027320.660
  20027319.180          43.400          47.000
 118864644.373 7  92450281.676 6                  22220487.420    22220491.620
  22220489.480          46.100          41.850
 106994954.592 7  83218326.036 7                  19987549.040    19987551.300
  19987549.900          47.600          47.150
 126681215.045 7  98529822.182 6                  23731679.500    23731689.900
  23731689.320          44.400          41.350
 125854086.031 6  97886550.684 6                  23535347.860    23535356.180
  23535354.000          41.400          40.100
 111948003.823 7  87070709.014 7                  20905490.720    20905493.160
  20905491.880          47.900          46.050
 15  1 27 13  9  5.0000000  0 20G30G06G07G13G02G23G09G10G20G16G05R14
                                R02R12R13R19R03R18R20R04
 111077990.046 8  86554366.767 8  82947948.265 8  21137406.460    21137406.980
  21137406.260          50.550          48.900
 113362733.415 8  88334597.522 8  84653986.376 8  21572212.600    21572214.260
  21572213.440          49.250          48.450
 108543266.073 8  84579240.980 8                  20655070.240    20655067.900
  20655067.340          49.350          48.350
 130391981.563 7 101604184.64745                  24812761.980
  24812763.420          43.750          32.350
 112046879.221 8  87309259.25747                  21321804.920
  21321799.540          49.350          45.600
 125763211.927 7  97997265.68146                  23931945.660
  23931942.680          47.250          37.100
 113651715.306 8  88559803.334 8  84869820.819 8  21627189.220    21627189.120
  21627188.900          49.650          48.300
 105797787.961 8  82439853.94547                  20132642.400
  20132639.300          49.200          46.850
 114387390.597 8  89132989.43147                  21767202.260
  21767199.640          49.400          43.400
 131903837.883 7 102782213.42845                  25100461.940
  25100461.340          42.700          34.300
 121872145.158 7  94965316.539 7                  23191489.440    23191489.140
  23191488.480          47.850          44.100
 112989638.384 6  87880916.943 6                  21196531.900    21196541.520
  21196540.560          41.950          40.750
 123060183.420 7  95713478.830 6                  23061437.720    23061445.060
  23061444.580          45.400          40.650
 121758863.894 6  94701369.142 6                  22793515.700    22793522.280
  22793522.140          41.800          39.250
 106944798.748 7  83179389.702 7                  20027294.680    20027299.900
  20027298.380          43.100          46.900
 118873092.015 7  92456852.064 6                  22222066.620    22222070.760
  22222068.680          46.250          41.850
 106997782.965 7  83220525.889 7                  19988077.400    19988079.660
  19988078.260          47.700          47.200
 126700644.112 7  98544933.608 6                  23735319.260    23735329.680
  23735329.060          45.200          41.100
 125846172.672 6  97880395.866 6                  23533867.940    23533876.320
  23533874.200          41.150          39.950
 111936751.291 8  87061957.050 7                  20903389.340    20903391.860
  20903390.540          48.100          45.750
 15  1 27 13  9 10.0000000  0 20G30G06G07G13G02G23G09G10G20G16G05R14
                                R02R12R13R19R03R18R20R04
 111067052.252 8  86545843.819 8  82939780.435 8  21135325.060    21135325.560
  21135324.860          50.450          48.800
 113375465.567 8  88344518.673 8  84663494.130 8  21574635.460    21574637.120
  21574636.320          49.250          48.400
 108542962.860 8  84579004.716 8                  20655012.580    20655010.180
  20655009.640          49.250          48.250
 130377044.258 7 101592545.22045                  24809919.460
  24809920.900          44.050          33.750
 112044265.658 8  87307222.71247                  21321307.600
  21321302.200          49.400          45.450
 125776898.228 7  98007930.32546                  23934550.100
  23934547.100          46.700          37.150
 113662108.253 8  88567901.736 8  84877581.782 8  21629167.000    21629166.840
  21629166.600          49.900          48.050
 105797832.216 8  82439888.43347                  20132650.840
  20132647.700          49.100          47.150
 114399588.317 8  89142494.13947                  21769523.400
  21769520.820          49.600          43.650
 131907314.830 7 102784922.76445                  25101123.600
  25101123.020          43.150          31.950
 121857416.952 7  94953840.031 7                  23188686.740    23188686.440
  23188685.760          47.900          43.750
 112970496.591 7  87866028.898 6                  21192941.000    21192950.520
  21192949.620          42.400          40.800
 123073684.708 7  95723979.823 6                  23063967.820    23063975.180
  23063974.680          45.450          39.950
 121776250.574 7  94714892.099 6                  22796770.580    22796777.120
  22796776.960          42.100          39.050
 106944711.867 7  83179322.130 7                  20027278.400    20027283.620
  20027282.100          43.250          47.000
 118881558.714 7  92463437.264 6                  22223649.380    22223653.540
  22223651.480          46.600          41.950
 107000620.643 7  83222732.977 7                  19988607.480    19988609.780
  19988608.380          47.900          47.450
 126720074.532 7  98560046.075 6                  23738959.300    23738969.700
  23738969.080          46.100          40.150
 125838279.171 6  97874256.512 6                  23532391.860    23532400.220
  23532398.100          40.900          40.450
 111925503.273 8  87053208.594 7                  20901288.820    20901291.360
  20901290.040          48.250          45.950
 15  1 27 13  9 15.0000000  0 20G30G06G07G13G02G23G09G10G20G16G05R14
                                R02R12R13R19R03R18R20R04
 111056128.400 8  86537331.730 8  82931623.013 8  21133246.300    21133246.800
  21133246.120          50.350          48.800
 113388210.239 8  88354449.578 8  84673011.250 8  21577060.680    21577062.380
  21577061.600          49.400          48.300
 108542676.074 8  84578781.245 8                  20654958.040    20654955.600
  20654955.060          49.450          48.350
 130362110.840 7 101580908.80245                  24807077.680
  24807079.060          44.000          30.750
 112041669.084 8  87305199.40447                  21320813.500
  21320808.100          49.300          45.650
 125790586.529 7  98018596.49546                  23937154.900
  23937151.880          46.900          36.550
 113672506.731 8  88576004.442 7  84885346.867 8  21631145.880    21631145.600
  21631145.300          50.350          47.850
 105797888.850 8  82439932.56347                  20132661.620
  20132658.480          49.150          47.000
 114411795.252 8  89152006.01847                  21771846.340
  21771843.740          49.700          43.050
 131910807.947 7 102787644.67545                  25101788.340
  25101787.780          42.600          31.750
 121842692.230 7  94942366.230 7                  23185884.740    23185884.400
  23185883.740          47.750          43.600
 112951367.470 7  87851150.712 6                  21189352.460    21189361.880
  21189361.020          42.550          40.400
 123087191.748 7  95734485.291 6                  23066499.080    23066506.440
  23066505.880          45.000          40.550
 121793650.596 6  94728425.431 6                  22800027.860    22800034.480
  22800034.280          41.350          39.550
 106944649.363 7  83179273.516 7                  20027266.720    20027271.960
  20027270.400          43.800          47.000
 118890044.619 7  92470037.406 7                  22225235.720    22225239.940
  22225237.840          46.450          42.100
 107003467.889 7  83224947.490 7                  19989139.400    19989141.680
  19989140.280          47.900          47.300
 126739506.418 7  98575159.697 6                  23742599.620    23742609.920
  23742609.340          46.450          39.350
 125830405.921 6  97868132.887 6                  23530919.480    23530927.800
  23530925.740          40.950          39.450
 111914259.893 8  87044463.745 7                  20899189.220    20899191.720
  20899190.400          48.250          45.850
 15  1 27 13  9 20.0000000  0 20G30G06G07G13G02G23G09G10G20G16G05R14
                                R02R12R13R19R03R18R20R04
 111045216.432 8  86528828.906 8  82923474.477 8  21131169.820    21131170.340
  21131169.620          50.200          48.850
 113400965.369 8  88364388.636 8  84682536.176 8  21579487.900    21579489.620
  21579488.840          49.600          48.450
 108542403.666 8  84578568.991 8                  20654906.220    20654903.760
  20654903.220          49.700          48.350
 130347179.258 7 101569273.81645                  24804236.220
  24804237.620          44.200          32.700
 112039087.396 8  87303187.69647                  21320322.240
  21320316.820          49.300          45.850
 125804274.664 7  98029262.56246                  23939759.700
  23939756.640          47.700          37.150
 113682908.619 8  88584109.821 7  84893114.514 8  21633125.400    21633125.020
  21633124.660          50.600          47.850
 105797955.759 8  82439984.70347                  20132674.360
  20132671.220          49.300          46.700
 114424009.300 8  89161523.45247                  21774170.620
  21774168.020          49.750          42.950
 131914315.155 7 102790377.55445                  25102455.740
  25102455.180          42.200          32.200
 121827969.000 7  94930893.599 7                  23183082.980    23183082.640
  23183081.980          47.900          43.600
 112932248.828 7  87836280.676 6                  21185765.980    21185775.320
  21185774.440          42.800          40.200
 123100702.251 7  95744993.448 6                  23069030.900    23069038.300
  23069037.760          45.600          40.500
 121811061.661 6  94741967.348 6                  22803287.260    22803293.860
  22803293.680          41.050          39.250
 106944609.188 7  83179242.275 7                  20027259.120    20027264.440
  20027262.880          43.950          46.850
 118898547.538 7  92476650.775 7                  22226825.260    22226829.500
  22226827.380          46.450          42.050
 107006322.662 8  83227167.875 7                  19989672.680    19989675.000
  19989673.580          48.350          47.250
 126758937.658 7  98590272.840 6                  23746239.820    23746250.040
  23746249.500          46.250          38.800
 125822550.638 6  97862023.208 6                  23529450.480    23529458.860
  23529456.720          39.700          39.550
 111903019.179 8  87035720.976 7                  20897090.080    20897092.580
  20897091.260          48.150          45.850
 15  1 27 13  9 25.0000000  0 20G30G06G07G13G02G23G09G10G20G16G05R14
                                R02R12R13R19R03R18R20R04
 111034318.721 8  86520337.189 8  82915336.582 8  21129096.060    21129096.540
  21129095.840          50.100          48.750
 113413733.306 8  88374337.671 8  84692070.666 8  21581917.540    21581919.300
  21581918.540          49.650          48.300
 108542148.003 8  84578369.784 8                  20654857.620    20654855.100
  20654854.580          49.700          48.350
 130332251.878 7 101557642.12445                  24801395.580
  24801397.100          44.400          30.400
 112036523.001 8  87301189.47547                  21319834.280
  21319828.820          49.300          45.400
 125817965.048 7  98039930.39546                  23942364.920
  23942361.840          47.550          36.100
 113693316.309 8  88592219.718 7  84900886.494 8  21635106.040    21635105.560
  21635105.100          50.550          47.700
 105798035.360 8  82440046.72747                  20132689.500
  20132686.360          49.400          46.600
 114436232.844 8  89171048.28347                  21776496.740
  21776494.100          49.900          43.050
 131917838.785 7 102793123.23845                  25103126.260
  25103125.840          42.550          32.050
 121813249.611 8  94919423.960 7                  23180281.940    23180281.580
  23180280.960          48.000          43.450
 112913143.063 7  87821420.654 6                  21182181.880    21182191.120
  21182190.240          43.000          40.500
 123114218.854 7  95755506.338 6                  23071563.920    23071571.300
  23071570.800          45.150          40.700
 121828486.282 6  94755519.805 6                  22806549.180    22806555.880
  22806555.600          41.150          39.750
 106944593.769 7  83179230.278 7                  20027256.280    20027261.540
  20027260.000          43.300          47.000
 118907070.001 7  92483279.341 6                  22228418.440    22228422.660
  22228420.540          46.300          41.900
 107009187.236 7  83229395.875 7                  19990207.820    19990210.120
  19990208.720          47.950          47.700
 126778370.729 7  98605387.405 6                  23749880.360    23749890.540
  23749889.960          46.000          38.700
 125814715.897 6  97855929.577 6                  23527985.360    23527993.720
  23527991.580          39.400          39.650
 111891783.437 7  87026982.076 7                  20894991.860    20894994.360
  20894993.060          47.900          46.100
 15  1 27 13  9 30.0000000  0 20G30G06G07G13G02G23G09G10G20G16G05R14
                                R02R12R13R19R03R18R20R04
 111023433.501 8  86511855.203 8  82907208.014 8  21127024.640    21127025.160
  21127024.440          50.200          48.500
 113426512.288 8  88384295.308 7  84701613.401 8  21584349.300    21584351.080
  21584350.320          49.600          47.950
 108541907.276 8  84578182.208 8                  20654811.820    20654809.280
  20654808.760          49.700          48.000
 130317326.984 7 101546012.34845                  24798555.380
  24798556.980          44.000          34.200
 112033974.117 8  87299203.33247                  21319349.260
  21319343.800          49.450          44.900
 125831655.892 7  98050598.57345                  23944970.240
  23944967.200          47.150          35.550
 113703728.029 8  88600332.746 7  84908661.480 8  21637087.460    21637086.820
  21637086.320          50.250          47.450
 105798125.833 8  82440117.22647                  20132706.720
  20132703.580          49.400          46.250
 114448464.109 8  89180579.12747                  21778824.300
  21778821.660          49.650          42.650
 131921377.053 7 102795880.33845                  25103799.600
  25103799.220          42.650          31.800
 121798532.277 8  94907955.922 7                  23177481.280    23177480.960
  23177480.300          48.150          43.100
 112894048.513 7  87806569.344 6                  21178599.840    21178609.080
  21178608.140          42.750          39.650
 123127739.595 7  95766022.447 6                  23074097.740    23074105.060
  23074104.660          45.600          40.050
 121845922.711 6  94769081.449 6                  22809813.300    22809820.080
  22809819.740          41.300          38.750
 106944601.266 7  83179236.107 7                  20027257.680    20027262.900
  20027261.400          42.750          46.400
 118915610.039 7  92489921.586 6                  22230014.940    22230019.080
  22230017.000          46.550          40.950
 107012059.906 7  83231630.168 7                  19990744.460    19990746.800
  19990745.400          47.600          46.850
 126797803.757 7  98620501.918 6                  23753520.900    23753531.040
  23753530.420          45.400          37.650
 125806899.782 6  97849850.391 6                  23526523.680    23526531.980
  23526529.900          39.550          38.000
 111880550.882 8  87018245.650 7                  20892894.240    20892896.720
  20892895.500          48.000          45.400
 15  1 27 13  9 35.0000000  0 20G30G06G07G13G02G23G09G10G20G16G05R14
                                R02R12R13R19R03R18R20R04
 111012559.889 8  86503382.257 8  82899088.113 8  21124955.440    21124955.960
  21124955.220          50.200          48.750
 113439301.389 8  88394260.827 8  84711163.686 8  21586782.960    21586784.780
  21586784.000          49.450          48.250
 108541680.626 8  84578005.604 8                  20654768.720    20654766.140
  20654765.640          49.700          48.150
 130302403.632 7 101534383.76245                  24795715.500
  24795717.140          43.900          33.600
 112031439.905 8  87297228.61747                  21318867.020
  21318861.560          49.550          45.200
 125845346.321 7  98061266.40746                  23947575.440
  23947572.460          47.500          36.800
 113714142.871 8  88608448.206 7  84916438.788 8  21639069.420    21639068.700
  21639068.120          50.050          47.700
 105798226.352 8  82440195.55047                  20132725.860
  20132722.700          49.550          46.050
 114460702.191 8  89190115.28247                  21781153.200
  21781150.500          49.850          43.300
 131924929.099 7 102798648.16945                  25104475.500
  25104475.200          42.600          33.950
 121783816.173 8  94896488.839 7                  23174680.900    23174680.560
  23174679.860          48.300          43.150
 112874964.240 7  87791726.029 6                  21175019.720    21175028.900
  21175027.960          42.600          39.650
 123141263.660 7  95776541.135 6                  23076632.140    23076639.460
  23076639.120          45.000          40.100
 121863369.914 6  94782651.473 6                  22813079.520    22813086.260
  22813085.860          41.400          38.600
 106944630.772 7  83179259.065 7                  20027263.180    20027268.420
  20027266.940          42.650          46.700
 118924166.976 7  92496576.977 6                  22231614.600    22231618.660
  22231616.580          46.450          40.850
 107014939.798 7  83233870.086 7                  19991282.440    19991284.780
  19991283.400          47.950          46.550
 126817235.896 7  98635615.744 6                  23757161.220    23757171.400
  23757170.700          45.600          38.150
 125799101.412 6  97843784.965 6                  23525065.260    23525073.600
  23525071.460          39.200          38.200
 111869320.720 7  87009511.095 7                  20890797.040    20890799.600
  20890798.380          47.400          45.400
