     2.11           OBSERVATION DATA    M (MIXED)           RINEX VERSION / TYPE
teqc  2011Oct11     IGN-E (SPG)         20150127 23:00:50UTCPGM / RUN BY / DATE
Linux 2.4.21-27.ELsmp|Opteron|gcc -static|Linux x86_64|=+   COMMENT
BIT 2 OF LLI FLAGS DATA COLLECTED UNDER A/S CONDITION       COMMENT
VALE                                                        MARKER NAME
13439M001                                                   MARKER NUMBER
Programas GeodesicosInstituto Geografico Nacional           OBSERVER / AGENCY
1700071             LEICA GR10          3.03/6.214          REC # / TYPE / VERS
10190012            LEIAR25.R3      LEIT                    ANT # / TYPE
  4929534.0457   -29050.6755  4033709.9250                  APPROX POSITION XYZ
        3.0390        0.0000        0.0000                  ANTENNA: DELTA H/E/N
     1     1                                                WAVELENGTH FACT L1/2
     8    L1    L2    L5    C1    C2    P2    S1    S2      # / TYPES OF OBSERV
     5.0000                                                 INTERVAL
Forced Modulo Decimation to 5 seconds                       COMMENT
DefaultJobName                                              COMMENT
DefaultUserDiscription                                      COMMENT
Project creator:                                            COMMENT
 SNR is mapped to RINEX snr flag value [0-9]                COMMENT
  L1 & L2: min(max(int(snr_dBHz/6), 0), 9)                  COMMENT
  2015     1    27    22     0    0.0000000     GPS         TIME OF FIRST OBS
    15                                                      LEAP SECONDS
                                                            END OF HEADER
 15  1 27 22  0  0.0000000  0 17G14G31G06G24G12G25G29G02R20R01R08R11
                                R09R19R10R21E19
 113573706.231 8  88498993.59647                  21612349.000
  21612344.440          48.600          44.200
 123291911.620 8  96071619.516 7                  23461667.260    23461662.980
  23461662.140          48.000          43.100
 130853249.939 7 101963578.025 6  97715092.362 7  24900542.380    24900541.420
  24900540.480          42.600          39.150
 118525663.667 8  92357746.309 7  88509524.530 8  22554651.600    22554649.980
  22554649.420          48.450          47.000
 113073265.661 8  88109149.772 7                  21517060.200    21517055.420
  21517054.700          48.800          47.300
 107510188.193 8  83774281.633 8  80283715.439 8  20458464.080    20458462.300
  20458461.500          49.850          49.400
 108862325.099 8  84827942.394 8                  20715744.120    20715740.660
  20715740.020          49.650          48.300
 122880359.206 7  95750920.38646                  23383345.860
  23383338.460          47.950          41.900
 104878945.492 7  81572545.471 7                  19612841.240    19612845.060
  19612842.860          45.100          46.800
 125540415.396 7  97642568.040 5                  23484934.100    23484937.800
  23484937.720          42.850          34.350
 128224516.512 7  99730181.700 6                  23945027.320    23945030.220
  23945029.360          43.400          39.900
 122616317.482 7  95368268.819 5                  22945967.080    22945971.280
  22945969.780          43.700          35.200
 110676716.990 8  86081836.636 6                  20726158.840    20726161.820
  20726159.300          48.450          36.600
 110664847.280 8  86072659.880 7                  20687570.720    20687571.420
  20687569.900          48.600          45.800
 105539153.271 8  82086055.345 7                  19798862.720    19798869.380
  19798868.200          48.200          42.600
 120117196.886 7  93424470.368 6                  22446720.040    22446721.980
  22446720.980          45.900          40.700
 148207436.883 7                 110674409.585 6  28202932.860
                        42.600
 15  1 27 22  0  5.0000000  0 17G14G31G06G24G12G25G29G02R20R01R08R11
                                R09R19R10R21E19
 113575351.498 8  88500275.62747                  21612662.100
  21612657.540          48.650          44.450
 123276780.389 8  96059828.957 7                  23458787.880    23458783.600
  23458782.720          48.050          42.650
 130861452.111 7 101969969.330 6  97721217.361 7  24902103.200    24902102.240
  24902101.200          42.450          38.900
 118539793.708 8  92368756.731 7  88520076.181 8  22557340.480    22557338.840
  22557338.280          48.650          46.800
 113083118.740 8  88116827.481 7                  21518934.960    21518930.400
  21518929.780          48.500          47.150
 107509786.753 8  83773968.826 8  80283415.668 8  20458387.700    20458385.900
  20458385.080          49.700          49.250
 108852164.596 8  84820025.119 8                  20713810.640    20713807.180
  20713806.540          49.800          48.200
 122878660.781 8  95749596.94846                  23383022.640
  23383015.340          48.150          41.750
 104870046.732 7  81565624.213 7                  19611177.140    19611180.920
  19611178.720          45.050          46.750
 125546319.911 7  97647160.420 5                  23486038.600    23486042.460
  23486042.220          43.550          34.100
 128240907.099 7  99742929.887 6                  23948088.080    23948091.000
  23948090.260          43.000          39.200
 122599770.372 7  95355398.839 5                  22942870.480    22942874.600
  22942873.160          42.950          34.400
 110685751.446 8  86088863.429 6                  20727850.760    20727853.680
  20727851.160          48.700          36.350
 110677328.479 8  86082367.477 7                  20689903.980    20689904.660
  20689903.120          48.500          45.400
 105532205.716 8  82080651.694 7                  19797559.400    19797566.000
  19797564.840          48.300          42.900
 120095568.058 7  93407647.952 6                  22442678.180    22442680.100
  22442679.140          45.850          40.700
 148220143.727 7                 110683898.397 6  28205350.940
                        43.100
 15  1 27 22  0 10.0000000  0 18G14G31G06G24G12G25G29G02R02R20R01R08
                                R11R09R19R10R21E19
 113577013.826 8  88501570.94547                  21612978.440
  21612973.880          49.050          43.900
 123261652.440 8  96048040.940 7                  23455909.100    23455904.820
  23455903.920          48.350          42.950
 130869668.470 7 101976371.689 6  97727352.967 7  24903666.700    24903665.780
  24903664.720          42.900          38.800
 118553932.184 8  92379773.727 7  88530634.128 8  22560030.940    22560029.300
  22560028.740          48.850          47.100
 113092976.879 8  88124509.126 7                  21520810.720    21520806.380
  21520805.800          49.250          47.300
 107509393.540 8  83773662.437 8  80283122.043 8  20458312.880    20458311.080
  20458310.240          49.950          49.200
 108842018.189 8  84812118.830 8                  20711879.840    20711876.400
  20711875.760          50.050          48.350
 122876976.234 8  95748284.31046                  23382702.080
  23382694.820          48.450          41.700
 131262256.469 6                                  24598491.300    24598488.380
                        39.400          29.350
 104861169.899 7  81558720.014 7                  19609517.140    19609520.900
  19609518.700          45.150          46.850
 125552243.076 7  97651767.330 5                  23487146.660    23487150.460
  23487150.220          44.250          34.200
 128257303.341 7  99755682.498 6                  23951150.000    23951152.920
  23951152.140          44.550          38.900
 122583223.695 7  95342529.199 5                  22939773.960    22939777.980
  22939776.660          43.150          35.050
 110694797.045 8  86095898.899 6                  20729544.760    20729547.580
  20729545.120          48.950          36.800
 110689828.163 8  86092089.453 7                  20692240.660    20692241.340
  20692239.800          48.950          45.450
 105525268.090 8  82075255.765 7                  19796257.960    19796264.540
  19796263.360          48.600          42.950
 120073946.633 7  93390831.307 6                  22438637.700    22438639.620
  22438638.680          46.300          40.500
 148232850.156 7                 110693386.909 6  28207768.900
                        43.750
 15  1 27 22  0 15.0000000  0 18G14G31G06G24G12G25G29G02R02R20R01R08
                                R11R09R19R10R21E19
 113578692.387 8  88502878.91547                  21613297.860
  21613293.300          49.000          44.050
 123246526.982 8  96036254.881 7                  23453030.800    23453026.520
  23453025.580          48.150          43.050
 130877898.215 7 101982784.480 6  97733498.536 7  24905232.740    24905231.820
  24905230.680          43.100          38.750
 118568078.377 8  92390796.724 7  88541197.837 8  22562722.880    22562721.240
  22562720.660          48.900          47.100
 113102839.246 8  88132194.081 7                  21522687.340    21522683.140
  21522682.640          49.550          47.100
 107509007.741 8  83773361.814 8  80282833.933 8  20458239.480    20458237.660
  20458236.820          49.800          49.250
 108831885.083 8  84804222.905 8                  20709951.560    20709948.160
  20709947.500          49.800          48.300
 122875304.736 8  95746981.84446                  23382384.020
  23382376.780          48.500          41.650
 131253918.267 6 102086373.607 5                  24596928.080    24596932.980
  24596928.220          39.450          30.600
 104852314.223 7  81551832.272 7                  19607861.040    19607864.860
  19607862.660          45.450          46.800
 125558184.100 7  97656388.114 5                  23488258.040    23488261.800
  23488261.580          44.350          34.900
 128273704.464 7  99768438.915 6                  23954212.840    23954215.580
  23954214.940          44.550          38.700
 122566676.484 7  95329659.148 5                  22936677.320    22936681.260
  22936680.020          42.950          34.250
 110703852.899 8  86102942.337 6                  20731240.680    20731243.440
  20731241.000          49.000          36.550
 110702345.400 8  86101825.080 7                  20694580.620    20694581.280
  20694579.740          49.050          45.050
 105518339.534 8  82069866.881 7                  19794958.200    19794964.740
  19794963.560          48.800          42.900
 120052331.785 7  93374019.772 6                  22434598.460    22434600.380
  22434599.420          46.550          40.600
 148245555.294 7                 110702874.471 6  28210186.640
                        43.950
 15  1 27 22  0 20.0000000  0 18G14G31G06G24G12G25G29G02R02R20R01R08
                                R11R09R19R10R21E19
 113580387.402 8  88504199.69747                  21613620.420
  21613615.840          49.000          43.900
 123231404.211 8  96024470.900 7                  23450153.020    23450148.740
  23450147.820          48.300          43.350
 130886141.471 7 101989207.801 6  97739654.219 7  24906801.360    24906800.480
  24906799.320          42.950          38.800
 118582232.376 8  92401825.813 7  88551767.382 8  22565416.280    22565414.640
  22565414.080          48.850          47.150
 113112706.106 8  88139882.526 7                  21524564.900    21524560.760
  21524560.280          49.900          47.050
 107508629.560 8  83773067.118 8  80282551.525 8  20458167.520    20458165.680
  20458164.840          49.900          49.300
 108821765.485 8  84796337.506 8                  20708025.860    20708022.480
  20708021.820          49.750          48.350
 122873646.520 8  95745689.72246                  23382068.480
  23382061.280          48.700          41.400
 131245597.530 6 102079901.927 5                  24595368.280    24595371.680
  24595369.780          39.850          32.750
 104843480.103 7  81544961.300 7                  19606209.020    19606212.860
  19606210.660          45.550          47.000
 125564143.217 7  97661022.972 5                  23489372.780    23489376.540
  23489376.380          43.900          34.550
 128290110.647 7  99781199.261 6                  23957276.680    23957279.320
  23957278.720          44.150          39.800
 122550128.920 7  95316788.828 5                  22933580.620    22933584.580
  22933583.280          43.600          34.350
 110712919.283 8  86109993.960 6                  20732938.540    20732941.340
  20732938.840          48.700          36.350
 110714880.400 8  86111574.525 7                  20696923.940    20696924.520
  20696923.000          48.900          45.100
 105511420.410 8  82064485.343 7                  19793660.240    19793666.740
  19793665.560          48.800          43.050
 120030723.765 7  93357213.540 6                  22430560.540    22430562.440
  22430561.420          46.750          40.700
 148258259.387 7                 110712361.231 6  28212604.200
                        43.650
 15  1 27 22  0 25.0000000  0 18G14G31G06G24G12G25G29G02R02R20R01R08
                                R11R09R19R10R21E19
 113582099.613 8  88505533.88647                  21613946.280
  21613941.680          49.100          43.850
 123216284.952 8  96012689.663 7                  23447275.900    23447271.600
  23447270.680          48.050          43.150
 130894399.061 7 101995642.300 6  97745820.620 7  24908372.740    24908371.880
  24908370.600          43.100          39.800
 118596395.017 8  92412861.631 7  88562343.382 8  22568111.320    22568109.700
  22568109.120          48.800          46.800
 113122578.157 8  88147575.032 7                  21526443.500    21526439.340
  21526438.880          50.400          46.850
 107508259.740 8  83772778.940 8  80282275.360 8  20458097.120    20458095.300
  20458094.460          50.000          49.200
 108811660.217 8  84788463.272 8                  20706102.880    20706099.520
  20706098.860          49.750          48.150
 122872002.359 8  95744408.56646                  23381755.640
  23381748.380          48.400          41.100
 131237295.075 6 102073444.435 5                  24593812.880    24593815.540
  24593814.420          40.800          34.150
 104834667.972 7  81538107.420 7                  19604561.100    19604564.960
  19604562.760          45.150          47.050
 125570121.032 7  97665672.361 5                  23490491.080    23490494.780
  23490494.660          44.000          34.400
 128306522.563 7  99793964.059 6                  23960341.540    23960344.140
  23960343.560          44.000          39.800
 122533581.791 7  95303918.833 5                  22930484.020    22930487.960
  22930486.540          43.100          33.900
 110721996.953 8  86117054.366 6                  20734638.520    20734641.260
  20734638.780          48.400          36.200
 110727433.944 8  86121338.392 7                  20699270.720    20699271.220
  20699269.720          48.900          45.200
 105504511.580 8  82059111.804 7                  19792364.200    19792370.660
  19792369.500          48.750          42.900
 120009123.392 7  93340413.265 6                  22426524.020    22426525.820
  22426524.880          47.000          40.850
 148270963.154 7                 110721847.791 6  28215021.680
                        43.350
 15  1 27 22  0 30.0000000  0 18G14G31G06G24G12G25G29G02R02R20R01R08
                                R11R09R19R10R21E19
 113583826.578 8  88506879.56747                  21614274.940
  21614270.320          49.100          43.800
 123201166.764 8  96000909.271 7                  23444398.980    23444394.720
  23444393.780          48.000          43.150
 130902668.547 7 102002086.044 6  97751995.870 7  24909946.380    24909945.520
  24909944.280          43.150          39.950
 118610563.778 8  92423902.221 7  88572923.949 8  22570807.520    22570805.940
  22570805.340          48.500          47.000
 113132452.934 8  88155269.663 7                  21528322.680    21528318.460
  21528318.000          50.750          46.750
 107507895.844 8  83772495.381 8  80282003.618 8  20458027.880    20458026.060
  20458025.180          50.050          49.250
 108801566.800 8  84780598.279 8                  20704182.160    20704178.800
  20704178.180          49.850          48.250
 122870369.814 8  95743136.44246                  23381445.000
  23381437.660          48.450          41.850
 131229008.479 6 102066999.307 5                  24592260.160    24592263.040
  24592261.680          41.850          34.950
 104825875.674 7  81531268.973 7                  19602916.860    19602920.760
  19602918.580          44.650          47.150
 125576115.280 7  97670334.562 5                  23491612.460    23491616.020
  23491616.040          43.450          35.300
 128322937.857 7  99806731.496 6                  23963407.060    23963409.560
  23963409.040          44.200          39.850
 122517032.600 6  95291047.253 5                  22927386.980    22927390.900
  22927389.540          41.850          34.900
 110731083.416 8  86124121.611 6                  20736340.160    20736342.900
  20736340.380          48.150          36.300
 110740003.439 8  86131114.674 7                  20701620.480    20701620.960
  20701619.440          48.750          45.250
 105497610.436 8  82053744.248 7                  19791069.580    19791076.020
  19791074.860          48.500          43.000
 119987528.186 7  93323617.007 6                  22422488.460    22422490.220
  22422489.300          46.900          41.200
 148283664.205 7                 110731332.288 6  28217438.660
                        43.450
 15  1 27 22  0 35.0000000  0 18G14G31G06G24G12G25G29G02R02R20R01R08
                                R11R09R19R10R21E19
 113585571.581 8  88508239.31147                  21614607.040
  21614602.400          49.050          44.050
 123186052.880 7  95989132.223 7                  23441522.900    23441518.640
  23441517.700          47.950          43.450
 130910953.119 7 102008541.548 6  97758182.407 7  24911522.920    24911522.020
  24911520.800          43.150          39.650
 118624741.890 8  92434950.095 7  88583511.490 8  22573505.520    22573503.960
  22573503.360          48.500          47.000
 113142333.738 8  88162969.004 7                  21530203.060    21530198.720
  21530198.240          50.950          46.750
 107507541.148 8  83772218.994 8  80281738.741 8  20457960.400    20457958.540
  20457957.680          50.000          49.400
 108791488.511 8  84772745.065 8                  20702264.300    20702260.960
  20702260.340          49.700          48.300
 122868752.154 8  95741875.93046                  23381137.180
  23381129.760          48.400          41.800
 131220741.144 7 102060569.165 5                  24590710.820    24590713.440
  24590712.100          43.250          35.600
 104817106.435 7  81524448.459 7                  19601276.920    19601280.900
  19601278.740          44.550          47.200
 125582129.149 7  97675012.024 5                  23492737.520    23492741.280
  23492741.160          43.700          34.900
 128339359.739 7  99819504.066 6                  23966473.740    23966476.240
  23966475.720          43.350          38.800
 122500484.785 7  95278176.757 5                  22924290.200    22924294.320
  22924292.900          42.650          34.400
 110740181.970 8  86131198.262 6                  20738044.020    20738046.760
  20738044.200          48.600          36.650
 110752592.296 8  86140906.018 7                  20703973.840    20703974.320
  20703972.760          48.150          45.300
 105490720.215 8  82048385.174 7                  19789777.020    19789783.400
  19789782.280          48.300          42.900
 119965941.517 7  93306827.389 6                  22418454.540    22418456.220
  22418455.320          46.900          41.100
 148296365.749 7                 110740817.141 6  28219855.680
                        43.700
 15  1 27 22  0 40.0000000  0 19G14G31G06G24G12G25G29G02R02R20R16R01
                                R08R11R09R19R10R21E19
 113587332.299 8  88509611.29147                  21614942.100
  21614937.460          49.050          43.850
 123170941.053 7  95977356.769 7                  23438647.220    23438642.940
  23438642.020          47.950          43.150
 130919250.491 7 102015007.047 6  97764378.491 7  24913101.920    24913101.000
  24913099.840          43.700          39.750
 118638927.094 8  92446003.502 7  88594104.335 8  22576204.840    22576203.300
  22576202.720          48.650          47.000
 113152218.250 8  88170671.222 7                  21532084.140    21532079.700
  21532079.160          51.150          46.700
 107507193.296 8  83771947.940 8  80281478.988 8  20457894.200    20457892.340
  20457891.480          49.850          49.300
 108781423.019 8  84764901.827 8                  20700348.900    20700345.580
  20700344.960          49.700          48.300
 122867147.032 8  95740625.18646                  23380831.740
  23380824.240          48.100          41.850
 131212490.607 7 102054152.094 6                  24589164.480    24589166.520
  24589165.860          42.950          36.100
 104808357.858 7  81517644.006 7                  19599640.900    19599644.880
  19599642.740          44.800          47.200
 131740914.70315 102465173.06214                  24662175.540    24662179.840
  24662175.560          34.750          29.350
 125588160.251 7  97679702.865 5                  23493865.760    23493869.620
  23493869.440          44.700          34.700
 128355785.832 7  99832279.876 6                  23969541.220    23969543.780
  23969543.160          43.350          39.300
 122483935.890 7  95265305.398 5                  22921193.280    22921197.260
  22921196.000          43.100          34.050
 110749290.321 8  86138282.527 6                  20739749.720    20739752.520
  20739749.880          48.750          36.750
 110765198.057 7  86150710.507 7                  20706330.300    20706330.860
  20706329.260          47.900          45.450
 105483838.664 8  82043032.861 7                  19788486.060    19788492.380
  19788491.320          48.250          42.700
 119944360.992 7  93290042.538 6                  22414421.720    22414423.340
  22414422.480          47.050          41.300
 148309065.417 7                 110750300.622 6  28222272.340
                        43.500
 15  1 27 22  0 45.0000000  0 19G14G31G06G24G12G25G29G02R02R20R16R01
                                R08R11R09R19R10R21E19
 113589109.113 8  88510995.81947                  21615280.240
  21615275.580          48.700          44.250
 123155831.602 7  95965583.164 7                  23435772.000    23435767.720
  23435766.760          47.300          43.200
 130927561.030 7 102021482.792 6  97770584.422 7  24914683.400    24914682.420
  24914681.240          42.950          40.100
 118653119.765 8  92457062.716 7  88604702.758 8  22578905.620    22578904.100
  22578903.500          48.300          47.100
 113162106.871 8  88178376.645 7                  21533966.020    21533961.420
  21533960.820          51.000          46.550
 107506852.701 8  83771682.544 8  80281224.654 8  20457829.360    20457827.540
  20457826.640          49.300          49.350
 108771370.740 8  84757068.891 8                  20698435.980    20698432.680
  20698432.080          49.150          48.350
 122865554.896 7  95739384.55846                  23380528.780
  23380521.240          47.850          41.750
 131204257.304 6 102047748.397 6                  24587621.340    24587623.620
  24587623.000          40.600          36.900
 104799630.320 7  81510855.922 7                  19598008.780    19598012.780
  19598010.660          43.750          47.150
 131757337.770 5 102477946.529 4                  24665250.040    24665250.260
  24665249.880          33.100          27.950
 125594208.912 7  97684407.368 5                  23494997.340    23495001.240
  23495001.020          43.800          34.500
 128372216.508 7  99845059.288 6                  23972609.560    23972612.200
  23972611.480          42.400          39.600
 122467386.451 6  95252433.606 5                  22918096.300    22918100.200
  22918098.980          41.500          34.400
 110758408.863 7  86145374.729 6                  20741457.320    20741460.160
  20741457.500          47.400          36.800
 110777821.163 7  86160528.466 7                  20708689.980    20708690.600
  20708688.980          47.050          45.400
 105476966.206 7  82037687.616 7                  19787196.800    19787203.080
  19787202.080          47.400          42.950
 119922787.035 7  93273262.789 6                  22410390.160    22410391.660
  22410390.860          45.850          41.500
 148321763.651 7                 110759783.044 6  28224688.700
                        42.850
 15  1 27 22  0 50.0000000  0 19G14G31G06G24G12G25G29G02R02R20R16R01
                                R08R11R09R19R10R21E19
 113590900.591 8  88512391.76647                  21615621.160
  21615616.460          48.850          44.650
 123140723.146 7  95953810.348 7                  23432896.980    23432892.680
  23432891.700          47.050          43.300
 130935883.309 7 102027967.678 6  97776799.111 7  24916267.120    24916266.120
  24916264.940          42.900          40.200
 118667318.384 8  92468126.569 7  88615305.610 8  22581607.520    22581606.020
  22581605.420          48.350          47.200
 113171998.140 8  88186084.138 7                  21535848.380    21535843.660
  21535843.000          50.950          46.450
 107506517.937 8  83771421.691 8  80280974.673 8  20457765.640    20457763.820
  20457762.940          49.200          49.450
 108761330.238 8  84749245.125 8                  20696525.320    20696522.040
  20696521.440          49.100          48.450
 122863974.270 7  95738152.88946                  23380227.980
  23380220.380          47.900          41.650
 131196039.702 6 102041356.935 5                  24586080.900    24586083.440
  24586083.080          38.100          35.600
 104790922.496 7  81504083.168 7                  19596380.360    19596384.360
  19596382.260          43.900          47.000
 131773763.128 5 102490704.639 4                  24668324.920
  24668324.900          32.800          25.650
 125600273.801 7  97689124.488 5                  23496131.960    23496135.860
  23496135.620          43.750          33.800
 128388650.286 7  99857841.110 6                  23975678.360    23975681.100
  23975680.360          42.950          38.700
 122450834.849 7  95239560.153 5                  22914998.920    22915002.880
  22915001.520          42.600          34.550
 110767536.043 7  86152473.640 6                  20743166.560    20743169.320
  20743166.720          47.750          36.500
 110790460.143 7  86170358.777 7                  20711052.640    20711053.320
  20711051.700          47.300          45.250
 105470101.295 7  82032348.226 7                  19785908.980    19785915.300
  19785914.220          47.800          42.850
 119901218.237 7  93256487.064 6                  22406359.500    22406361.000
  22406360.220          46.050          41.800
 148334458.991 7                 110769263.276 6  28227104.540
                        43.300
 15  1 27 22  0 55.0000000  0 19G14G31G06G24G12G25G29G02R02R20R16R01
                                R08R11R09R19R10R21E19
 113592710.483 8  88513802.06847                  21615965.580
  21615960.880          48.900          44.200
 123125619.417 7  95942041.209 7                  23430022.840    23430018.520
  23430017.540          46.750          43.100
 130944221.048 7 102034464.626 6  97783025.361 7  24917853.780    24917852.740
  24917851.600          42.650          40.600
 118681526.863 8  92479198.105 7  88625915.835 8  22584311.300    22584309.820
  22584309.200          48.600          47.200
 113181895.815 8  88193796.619 7                  21537731.980    21537727.140
  21537726.380          50.950          46.550
 107506192.755 8  83771168.303 8  80280731.831 8  20457703.740    20457701.920
  20457701.040          49.350          49.550
 108751305.297 8  84741433.482 8                  20694617.620    20694614.380
  20694613.780          49.350          48.650
 122862408.913 7  95736933.13347                  23379930.080
  23379922.460          47.950          42.300
 131187841.756 6 102034980.794 5                  24584544.500    24584547.200
  24584546.680          38.550          34.800
 104782238.134 7  81497328.660 7                  19594756.380    19594760.320
  19594758.220          44.300          47.000
 131790194.878 5                                  24671401.040
                        31.450
 125606358.683 7  97693857.176 5                  23497270.320    23497274.060
  23497273.880          43.350          34.050
 128405090.960 7  99870628.285 6                  23978748.540    23978751.420
  23978750.560          42.450          37.800
 122434284.990 7  95226688.038 5                  22911901.900    22911905.880
  22911904.380          42.700          34.050
 110776675.744 7  86159582.288 6                  20744878.160    20744880.840
  20744878.300          47.850          36.400
 110803118.825 7  86180204.406 7                  20713419.060    20713419.720
  20713418.080          47.500          45.400
 105463247.875 8  82027017.790 7                  19784623.320    19784629.640
  19784628.540          48.200          42.750
 119879658.375 7  93239718.291 6                  22402330.520    22402332.080
  22402331.260          46.250          41.950
 148347155.194 7                 110778744.149 6  28229520.560
                        43.100
 15  1 27 22  1  0.0000000  0 18G14G31G06G24G12G25G29G02R02R20R01R08
                                R11R09R19R10R21E19
 113594535.591 8  88515224.22647                  21616312.900
  21616308.180          49.000          43.850
 123110517.249 7  95930273.302 7                  23427149.020    23427144.660
  23427143.720          46.950          42.700
 130952571.145 7 102040971.182 6  97789260.804 7  24919442.680    24919441.760
  24919440.520          42.350          40.250
 118695741.917 8  92490274.771 7  88636530.975 8  22587016.320    22587014.860
  22587014.240          48.800          47.350
 113191796.720 8  88201511.620 7                  21539616.160    21539611.220
  21539610.380          50.900          46.700
 107505873.930 8  83770919.871 8  80280493.753 8  20457643.040    20457641.260
  20457640.380          49.650          49.450
 108741292.694 8  84733631.458 8                  20692712.280    20692709.060
  20692708.460          49.600          48.600
 122860855.677 7  95735722.82346                  23379634.460
  23379626.820          47.850          41.800
 131179660.091 6 102028617.296 5                  24583011.360    24583014.440
  24583013.540          38.550          34.750
 104773574.050 7  81490589.936 7                  19593136.160    19593140.140
  19593137.980          44.550          47.050
 125612460.190 7  97698602.788 5                  23498411.780    23498415.340
  23498415.320          43.800          34.600
 128421535.330 7  99883418.344 6                  23981819.480    23981822.360
  23981821.420          43.000          38.200
 122417733.670 7  95213814.809 5                  22908804.540    22908808.660
  22908807.040          43.000          34.650
 110785824.730 7  86166698.172 6                  20746591.480    20746594.220
  20746591.640          47.900          36.650
 110815793.862 8  86190062.771 7                  20715788.540    20715789.200
  20715787.540          48.050          45.300
 105456402.668 8  82021693.749 7                  19783339.180    19783345.520
  19783344.420          48.550          42.650
 119858104.223 7  93222953.963 7                  22398302.640    22398304.160
  22398303.360          46.300          42.100
 148359849.068 7                 110788223.270 6  28231936.100
                        43.250
 15  1 27 22  1  5.0000000  0 18G14G31G06G24G12G25G29G02R02R20R01R08
                                R11R09R19R10R21E19
 113596376.740 8  88516658.88547                  21616663.280
  21616658.520          48.850          44.200
 123095417.543 7  95918507.295 7                  23424275.640    23424271.260
  23424270.320          47.250          43.000
 130960934.318 7 102047487.931 6  97795506.027 7  24921034.100    24921033.220
  24921032.100          42.800          39.800
 118709964.416 8  92501357.235 7  88647151.674 8  22589722.760    22589721.320
  22589720.700          48.900          47.050
 113201701.658 8  88209229.761 7                  21541501.080    21541496.040
  21541495.160          50.800          46.400
 107505562.335 8  83770677.068 8  80280261.070 8  20457583.720    20457581.940
  20457581.080          49.950          49.300
 108731293.241 8  84725839.683 8                  20690809.440    20690806.240
  20690805.640          49.600          48.600
 122859315.379 8  95734522.60346                  23379341.280
  23379333.720          48.050          41.400
 131171495.731 6 102022267.205 5                  24581481.580    24581484.660
  24581483.780          39.550          34.950
 104764930.989 7  81483867.557 7                  19591519.880    19591523.860
  19591521.700          44.350          47.100
 125618579.462 7  97703362.226 5                  23499556.560    23499560.120
  23499560.120          43.850          34.950
 128437984.256 7  99896211.926 6                  23984891.220    23984894.060
  23984893.120          42.800          37.950
 122401181.686 7  95200941.053 5                  22905707.060    22905711.060
  22905709.600          43.150          34.850
 110794983.863 7  86173821.943 6                  20748306.740    20748309.400
  20748306.880          47.650          36.650
 110828486.103 8  86199934.516 7                  20718161.260    20718161.900
  20718160.240          48.050          45.400
 105449566.616 8  82016376.815 7                  19782056.800    19782063.140
  19782062.000          48.350          42.900
 119836556.682 7  93206194.773 7                  22394275.920    22394277.500
  22394276.680          46.150          42.350
 148372541.385 7                 110797701.275 6  28234351.400
                        43.700
 15  1 27 22  1 10.0000000  0 18G14G31G06G24G12G25G29G02R02R20R01R08
                                R11R09R19R10R21E19
 113598235.265 8  88518107.08847                  21617016.940
  21617012.180          48.850          44.000
 123080321.592 7  95906744.231 7                  23421402.940    23421398.580
  23421397.620          47.200          42.900
 130969311.977 7 102054015.981 6  97801762.062 7  24922628.260    24922627.420
  24922626.240          42.800          40.200
 118724195.601 8  92512446.473 7  88657778.844 8  22592430.840    22592429.440
  22592428.820          48.950          47.350
 113211612.011 8  88216952.122 7                  21543387.000    21543381.900
  21543380.980          50.350          46.400
 107505259.314 8  83770440.946 8  80280034.786 8  20457526.020    20457524.280
  20457523.420          50.100          49.300
 108721308.340 8  84718059.244 8                  20688909.380    20688906.180
  20688905.600          49.800          48.450
 122857789.380 7  95733333.52147                  23379050.840
  23379043.300          47.850          42.350
 131163350.064 6 102015931.684 5                  24579955.200    24579958.220
  24579957.580          40.700          33.850
 104756310.413 7  81477162.667 7                  19589907.780    19589911.800
  19589909.620          44.850          47.150
 125624717.525 7  97708136.267 5                  23500704.880    23500708.480
  23500708.460          44.300          35.600
 128454438.987 7  99909010.050 6                  23987964.000    23987966.920
  23987965.820          42.650          37.500
 122384630.446 7  95188067.886 5                  22902609.680    22902613.700
  22902612.360          43.750          34.800
 110804154.515 7  86180954.670 6                  20750024.120    20750026.780
  20750024.240          47.750          36.800
 110841196.871 8  86209820.662 7                  20720537.440    20720538.040
  20720536.400          48.350          45.400
 105442741.054 8  82011068.041 7                  19780776.360    19780782.660
  19780781.560          48.750          43.050
 119815017.155 7  93189441.826 7                  22390250.720    22390252.320
  22390251.500          46.450          42.300
 148385233.559 7                 110807179.157 6  28236766.680
                        43.700
 15  1 27 22  1 15.0000000  0 18G14G31G06G24G12G25G29G02R02R20R01R08
                                R11R09R19R10R21E19
 113600108.491 8  88519566.74147                  21617373.420
  21617368.660          48.900          44.250
 123065226.745 7  95894982.012 7                  23418530.440    23418526.060
  23418525.140          46.850          42.850
 130977701.397 7 102060553.191 6  97808026.874 7  24924224.680    24924223.860
  24924222.680          42.900          40.600
 118738432.777 8  92523540.370 7  88668410.511 8  22595140.120    22595138.660
  22595138.060          48.850          47.050
 113221525.049 8  88224676.566 7                  21545273.340    21545268.280
  21545267.320          49.800          46.400
 107504962.147 8  83770209.389 8  80279812.884 8  20457469.460    20457467.740
  20457466.880          50.000          49.350
 108711335.310 8  84710288.063 8                  20687011.600    20687008.400
  20687007.780          49.800          48.350
 122856275.021 7  95732153.50946                  23378762.600
  23378755.160          47.950          40.850
 131155220.342 6 102009608.558 5                  24578431.680    24578434.820
  24578434.240          41.950          33.900
 104747709.635 7  81470473.179 7                  19588299.440    19588303.400
  19588301.240          44.900          47.150
 125630871.690 7  97712922.842 5                  23501856.180    23501859.800
  23501859.820          44.100          35.750
 128470896.784 7  99921810.540 6                  23991037.380    23991040.340
  23991039.160          42.600          37.150
 122368077.175 7  95175193.128 5                  22899511.940    22899516.160
  22899514.600          44.100          34.600
 110813333.882 7  86188094.177 6                  20751743.120    20751745.740
  20751743.220          47.950          36.700
 110853923.396 8  86219719.070 7                  20722916.560    20722917.140
  20722915.480          48.250          45.450
 105435923.142 8  82005765.228 7                  19779497.360    19779503.700
  19779502.560          48.800          42.950
 119793482.912 7  93172692.981 7                  22386226.500    22386228.160
  22386227.320          46.300          42.250
 148397922.833 7                 110816654.868 6  28239181.440
                        43.150
 15  1 27 22  1 20.0000000  0 18G14G31G06G24G12G25G29G02R02R20R01R08
                                R11R09R19R10R21E19
 113601999.095 8  88521039.93147                  21617733.160
  21617728.420          49.000          43.700
 123050135.649 7  95883222.729 7                  23415658.660    23415654.280
  23415653.360          46.750          42.200
 130986105.218 7 102067101.613 6  97814302.463 7  24925823.840    24925823.080
  24925821.840          42.700          40.650
 118752678.690 8  92534641.077 7  88679048.689 8  22597851.020    22597849.560
  22597848.980          48.900          47.150
 113231443.474 8  88232405.203 7                  21547160.660    21547155.680
  21547154.740          49.250          46.550
 107504673.527 8  83769984.491 8  80279597.354 8  20457414.520    20457412.800
  20457411.960          49.800          49.300
 108701376.808 8  84702528.188 8                  20685116.580    20685113.360
  20685112.740          49.850          48.250
 122854774.955 7  95730984.62046                  23378477.080
  23378469.720          47.900          41.950
 131147108.997 6 102003299.743 5                  24576911.640    24576914.720
  24576914.220          41.650          34.900
 104739131.291 7  81463801.125 7                  19586695.220    19586699.200
  19586697.060          44.850          47.150
 125637044.956 7  97717724.277 5                  23503011.080    23503014.640
  23503014.720          43.450          35.250
 128487360.300 7  99934615.493 6                  23994111.760    23994114.820
  23994113.560          43.400          37.750
 122351524.646 7  95162318.935 5                  22896414.380    22896418.660
  22896416.940          44.550          34.400
 110822524.796 8  86195242.645 6                  20753464.280    20753466.800
  20753464.340          48.400          36.350
 110866668.531 8  86229631.947 7                  20725299.120    20725299.740
  20725298.020          48.100          45.350
 105429115.691 8  82000470.542 7                  19778220.360    19778226.720
  19778225.480          48.950          43.000
 119771956.670 7  93155950.347 7                  22382203.760    22382205.500
  22382204.600          46.200          42.050
 148410611.902 7                 110826130.402 6  28241596.140
                        43.000
 15  1 27 22  1 25.0000000  0 18G14G31G06G24G12G25G29G02R02R20R01R08
                                R11R09R19R10R21E19
 113603905.128 8  88522525.14947                  21618095.820
  21618091.160          48.900          44.050
 123035046.427 7  95871464.896 7                  23412787.220    23412782.880
  23412781.940          46.850          42.650
 130994521.557 7 102073659.811 6  97820587.381 7  24927425.400    24927424.600
  24927423.380          43.050          40.150
 118766931.428 8  92545747.111 7  88689691.968 8  22600563.200    22600561.760
  22600561.200          48.750          47.000
 113241365.289 8  88240136.476 7                  21549048.560    21549043.740
  21549042.820          49.250          46.800
 107504391.529 8  83769764.758 8  80279386.767 8  20457360.820    20457359.120
  20457358.300          49.600          49.300
 108691430.939 8  84694778.165 8                  20683223.960    20683220.720
  20683220.100          49.850          48.300
 122853287.249 8  95729825.37147                  23378193.940
  23378186.640          48.100          42.100
 131139014.482 6 101997004.005 5                  24575394.760    24575397.640
  24575397.320          40.850          35.550
 104730573.439 7  81457145.024 7                  19585094.900    19585098.840
  19585096.700          45.100          47.000
 125643235.020 7  97722538.767 5                  23504169.080    23504172.760
  23504172.720          43.150          34.900
 128503827.763 7  99947423.505 6                  23997186.920    23997190.000
  23997188.740          43.400          37.700
 122334970.862 7  95149443.762 5                  22893316.640    22893320.800
  22893319.080          44.650          35.350
 110831725.197 8  86202398.525 6                  20755187.220    20755189.740
  20755187.260          48.300          37.100
 110879430.233 8  86239557.723 7                  20727684.800    20727685.400
  20727683.680          48.250          45.350
 105422316.851 8  81995182.556 7                  19776944.940    19776951.240
  19776950.020          49.050          42.800
 119750436.466 7  93139212.428 7                  22378182.160    22378183.840
  22378183.040          46.100          42.300
 148423298.845 7                 110835604.348 6  28244010.460
                        42.700
 15  1 27 22  1 30.0000000  0 18G14G31G06G24G12G25G29G02R02R20R01R08
                                R11R09R19R10R21E19
 113605826.340 8  88524022.18947                  21618461.400
  21618456.740          48.700          44.400
 123019958.792 7  95859708.307 7                  23409916.100    23409911.800
  23409910.820          46.950          42.400
 131002950.111 7 102080227.505 6  97826881.441 7  24929029.340    24929028.540
  24929027.380          42.700          39.750
 118781190.654 8  92556858.194 7  88700340.089 8  22603276.640    22603275.220
  22603274.660          48.750          47.050
 113251290.282 8  88247870.219 7                  21550937.060    21550932.400
  21550931.520          49.100          46.700
 107504115.860 8  83769549.943 8  80279180.917 8  20457308.360    20457306.660
  20457305.840          49.350          49.250
 108681497.489 8  84687037.811 8                  20681333.720    20681330.440
  20681329.820          49.900          48.250
 122851811.656 8  95728675.56146                  23377913.120
  23377905.840          48.400          41.250
 131130936.390 6 101990721.057 6                  24573880.900    24573883.820
  24573883.420          40.250          36.200
 104722035.840 7  81450504.676 7                  19583498.320    19583502.260
  19583500.140          45.000          47.050
 125649441.762 7  97727366.236 5                  23505330.120    23505333.840
  23505333.760          42.350          34.900
 128520298.586 7  99960234.081 6                  24000262.700    24000265.680
  24000264.500          42.400          36.800
 122318415.667 7  95136567.507 5                  22890218.620    22890222.720
  22890221.000          44.700          35.000
 110840934.825 8  86209561.567 6                  20756911.880    20756914.500
  20756911.940          48.300          36.750
 110892208.129 8  86249496.085 7                  20730073.500    20730074.100
  20730072.360          48.250          45.450
 105415526.162 8  81989900.904 7                  19775671.060    19775677.360
  19775676.100          49.100          42.750
 119728922.140 7  93122479.061 7                  22374161.700    22374163.380
  22374162.540          46.100          42.150
 148435983.331 7                 110845076.492 6  28246424.300
                        42.650
 15  1 27 22  1 35.0000000  0 18G14G31G06G24G12G25G29G02R02R20R01R08
                                R11R09R19R10R21E19
 113607765.125 8  88525532.93147                  21618830.320
  21618825.680          48.450          44.250
 123004875.124 7  95847954.792 7                  23407045.720    23407041.380
  23407040.440          47.150          42.750
 131011393.276 7 102086806.593 6  97833186.403 7  24930636.020    24930635.200
  24930634.080          42.800          40.350
 118795458.922 8  92567976.318 7  88710994.956 8  22605991.780    22605990.380
  22605989.820          48.650          47.150
 113261220.862 8  88255608.317 7                  21552826.660    21552822.140
  21552821.320          49.250          46.850
 107503848.939 8  83769341.948 8  80278981.584 8  20457257.540    20457255.860
  20457255.040          49.400          49.250
 108671578.794 8  84679308.957 8                  20679446.280    20679442.980
  20679442.340          49.750          48.250
 122850350.580 8  95727537.05446                  23377635.080
  23377627.800          48.250          41.350
 131122877.081 6 101984452.747 5                  24572370.480    24572373.560
  24572373.040          41.200          35.600
 104713520.936 7  81443881.981 7                  19581906.020    19581909.940
  19581907.800          44.750          46.900
 125655667.487 7  97732208.435 5                  23506494.760    23506498.540
  23506498.380          43.050          34.250
 128536775.369 7  99973049.344 6                  24003339.660    24003342.600
  24003341.380          42.100          37.350
 122301861.378 7  95123691.964 5                  22887120.820    22887124.960
  22887123.140          44.150          35.050
 110850156.194 8  86216733.734 6                  20758638.760    20758641.320
  20758638.820          48.100          36.400
 110905004.789 8  86259449.041 7                  20732465.720    20732466.320
  20732464.560          48.350          45.350
 105408746.238 8  81984627.630 7                  19774399.180    19774405.420
  19774404.200          48.700          42.800
 119707416.058 7  93105752.110 7                  22370142.740    22370144.500
  22370143.560          45.950          42.000
 148448667.794 7                 110854548.579 6  28248838.120
                        42.600
 15  1 27 22  1 40.0000000  0 18G14G31G06G24G12G25G29G02R02R20R01R08
                                R11R09R19R10R21E19
 113609719.588 8  88527055.89347                  21619202.200
  21619197.620          48.600          44.200
 122989793.595 7  95836202.961 7                  23404175.780    23404171.480
  23404170.520          47.250          42.950
 131019849.157 7 102093395.593 6  97839500.859 7  24932245.140    24932244.260
  24932243.240          43.000          39.900
 118809734.155 8  92579099.877 7  88721655.043 8  22608708.260    22608706.860
  22608706.300          48.700          47.150
 113271155.086 8  88263349.261 7                  21554717.020    21554712.560
  21554711.820          49.900          47.050
 107503588.875 8  83769139.303 8  80278787.375 8  20457208.040    20457206.360
  20457205.560          49.650          49.350
 108661672.960 8  84671590.131 8                  20677561.280    20677557.980
  20677557.320          49.750          48.400
 122848902.085 8  95726408.36046                  23377359.440
  23377352.160          48.400          41.650
 131114834.800 7 101978197.635 5                  24570863.360    24570866.400
  24570865.980          42.600          35.150
 104705026.882 7  81437275.503 7                  19580317.560    19580321.500
  19580319.360          44.650          46.800
 125661910.338 7  97737063.977 5                  23507662.600    23507666.420
  23507666.220          42.300          34.350
 128553256.064 7  99985867.685 6                  24006417.320    24006420.240
  24006419.040          42.700          37.900
 122285306.162 7  95110815.670 5                  22884022.740    22884026.820
  22884025.040          43.450          35.550
 110859387.393 7  86223913.558 6                  20760367.500    20760370.020
  20760367.560          47.650          36.900
 110917818.152 8  86269414.994 7                  20734861.020    20734861.660
  20734859.900          48.800          45.300
 105401975.026 8  81979361.139 7                  19773128.940    19773135.160
  19773133.920          48.700          42.600
 119685916.301 7  93089030.088 7                  22366125.020    22366126.720
  22366125.800          46.150          42.250
 148461350.304 7                 110864019.238 6  28251251.520
                        42.700
 15  1 27 22  1 45.0000000  0 18G14G31G06G24G12G25G29G02R02R20R01R08
                                R11R09R19R10R21E19
 113611690.965 8  88528592.02747                  21619577.320
  21619572.740          48.850          44.100
 122974715.477 7  95824453.776 7                  23401306.500    23401302.220
  23401301.240          47.450          43.150
 131028318.981 7 102099995.460 6  97845825.728 7  24933856.940    24933856.060
  24933855.020          42.400          39.950
 118824017.649 8  92590229.878 7  88732321.292 8  22611426.300    22611424.920
  22611424.380          48.400          47.050
 113281094.227 8  88271094.047 7                  21556608.380    21556603.920
  21556603.240          50.300          46.900
 107503336.893 8  83768942.962 8  80278599.218 8  20457160.080    20457158.420
  20457157.600          49.700          49.200
 108651781.265 8  84663882.323 8                  20675678.980    20675675.660
  20675675.000          49.800          48.350
 122847467.431 8  95725290.45447                  23377086.460
  23377079.120          48.500          42.200
 131106810.683 6 101971956.608 5                  24569359.620    24569362.660
  24569362.320          41.550          35.700
 104696554.835 7  81430686.133 7                  19578733.240    19578737.160
  19578735.040          44.250          46.750
 125668171.643 7  97741933.866 5                  23508833.840    23508837.700
  23508837.540          42.300          34.800
 128569742.038 6  99998690.101 6                  24009495.940    24009498.940
  24009497.780          41.950          38.650
 122268751.285 7  95097939.686 5                  22880924.740    22880928.900
  22880927.060          44.200          35.050
 110868629.544 7  86231101.895 6                  20762098.240    20762100.820
  20762098.320          47.650          36.700
 110930649.566 8  86279394.983 7                  20737259.720    20737260.380
  20737258.600          48.800          45.000
 105395213.842 8  81974102.444 7                  19771860.560    19771866.800
  19771865.500          48.250          42.550
 119664424.247 7  93072314.062 7                  22362108.680    22362110.400
  22362109.520          45.750          42.350
 148474032.134 7                 110873489.387 6  28253664.860
                        42.800
 15  1 27 22  1 50.0000000  0 18G14G31G06G24G12G25G29G02R02R20R01R08
                                R11R09R19R10R21E19
 113613678.022 8  88530140.37747                  21619955.420
  21619950.840          48.850          43.950
 122959639.448 7  95812706.219 7                  23398437.620    23398433.320
  23398432.400          47.650          43.250
 131036801.512 6 102106605.221 6  97852160.099 7  24935471.140    24935470.300
  24935469.180          41.700          39.700
 118838308.166 8  92601365.340 7  88742992.770 8  22614145.680    22614144.340
  22614143.780          48.200          47.200
 113291037.053 8  88278841.686 7                  21558500.480    21558495.980
  21558495.380          50.600          47.050
 107503091.764 8  83768751.954 8  80278416.168 8  20457113.440    20457111.760
  20457110.940          49.850          49.300
 108641902.466 8  84656184.560 8                  20673799.140    20673795.760
  20673795.120          49.950          48.350
 122846045.398 8  95724182.37846                  23376815.860
  23376808.520          48.350          41.650
 131098803.442 6 101965728.777 6                  24567859.100    24567862.080
  24567861.760          41.950          36.000
 104688103.667 7  81424112.994 7                  19577152.860    19577156.740
  19577154.600          44.000          46.750
 125674450.051 7  97746817.093 5                  23510008.260    23510012.260
  23510012.020          42.850          34.750
 128586231.992 7 100011515.594 6                  24012575.340    24012578.320
  24012577.240          42.150          37.450
 122252195.508 7  95085062.980 5                  22877826.600    22877830.620
  22877828.820          44.600          34.600
 110877881.550 7  86238297.888 6                  20763830.800    20763833.340
  20763830.940          47.700          36.750
 110943497.654 8  86289387.932 7                  20739661.560    20739662.200
  20739660.420          48.700          45.100
 105388461.648 8  81968850.729 7                  19770593.860    19770600.120
  19770598.780          48.350          42.550
 119642938.553 7  93055602.973 7                  22358093.560    22358095.300
  22358094.360          45.800          42.300
 148486711.988 7                 110882958.040 6  28256077.780
                        43.350
 15  1 27 22  1 55.0000000  0 18G14G31G06G24G12G25G29G02R02R20R01R08
                                R11R09R19R10R21E19
 113615681.331 8  88531701.40347                  21620336.620
  21620332.040          48.800          44.250
 122944566.177 7  95800960.817 7                  23395569.260    23395564.940
  23395564.080          47.750          43.450
 131045297.354 7 102113225.364 6  97858504.387 7  24937087.840    24937087.000
  24937085.900          42.000          39.850
 118852606.248 8  92612506.704 7  88753669.913 8  22616866.480    22616865.200
  22616864.620          48.100          47.300
 113300984.102 8  88286592.639 7                  21560393.440    21560388.840
  21560388.320          50.750          47.100
 107502854.084 8  83768566.751 8  80278238.679 8  20457068.220    20457066.540
  20457065.700          49.800          49.250
 108632037.156 8  84648497.307 8                  20671921.860    20671918.460
  20671917.780          49.900          48.500
 122844636.586 8  95723084.61346                  23376547.800
  23376540.400          48.300          41.500
 131090813.837 6 101959514.660 5                  24566361.860    24566364.980
  24566364.440          41.150          35.850
 104679673.892 7  81417556.508 7                  19575576.440    19575580.340
  19575578.160          43.650          46.800
 125680746.203 7  97751714.092 5                  23511186.080    23511190.080
  23511189.840          42.800          35.150
 128602726.414 7 100024344.614 6                  24015655.620    24015658.600
  24015657.480          42.650          37.150
 122235639.418 7  95072186.007 5                  22874728.420    22874732.340
  22874730.540          44.150          35.350
 110887143.913 7  86245501.939 6                  20765565.280    20765567.820
  20765565.480          47.500          36.750
 110956363.066 8  86299394.367 7                  20742066.640    20742067.240
  20742065.480          48.400          45.150
 105381718.758 8  81963606.271 7                  19769328.900    19769335.140
  19769333.780          48.000          42.300
 119621459.935 7  93038897.388 7                  22354079.720    22354081.500
  22354080.560          45.700          42.400
 148499390.481 7                 110892425.697 6  28258490.460
                        43.300
 15  1 27 22  2  0.0000000  0 18G14G31G06G24G12G25G29G02R02R20R01R08
                                R11R09R19R10R21E19
 113617700.424 8  88533274.72247                  21620720.800
  21620716.260          48.800          44.150
 122929495.182 7  95789217.191 7                  23392701.340    23392697.040
  23392696.160          47.700          43.650
 131053805.979 6 102119855.455 6  97864858.246 7  24938706.960    24938706.160
  24938705.100          41.800          39.750
 118866911.479 7  92623653.638 7  88764352.389 8  22619588.660    22619587.380
  22619586.840          47.950          47.350
 113310934.953 8  88294346.553 7                  21562287.160    21562282.440
  21562281.960          50.950          47.050
 107502623.354 8  83768386.961 8  80278066.389 8  20457024.300    20457022.620
  20457021.780          49.800          49.250
 108622184.895 8  84640820.221 8                  20670047.040    20670043.620
  20670042.940          49.850          48.400
 122843240.541 8  95721996.78446                  23376282.160
  23376274.700          48.300          41.350
 131082841.327 6 101953313.769 6                  24564867.800    24564870.800
  24564870.320          40.750          36.950
 104671265.078 7  81411016.322 7                  19574003.960    19574007.840
  19574005.640          43.800          46.650
 125687059.362 7  97756624.323 5                  23512367.080    23512371.160
  23512370.820          43.300          35.050
 128619224.927 7 100037176.782 6                  24018736.620    24018739.680
  24018738.500          42.700          37.600
 122219082.387 7  95059308.335 5                  22871630.020    22871633.880
  22871632.220          43.650          35.850
 110896416.128 7  86252713.675 6                  20767301.640    20767304.280
  20767301.880          47.500          36.700
 110969245.291 8  86309413.873 7                  20744474.840    20744475.480
  20744473.680          48.450          45.000
 105374984.831 7  81958368.770 7                  19768065.620    19768071.820
  19768070.460          47.950          42.250
 119599987.855 7  93022196.889 7                  22350067.140    22350068.940
  22350067.980          45.300          42.550
 148512067.130 7                 110901891.978 6  28260902.780
                        43.300
 15  1 27 22  2  5.0000000  0 18G14G31G06G24G12G25G29G02R02R20R01R08
                                R11R09R19R10R21E19
 113619737.299 8  88534861.89147                  21621108.400
  21621103.880          48.700          43.950
 122914428.428 7  95777476.867 7                  23389834.200    23389829.940
  23389829.060          47.400          43.800
 131062329.400 7 102126497.100 6  97871223.140 7  24940328.960    24940328.120
  24940327.140          42.250          39.650
 118881225.799 8  92634807.645 7  88775041.658 8  22622312.540    22622311.320
  22622310.780          48.000          47.150
 113320891.567 8  88302104.964 7                  21564181.980    21564177.120
  21564176.680          51.050          47.000
 107502401.586 8  83768214.157 8  80277900.783 8  20456982.120    20456980.420
  20456979.580          49.800          49.300
 108612347.629 8  84633154.820 8                  20668175.080    20668171.640
  20668170.960          49.650          48.450
 122841859.255 8  95720920.46546                  23376019.300
  23376011.840          48.400          41.000
 131074887.944 6 101947127.829 6                  24563377.280    24563380.400
  24563379.860          41.250          37.350
 104662879.245 7  81404494.002 7                  19572435.740    19572439.660
  19572437.420          44.100          46.700
 125693391.928 7  97761549.657 5                  23513551.700    23513555.740
  23513555.400          43.050          35.150
 128635729.369 7 100050013.545 6                  24021818.700    24021821.740
  24021820.640          42.550          37.550
 122202526.607 7  95046431.649 5                  22868531.820    22868535.720
  22868534.060          44.150          35.450
 110905700.352 7  86259934.736 6                  20769040.240    20769042.960
  20769040.540          47.600          36.550
 110982146.297 8  86319448.000 7                  20746886.560    20746887.200
  20746885.380          48.350          45.200
 105368261.928 8  81953139.846 7                  19766804.420    19766810.560
  19766809.220          48.000          42.350
 119578524.352 7  93005503.064 7                  22346056.140    22346057.960
  22346057.000          45.350          42.300
 148524743.912 7                 110911358.356 6  28263315.140
                        43.550
 15  1 27 22  2 10.0000000  0 18G14G31G06G24G12G25G29G02R02R20R01R08
                                R11R09R19R10R21E19
 113621788.534 8  88536460.25447                  21621498.720
  21621494.200          48.400          44.900
 122899362.549 7  95765737.231 7                  23386967.280    23386963.040
  23386962.140          47.550          43.700
 131070864.237 6 102133147.622 6  97877596.543 7  24941953.140    24941952.180
  24941951.320          41.800          39.700
 118895545.778 8  92645966.075 7  88785735.147 8  22625037.520    22625036.320
  22625035.760          48.100          47.150
 113330850.545 8  88309865.210 7                  21566077.260    21566072.240
  21566071.840          50.900          46.800
 107502185.357 8  83768045.671 8  80277739.315 8  20456940.980    20456939.280
  20456938.420          49.700          49.250
 108602521.979 8  84625498.480 8                  20666305.340    20666301.900
  20666301.180          49.550          48.400
 122840489.286 8  95719852.95946                  23375758.580
  23375751.120          48.150          41.400
 131066950.220 6 101940954.061 6                  24561889.700    24561892.920
  24561892.200          41.150          36.700
 104654512.915 7  81397986.862 7                  19570871.180    19570875.120
  19570872.860          43.850          46.700
 125699740.192 7  97766487.193 5                  23514739.280    23514743.380
  23514742.940          42.850          35.350
 128652236.348 7 100062852.286 5                  24024901.220    24024904.240
  24024903.240          42.400          35.650
 122185968.612 7  95033553.206 5                  22865433.240    22865437.100
  22865435.380          44.500          34.750
 110914992.987 7  86267162.339 6                  20770780.420    20770783.240
  20770780.720          47.400          36.400
 110995062.616 8  86329494.027 7                  20749301.120    20749301.760
  20749299.960          48.450          45.000
 105361546.616 8  81947916.827 7                  19765544.640    19765550.760
  19765549.420          48.150          42.550
 119557066.008 7  92988813.248 7                  22342046.100    22342047.940
  22342046.960          45.550          42.250
 148537417.402 7                 110920822.261 6  28265726.880
                        43.950
 15  1 27 22  2 15.0000000  0 18G14G31G06G24G12G25G29G02R02R20R01R08
                                R11R09R19R10R21E19
 113623857.247 8  88538072.23447                  21621892.360
  21621887.860          48.550          44.200
 122884300.684 7  95754000.713 7                  23384101.100    23384096.920
  23384096.000          47.600          43.700
 131079413.536 7 102139809.415 6  97883980.792 7  24943580.040    24943579.080
  24943578.220          42.600          39.650
 118909874.626 8  92657131.408 7  88796435.260 8  22627764.200    22627763.020
  22627762.440          48.250          47.100
 113340815.006 8  88317629.730 7                  21567973.560    21567968.420
  21567967.980          50.850          46.750
 107501977.820 8  83767883.954 8  80277584.344 8  20456901.500    20456899.780
  20456898.940          49.650          49.350
 108592711.093 8  84617853.636 8                  20664438.380    20664434.920
  20664434.220          49.700          48.550
 122839133.810 8  95718796.74246                  23375500.620
  23375493.180          48.100          41.550
 131059031.408 6 101934794.974 6                  24560405.680    24560408.900
  24560408.240          40.850          36.950
 104646169.367 7  81391497.442 7                  19569310.860    19569314.860
  19569312.560          44.200          46.850
 125706107.312 7  97771439.395 5                  23515930.360    23515934.520
  23515934.020          43.050          35.700
 128668749.106 7 100075695.536 6                  24027984.880    24027987.800
  24027986.880          43.200          36.450
 122169411.579 7  95020675.510 5                  22862334.860    22862338.580
  22862336.900          44.750          35.200
 110924297.303 7  86274399.021 6                  20772522.840    20772525.740
  20772523.140          47.500          36.650
 111007997.486 8  86339554.478 7                  20751719.180    20751719.800
  20751718.020          48.650          45.100
 105354842.034 8  81942702.157 7                  19764286.880    19764293.000
  19764291.620          48.150          42.550
 119535616.028 7  92972129.936 6                  22338037.620    22338039.460
  22338038.500          45.450          41.850
 148550090.746 7                 110930286.066 6  28268138.560
                        44.300
 15  1 27 22  2 20.0000000  0 18G14G31G06G24G12G25G29G02R02R20R01R08
                                R11R09R19R10R21E19
 113625941.352 8  88539696.20647                  21622288.960
  21622284.440          48.700          43.950
 122869240.741 7  95742265.686 7                  23381235.300    23381231.100
  23381230.200          47.600          43.700
 131087975.242 7 102146480.877 6  97890374.269 7  24945209.220    24945208.320
  24945207.480          42.300          39.800
 118924210.199 8  92668301.975 7  88807140.387 8  22630492.140    22630490.980
  22630490.400          48.250          46.900
 113350782.792 8  88325396.842 7                  21569870.480    21569865.200
  21569864.740          50.700          46.300
 107501776.860 8  83767727.355 8  80277434.266 8  20456863.260    20456861.540
  20456860.680          49.650          49.350
 108582912.851 8  84610218.638 8                  20662573.860    20662570.360
  20662569.680          49.800          48.400
 122837790.675 7  95717750.13946                  23375245.000
  23375237.580          47.950          41.400
 131051129.285 6 101928648.883 6                  24558924.860    24558928.140
  24558927.440          40.700          36.700
 104637846.284 7  81385023.931 7                  19567754.400    19567758.400
  19567756.120          44.400          47.000
 125712491.092 7  97776404.530 5                  23517124.540    23517128.680
  23517128.240          43.050          35.500
 128685265.411 7 100088541.509 6                  24031069.200    24031071.980
  24031071.200          42.550          36.350
 122152853.413 7  95007796.938 5                  22859236.280    22859239.900
  22859238.300          45.000          35.900
 110933611.157 7  86281643.119 6                  20774266.980    20774269.860
  20774267.320          47.450          36.650
 111020948.642 8  86349627.597 7                  20754140.280    20754140.840
  20754139.120          48.600          45.250
 105348145.941 8  81937494.076 7                  19763030.720    19763036.840
  19763035.440          48.300          42.550
 119514172.255 7  92955451.463 6                  22334030.300    22334032.140
  22334031.200          46.000          41.350
 148562761.808 7                 110939748.170 6  28270549.820
                        44.650
 15  1 27 22  2 25.0000000  0 18G14G31G06G24G12G25G29G02R02R20R01R08
                                R11R09R19R10R21E19
 113628042.215 8  88541333.24247                  21622688.740
  21622684.220          48.750          44.300
 122854184.123 7  95730533.263 7                  23378370.120    23378365.920
  23378365.020          47.800          43.700
 131096550.724 7 102153163.073 6  97896778.027 7  24946841.100    24946840.160
  24946839.360          42.550          39.700
 118938553.835 8  92679478.833 7  88817851.539 8  22633221.620    22633220.460
  22633219.880          48.350          46.950
 113360755.341 8  88333167.667 7                  21571768.280    21571762.920
  21571762.380          50.600          46.400
 107501583.840 8  83767576.950 8  80277290.134 8  20456826.540    20456824.800
  20456823.960          49.700          49.450
 108573128.666 8  84602594.598 8                  20660711.980    20660708.480
  20660707.800          49.850          48.500
 122836461.330 8  95716714.29246                  23374992.040
  23374984.580          48.000          41.650
 131043245.270 6 101922516.879 6                  24557447.460    24557450.720
  24557450.080          41.500          36.950
 104629545.283 7  81378567.603 7                  19566202.060    19566206.040
  19566203.800          44.150          47.000
 125718893.113 7  97781383.891 6                  23518322.160    23518326.320
  23518325.900          43.100          36.350
 128701786.643 7 100101391.350 6                  24034154.500    24034157.120
  24034156.380          42.700          36.100
 122136295.405 7  94994918.487 6                  22856137.680    22856141.360
  22856139.740          44.600          36.000
 110942935.853 7  86288895.670 6                  20776013.140    20776016.140
  20776013.540          47.450          36.750
 111033917.534 8  86359714.511 7                  20756564.700    20756565.220
  20756563.540          48.200          45.050
 105341459.952 8  81932293.865 7                  19761776.460    19761782.580
  19761781.160          48.650          42.600
 119492736.151 7  92938778.939 6                  22330024.420    22330026.260
  22330025.320          46.050          41.050
 148575431.956 7                 110949209.599 6  28272960.940
                        44.600
 15  1 27 22  2 30.0000000  0 18G14G31G06G24G12G25G29G02R02R20R01R08
                                R11R09R19R10R21E19
 113630158.794 8  88542982.53047                  21623091.520
  21623087.020          48.900          43.850
 122839129.774 7  95718802.605 7                  23375505.380    23375501.160
  23375500.300          47.850          43.600
 131105138.931 7 102159855.176 6  97903191.308 7  24948475.420    24948474.420
  24948473.740          42.950          39.650
 118952904.588 8  92690661.236 7  88828568.010 8  22635952.440    22635951.280
  22635950.740          48.400          47.050
 113370731.637 8  88340941.404 7                  21573666.700    21573661.340
  21573660.740          50.250          46.150
 107501397.730 8  83767431.929 8  80277151.154 8  20456791.120    20456789.360
  20456788.540          49.800          49.450
 108563357.545 8  84594980.743 8                  20658852.600    20658849.100
  20658848.400          49.850          48.400
 122835144.715 7  95715688.36846                  23374741.480
  23374734.020          47.900          41.600
 131035378.411 6 101916398.230 5                  24555973.300    24555976.500
  24555975.940          40.200          35.750
 104621265.237 7  81372127.561 7                  19564653.680    19564657.600
  19564655.400          44.150          47.000
 125725312.163 7  97786376.481 5                  23519523.000    23519527.260
  23519526.780          44.000          35.850
 128718311.757 6 100114244.191 6                  24037240.460    24037243.040
  24037242.280          41.800          36.350
 122119736.681 7  94982039.492 6                  22853039.000    22853042.600
  22853041.060          44.800          36.050
 110952270.438 7  86296155.895 6                  20777761.200    20777764.140
  20777761.640          47.650          36.650
 111046903.083 7  86369814.379 7                  20758992.220    20758992.740
  20758991.080          47.950          45.150
 105334782.996 8  81927100.683 7                  19760523.880    19760529.980
  19760528.600          48.700          42.500
 119471306.679 7  92922111.582 6                  22326019.800    22326021.600
  22326020.640          46.150          41.100
 148588100.188 7                 110958669.553 6  28275371.680
                        44.950
 15  1 27 22  2 35.0000000  0 18G14G31G06G24G12G25G29G02R02R20R01R08
                                R11R09R19R10R21E19
 113632290.796 8  88544643.82547                  21623497.220
  21623492.720          48.900          43.850
 122824077.395 7  95707073.481 7                  23372641.060    23372636.780
  23372635.900          47.650          43.150
 131113739.564 7 102166556.980 6  97909613.863 7  24950112.100    24950111.120
  24950110.380          43.600          39.250
 118967261.996 8  92701848.819 7  88839289.454 8  22638684.520    22638683.400
  22638682.840          48.150          47.000
 113380711.320 8  88348717.781 7                  21575565.720    21575560.400
  21575559.720          49.800          45.950
 107501218.273 8  83767292.097 8  80277017.146 8  20456756.980    20456755.220
  20456754.400          49.850          49.450
 108553599.133 8  84587376.794 8                  20656995.660    20656992.140
  20656991.440          49.800          48.250
 122833840.536 7  95714672.13146                  23374493.300
  23374485.840          47.950          41.800
 131027528.443 6 101910292.716 5                  24554502.220    24554505.520
  24554504.880          39.950          35.300
 104613005.852 7  81365703.595 7                  19563109.140    19563113.060
  19563110.840          44.650          46.700
 125731747.976 7  97791382.122 6                  23520726.940    23520731.180
  23520730.820          43.650          36.000
 128734840.418 7 100127099.825 6                  24040327.060    24040329.640
  24040328.900          43.050          36.600
 122103176.834 7  94969159.620 5                  22849940.100    22849943.740
  22849942.160          44.550          35.600
 110961614.588 7  86303423.571 6                  20779511.020    20779513.980
  20779511.560          47.650          36.750
 111059904.997 8  86379926.982 7                  20761422.800    20761423.340
  20761421.680          48.200          45.200
 105328114.670 8  81921914.209 7                  19759272.920    19759278.980
  19759277.660          48.750          42.550
 119449883.543 7  92905449.150 6                  22322016.360    22322018.160
  22322017.180          46.200          41.100
 148600766.156 7                 110968127.870 6  28277781.960
                        44.800
 15  1 27 22  2 40.0000000  0 18G14G31G06G24G12G25G29G02R02R20R01R08
                                R11R09R19R10R21E19
 113634439.976 8  88546318.50547                  21623906.220
  21623901.680          48.650          44.150
 122809028.776 7  95695347.284 7                  23369777.420    23369773.100
  23369772.280          47.750          43.550
 131122354.333 7 102173269.787 6  97916046.971 7  24951751.500    24951750.440
  24951749.620          43.400          39.450
 118981627.865 7  92713043.005 7  88850017.207 8  22641418.240    22641417.140
  22641416.560          47.900          46.950
 113390696.187 8  88356498.192 7                  21577465.600    21577460.440
  21577459.700          49.150          46.100
 107501047.127 8  83767158.736 8  80276889.342 8  20456724.420    20456722.640
  20456721.840          49.900          49.400
 108543855.188 8  84579784.112 8                  20655141.460    20655137.920
  20655137.220          49.800          48.250
 122832550.556 8  95713666.95246                  23374247.820
  23374240.400          48.200          41.700
 131019696.992 6 101904201.583 5                  24553034.620    24553037.840
  24553037.300          40.250          34.650
 104604768.983 7  81359297.150 7                  19561568.800    19561572.680
  19561570.480          44.900          46.600
 125738202.382 7  97796402.206 5                  23521934.360    23521938.660
  23521938.300          43.750          35.950
 128751374.341 7 100139959.504 6                  24043414.640    24043417.320
  24043416.540          42.450          36.350
 122086617.632 7  94956280.238 5                  22846841.320    22846844.940
  22846843.280          45.100          35.450
 110970970.079 7  86310700.063 6                  20781262.960    20781265.940
  20781263.540          47.850          36.900
 111072924.993 8  86390053.650 7                  20763856.760    20763857.300
  20763855.660          48.500          45.100
 105321456.826 8  81916735.884 7                  19758023.920    19758029.980
  19758028.660          49.000          42.350
 119428468.504 7  92888793.008 6                  22318014.380    22318016.220
  22318015.220          46.100          40.900
 148613431.577 7                 110977585.745 6  28280192.160
                        44.550
 15  1 27 22  2 45.0000000  0 18G14G31G06G24G12G25G29G02R02R20R01R08
                                R11R09R19R10R21E19
 113636604.573 8  88548005.19747                  21624318.140
  21624313.620          48.550          44.100
 122793982.127 7  95683622.627 7                  23366914.140    23366909.820
  23366908.960          47.800          43.050
 131130981.519 7 102179992.272 6  97922489.345 7  24953393.240    24953392.100
  24953391.260          43.100          39.550
 118996000.361 7  92724242.350 7  88860749.919 8  22644153.200    22644152.080
  22644151.540          47.750          46.900
 113400684.451 8  88364281.247 7                  21579366.080    21579361.160
  21579360.340          48.750          46.250
 107500882.592 8  83767030.527 8  80276766.483 8  20456693.120    20456691.340
  20456690.560          49.950          49.350
 108534123.977 8  84572201.348 8                  20653289.680    20653286.120
  20653285.420          50.000          48.250
 122831273.007 8  95712671.44746                  23374004.740
  23373997.300          48.250          41.700
 131011882.447 7 101898123.562 5                  24551570.180    24551573.340
  24551572.800          42.450          35.550
 104596552.732 7  81352906.730 7                  19560032.300    19560036.160
  19560033.980          45.050          46.600
 125744673.476 7  97801435.261 5                  23523144.960    23523149.260
  23523148.880          43.800          35.700
 128767911.700 7 100152821.898 6                  24046502.840    24046505.640
  24046504.820          42.700          37.300
 122070057.203 7  94943399.892 5                  22843742.240    22843745.820
  22843744.180          44.700          35.200
 110980335.182 7  86317984.028 6                  20783016.720    20783019.800
  20783017.380          47.650          37.100
 111085961.292 8  86400192.988 7                  20766293.780    20766294.280
  20766292.680          48.650          45.250
 105314807.765 8  81911564.390 7                  19756776.560    19756782.580
  19756781.320          48.800          42.650
 119407059.813 7  92872141.798 6                  22314013.580    22314015.500
  22314014.440          45.900          41.500
 148626094.731 7                 110987041.947 6  28282601.940
                        44.800
 15  1 27 22  2 50.0000000  0 18G14G31G06G24G12G25G29G02R02R20R01R08
                                R11R09R19R10R21E19
 113638784.708 8  88549703.99647                  21624733.000
  21624728.480          48.600          44.200
 122778937.581 7  95671899.602 7                  23364051.260    23364046.880
  23364046.060          47.750          43.300
 131139621.229 7 102186724.503 6  97928941.074 7  24955037.380    24955036.180
  24955035.400          43.150          39.100
 119010379.809 7  92735447.117 7  88871487.817 8  22646889.500    22646888.400
  22646887.800          47.850          46.750
 113410676.241 8  88372067.033 7                  21581267.200    21581262.520
  21581261.700          48.800          46.100
 107500724.796 8  83766907.568 8  80276648.644 8  20456663.080    20456661.320
  20456660.520          50.150          49.250
 108524405.632 8  84564628.612 8                  20651440.360    20651436.780
  20651436.080          50.100          48.250
 122830008.039 8  95711685.75546                  23373764.040
  23373756.580          48.300          41.100
 131004084.806 6 101892058.705 5                  24550108.920    24550112.140
  24550111.460          41.950          34.950
 104588357.255 7  81346532.474 7                  19558499.680    19558503.560
  19558501.380          44.800          46.800
 125751161.534 7  97806481.508 6                  23524358.700    23524363.000
  23524362.640          43.750          36.400
 128784452.742 7 100165687.120 6                  24049591.760    24049594.580
  24049593.840          42.950          36.950
 122053495.975 7  94930518.926 6                  22840643.000    22840646.520
  22840644.940          44.750          36.550
 110989709.983 8  86325275.529 6                  20784772.280    20784775.380
  20784772.980          48.150          36.550
 111099013.968 8  86410345.067 7                  20768733.860    20768734.380
  20768732.760          49.050          45.300
 105308167.461 8  81906399.711 7                  19755530.860    19755536.900
  19755535.620          48.950          42.450
 119385657.654 7  92855495.687 7                  22310014.000    22310016.000
  22310014.920          46.600          42.000
 148638755.772 7                 110996496.546 6  28285011.300
                        45.250
 15  1 27 22  2 55.0000000  0 18G14G31G06G24G12G25G29G02R02R20R01R08
                                R11R09R19R10R21E19
 113640982.199 8  88551416.33047                  21625151.180
  21625146.660          48.750          44.150
 122763897.088 7  95660179.748 7                  23361189.160    23361184.720
  23361183.920          47.850          42.900
 131148275.266 7 102193467.915 6  97935403.510 7  24956684.220    24956682.980
  24956682.120          43.100          38.750
 119024768.017 7  92746658.708 7  88882232.242 8  22649627.480    22649626.360
  22649625.780          47.900          46.750
 113420673.363 8  88379856.986 7                  21583169.400    21583164.900
  21583164.040          49.100          46.450
 107500575.556 8  83766791.280 8  80276537.199 8  20456634.680    20456632.920
  20456632.140          50.000          49.200
 108514701.988 8  84557067.333 8                  20649593.840    20649590.240
  20649589.540          50.100          48.250
 122828757.495 8  95710711.30646                  23373526.120
  23373518.660          48.350          41.800
 130996306.026 6 101886008.549 5                  24548651.240    24548654.520
  24548653.680          41.050          34.800
 104580184.518 7  81340175.907 7                  19556971.340    19556975.180
  19556973.020          44.350          46.700
 125757668.241 7  97811542.288 5                  23525575.940    23525580.360
  23525579.880          43.150          35.750
 128800999.150 7 100178556.561 5                  24052681.720    24052684.620
  24052683.800          43.850          35.900
 122036935.661 7  94917638.719 6                  22837543.960    22837547.440
  22837545.960          45.250          36.100
 110999096.243 7  86332575.952 6                  20786530.000    20786533.100
  20786530.760          47.900          36.650
 111112084.884 8  86420511.339 7                  20771177.340    20771177.900
  20771176.240          48.950          45.350
 105301537.798 8  81901243.309 7                  19754287.120    19754293.160
  19754291.940          48.650          42.550
 119364263.872 7  92838856.089 6                  22306016.020    22306018.020
  22306016.960          46.200          41.800
 148651416.442 7                 111005950.886 6  28287420.580
                        45.150
 15  1 27 22  3  0.0000000  0 18G14G31G06G24G12G25G29G02R02R20R01R08
                                R11R09R19R10R21E19
 113643195.412 8  88553140.90647                  21625572.340
  21625567.820          48.900          44.100
 122748858.916 7  95648461.678 7                  23358327.480    23358323.020
  23358322.200          47.800          43.100
 131156942.028 7 102200221.236 6  97941875.445 7  24958333.480    24958332.240
  24958331.340          43.150          38.950
 119039163.309 8  92757875.811 7  88892981.973 8  22652366.800    22652365.680
  22652365.080          48.000          46.900
 113430674.203 8  88387649.836 7                  21585072.380    21585068.020
  21585067.140          49.300          46.600
 107500433.255 8  83766680.386 8  80276430.931 8  20456607.600    20456605.840
  20456605.040          49.900          49.150
 108505011.430 8  84549516.246 8                  20647749.800    20647746.200
  20647745.500          50.000          48.350
 122827519.719 8  95709746.79947                  23373290.620
  23373283.180          48.050          42.000
 130988544.420 6 101879971.818 5                  24547196.740    24547199.920
  24547199.140          40.800          35.000
 104572032.746 7  81333835.634 7                  19555446.900    19555450.760
  19555448.560          44.600          46.700
 125764192.026 7  97816616.333 6                  23526796.360    23526800.820
  23526800.320          42.700          36.100
 128817549.435 7 100191428.973 6                  24055772.480    24055775.340
  24055774.420          43.550          36.050
 122020374.521 7  94904757.831 6                  22834444.780    22834448.360
  22834446.760          44.400          36.100
 111008492.476 8  86339884.116 6                  20788289.580    20788292.680
  20788290.400          48.050          36.600
 111125172.438 8  86430690.548 7                  20773623.960    20773624.480
  20773622.840          48.900          45.200
 105294917.250 8  81896093.981 7                  19753045.100    19753051.180
  19753049.940          48.400          42.450
 119342876.865 7  92822221.769 6                  22302019.280    22302021.360
  22302020.300          46.450          41.750
 148664075.158 7                 111015403.776 6  28289829.500
                        45.000
 15  1 27 22  3  5.0000000  0 18G14G31G06G24G12G25G29G02R02R20R01R08
                                R11R09R19R10R21E19
 113645424.235 8  88554877.66147                  21625996.480
  21625991.980          48.850          43.800
 122733823.007 8  95636745.401 7                  23355466.240    23355461.780
  23355460.920          48.250          42.850
 131165621.342 7 102206984.368 6  97948356.776 7  24959985.140    24959983.860
  24959983.080          43.600          38.250
 119053565.496 8  92769098.296 7  88903736.851 8  22655107.460    22655106.300
  22655105.700          48.250          46.650
 113440678.602 8  88395445.474 7                  21586976.120    21586971.780
  21586970.940          50.100          46.700
 107500297.754 8  83766574.807 8  80276329.751 8  20456581.820    20456580.060
  20456579.260          49.800          49.150
 108495333.830 8  84541975.276 8                  20645908.220    20645904.620
  20645903.920          49.950          48.400
 122826294.639 8  95708792.19947                  23373057.580
  23373050.120          48.350          42.550
 130980799.813 6 101873948.201 5                  24545745.380    24545748.500
  24545747.700          41.200          34.600
 104563901.906 7  81327511.652 7                  19553926.360    19553930.260
  19553928.060          44.750          46.700
 125770732.672 7  97821703.508 6                  23528019.900    23528024.460
  23528023.900          43.100          36.050
 128834103.308 7 100204304.170 6                  24058863.900    24058866.740
  24058865.760          43.150          36.700
 122003812.550 7  94891876.298 5                  22831345.440    22831349.040
  22831347.360          44.300          35.800
 111017898.473 7  86347199.912 6                  20790051.000    20790054.220
  20790051.860          47.900          36.800
 111138276.365 8  86440882.500 7                  20776073.580    20776074.120
  20776072.500          48.900          44.900
 105288305.673 8  81890951.654 7                  19751804.740    19751810.900
  19751809.660          48.400          42.600
 119321496.448 7  92805592.574 6                  22298023.800    22298025.980
  22298024.900          46.450          41.550
 148676731.756 7                 111024855.092 6  28292238.000
                        44.850
 15  1 27 22  3 10.0000000  0 18G14G31G06G24G12G25G29G02R02R20R01R08
                                R11R09R19R10R21E19
 113647669.678 8  88556627.35347                  21626423.780
  21626419.280          48.700          43.750
 122718790.394 8  95625031.658 7                  23352605.640    23352601.180
  23352600.300          48.350          43.050
 131174314.298 7 102213758.088 6  97954848.259 7  24961639.420    24961638.120
  24961637.180          43.050          38.000
 119067975.618 8  92780326.962 7  88914497.652 8  22657849.640    22657848.460
  22657847.840          48.500          46.600
 113450687.645 8  88403244.732 7                  21588880.820    21588876.460
  21588875.620          50.600          46.500
 107500170.101 8  83766475.327 8  80276234.410 8  20456557.520    20456555.780
  20456554.960          49.800          49.200
 108485670.238 8  84534445.200 8                  20644069.320    20644065.700
  20644065.000          50.100          48.250
 122825083.250 8  95707848.27246                  23372827.080
  23372819.620          48.600          41.250
 130973073.446 6 101867938.756 5                  24544297.420    24544300.400
  24544299.660          41.700          35.100
 104555793.015 7  81321204.732 7                  19552409.980    19552413.860
  19552411.660          44.750          46.800
 125777291.262 7  97826804.632 6                  23529246.840    23529251.360
  23529250.880          43.400          36.350
 128850661.816 7 100217182.995 6                  24061956.180    24061959.040
  24061957.980          43.650          37.150
 121987250.788 7  94878994.925 6                  22828246.140    22828249.760
  22828248.020          44.650          36.750
 111027315.317 7  86354524.108 6                  20791814.460    20791817.680
  20791815.380          47.950          37.000
 111151397.860 8  86451088.102 7                  20778526.460    20778527.020
  20778525.420          48.850          45.100
 105281704.133 8  81885817.123 7                  19750566.300    19750572.420
  19750571.240          48.000          42.400
 119300123.731 7  92788969.363 6                  22294029.740    22294032.040
  22294030.900          46.700          41.300
 148689387.308 7                 111034305.595 6  28294646.280
                        44.400
 15  1 27 22  3 15.0000000  0 18G14G31G06G24G12G25G29G02R02R20R01R08
                                R11R09R19R10R21E19
 113649930.867 8  88558389.31847                  21626854.060
  21626849.580          48.700          43.650
 122703760.170 8  95613319.808 7                  23349745.500    23349740.960
  23349740.120          48.450          42.700
 131183019.960 7 102220541.723 6  97961349.253 7  24963296.100    24963294.700
  24963293.840          43.700          38.600
 119082392.787 8  92791561.117 7  88925263.732 8  22660593.160    22660591.960
  22660591.320          48.700          46.750
 113460700.427 8  88411046.902 7                  21590786.260    21590781.840
  21590781.060          50.800          46.700
 107500049.388 8  83766381.267 8  80276144.281 8  20456534.560    20456532.820
  20456532.000          49.650          49.250
 108476019.775 8  84526925.361 8                  20642232.920    20642229.280
  20642228.580          50.050          48.150
 122823884.685 8  95706914.32746                  23372599.040
  23372591.580          48.300          41.400
 130965364.362 6 101861942.833 6                  24542852.720    24542855.600
  24542854.860          41.850          36.000
 104547705.190 7  81314914.208 7                  19550897.480    19550901.420
  19550899.220          44.850          46.900
 125783866.956 7  97831919.037 6                  23530476.940    23530481.400
  23530481.060          43.350          36.350
 128867224.021 7 100230064.745 5                  24065049.160    24065051.780
  24065050.820          43.100          35.850
 121970688.390 7  94866113.085 6                  22825146.680    22825150.340
  22825148.600          44.550          37.550
 111036742.156 7  86361856.089 6                  20793579.780    20793583.060
  20793580.740          47.800          36.900
 111164535.871 8  86461306.545 7                  20780982.400    20780983.020
  20780981.420          49.000          45.000
 105275111.794 8  81880689.746 7                  19749329.580    19749335.760
  19749334.540          48.150          42.300
 119278757.861 7  92772351.478 6                  22290036.920    22290039.300
  22290038.160          46.350          41.150
 148702040.879 7                 111043754.637 6  28297054.200
                        44.500
 15  1 27 22  3 20.0000000  0 18G14G31G06G24G12G25G29G02R02R20R01R08
                                R11R09R19R10R21E19
 113652208.786 8  88560164.31847                  21627287.540
  21627283.060          48.850          43.850
 122688733.326 8  95601610.574 7                  23346886.000    23346881.400
  23346880.560          48.400          42.950
 131191739.315 7 102227336.011 6  97967860.445 7  24964955.400    24964953.900
  24964953.060          43.900          38.000
 119096817.956 8  92802801.507 7  88936035.766 8  22663338.220    22663336.960
  22663336.340          48.700          46.700
 113470717.930 8  88418852.757 7                  21592692.620    21592688.100
  21592687.360          50.850          46.750
 107499936.591 8  83766293.377 8  80276060.049 8  20456513.100    20456511.380
  20456510.560          49.900          49.400
 108466383.430 8  84519416.525 8                  20640399.200    20640395.540
  20640394.860          50.100          48.250
 122822699.918 8  95705991.13346                  23372373.580
  23372366.140          48.650          40.850
 130957673.549 7 101855961.119 6                  24541411.520    24541414.340
  24541413.560          43.600          36.850
 104539639.515 7  81308640.909 7                  19549389.160    19549393.080
  19549390.900          44.750          47.050
 125790460.507 7  97837047.358 6                  23531710.360    23531714.820
  23531714.520          42.950          36.000
 128883790.979 7 100242950.130 6                  24068142.920    24068145.680
  24068144.560          43.750          36.850
 121954126.203 7  94853231.384 6                  22822047.300    22822050.860
  22822049.280          44.650          37.450
 111046179.821 7  86369196.495 6                  20795347.140    20795350.360
  20795348.120          47.450          37.000
 111177691.395 8  86471538.624 7                  20783441.660    20783442.320
  20783440.700          48.750          45.150
 105268529.565 7  81875570.241 7                  19748094.720    19748100.920
  19748099.760          47.550          42.600
 119257399.847 7  92755739.696 6                  22286045.620    22286047.980
  22286046.880          46.550          41.250
 148714693.436 7                 111053202.918 6  28299461.900
                        44.600
 15  1 27 22  3 25.0000000  0 18G14G31G06G24G12G25G29G02R02R20R01R08
                                R11R09R19R10R21E19
 113654503.150 8  88561952.12847                  21627724.140
  21627719.660          48.800          44.000
 122673709.589 8  95589903.766 7                  23344027.080    23344022.480
  23344021.660          48.400          43.200
 131200472.049 7 102234140.749 6  97974381.651 7  24966617.180    24966615.680
  24966614.860          43.850          38.700
 119111250.903 8  92814047.960 7  88946813.614 8  22666084.740    22666083.440
  22666082.860          48.750          46.700
 113480739.858 8  88426662.058 7                  21594599.840    21594595.260
  21594594.540          50.950          47.000
 107499831.459 8  83766211.456 8  80275981.536 8  20456493.100    20456491.380
  20456490.560          49.900          49.550
 108456760.905 8  84511918.460 8                  20638568.140    20638564.440
  20638563.740          50.100          48.400
 122821528.681 8  95705078.47846                  23372150.700
  23372143.280          48.650          40.650
 130950000.716 7 101849993.344 6                  24539973.700    24539976.440
  24539975.680          42.400          36.750
 104531595.585 7  81302384.515 7                  19547884.920    19547888.820
  19547886.660          44.700          46.950
 125797071.952 7  97842189.598 5                  23532947.160    23532951.640
  23532951.320          42.550          35.700
 128900362.346 7 100255838.921 6                  24071237.500    24071240.220
  24071239.080          42.950          37.150
 121937564.053 7  94840349.731 6                  22818947.920    22818951.500
  22818949.980          44.250          37.550
 111055628.134 7  86376545.187 6                  20797116.520    20797119.720
  20797117.480          47.750          36.800
 111190864.129 8  86481784.079 7                  20785904.180    20785904.820
  20785903.220          48.900          45.350
 105261957.176 7  81870458.388 7                  19746861.740    19746867.960
  19746866.800          47.950          42.850
 119236049.442 7  92739133.823 6                  22282055.760    22282058.140
  22282057.020          46.350          41.350
 148727344.695 7                 111062650.225 6  28301869.340
                        44.350
 15  1 27 22  3 30.0000000  0 18G14G31G06G24G12G25G29G02R02R20R01R08
                                R11R09R19R10R21E19
 113656813.642 8  88563752.51347                  21628163.800
  21628159.300          48.600          43.950
 122658688.735 8  95578199.213 7                  23341168.720    23341164.080
  23341163.320          48.600          43.150
 131209217.907 7 102240955.691 6  97980912.629 7  24968281.480    24968279.960
  24968279.100          42.950          38.500
 119125691.286 8  92825300.210 7  88957597.019 8  22668832.700    22668831.360
  22668830.780          48.700          46.750
 113490765.943 8  88434474.599 7                  21596507.860    21596503.180
  21596502.520          50.800          46.950
 107499733.697 8  83766135.284 8  80275908.533 8  20456474.500    20456472.800
  20456471.980          49.950          49.400
 108447151.931 8  84504430.956 8                  20636739.640    20636735.940
  20636735.220          50.050          48.300
 122820370.679 8  95704176.14947                  23371930.300
  23371922.940          48.250          42.000
 130942345.584 6 101844039.373 6                  24538539.120    24538541.720
  24538541.080          41.250          36.650
 104523573.261 7  81296144.938 7                  19546384.700    19546388.640
  19546386.440          44.600          46.900
 125803700.791 6  97847345.347 5                  23534187.240    23534191.640
  23534191.380          41.950          35.550
 128916937.698 7 100268730.857 6                  24074332.900    24074335.580
  24074334.380          42.950          37.250
 121921001.802 7  94827468.011 6                  22815848.440    22815852.140
  22815850.580          43.600          37.100
 111065086.796 7  86383901.931 6                  20798887.820    20798891.160
  20798888.780          47.550          36.950
 111204053.835 8  86492042.754 7                  20788369.900    20788370.500
  20788368.920          48.950          45.700
 105255394.443 7  81865354.049 7                  19745630.580    19745636.760
  19745635.660          47.600          43.000
 119214706.274 7  92722533.579 6                  22278067.240    22278069.620
  22278068.520          46.150          41.300
 148739994.398 7                 111072096.366 6  28304276.500
                        44.100
 15  1 27 22  3 35.0000000  0 18G14G31G06G24G12G25G29G02R02R20R01R08
                                R11R09R19R10R21E19
 113659140.627 8  88565565.74847                  21628606.600
  21628602.100          48.650          43.900
 122643671.052 8  95566497.122 7                  23338310.980    23338306.320
  23338305.580          48.400          43.100
 131217977.184 7 102247781.106 6  97987453.655 7  24969948.320    24969946.800
  24969945.920          42.850          38.500
 119140139.397 8  92836558.476 7  88968386.191 8  22671582.120    22671580.780
  22671580.180          48.700          46.650
 113500796.450 8  88442290.575 7                  21598416.700    21598411.940
  21598411.340          50.700          46.950
 107499643.610 8  83766065.089 8  80275841.265 8  20456457.360    20456455.660
  20456454.840          49.850          49.300
 108437556.851 8  84496954.276 8                  20634913.760    20634910.040
  20634909.340          50.100          48.300
 122819226.261 8  95703284.39946                  23371712.520
  23371705.160          48.350          41.050
 130934708.445 6 101838099.374 6                  24537107.900    24537110.600
  24537109.880          41.350          36.900
 104515572.819 7  81289922.374 7                  19544888.620    19544892.540
  19544890.320          44.750          47.000
 125810347.332 6  97852514.881 5                  23535430.580    23535435.060
  23535434.720          41.850          35.050
 128933517.539 7 100281626.269 6                  24077429.080    24077431.740
  24077430.540          42.300          37.250
 121904439.529 7  94814586.220 6                  22812748.960    22812752.740
  22812751.100          43.750          37.000
 111074556.167 7  86391266.991 6                  20800661.120    20800664.460
  20800662.040          47.400          36.950
 111217260.753 8  86502314.803 7                  20790838.840    20790839.420
  20790837.820          49.000          45.700
 105248841.593 8  81860257.367 7                  19744401.280    19744407.440
  19744406.360          48.250          42.800
 119193370.767 7  92705939.300 6                  22274080.160    22274082.540
  22274081.440          46.200          41.350
 148752642.851 7                 111081541.570 6  28306683.460
                        43.600
 15  1 27 22  3 40.0000000  0 18G14G31G06G24G12G25G29G02R02R20R01R08
                                R11R09R19R10R21E19
 113661482.801 8  88567390.82047                  21629052.300
  21629047.800          48.450          44.150
 122628655.277 8  95554796.518 7                  23335453.580    23335448.940
  23335448.200          48.500          43.550
 131226748.582 7 102254615.984 6  97994003.735 7  24971617.480    24971616.000
  24971614.960          43.550          38.800
 119154593.997 8  92847821.805 7  88979180.206 8  22674332.760    22674331.440
  22674330.820          48.450          46.900
 113510830.115 8  88450109.021 7                  21600326.140    21600321.320
  21600320.740          50.550          47.000
 107499559.905 8  83765999.862 8  80275778.754 8  20456441.460    20456439.740
  20456438.940          50.000          49.350
 108427974.357 8  84489487.402 8                  20633090.300    20633086.520
  20633085.860          50.150          48.400
 122818094.135 8  95702402.23346                  23371497.060
  23371489.700          48.600          41.650
 130927088.054 7 101832172.409 5                  24535679.840    24535682.620
  24535681.820          42.200          35.900
 104507592.892 7  81283715.775 7                  19543396.300    19543400.260
  19543398.040          44.850          46.900
 125817010.274 7  97857697.171 5                  23536677.000    23536681.460
  23536681.160          42.400          35.800
 128950100.396 7 100294524.046 6                  24080525.840    24080528.580
  24080527.320          42.800          37.700
 121887876.100 7  94801703.582 6                  22809649.340    22809653.140
  22809651.440          44.500          36.950
 111084034.897 7  86398639.346 6                  20802436.180    20802439.600
  20802437.100          47.750          36.800
 111230483.532 8  86512599.187 7                  20793310.700    20793311.240
  20793309.720          49.000          45.400
 105242297.245 8  81855167.331 7                  19743173.580    19743179.720
  19743178.660          48.000          42.650
 119172041.555 7  92689349.915 6                  22270094.260    22270096.580
  22270095.520          46.000          41.100
 148765288.702 7                 111090984.836 6  28309089.900
                        44.050
 15  1 27 22  3 45.0000000  0 18G14G31G06G24G12G25G29G02R02R20R01R08
                                R11R09R19R10R21E19
 113663840.773 8  88569228.19647                  21629501.040
  21629496.520          48.650          43.950
 122613642.014 8  95543097.874 7                  23332596.680    23332592.040
  23332591.280          48.550          43.650
 131235532.720 7 102261460.763 6  98000563.325 7  24973289.060    24973287.580
  24973286.540          43.400          39.550
 119169055.671 8  92859090.635 7  88989979.510 8  22677084.740    22677083.420
  22677082.820          48.500          47.000
 113520867.559 8  88457930.406 7                  21602236.240    21602231.400
  21602230.860          50.200          47.000
 107499483.231 8  83765940.110 8  80275721.494 8  20456426.880    20456425.160
  20456424.360          50.100          49.350
 108418405.095 8  84482030.832 8                  20631269.340    20631265.520
  20631264.880          50.250          48.400
 122816974.938 8  95701530.13846                  23371284.060
  23371276.700          48.500          41.050
 130919485.019 6 101826258.929 5                  24534255.080    24534257.880
  24534256.940          40.750          34.850
 104499634.158 7  81277525.652 7                  19541907.980    19541911.940
  19541909.720          45.050          46.750
 125823690.163 7  97862892.624 5                  23537926.600    23537931.140
  23537930.760          42.400          35.200
 128966686.937 7 100307424.658 6                  24083623.300    24083625.980
  24083624.760          42.950          37.250
 121871312.066 7  94788820.462 6                  22806549.500    22806553.480
  22806551.680          44.750          36.900
 111093523.641 7  86406019.479 6                  20804213.140    20804216.560
  20804214.020          47.750          37.050
 111243722.910 8  86522896.475 7                  20795785.680    20795786.220
  20795784.700          48.800          45.350
 105235762.183 8  81850084.505 7                  19741947.580    19741953.760
  19741952.660          48.650          42.700
 119150719.343 7  92672765.971 6                  22266109.640    22266111.980
  22266110.940          45.650          41.050
 148777932.622 7                 111100426.665 6  28311496.020
                        44.100
 15  1 27 22  3 50.0000000  0 18G14G31G06G24G12G25G29G02R02R20R01R08
                                R11R09R19R10R21E19
 113666216.038 8  88571079.05447                  21629953.020
  21629948.540          48.650          44.100
 122598632.792 8  95531402.384 7                  23329740.560    23329735.920
  23329735.120          48.850          43.350
 131244331.090 7 102268316.639 6  98007133.532 7  24974963.340    24974961.860
  24974960.880          43.100          39.150
 119183525.908 8  92870366.143 7  89000785.206 8  22679838.340    22679837.040
  22679836.460          48.450          46.900
 113530910.299 8  88465755.916 7                  21604147.340    21604142.460
  21604142.000          50.050          46.800
 107499415.066 8  83765886.996 8  80275670.593 8  20456413.920    20456412.180
  20456411.380          50.100          49.200
 108408850.545 8  84474585.728 8                  20629451.180    20629447.340
  20629446.700          50.050          48.250
 122815870.143 8  95700669.26146                  23371073.820
  23371066.440          48.100          41.550
 130911900.895 6 101820360.172 6                  24532833.800    24532836.780
  24532835.700          40.150          36.200
 104491698.209 7  81271353.253 7                  19540423.960    19540427.880
  19540425.640          44.950          46.800
 125830388.650 7  97868102.538 5                  23539179.580    23539184.160
  23539183.820          42.350          34.900
 128983278.723 7 100320329.372 6                  24086721.680    24086724.380
  24086723.120          42.350          37.700
 121854748.976 7  94775938.052 6                  22803449.980    22803453.800
  22803452.120          43.850          36.850
 111103023.890 7  86413408.562 6                  20805992.240    20805995.840
  20805993.120          47.950          36.650
 111256980.262 8  86533207.750 7                  20798264.000    20798264.520
  20798263.020          48.600          45.250
 105229237.918 8  81845010.079 7                  19740723.620    19740729.760
  19740728.680          48.050          42.650
 119129405.712 7  92656188.712 6                  22262126.640    22262129.040
  22262128.000          45.150          41.350
 148790576.046 7                 111109868.112 6  28313902.080
                        44.350
 15  1 27 22  3 55.0000000  0 18G14G31G06G24G12G25G29G02R02R20R01R08
                                R11R09R19R10R21E19
 113668606.031 8  88572941.38247                  21630407.820
  21630403.340          48.650          43.850
 122583625.057 8  95519708.037 7                  23326884.740    23326880.060
  23326879.260          48.500          43.450
 131253141.114 7 102275181.585 6  98013712.454 7  24976639.820    24976638.340
  24976637.320          43.300          38.750
 119198002.138 8  92881646.316 7  89011595.382 8  22682593.080    22682591.780
  22682591.220          48.450          46.850
 113540955.746 8  88473583.531 7                  21606058.880    21606054.080
  21606053.620          49.800          46.750
 107499352.833 8  83765838.503 8  80275624.120 8  20456402.080    20456400.340
  20456399.540          50.050          49.200
 108399308.157 8  84467150.097 8                  20627635.340    20627631.440
  20627630.820          49.800          48.250
 122814777.201 8  95699817.60546                  23370865.800
  23370858.400          48.100          41.450
 130904333.106 6 101814474.124 5                  24531415.580    24531418.520
  24531417.520          40.350          35.700
 104483782.278 7  81265196.414 7                  19538943.660    19538947.540
  19538945.320          44.650          46.800
 125837102.960 7  97873324.785 5                  23540435.560    23540440.220
  23540439.900          42.100          35.050
 128999873.055 7 100333236.016 6                  24089820.560    24089823.160
  24089822.000          42.900          37.950
 121838184.283 7  94763054.406 6                  22800350.140    22800353.920
  22800352.260          44.250          36.400
 111112533.079 7  86420804.595 6                  20807773.040    20807776.500
  20807773.900          47.850          37.050
 111270253.009 8  86543530.994 7                  20800745.200    20800745.720
  20800744.220          48.050          45.450
 105222721.939 8  81839942.083 7                  19739501.240    19739507.460
  19739506.260          48.550          42.750
 119108098.041 7  92639616.084 6                  22258144.760    22258147.180
  22258146.160          45.150          41.500
 148803216.466 7                 111119307.338 6  28316307.540
                        44.300
 15  1 27 22  4  0.0000000  0 18G14G31G06G24G12G25G29G02R02R20R01R08
                                R11R09R19R10R21E19
 113671013.331 8  88574817.18847                  21630865.900
  21630861.440          48.950          43.050
 122568621.360 8  95508016.841 7                  23324029.640    23324024.980
  23324024.160          48.400          43.550
 131261965.367 7 102282057.629 6  98020301.992 7  24978319.020    24978317.480
  24978316.580          43.200          38.300
 119212487.018 8  92892933.225 7  89022412.009 8  22685349.480    22685348.180
  22685347.620          48.250          46.850
 113551006.482 8  88481415.271 7                  21607971.360    21607966.680
  21607966.200          49.350          46.650
 107499299.118 8  83765796.642 8  80275584.009 8  20456391.840    20456390.120
  20456389.320          50.000          49.200
 108389780.515 8  84459725.960 8                  20625822.280    20625818.380
  20625817.760          50.000          48.150
 122813698.665 8  95698977.19446                  23370660.540
  23370653.160          48.400          41.600
 130896784.217 6 101808602.760 6                  24530000.820    24530003.800
  24530002.860          40.100          36.200
 104475889.271 7  81259057.409 7                  19537467.620    19537471.500
  19537469.280          44.550          46.800
 125843835.928 7  97878561.517 5                  23541695.040    23541699.720
  23541699.340          42.100          34.600
 129016472.472 7 100346146.666 6                  24092920.440    24092922.980
  24092921.880          43.250          39.250
 121821620.645 7  94750171.568 6                  22797250.480    22797254.420
  22797252.600          44.050          36.750
 111122053.809 8  86428209.591 6                  20809555.980    20809559.440
  20809556.860          48.000          36.800
 111283543.780 8  86553868.248 7                  20803229.780    20803230.280
  20803228.780          48.350          45.600
 105216216.827 8  81834882.549 7                  19738280.840    19738287.120
  19738285.920          48.300          42.850
 119086798.971 7  92623050.140 6                  22254164.480    22254166.900
  22254165.940          44.750          41.650
 148815856.411 7                 111128746.170 6  28318712.920
                        44.050
 15  1 27 22  4  5.0000000  0 18G14G31G06G24G12G25G29G02R02R20R01R08
                                R11R09R19R10R21E19
 113673435.508 8  88576704.59547                  21631326.820
  21631322.380          48.700          43.650
 122553619.275 8  95496326.916 7                  23321174.820    23321170.140
  23321169.400          48.000          43.600
 131270801.400 7 102288942.863 6  98026900.343 7  24980000.460    24979998.880
  24979998.020          42.950          38.900
 119226978.001 8  92904224.896 7  89033233.195 8  22688107.020    22688105.740
  22688105.180          48.300          46.800
 113561060.059 8  88489249.213 7                  21609884.360    21609879.820
  21609879.300          49.100          46.400
 107499251.487 8  83765759.524 8  80275548.434 8  20456382.820    20456381.060
  20456380.260          49.850          49.250
 108380265.172 8  84452311.411 8                  20624011.560    20624007.680
  20624007.060          50.050          48.350
 122812632.103 8  95698146.10446                  23370457.560
  23370450.200          48.050          41.300
 130889251.883 6 101802744.310 6                  24528589.200    24528592.160
  24528591.340          41.500          36.000
 104468016.422 7  81252934.078 7                  19535995.340    19535999.240
  19535997.020          44.800          47.000
 125850584.907 7  97883810.712 5                  23542957.520    23542962.220
  23542961.800          42.850          35.100
 129033074.590 7 100359059.401 6                  24096020.800    24096023.440
  24096022.320          42.700          39.400
 121805055.377 7  94737287.490 6                  22794150.520    22794154.500
  22794152.620          44.550          36.900
 111131583.613 8  86435621.658 6                  20811340.640    20811344.200
  20811341.500          48.350          37.050
 111296850.051 8  86564217.580 7                  20805717.280    20805717.760
  20805716.240          48.500          45.550
 105209720.006 8  81829829.462 7                  19737062.000    19737068.340
  19737067.100          48.100          42.900
 119065505.968 7  92606488.930 6                  22250185.360    22250187.900
  22250186.860          45.400          41.850
 148828493.423 7                 111138182.825 6  28321117.680
                        44.000
 15  1 27 22  4 10.0000000  0 18G14G31G06G24G12G25G29G02R02R20R01R08
                                R11R09R19R10R21E19
 113675875.592 8  88578605.96147                  21631791.140
  21631786.700          48.500          43.850
 122538621.950 8  95484640.702 7                  23318320.900    23318316.280
  23318315.500          48.100          43.750
 131279652.317 7 102295839.694 6  98033509.781 7  24981684.700    24981683.160
  24981682.460          42.700          39.100
 119241478.286 7  92915523.826 7  89044061.333 8  22690866.340    22690865.060
  22690864.500          47.950          46.850
 113571119.505 8  88497087.738 7                  21611798.480    21611794.060
  21611793.520          49.150          46.350
 107499212.988 8  83765729.525 8  80275519.685 8  20456375.500    20456373.720
  20456372.940          49.850          49.250
 108370765.219 8  84444908.853 8                  20622203.760    20622199.880
  20622199.260          50.150          48.300
 122811580.655 7  95697326.79647                  23370257.460
  23370250.080          47.800          42.050
 130881739.137 7 101796901.068 6                  24527181.360    24527184.180
  24527183.500          42.250          37.350
 104460167.019 7  81246828.993 7                  19534527.460    19534531.360
  19534529.140          45.100          46.900
 125857352.996 7  97889074.792 5                  23544223.620    23544228.320
  23544227.920          43.300          35.200
 129049682.502 7 100371976.662 6                  24099122.220    24099124.880
  24099123.820          42.850          38.750
 121788491.822 7  94724404.725 6                  22791050.880    22791054.900
  22791052.980          44.000          37.550
 111141125.548 8  86443043.164 6                  20813127.560    20813131.100
  20813128.400          48.350          36.900
 111310174.959 8  86574581.400 7                  20808208.240    20808208.760
  20808207.160          48.850          45.000
 105203234.649 7  81824785.308 7                  19735845.300    19735851.740
  19735850.460          47.800          42.500
 119044222.252 7  92589934.937 6                  22246208.040    22246210.520
  22246209.520          45.400          41.550
 148841130.572 7                 111147619.602 6  28323522.440
                        43.950
 15  1 27 22  4 15.0000000  0 18G14G31G06G24G12G25G29G02R02R20R01R08
                                R11R09R19R10R21E19
 113678330.408 8  88580518.79447                  21632258.260
  21632253.820          48.400          43.550
 122523626.152 7  95472955.664 7                  23315467.280    23315462.720
  23315461.900          47.900          43.700
 131288514.844 7 102302745.559 6  98040127.904 7  24983371.160    24983369.660
  24983368.940          42.900          39.400
 119255984.525 8  92926827.379 7  89054893.907 8  22693626.780    22693625.500
  22693624.940          48.050          46.800
 113581181.582 8  88504928.311 7                  21613713.120    21613708.800
  21613708.220          49.550          46.400
 107499180.465 8  83765704.178 8  80275495.386 8  20456369.360    20456367.540
  20456366.760          49.800          49.350
 108361277.481 8  84437515.816 8                  20620398.300    20620394.400
  20620393.800          50.050          48.400
 122810541.091 8  95696516.73646                  23370059.620
  23370052.240          48.000          41.700
 130874242.663 7 101791070.484 6                  24525776.560    24525779.360
  24525778.700          42.550          37.350
 104452337.845 7  81240739.635 7                  19533063.380    19533067.280
  19533065.040          45.000          47.000
 125864136.948 7  97894351.186 5                  23545492.700    23545497.380
  23545497.020          43.400          35.600
 129066292.854 7 100384895.785 6                  24102224.100    24102226.820
  24102225.740          42.950          38.950
 121771926.637 7  94711520.715 6                  22787950.920    22787955.020
  22787953.040          43.700          37.200
 111150676.508 8  86450471.684 6                  20814916.180    20814919.640
  20814917.000          48.050          36.750
 111323515.258 8  86584957.189 7                  20810702.120    20810702.560
  20810700.940          48.950          45.050
 105196757.594 7  81819747.593 7                  19734630.160    19734636.640
  19734635.340          47.700          42.700
 119022944.509 7  92573385.587 6                  22242231.820    22242234.300
  22242233.260          45.400          41.300
 148853764.681 7                 111157054.111 6  28325926.640
                        43.650
 15  1 27 22  4 20.0000000  0 18G14G31G06G24G12G25G29G02R02R20R01R08
                                R11R09R19R10R21E19
 113680802.051 8  88582444.75247                  21632728.580
  21632724.160          48.250          44.100
 122508633.998 7  95461273.483 7                  23312614.360    23312609.840
  23312609.040          47.900          43.750
 131297391.149 7 102309662.166 6  98046756.321 7  24985060.240    24985058.740
  24985058.120          42.350          39.100
 119270498.910 7  92938137.291 7  89065732.560 8  22696388.760    22696387.500
  22696386.920          47.850          46.650
 113591248.493 8  88512772.662 7                  21615628.720    21615624.440
  21615623.840          49.750          46.500
 107499156.019 8  83765685.135 8  80275477.141 8  20456364.720    20456362.920
  20456362.140          49.800          49.400
 108351804.074 8  84430133.950 8                  20618595.560    20618591.680
  20618591.060          49.700          48.250
 122809515.515 8  95695717.60646                  23369864.440
  23369857.080          48.050          41.350
 130866764.740 7 101785254.338 6                  24524375.220    24524378.040
  24524377.340          42.100          36.950
 104444530.986 7  81234667.638 7                  19531603.480    19531607.360
  19531605.120          45.000          47.100
 125870939.002 7  97899641.665 5                  23546765.140    23546769.780
  23546769.500          42.400          34.950
 129082907.838 6 100397818.523 6                  24105326.860    24105329.580
  24105328.540          41.950          39.350
 121755361.979 7  94698637.106 6                  22784851.080    22784855.220
  22784853.200          43.600          37.700
 111160238.514 8  86457908.804 6                  20816706.860    20816710.320
  20816707.660          48.150          36.950
 111336872.976 8  86595346.540 7                  20813199.200    20813199.660
  20813197.980          48.600          45.100
 105190290.870 7  81814717.935 7                  19733416.980    19733423.520
  19733422.180          47.850          42.600
 119001674.992 7  92556842.647 6                  22238257.120    22238259.580
  22238258.560          45.600          41.500
 148866397.852 7                 111166487.888 6  28328330.720
                        43.000
 15  1 27 22  4 25.0000000  0 18G14G31G06G24G12G25G29G02R02R20R01R08
                                R11R09R19R10R21E19
 113683290.460 8  88584383.77647                  21633202.080
  21633197.700          48.350          44.150
 122493645.439 8  95449594.088 7                  23309762.140    23309757.620
  23309756.820          48.250          43.800
 131306281.171 7 102316589.436 6  98053394.958 7  24986751.900    24986750.420
  24986749.800          42.550          38.900
 119285021.353 8  92949453.470 7  89076577.248 8  22699152.300    22699151.040
  22699150.420          48.300          46.650
 113601320.213 8  88520620.742 7                  21617545.300    21617541.000
  21617540.360          50.100          46.350
 107499139.583 8  83765672.324 8  80275464.870 8  20456361.560    20456359.780
  20456359.020          49.900          49.550
 108342344.989 8  84422763.231 8                  20616795.520    20616791.660
  20616791.040          49.550          48.200
 122808503.913 7  95694929.34346                  23369671.920
  23369664.580          47.950          41.900
 130859305.315 7 101779452.573 6                  24522977.320    24522980.140
  24522979.380          42.600          36.100
 104436746.434 7  81228612.990 7                  19530147.760    19530151.620
  19530149.380          44.800          47.100
 125877759.007 7  97904946.111 5                  23548041.000    23548045.480
  23548045.300          42.850          35.500
 129099527.440 7 100410744.849 6                  24108430.540    24108433.120
  24108432.220          42.450          38.800
 121738797.863 7  94685753.925 6                  22781751.360    22781755.480
  22781753.520          43.250          37.550
 111169811.574 8  86465354.511 6                  20818499.620    20818502.900
  20818500.360          48.150          37.300
 111350248.133 8  86605749.426 7                  20815699.540    20815700.000
  20815698.320          48.350          45.350
 105183834.562 7  81809696.368 7                  19732205.760    19732212.300
  19732210.960          47.750          42.700
 118980413.677 7  92540306.070 6                  22234283.940    22234286.380
  22234285.380          45.700          41.350
 148879029.995 7                 111175920.933 6  28330734.580
                        42.550
 15  1 27 22  4 30.0000000  0 18G14G31G06G24G12G25G29G02R02R20R01R08
                                R11R09R19R10R21E19
 113685793.381 8  88586334.09647                  21633678.340
  21633674.000          48.800          43.050
 122478658.259 8  95437915.766 7                  23306910.160    23306905.680
  23306904.860          48.100          43.550
 131315182.597 7 102323525.618 6  98060042.129 7  24988445.680    24988444.380
  24988443.760          42.500          39.000
 119299549.550 8  92960774.143 7  89087426.216 8  22701916.940    22701915.700
  22701915.020          48.350          46.650
 113611394.476 8  88528470.820 7                  21619462.420    21619458.040
  21619457.380          50.300          46.550
 107499128.887 8  83765663.991 8  80275456.882 8  20456359.540    20456357.760
  20456357.020          49.750          49.550
 108332897.930 8  84415401.884 8                  20614997.780    20614993.940
  20614993.300          49.550          48.100
 122807504.051 8  95694150.21946                  23369481.620
  23369474.340          48.300          41.050
 130851862.024 7 101773663.341 6                  24521582.460    24521585.240
  24521584.460          42.750          37.000
 104428981.889 7  81222573.904 7                  19528695.720    19528699.600
  19528697.360          44.750          47.000
 125884594.598 7  97910262.698 5                  23549319.800    23549324.180
  23549324.020          42.800          35.300
 129116149.211 7 100423672.889 6                  24111534.460    24111537.120
  24111536.280          42.700          38.250
 121722232.002 7  94672869.361 6                  22778651.320    22778655.540
  22778653.440          43.800          36.950
 111179393.388 8  86472807.033 6                  20820294.000    20820297.280
  20820294.740          48.300          37.350
 111363638.453 8  86616164.111 7                  20818202.720    20818203.160
  20818201.480          48.550          45.400
 105177386.433 8  81804681.149 7                  19730996.060    19731002.680
  19731001.280          48.100          42.650
 118959158.234 7  92523774.053 6                  22230311.880    22230314.320
  22230313.260          45.600          41.350
 148891658.870 7                 111185351.504 6  28333137.740
                        42.850
 15  1 27 22  4 35.0000000  0 18G14G31G06G24G12G25G29G02R02R20R01R08
                                R11R09R19R10R21E19
 113688313.418 8  88588297.75047                  21634157.840
  21634153.560          48.650          43.800
 122463675.005 7  95426240.511 7                  23304058.920    23304054.460
  23304053.600          47.950          43.650
 131324098.043 6 102330472.723 6  98066699.771 7  24990142.200    24990140.980
  24990140.220          41.550          38.200
 119314086.131 8  92972101.345 7  89098281.460 8  22704683.160    22704681.920
  22704681.220          48.350          46.700
 113621473.865 8  88536324.889 7                  21621380.540    21621376.080
  21621375.420          50.300          46.600
 107499126.538 8  83765662.163 8  80275455.126 8  20456359.120    20456357.320
  20456356.600          49.850          49.700
 108323465.509 8  84408051.940 8                  20613202.840    20613198.980
  20613198.340          49.700          48.250
 122806518.487 8  95693382.25846                  23369294.060
  23369286.820          48.100          41.700
 130844437.647 7 101767888.788 6                  24520191.140    24520193.880
  24520193.080          43.050          36.050
 104421239.969 7  81216552.405 7                  19527247.940    19527251.820
  19527249.560          44.700          47.050
 125891448.470 7  97915593.481 5                  23550601.940    23550606.340
  23550606.160          42.750          35.600
 129132775.922 7 100436604.738 6                  24114639.320    24114642.000
  24114641.200          42.950          37.700
 121705666.945 7  94659985.415 6                  22775551.400    22775555.640
  22775553.480          44.100          37.150
 111188986.566 8  86480268.383 6                  20822090.540    20822093.740
  20822091.240          48.350          37.100
 111377046.439 8  86626592.544 7                  20820709.240    20820709.640
  20820707.960          48.750          45.400
 105170948.953 8  81799674.217 7                  19729788.380    19729794.960
  19729793.620          48.000          42.850
 118937911.305 7  92507248.676 6                  22226341.420    22226343.820
  22226342.740          45.700          41.200
 148904287.075 7                 111194781.550 6  28335540.880
                        42.950
 15  1 27 22  4 40.0000000  0 18G14G31G06G24G12G25G29G02R02R20R01R08
                                R11R09R19R10R21E19
 113690850.470 8  88590274.67647                  21634640.600
  21634636.340          48.350          44.150
 122448695.634 7  95414568.276 7                  23301208.440    23301203.920
  23301203.080          47.950          43.550
 131333027.394 6 102337430.663 6  98073367.779 7  24991841.360    24991840.160
  24991839.440          41.400          38.750
 119328631.039 8  92983435.052 7  89109142.915 8  22707450.960    22707449.700
  22707449.000          48.250          46.800
 113631558.225 8  88544182.834 7                  21623299.640    21623295.100
  21623294.400          50.600          46.750
 107499132.418 8  83765666.751 8  80275459.521 8  20456360.240    20456358.460
  20456357.740          49.750          49.700
 108314047.598 8  84400713.316 8                  20611410.660    20611406.800
  20611406.140          49.800          48.350
 122805547.091 7  95692625.33446                  23369109.160
  23369101.940          47.600          41.300
 130837031.931 7 101762128.787 6                  24518803.300    24518805.960
  24518805.240          42.200          36.450
 104413520.608 7  81210548.463 7                  19525804.420    19525808.260
  19525806.000          44.700          47.100
 125898320.559 7  97920938.432 5                  23551887.540    23551891.940
  23551891.740          43.050          35.600
 129149407.302 7 100449540.244 6                  24117745.120    24117747.760
  24117746.960          42.650          37.750
 121689102.631 7  94647102.089 6                  22772451.600    22772455.860
  22772453.740          44.400          36.900
 111198591.038 8  86487738.544 6                  20823889.200    20823892.280
  20823889.840          48.250          37.100
 111390472.021 8  86637034.666 7                  20823219.040    20823219.440
  20823217.720          48.650          45.600
 105164522.082 7  81794675.561 7                  19728582.720    19728589.340
  19728587.980          47.650          42.750
 118916672.821 7  92490729.857 6                  22222372.560    22222374.800
  22222373.760          45.400          41.350
 148916914.419 7                 111204211.006 6  28337943.820
                        42.650
 15  1 27 22  4 45.0000000  0 18G14G31G06G24G12G25G29G02R02R20R01R08
                                R11R09R19R10R21E19
 113693401.656 8  88592262.60747                  21635126.040
  21635121.840          48.650          43.550
 122433717.224 8  95402896.784 7                  23298358.140    23298353.600
  23298352.740          48.700          43.500
 131341967.746 7 102344397.155 6  98080044.022 7  24993542.600    24993541.500
  24993540.680          43.250          39.100
 119343181.321 8  92994772.921 7  89120008.381 8  22710219.800    22710218.520
  22710217.820          49.000          46.700
 113641644.693 8  88552042.422 7                  21625219.160    21625214.500
  21625213.800          51.000          46.800
 107499143.656 8  83765675.504 8  80275467.917 8  20456362.380    20456360.620
  20456359.900          50.250          49.650
 108304641.339 8  84393383.766 8                  20609620.680    20609616.840
  20609616.180          50.300          48.350
 122804587.012 8  95691877.22247                  23368926.440
  23368919.240          48.400          42.000
 130829642.045 7 101756381.131 5                  24517418.420    24517421.180
  24517420.400          43.200          35.650
 104405820.840 7  81204559.748 7                  19524364.540    19524368.360
  19524366.120          46.150          47.200
 125905207.860 7  97926295.206 5                  23553175.980    23553180.340
  23553180.120          44.100          35.000
 129166040.410 7 100462477.076 6                  24120851.180    24120853.800
  24120852.980          43.900          37.700
 121672536.177 7  94634217.086 6                  22769351.380    22769355.600
  22769353.520          44.900          36.600
 111208203.888 8  86495215.205 6                  20825689.400    20825692.460
  20825690.000          49.200          36.750
 111403912.231 8  86647488.163 7                  20825731.560    20825731.980
  20825730.260          49.700          45.550
 105158102.942 8  81789682.885 7                  19727378.520    19727385.120
  19727383.740          48.950          42.850
 118895439.856 7  92474215.333 6                  22218404.740    22218406.920
  22218405.840          46.650          41.300
 148929538.099 7                 111213637.712 6  28340346.080
                        43.600
 15  1 27 22  4 50.0000000  0 18G14G31G06G24G12G25G29G02R02R20R01R08
                                R11R09R19R10R21E19
 113695969.923 8  88594263.85847                  21635614.720
  21635610.580          48.250          44.750
 122418742.757 8  95391228.380 7                  23295508.580    23295504.080
  23295503.160          48.450          43.350
 131350922.074 7 102351374.549 6  98086730.710 7  24995246.520    24995245.500
  24995244.580          43.100          39.200
 119357739.921 8  93006117.295 7  89130880.057 8  22712990.200    22712988.920
  22712988.180          48.750          46.700
 113651736.200 8  88559905.944 7                  21627139.600    21627134.860
  21627134.200          51.000          46.950
 107499163.205 8  83765690.749 8  80275482.517 8  20456366.040    20456364.340
  20456363.620          50.200          49.750
 108295249.671 8  84386065.601 8                  20607833.500    20607829.640
  20607829.000          50.000          48.400
 122803641.234 8  95691140.26946                  23368746.420
  23368739.260          48.650          41.650
 130822270.934 7 101750648.036 5                  24516037.040    24516039.920
  24516039.080          43.650          35.950
 104398143.760 7  81198588.695 7                  19522928.900    19522932.740
  19522930.480          45.950          47.350
 125912113.389 7  97931666.186 5                  23554467.860    23554472.160
  23554471.900          43.900          35.000
 129182678.329 7 100475417.680 6                  24123958.280    24123960.800
  24123959.900          44.000          36.950
 121655970.653 7  94621332.804 6                  22766251.380    22766255.500
  22766253.500          44.800          36.900
 111217828.058 8  86502700.684 6                  20827491.740    20827494.760
  20827492.300          49.050          37.000
 111417370.159 8  86657955.448 7                  20828247.380    20828247.820
  20828246.080          49.300          45.550
 105151694.550 8  81784698.595 7                  19726176.340    19726182.920
  19726181.560          48.400          42.700
 118874215.493 7  92457707.508 6                  22214438.480    22214440.660
  22214439.540          47.000          41.300
 148942161.017 7                 111223063.862 6  28342748.220
                        43.050
 15  1 27 22  4 55.0000000  0 18G14G31G06G24G12G25G29G02R02R20R01R08
                                R11R09R19R10R21E19
 113698554.050 8  88596277.46247                  21636106.440
  21636102.340          48.100          44.600
 122403771.103 8  95379562.152 7                  23292659.560    23292655.060
  23292654.140          48.100          43.250
 131359889.154 7 102358361.882 6  98093426.905 7  24996952.860    24996951.800
  24996950.980          42.750          38.950
 119372305.702 8  93017467.249 7  89141757.098 8  22715761.960    22715760.680
  22715759.920          48.650          46.700
 113661831.599 8  88567772.491 7                  21629060.800    21629055.980
  21629055.320          50.850          46.950
 107499189.872 8  83765711.522 8  80275502.426 8  20456371.120    20456369.400
  20456368.720          50.100          49.700
 108285871.437 8  84378757.893 8                  20606048.840    20606045.020
  20606044.380          50.050          48.450
 122802708.510 8  95690413.46746                  23368568.940
  23368561.800          48.700          41.200
 130814917.443 7 101744928.627 6                  24514658.980    24514662.000
  24514661.000          44.400          36.300
 104390488.122 7  81192634.303 7                  19521497.240    19521501.080
  19521498.840          45.650          47.050
 125919035.780 7  97937050.268 5                  23555762.860    23555767.100
  23555766.880          43.300          35.350
 129199319.814 7 100488361.030 6                  24127066.000    24127068.540
  24127067.540          43.150          38.000
 121639404.720 7  94608448.166 6                  22763151.300    22763155.380
  22763153.380          45.050          36.350
 111227462.420 8  86510194.064 6                  20829296.000    20829299.040
  20829296.500          48.900          36.600
 111430844.404 8  86668435.410 7                  20830766.260    20830766.700
  20830764.960          49.050          45.300
 105145295.750 8  81779721.739 7                  19724975.940    19724982.460
  19724981.160          48.400          42.400
 118852998.488 7  92441205.383 6                  22210473.600    22210475.680
  22210474.640          46.750          41.950
 148954782.004 7                 111232488.523 6  28345149.980
                        42.700
 15  1 27 22  5  0.0000000  0 18G14G31G06G24G12G25G29G02R02R20R01R08
                                R11R09R19R10R21E19
 113701154.134 8  88598303.50347                  21636601.220
  21636597.120          48.400          44.400
 122388802.323 8  95367898.176 7                  23289811.060    23289806.520
  23289805.640          48.350          43.050
 131368869.103 7 102365359.243 6  98100132.706 7  24998661.640    24998660.640
  24998659.860          42.350          39.200
 119386878.728 8  93028822.849 7  89152639.554 8  22718535.120    22718533.800
  22718533.080          48.400          46.700
 113671930.981 8  88575642.141 7                  21630982.700    21630977.860
  21630977.220          50.550          46.900
 107499223.759 8  83765737.924 8  80275527.737 8  20456377.580    20456375.840
  20456375.160          49.850          49.650
 108276506.725 8  84371460.710 8                  20604266.800    20604262.960
  20604262.320          49.900          48.400
 122801788.995 8  95689696.95946                  23368393.960
  23368386.820          48.450          41.500
 130807581.732 7 101739223.052 5                  24513284.320    24513287.260
  24513286.240          43.150          34.600
 104382853.919 7  81186696.588 7                  19520069.600    19520073.420
  19520071.200          45.200          46.850
 125925975.272 7  97942447.645 5                  23557061.160    23557065.320
  23557065.100          43.300          35.200
 129215964.852 7 100501307.104 6                  24130174.380    24130176.900
  24130175.900          42.350          37.750
 121622838.498 7  94595563.336 5                  22760051.080    22760055.200
  22760053.240          44.200          35.500
 111237106.936 8  86517695.348 6                  20831102.140    20831105.060
  20831102.580          48.650          36.700
 111444335.221 8  86678928.266 7                  20833288.200    20833288.680
  20833286.940          48.900          45.250
 105138906.610 8  81774752.407 7                  19723777.400    19723783.920
  19723782.560          48.400          42.600
 118831788.962 7  92424709.095 7                  22206510.080    22206512.240
  22206511.160          46.700          42.200
 148967401.126 7                 111241911.832 6  28347551.360
                        42.650
 15  1 27 22  5  5.0000000  0 18G14G31G06G24G12G25G29G02R02R20R01R08
                                R11R09R19R10R21E19
 113703770.413 8  88600342.17347                  21637099.080
  21637095.000          48.600          44.100
 122373836.623 8  95356236.592 7                  23286963.180    23286958.620
  23286957.720          48.000          43.300
 131377862.111 7 102372366.775 6  98106848.273 7  25000372.900    25000371.980
  25000371.100          42.050          39.000
 119401459.170 8  93040184.241 7  89163527.545 8  22721309.700    22721308.360
  22721307.660          48.050          46.700
 113682034.549 8  88583515.071 7                  21632905.380    21632900.500
  21632899.900          50.150          47.100
 107499265.068 8  83765770.121 8  80275558.586 8  20456385.400    20456383.720
  20456383.040          49.850          49.700
 108267155.802 8  84364174.287 8                  20602487.360    20602483.540
  20602482.880          49.850          48.450
 122800882.879 8  95688990.90046                  23368221.540
  23368214.420          48.400          41.900
 130800264.013 7 101733531.517 5                  24511913.100    24511915.780
  24511914.800          42.350          34.500
 104375241.603 7  81180775.910 7                  19518646.080    19518649.880
  19518647.640          44.750          46.950
 125932932.223 7  97947858.633 5                  23558362.620    23558366.760
  23558366.560          42.800          35.550
 129232613.674 7 100514256.175 6                  24133283.420    24133285.980
  24133284.960          42.700          38.700
 121606272.312 7  94582678.543 5                  22756950.900    22756954.940
  22756953.080          43.850          35.750
 111246762.049 7  86525204.889 6                  20832910.240    20832913.200
  20832910.660          47.850          36.400
 111457842.686 8  86689434.082 7                  20835813.240    20835813.740
  20835812.060          48.850          45.250
 105132527.277 8  81769790.719 7                  19722580.640    19722587.140
  19722585.820          48.250          42.900
 118810587.146 7  92408218.808 7                  22202548.040    22202550.240
  22202549.140          46.000          42.100
 148980018.563 7                 111251333.909 6  28349952.460
                        42.000
 15  1 27 22  5 10.0000000  0 18G14G31G06G24G12G25G29G02R02R20R01R08
                                R11R09R19R10R21E19
 113706402.548 8  88602393.17647                  21637599.980
  21637595.880          48.950          43.800
 122358873.654 8  95344577.137 7                  23284115.820    23284111.240
  23284110.340          48.150          43.350
 131386867.786 7 102379384.189 6  98113573.306 7  25002086.600    25002085.700
  25002084.720          42.250          39.250
 119416046.726 8  93051551.157 7  89174420.841 8  22724085.640    22724084.260
  22724083.600          48.350          46.750
 113692141.929 8  88591390.944 7                  21634828.740    21634823.880
  21634823.320          49.950          47.100
 107499313.441 8  83765807.808 8  80275594.706 8  20456394.600    20456392.920
  20456392.260          49.800          49.650
 108257818.250 8  84356898.275 8                  20600710.460    20600706.640
  20600705.980          49.900          48.350
 122799989.778 8  95688294.97546                  23368051.600
  23368044.460          48.500          41.900
 130792963.881 6 101727853.668 6                  24510544.920    24510547.760
  24510546.720          40.450          36.650
 104367650.591 7  81174871.790 7                  19517226.540    19517230.320
  19517228.060          44.850          47.000
 125939905.975 7  97953282.652 5                  23559667.240    23559671.380
  23559671.180          42.600          35.300
 129249265.869 7 100527207.853 6                  24136393.120    24136395.800
  24136394.700          43.300          39.050
 121589705.783 7  94569793.475 5                  22753850.720    22753854.620
  22753852.840          44.000          35.900
 111256427.196 7  86532722.232 6                  20834720.200    20834723.160
  20834720.600          47.650          36.700
 111471366.480 8  86699952.588 7                  20838341.360    20838341.900
  20838340.200          48.850          45.250
 105126157.481 7  81764836.427 7                  19721385.720    19721392.200
  19721390.880          47.950          42.850
 118789392.699 7  92391734.251 7                  22198587.380    22198589.560
  22198588.480          45.750          42.450
 148992634.033 6                 111260754.425 6  28352353.160
                        41.550
 15  1 27 22  5 15.0000000  0 18G14G31G06G24G12G25G29G02R02R20R01R08
                                R11R09R19R10R21E19
 113709051.009 8  88604456.90247                  21638103.980
  21638099.880          48.700          43.950
 122343913.971 8  95332920.243 7                  23281269.080    23281264.520
  23281263.600          48.150          43.150
 131395886.691 6 102386411.905 6  98120308.195 7  25003802.860    25003801.960
  25003800.860          41.400          39.300
 119430641.909 8  93062924.019 7  89185319.834 8  22726863.040    22726861.640
  22726861.000          48.100          46.850
 113702253.608 8  88599270.164 7                  21636752.860    21636748.060
  21636747.520          49.450          47.150
 107499369.378 8  83765851.394 8  80275636.474 8  20456405.260    20456403.560
  20456402.900          49.650          49.650
 108248494.588 8  84349633.083 8                  20598936.220    20598932.420
  20598931.740          49.800          48.400
 122799110.240 8  95687609.62047                  23367884.220
  23367877.080          48.350          42.250
 130785681.775 6 101722189.804 6                  24509180.100    24509183.160
  24509182.100          39.300          36.650
 104360081.581 7  81168984.780 7                  19515811.080    19515814.880
  19515812.620          44.850          47.200
 125946897.049 7  97958720.144 5                  23560975.000    23560979.180
  23560978.960          42.850          34.700
 129265922.115 7 100540162.707 6                  24139503.540    24139506.320
  24139505.240          42.900          39.450
 121573139.331 7  94556908.472 5                  22750750.420    22750754.440
  22750752.600          44.300          35.950
 111266102.892 7  86540247.760 6                  20836532.100    20836535.140
  20836532.540          47.800          37.100
 111484907.030 8  86710484.119 7                  20840872.660    20840873.140
  20840871.500          48.900          45.400
 105119797.763 8  81759889.975 7                  19720192.640    19720199.120
  19720197.860          48.500          42.750
 118768206.135 7  92375255.810 7                  22194628.180    22194630.340
  22194629.320          45.850          42.100
 149005247.902 6                 111270173.823 6  28354753.520
                        41.250
 15  1 27 22  5 20.0000000  0 18G14G31G06G24G12G25G29G02R02R20R01R08
                                R11R09R19R10R21E19
 113711714.750 8  88606532.53647                  21638610.920
  21638606.780          48.250          44.650
 122328956.484 8  95321265.057 7                  23278422.780    23278418.220
  23278417.300          48.100          43.450
 131404917.703 6 102393449.071 6  98127052.140 7  25005521.340    25005520.480
  25005519.400          41.600          39.400
 119445243.613 8  93074301.962 7  89196223.706 8  22729641.680    22729640.240
  22729639.640          48.600          46.750
 113712368.466 8  88607151.855 7                  21638677.520    21638672.860
  21638672.340          49.300          47.000
 107499431.853 8  83765900.075 8  80275683.123 8  20456417.140    20456415.480
  20456414.800          49.600          49.700
 108239183.789 8  84342377.926 8                  20597164.420    20597160.620
  20597159.960          49.800          48.600
 122798243.228 8  95686934.02247                  23367719.260
  23367712.100          48.250          42.650
 130778416.833 6 101716539.266 6                  24507818.620    24507821.780
  24507820.720          41.900          36.050
 104352533.407 7  81163113.982 7                  19514399.540    19514403.320
  19514401.100          45.000          47.250
 125953904.443 7  97964170.331 5                  23562285.920    23562290.040
  23562289.780          42.800          35.100
 129282581.052 7 100553119.627 6                  24142614.540    24142617.380
  24142616.300          42.250          39.350
 121556571.953 7  94544022.735 5                  22747650.040    22747654.020
  22747652.160          44.750          35.700
 111275788.197 7  86547780.773 6                  20838345.840    20838349.000
  20838346.300          47.950          36.950
 111498463.334 8  86721027.909 7                  20843406.880    20843407.360
  20843405.740          48.650          45.600
 105113447.091 8  81754950.565 7                  19719001.260    19719007.780
  19719006.500          48.350          42.600
 118747026.439 7  92358782.717 7                  22190670.240    22190672.360
  22190671.400          46.250          42.100
 149017859.251 6                 111279591.307 6  28357153.400
                        41.900
 15  1 27 22  5 25.0000000  0 18G14G31G06G24G12G25G29G02R02R20R01R08
                                R11R09R19R10R21E19
 113714394.716 8  88608620.81947                  21639120.960
  21639116.780          48.300          44.750
 122314002.222 8  95309612.387 7                  23275577.080    23275572.520
  23275571.580          48.200          43.500
 131413961.866 6 102400496.471 6  98133805.879 7  25007242.320    25007241.500
  25007240.440          41.200          39.850
 119459852.770 8  93085685.720 7  89207133.137 8  22732421.740    22732420.280
  22732419.660          48.350          46.800
 113722487.560 8  88615036.857 7                  21640602.980    21640598.480
  21640597.940          48.900          47.050
 107499501.797 8  83765954.577 8  80275735.362 8  20456430.440    20456428.780
  20456428.120          49.600          49.750
 108229886.851 8  84335133.563 8                  20595395.260    20595391.480
  20595390.800          49.850          48.650
 122797389.729 8  95686268.95846                  23367556.840
  23367549.680          48.150          41.950
 130771169.919 7 101710902.811 6                  24506460.580    24506463.740
  24506462.760          42.250          36.950
 104345007.060 7  81157260.154 7                  19512992.060    19512995.860
  19512993.660          44.950          47.150
 125960929.232 7  97969634.049 5                  23563600.120    23563604.220
  23563603.900          43.400          34.700
 129299243.826 7 100566079.550 6                  24145726.140    24145729.040
  24145728.020          43.550          39.000
 121540004.681 7  94531137.061 5                  22744549.700    22744553.680
  22744551.760          44.250          35.450
 111285484.035 8  86555321.973 6                  20840161.560    20840164.700
  20840162.040          48.000          37.050
 111512036.381 8  86731584.722 7                  20845944.240    20845944.740
  20845943.120          48.500          45.700
 105107106.341 8  81750018.861 7                  19717811.740    19717818.320
  19717817.000          48.600          42.950
 118725854.592 7  92342315.721 7                  22186713.780    22186715.900
  22186714.980          46.300          42.050
 149030468.948 6                 111289007.592 6  28359552.960
                        41.800
 15  1 27 22  5 30.0000000  0 18G14G31G06G24G12G25G29G02R02R20R01R08
                                R11R09R19R10R21E19
 113717091.658 8  88610722.33247                  21639634.220
  21639630.000          48.550          44.400
 122299051.930 8  95297962.809 7                  23272732.120    23272727.580
  23272726.640          48.200          43.200
 131423019.855 6 102407554.646 6  98140569.973 7  25008965.920    25008965.140
  25008964.160          40.850          39.850
 119474470.050 8  93097075.803 7  89218048.633 8  22735203.360    22735201.860
  22735201.260          48.300          46.700
 113732611.693 8  88622925.782 7                  21642529.380    21642525.020
  21642524.500          48.750          46.750
 107499579.992 8  83766015.512 8  80275793.750 8  20456445.300    20456443.680
  20456443.000          49.650          49.650
 108220604.496 8  84327900.556 8                  20593628.880    20593625.100
  20593624.420          49.800          48.650
 122796550.486 7  95685614.99746                  23367397.120
  23367389.960          47.600          41.900
 130763941.968 6 101705281.071 6                  24505106.020    24505109.140
  24505108.320          41.800          37.550
 104337503.369 7  81151423.952 7                  19511588.820    19511592.640
  19511590.420          44.500          47.000
 125967972.019 7  97975111.785 5                  23564917.680    23564921.760
  23564921.380          43.100          35.050
 129315911.149 7 100579043.007 6                  24148838.620    24148841.580
  24148840.500          43.250          38.200
 121523438.305 7  94518252.105 5                  22741449.540    22741453.440
  22741451.520          44.950          35.500
 111295191.157 7  86562871.952 6                  20841979.380    20841982.560
  20841979.860          47.850          36.750
 111525626.787 8  86742155.041 7                  20848484.800    20848485.300
  20848483.720          48.400          45.750
 105100776.388 8  81745095.566 7                  19716624.240    19716630.820
  19716629.560          48.450          42.800
 118704691.394 7  92325855.456 7                  22182758.980    22182761.060
  22182760.100          46.600          42.050
 149043077.801 6                 111298423.204 6  28361952.320
                        41.600
 15  1 27 22  5 35.0000000  0 18G14G31G06G24G12G25G29G02R02R20R01R08
                                R11R09R19R10R21E19
 113719802.258 8  88612834.48647                  21640150.080
  21640145.820          48.650          44.000
 122284102.305 7  95286313.753 7                  23269887.320    23269882.740
  23269881.800          47.900          43.300
 131432088.354 6 102414621.026 6  98147341.904 7  25010691.540    25010690.840
  25010689.840          41.250          39.700
 119489092.344 8  93108469.798 7  89228967.882 8  22737985.920    22737984.380
  22737983.820          48.250          46.750
 113742737.474 8  88630815.994 7                  21644456.120    21644451.900
  21644451.380          49.100          46.800
 107499663.127 8  83766080.293 8  80275855.835 8  20456461.120    20456459.500
  20456458.820          49.650          49.600
 108211333.400 8  84320676.321 8                  20591864.640    20591860.880
  20591860.200          49.650          48.600
 122795722.143 7  95684969.54047                  23367239.460
  23367232.320          47.350          42.800
 130756729.384 7 101699671.253 6                  24503754.340    24503757.380
  24503756.680          43.050          37.000
 104330018.972 7  81145602.761 7                  19510189.200    19510193.000
  19510190.780          44.400          46.900
 125975029.421 7  97980600.875 5                  23566237.920    23566241.980
  23566241.580          43.600          35.150
 129332579.640 7 100592007.348 6                  24151951.380    24151954.320
  24151953.240          42.700          38.050
 121506869.484 7  94505365.263 5                  22738348.900    22738352.740
  22738350.820          45.100          35.100
 111304906.211 7  86570428.103 6                  20843798.680    20843801.860
  20843799.140          47.700          36.800
 111539231.299 8  86752736.335 7                  20851028.000    20851028.520
  20851026.980          48.350          45.750
 105094453.840 8  81740178.031 7                  19715438.120    19715444.740
  19715443.480          48.200          42.750
 118683533.440 7  92309399.271 6                  22178805.160    22178807.160
  22178806.220          46.550          41.650
 149055682.438 6                 111307835.708 6  28364350.940
                        41.650
 15  1 27 22  5 40.0000000  0 18G14G31G06G24G12G25G29G02R02R20R01R08
                                R11R09R19R10R21E19
 113722530.396 8  88614960.30247                  21640669.280
  21640664.960          49.000          43.300
 122269157.202 8  95274668.218 7                  23267043.380    23267038.780
  23267037.840          48.000          43.050
 131441171.234 6 102421698.580 6  98154124.570 7  25012419.880    25012419.220
  25012418.180          41.000          39.300
 119503723.332 8  93119870.568 7  89239893.612 8  22740770.140    22740768.560
  22740768.040          48.150          46.800
 113752868.751 8  88638710.492 7                  21646383.940    21646379.840
  21646379.260          49.350          46.650
 107499755.019 8  83766151.895 8  80275924.450 8  20456478.600    20456476.980
  20456476.320          49.750          49.650
 108202077.448 8  84313463.896 8                  20590103.280    20590099.540
  20590098.860          49.550          48.650
 122794908.592 7  95684335.59946                  23367084.600
  23367077.480          47.250          41.850
 130749536.129 7 101694076.480 6                  24502406.300    24502409.300
  24502408.580          43.400          36.450
 104322557.809 7  81139799.630 7                  19508793.860    19508797.740
  19508795.500          44.400          46.850
 125982105.436 7  97986104.428 5                  23567561.640    23567565.660
  23567565.300          43.200          35.850
 129349253.118 7 100604975.605 6                  24155064.980    24155067.900
  24155066.900          42.550          37.600
 121490302.033 7  94492479.458 5                  22735248.540    22735252.200
  22735250.420          45.000          35.350
 111314633.146 7  86577993.493 6                  20845620.200    20845623.300
  20845620.640          47.600          36.550
 111552853.681 8  86763331.514 7                  20853574.560    20853575.100
  20853573.540          48.300          45.550
 105088142.509 8  81735269.218 7                  19714254.120    19714260.720
  19714259.540          48.050          42.950
 118662384.708 7  92292950.255 6                  22174853.080    22174854.960
  22174854.060          46.000          41.750
 149068286.714 6                 111317247.898 6  28366749.460
                        41.800
 15  1 27 22  5 45.0000000  0 18G14G31G06G24G12G25G29G02R02R20R01R08
                                R11R09R19R10R21E19
 113725275.910 8  88617099.65447                  21641191.780
  21641187.420          49.350          43.400
 122254216.477 7  95263026.090 7                  23264200.260    23264195.640
  23264194.700          47.950          43.400
 131450268.331 7 102428787.243 6  98160917.847 7  25014150.940    25014150.320
  25014149.380          42.150          39.650
 119518362.928 8  93131278.037 7  89250825.774 8  22743556.000    22743554.380
  22743553.880          48.650          46.850
 113763005.418 8  88646609.191 7                  21648312.840    21648308.800
  21648308.200          49.800          46.600
 107499855.556 8  83766230.235 8  80275999.520 8  20456497.740    20456496.120
  20456495.460          49.950          49.600
 108192836.534 8  84306263.187 8                  20588344.800    20588341.060
  20588340.380          49.800          48.450
 122794109.698 7  95683713.09647                  23366932.540
  23366925.440          47.700          42.900
 130742362.238 7 101688496.783 6                  24501061.920    24501064.920
  24501064.100          42.700          36.000
 104315119.630 7  81134014.384 7                  19507402.880    19507406.740
  19507404.480          44.700          46.850
 125989199.862 7  97991622.307 5                  23568888.820    23568892.820
  23568892.520          43.800          35.800
 129365931.574 7 100617947.698 6                  24158179.600    24158182.460
  24158181.480          43.150          38.050
 121473735.825 7  94479594.637 5                  22732148.380    22732151.940
  22732150.340          44.850          35.500
 111324371.744 7  86585567.951 6                  20847443.920    20847446.980
  20847444.340          47.800          36.250
 111566493.969 8  86773940.619 7                  20856124.480    20856125.040
  20856123.460          48.650          45.550
 105081842.565 8  81730369.270 7                  19713072.300    19713078.900
  19713077.720          48.050          42.800
 118641245.127 7  92276508.367 6                  22170902.700    22170904.540
  22170903.620          46.150          41.900
 149080890.496 7                 111326659.725 6  28369147.980
                        42.350
 15  1 27 22  5 50.0000000  0 18G14G31G06G24G12G25G29G02R02R20R01R08
                                R11R09R19R10R21E19
 113728035.758 8  88619250.17647                  21641717.020
  21641712.580          49.400          43.400
 122239277.142 8  95251385.056 7                  23261357.420    23261352.740
  23261351.860          48.300          43.450
 131459376.653 7 102435884.633 6  98167719.514 7  25015884.180    25015883.520
  25015882.740          42.700          39.600
 119533008.195 8  93142689.933 7  89261762.180 8  22746342.940    22746341.260
  22746340.800          48.750          46.700
 113773144.425 8  88654509.717 7                  21650242.220    21650238.160
  21650237.560          50.100          46.350
 107499961.713 8  83766312.961 8  80276078.803 8  20456517.940    20456516.320
  20456515.660          50.200          49.450
 108183607.617 8  84299071.826 8                  20586588.580    20586584.880
  20586584.180          50.100          48.350
 122793322.436 7  95683099.64946                  23366782.680
  23366775.600          47.850          41.900
 130735204.519 7 101682929.670 6                  24499720.580    24499723.640
  24499722.720          43.650          36.000
 104307701.592 7  81128244.805 7                  19506015.620    19506019.500
  19506017.280          43.350          46.900
 125996309.637 6  97997152.126 5                  23570218.900    23570222.840
  23570222.580          41.800          34.750
 129382611.813 6 100630921.195 6                  24161294.560    24161297.380
  24161296.420          41.400          37.850
 121457167.904 7  94466708.489 5                  22729047.860    22729051.440
  22729049.940          43.800          35.100
 111334119.030 7  86593149.176 6                  20849269.240    20849272.300
  20849269.680          46.700          36.550
 111580148.904 7  86784561.116 7                  20858677.140    20858677.660
  20858676.120          47.700          45.550
 105075550.694 7  81725475.586 7                  19711891.960    19711898.540
  19711897.400          47.050          42.600
 118620111.513 7  92260071.118 6                  22166953.400    22166955.140
  22166954.260          45.250          41.750
 149093490.765 7                 111336068.954 6  28371545.860
                        42.600
 15  1 27 22  5 55.0000000  0 18G14G31G06G24G12G25G29G02R02R20R01R08
                                R11R09R19R10R21E19
 113730812.850 8  88621414.14047                  21642245.520
  21642241.040          49.200          43.500
 122224342.068 8  95239747.338 7                  23258515.360    23258510.680
  23258509.800          48.300          43.050
 131468499.016 7 102442992.972 6  98174531.680 7  25017620.100    25017619.420
  25017618.680          42.900          39.300
 119547661.866 8  93154108.374 7  89272704.853 8  22749131.460    22749129.740
  22749129.320          48.650          46.600
 113783288.672 8  88662414.325 7                  21652172.640    21652168.500
  21652167.900          50.350          46.250
 107500076.343 8  83766402.282 8  80276164.406 8  20456539.760    20456538.120
  20456537.480          50.100          49.450
 108174393.648 8  84291892.109 8                  20584835.220    20584831.500
  20584830.800          49.900          48.300
 122792549.699 8  95682497.52146                  23366635.600
  23366628.520          48.050          41.500
 130728065.887 7 101677377.428 6                  24498382.820    24498386.000
  24498385.020          43.100          36.750
 104300306.316 7  81122492.930 7                  19504632.660    19504636.560
  19504634.300          43.500          46.850
 126003437.721 6  98002696.176 5                  23571552.380    23571556.360
  23571556.080          41.900          35.700
 129399296.783 6 100643898.362 6                  24164410.320    24164413.280
  24164412.220          41.650          38.250
 121440601.049 7  94453823.149 5                  22725947.620    22725951.060
  22725949.680          44.500          35.150
 111343877.941 7  86600739.432 6                  20851096.720    20851099.720
  20851097.220          46.700          36.750
 111593821.414 7  86795195.292 7                  20861233.100    20861233.620
  20861232.080          47.800          45.500
 105069269.817 7  81720590.474 7                  19710713.720    19710720.240
  19710719.100          47.250          42.550
 118598986.934 7  92243640.888 7                  22163005.820    22163007.500
  22163006.600          45.950          42.200
 149106090.335 7                 111345477.651 6  28373943.560
                        42.300
 15  1 27 22  6  0.0000000  0 18G14G31G06G24G12G25G29G02R02R20R01R08
                                R11R09R19R10R21E19
 113733605.110 8  88623589.92547                  21642776.920
  21642772.360          49.050          43.550
 122209409.165 8  95228111.310 7                  23255673.720    23255669.040
  23255668.180          48.050          42.900
 131477633.358 7 102450110.643 6  98181352.788 7  25019358.340    25019357.640
  25019356.840          42.900          38.500
 119562321.981 8  93165531.842 7  89283652.337 8  22751921.200    22751919.460
  22751919.040          48.600          46.450
 113793436.064 8  88670321.379 7                  21654103.680    21654099.500
  21654098.840          50.550          45.950
 107500197.406 8  83766496.612 8  80276254.800 8  20456562.820    20456561.160
  20456560.500          50.100          49.400
 108165192.496 8  84284722.377 8                  20583084.280    20583080.580
  20583079.880          49.850          48.150
 122791789.414 7  95681905.09246                  23366490.900
  23366483.820          47.750          41.650
 130720944.462 6 101671838.533 6                  24497048.260    24497051.460
  24497050.560          41.700          36.250
 104292932.030 7  81116757.362 7                  19503253.600    19503257.520
  19503255.260          43.550          46.850
 126010581.850 6  98008252.714 5                  23572888.780    23572892.800
  23572892.640          41.600          35.950
 129415984.286 7 100656877.521 6                  24167526.600    24167529.580
  24167528.480          42.700          37.550
 121424033.264 7  94440937.105 5                  22722847.180    22722850.640
  22722849.260          44.700          34.500
 111353646.253 7  86608336.993 6                  20852925.960    20852928.980
  20852926.520          47.150          36.800
 111607509.491 7  86805841.578 7                  20863791.940    20863792.440
  20863790.920          47.800          45.500
 105062998.005 7  81715712.398 7                  19709537.180    19709543.640
  19709542.520          47.700          42.450
 118577869.236 7  92227216.012 7                  22159059.540    22159061.160
  22159060.240          46.000          42.100
 149118687.162 7                 111354884.329 6  28376340.760
                        42.200
 15  1 27 22  6  5.0000000  0 18G14G31G06G24G12G25G29G02R02R20R01R08
                                R11R09R19R10R21E19
 113736413.438 8  88625778.23647                  21643311.360
  21643306.760          48.900          43.750
 122194479.462 8  95216477.783 7                  23252832.640    23252828.040
  23252827.140          48.100          43.000
 131486780.638 7 102457238.404 6  98188183.560 7  25021099.080    25021098.220
  25021097.600          43.100          38.150
 119576989.399 8  93176961.004 7  89294605.280 8  22754712.320    22754710.620
  22754710.200          48.600          46.400
 113803587.500 8  88678231.593 7                  21656035.480    21656031.220
  21656030.540          50.600          45.850
 107500325.824 8  83766596.682 8  80276350.708 8  20456587.300    20456585.620
  20456584.940          50.000          49.450
 108156005.091 8  84277563.366 8                  20581335.960    20581332.260
  20581331.580          49.800          48.350
 122791042.531 7  95681323.10446                  23366348.740
  23366341.720          47.950          41.450
 130713840.926 7 101666313.538 6                  24495717.020    24495720.160
  24495719.380          42.600          36.650
 104285579.501 7  81111038.722 7                  19501878.640    19501882.540
  19501880.320          43.900          46.850
 126017743.159 7  98013822.601 5                  23574228.400    23574232.500
  23574232.360          42.350          35.650
 129432675.321 7 100669859.422 6                  24170643.500    24170646.520
  24170645.400          43.200          36.900
 121407465.613 7  94428051.158 5                  22719746.760    22719750.160
  22719748.900          44.700          35.150
 111363424.985 7  86615942.684 6                  20854757.180    20854760.280
  20854757.780          47.300          36.750
 111621213.931 8  86816500.589 7                  20866353.840    20866354.380
  20866352.840          48.050          45.350
 105056736.223 7  81710842.110 7                  19708362.520    19708368.940
  19708367.820          47.900          42.000
 118556759.400 7  92210797.261 7                  22155114.740    22155116.220
  22155115.360          46.550          42.200
 149131282.208 7                 111364289.652 6  28378737.540
                        42.400
 15  1 27 22  6 10.0000000  0 18G14G31G06G24G12G25G29G02R02R20R01R08
                                R11R09R19R10R21E19
 113739238.902 8  88627979.89747                  21643849.060
  21643844.420          49.050          43.350
 122179553.916 8  95204847.481 7                  23249992.340    23249987.780
  23249986.880          48.000          43.050
 131495941.901 7 102464377.063 6  98195024.758 7  25022842.440    25022841.540
  25022840.880          43.050          38.700
 119591665.221 8  93188396.713 7  89305564.491 8  22757505.000    22757503.340
  22757502.920          48.300          46.600
 113813744.057 8  88686145.795 7                  21657968.300    21657963.960
  21657963.200          50.750          45.900
 107500462.670 8  83766703.315 8  80276452.891 8  20456613.360    20456611.640
  20456610.960          50.050          49.600
 108146832.482 8  84270415.886 8                  20579590.440    20579586.760
  20579586.080          49.850          48.450
 122790310.079 8  95680752.36846                  23366209.360
  23366202.340          48.250          41.650
 130706756.465 7 101660803.402 5                  24494389.380    24494392.500
  24494391.740          43.200          35.550
 104278249.873 7  81105337.904 7                  19500508.000    19500511.860
  19500509.640          44.300          46.950
 126024922.402 7  98019406.457 6                  23575571.400    23575575.680
  23575575.480          42.800          36.400
 129449370.897 7 100682844.851 6                  24173761.280    24173764.320
  24173763.220          43.250          36.950
 121390899.018 7  94415166.033 5                  22716646.580    22716649.960
  22716648.700          44.850          34.600
 111373215.191 7  86623557.280 6                  20856590.540    20856593.580
  20856591.240          47.400          36.450
 111634935.893 8  86827173.222 7                  20868919.000    20868919.560
  20868918.040          48.400          45.500
 105050485.370 8  81705980.338 7                  19707189.920    19707196.240
  19707195.140          48.050          42.250
 118535658.500 7  92194385.452 7                  22151171.560    22151172.980
  22151172.140          46.750          42.300
 149143876.476 7                 111373694.376 6  28381134.160
                        43.000
 15  1 27 22  6 15.0000000  0 18G14G31G06G24G12G25G29G02R02R20R01R08
                                R11R09R19R10R21E19
 113742078.857 8  88630192.83947                  21644389.480
  21644384.840          48.950          43.350
 122164629.936 7  95193218.412 7                  23247152.380    23247147.820
  23247146.980          47.950          43.250
 131505114.427 7 102471524.489 6  98201874.390 7  25024587.940    25024587.020
  25024586.280          42.800          38.550
 119606346.821 8  93199836.918 7  89316528.027 8  22760298.780    22760297.180
  22760296.760          48.300          46.600
 113823903.081 8  88694061.926 7                  21659901.560    21659897.140
  21659896.340          50.650          45.950
 107500605.250 8  83766814.412 8  80276559.361 8  20456640.500    20456638.780
  20456638.100          49.850          49.550
 108137672.028 8  84263277.880 8                  20577847.240    20577843.600
  20577842.920          49.900          48.400
 122789589.438 8  95680190.83446                  23366072.240
  23366065.220          48.400          41.500
 130699688.335 7 101655305.977 5                  24493064.800    24493067.940
  24493067.140          42.750          34.300
 104270940.343 7  81099652.720 7                  19499141.040    19499144.920
  19499142.740          44.550          46.700
 126032117.186 7  98025002.377 5                  23576917.340    23576921.680
  23576921.480          42.950          35.900
 129466068.242 7 100695831.671 6                  24176879.420    24176882.540
  24176881.420          42.300          37.600
 121374330.827 7  94402279.656 5                  22713546.040    22713549.520
  22713548.140          44.850          34.200
 111383014.192 7  86631178.723 6                  20858425.580    20858428.620
  20858426.340          47.550          36.500
 111648672.595 8  86837857.317 7                  20871486.900    20871487.480
  20871486.000          48.750          45.550
 105044242.847 8  81701125.032 7                  19706018.840    19706025.220
  19706024.020          48.050          42.500
 118514563.917 7  92177978.559 7                  22147229.560    22147230.920
  22147230.100          46.800          42.150
 149156467.312 7                 111383096.538 6  28383530.140
                        42.850
 15  1 27 22  6 20.0000000  0 18G14G31G06G24G12G25G29G02R02R20R01R08
                                R11R09R19R10R21E19
 113744936.546 8  88632419.60547                  21644933.300
  21644928.640          48.900          43.900
 122149710.822 7  95181593.143 7                  23244313.340    23244308.800
  23244307.980          47.900          43.100
 131514301.571 7 102478683.297 6  98208734.911 7  25026336.220    25026335.300
  25026334.580          42.750          38.700
 119621037.367 8  93211284.091 7  89327498.233 8  22763094.300    22763092.720
  22763092.320          48.300          46.750
 113834067.849 8  88701982.531 7                  21661835.900    21661831.440
  21661830.580          50.600          45.950
 107500756.847 8  83766932.542 8  80276672.566 8  20456669.380    20456667.620
  20456666.940          49.850          49.450
 108128526.999 8  84256151.897 8                  20576106.980    20576103.360
  20576102.680          49.900          48.300
 122788883.876 8  95679641.04746                  23365937.980
  23365930.940          48.400          41.200
 130692640.066 7 101649823.991 5                  24491744.080    24491746.920
  24491746.200          42.750          35.600
 104263654.416 7  81093985.897 7                  19497778.540    19497782.460
  19497780.220          44.650          46.700
 126039330.673 7  98030612.863 5                  23578266.700    23578271.200
  23578271.000          43.150          35.400
 129482770.795 7 100708822.527 6                  24179998.480    24180001.680
  24180000.620          43.900          37.650
 121357764.330 7  94389394.599 5                  22710445.860    22710449.300
  22710447.840          44.850          33.900
 111392825.306 7  86638809.588 6                  20860262.900    20860265.920
  20860263.680          47.800          36.700
 111662427.423 8  86848555.517 7                  20874058.200    20874058.800
  20874057.340          48.900          45.450
 105038012.013 8  81696278.832 7                  19704849.940    19704856.320
  19704855.120          48.050          42.100
 118493478.951 7  92161579.151 7                  22143289.380    22143290.700
  22143289.860          46.900          42.250
 149169057.970 7                 111392498.589 6  28385926.080
                        42.900
 15  1 27 22  6 25.0000000  0 18G14G31G06G24G12G25G29G02R02R20R01R08
                                R11R09R19R10R21E19
 113747809.353 8  88634658.14747                  21645480.000
  21645475.340          48.900          43.700
 122134793.930 8  95169969.595 7                  23241474.720    23241470.240
  23241469.380          48.050          43.000
 131523500.629 7 102485851.388 6  98215604.333 7  25028086.700    25028085.780
  25028085.020          42.800          38.000
 119635734.256 8  93222736.200 7  89338473.174 8  22765891.000    22765889.440
  22765889.080          48.400          46.700
 113844235.675 8  88709905.522 7                  21663770.800    21663766.300
  21663765.400          50.300          46.000
 107500914.863 8  83767055.672 8  80276790.564 8  20456699.460    20456697.700
  20456697.020          49.850          49.400
 108119394.801 8  84249035.892 8                  20574369.180    20574365.540
  20574364.880          49.800          48.150
 122788190.797 8  95679100.98246                  23365806.100
  23365799.060          48.700          40.900
 130685608.945 7 101644355.327 5                  24490426.460    24490429.320
  24490428.540          44.000          35.650
 104256389.259 7  81088335.219 7                  19496419.940    19496423.820
  19496421.580          44.500          46.800
 126046560.157 7  98036235.786 5                  23579619.120    23579623.760
  23579623.420          43.600          35.350
 129499475.849 7 100721815.314 6                  24183118.020    24183121.260
  24183120.160          44.050          36.500
 121341196.933 7  94376508.835 5                  22707345.540    22707348.800
  22707347.400          45.050          33.800
 111402645.850 7  86646447.793 6                  20862101.980    20862105.120
  20862102.740          47.800          36.800
 111676197.569 8  86859265.633 7                  20876632.420    20876633.000
  20876631.520          48.950          45.750
 105031790.340 7  81691439.755 7                  19703682.800    19703689.160
  19703687.920          47.800          42.350
 118472400.911 7  92145185.132 7                  22139350.460    22139351.740
  22139350.880          47.200          42.250
 149181645.829 7                 111401898.540 6  28388321.460
                        42.950
 15  1 27 22  6 30.0000000  0 18G14G31G06G24G12G25G29G02R02R20R01R08
                                R11R09R19R10R21E19
 113750697.381 8  88636908.55347                  21646029.580
  21646024.940          48.750          43.400
 122119879.399 8  95158347.880 7                  23238636.580    23238632.100
  23238631.220          48.100          43.200
 131532711.745 6 102493028.868 6  98222482.746 7  25029839.540    25029838.640
  25029837.860          41.950          38.550
 119650437.517 8  93234193.287 7  89349452.882 8  22768688.920    22768687.440
  22768687.060          48.300          46.650
 113854406.680 8  88717830.983 7                  21665706.280    21665701.780
  21665700.860          50.000          46.200
 107501079.362 8  83767183.848 8  80276913.407 8  20456730.760    20456729.000
  20456728.320          49.900          49.450
 108110275.526 8  84241929.963 8                  20572633.820    20572630.200
  20572629.540          49.750          48.250
 122787510.257 8  95678570.68646                  23365676.620
  23365669.520          48.750          40.300
 130678594.903 7 101638899.923 6                  24489112.100    24489114.920
  24489114.220          43.700          36.250
 104249145.085 7  81082700.862 7                  19495065.240    19495069.100
  19495066.880          44.800          46.800
 126053805.889 7  98041871.339 5                  23580974.620    23580979.160
  23580978.880          44.100          35.350
 129516183.431 7 100734810.081 5                  24186238.060    24186241.260
  24186240.120          43.500          35.850
 121324628.758 7  94363622.460 5                  22704245.060    22704248.380
  22704246.840          45.050          33.750
 111412475.948 8  86654093.417 6                  20863942.900    20863945.940
  20863943.600          48.100          36.750
 111689983.193 8  86869987.791 7                  20879209.500    20879210.080
  20879208.620          48.850          45.650
 105025577.660 7  81686607.665 7                  19702517.320    19702523.680
  19702522.400          47.800          42.350
 118451329.938 7  92128796.598 7                  22135412.880    22135414.120
  22135413.240          47.200          42.100
 149194230.988 7                 111411296.469 6  28390716.360
                        43.300
 15  1 27 22  6 35.0000000  0 18G14G31G06G24G12G25G29G02R02R20R01R08
                                R11R09R19R10R21E19
 113753601.921 8  88639171.83047                  21646582.300
  21646577.660          48.800          43.750
 122104968.556 8  95146729.040 7                  23235799.120    23235794.640
  23235793.800          48.100          43.450
 131541936.174 6 102500216.725 6  98229371.136 7  25031594.880    25031593.960
  25031593.220          41.650          38.550
 119665148.592 8  93245656.452 7  89360438.427 8  22771488.320    22771486.880
  22771486.520          48.250          46.650
 113864582.263 8  88725760.009 7                  21667642.600    21667638.120
  21667637.200          49.400          46.150
 107501251.682 8  83767318.122 8  80277042.088 8  20456763.560    20456761.800
  20456761.100          50.050          49.550
 108101170.543 8  84234835.169 8                  20570901.180    20570897.580
  20570896.900          49.800          48.200
 122786843.632 8  95678051.22646                  23365549.780
  23365542.640          48.650          41.300
 130671599.345 7 101633458.932 5                  24487801.200    24487804.080
  24487803.320          43.950          35.300
 104241923.342 7  81077083.950 7                  19493714.760    19493718.600
  19493716.380          44.700          46.950
 126061069.176 7  98047520.570 5                  23582333.400    23582337.840
  23582337.600          44.500          35.650
 129532894.911 7 100747807.884 6                  24189358.780    24189361.980
  24189360.880          42.650          36.400
 121308061.070 7  94350736.497 5                  22701144.640    22701147.840
  22701146.380          44.850          34.550
 111422316.987 7  86661747.564 6                  20865785.840    20865788.900
  20865786.500          47.750          36.750
 111703785.590 8  86880722.989 7                  20881789.740    20881790.280
  20881788.860          48.650          45.350
 105019375.412 7  81681783.696 7                  19701353.800    19701360.140
  19701358.840          47.850          42.350
 118430267.460 7  92112414.670 7                  22131476.860    22131478.120
  22131477.200          47.150          42.350
 149206814.767 7                 111420693.368 6  28393111.040
                        43.850
 15  1 27 22  6 40.0000000  0 18G14G31G06G24G12G25G29G02R02R20R01R08
                                R11R09R19R10R21E19
 113756522.680 8  88641447.75347                  21647138.100
  21647133.480          48.900          43.550
 122090061.074 8  95135112.830 7                  23232962.280    23232957.820
  23232957.000          48.050          43.350
 131551173.643 6 102507414.731 6  98236269.248 7  25033352.740    25033351.820
  25033351.020          41.750          38.300
 119679867.040 8  93257125.372 7  89371429.468 8  22774289.140    22774287.760
  22774287.380          48.050          46.900
 113874762.073 8  88733692.318 7                  21669579.680    21669575.240
  21669574.340          49.300          46.350
 107501431.491 8  83767458.235 8  80277176.365 8  20456797.780    20456796.000
  20456795.320          50.150          49.450
 108092079.498 8  84227751.246 8                  20569171.220    20569167.600
  20569166.940          49.900          48.300
 122786190.554 8  95677542.33746                  23365425.520
  23365418.320          48.500          41.300
 130664622.104 7 101628032.176 5                  24486493.740    24486496.600
  24486495.820          43.050          33.900
 104234723.512 7  81071484.088 7                  19492368.380    19492372.220
  19492369.980          44.650          46.850
 126068349.459 7  98053183.025 6                  23583695.440    23583699.720
  23583699.540          43.400          36.200
 129549609.882 7 100760808.392 6                  24192480.200    24192483.440
  24192482.340          42.750          36.600
 121291493.686 7  94337850.750 5                  22698044.260    22698047.460
  22698046.040          44.500          34.000
 111432168.568 7  86669409.909 6                  20867630.760    20867633.820
  20867631.360          47.800          36.750
 111717604.532 8  86891471.057 7                  20884373.020    20884373.600
  20884372.180          48.150          45.300
 105013183.390 7  81676967.681 7                  19700192.200    19700198.520
  19700197.200          47.850          42.100
 118409213.094 7  92096039.054 7                  22127542.360    22127543.580
  22127542.660          46.850          42.400
 149219396.817 7                 111430088.975 6  28395505.420
                        43.800
 15  1 27 22  6 45.0000000  0 18G14G31G06G24G12G25G29G02R02R20R01R08
                                R11R09R19R10R21E19
 113759459.632 8  88643736.27947                  21647696.980
  21647692.380          48.850          43.700
 122075156.958 8  95123499.233 7                  23230126.120    23230121.660
  23230120.880          48.000          43.750
 131560424.103 6 102514622.898 6  98243177.053 7  25035113.060    25035112.120
  25035111.280          41.800          38.550
 119694592.973 8  93268600.117 7  89382426.101 8  22777091.400    22777090.060
  22777089.660          48.300          47.000
 113884946.080 8  88741627.895 7                  21671517.540    21671513.180
  21671512.300          49.550          46.600
 107501618.788 8  83767604.185 8  80277316.234 8  20456833.440    20456831.660
  20456830.960          50.050          49.450
 108083002.396 8  84220678.186 8                  20567443.880    20567440.300
  20567439.620          50.050          48.500
 122785551.053 8  95677044.02246                  23365303.880
  23365296.620          48.350          41.000
 130657663.043 6 101622619.621 5                  24485189.720    24485192.420
  24485191.660          41.800          35.300
 104227545.646 7  81065901.304 7                  19491026.100    19491029.880
  19491027.680          44.700          46.800
 126075646.933 7  98058858.839 5                  23585060.620    23585064.960
  23585064.740          43.650          35.850
 129566328.294 7 100773811.537 5                  24195602.260    24195605.400
  24195604.460          42.750          34.900
 121274926.465 7  94324965.113 5                  22694943.920    22694947.060
  22694945.640          44.800          34.350
 111442030.764 8  86677080.497 6                  20869477.640    20869480.660
  20869478.240          48.050          36.600
 111731439.913 8  86902231.907 7                  20886959.340    20886959.960
  20886958.540          48.150          45.450
 105007001.646 7  81672159.656 7                  19699032.520    19699038.840
  19699037.480          47.950          42.500
 118388166.905 7  92079669.802 7                  22123609.440    22123610.600
  22123609.660          46.700          42.550
 149231977.143 7                 111439483.290 6  28397899.460
                        43.750
 15  1 27 22  6 50.0000000  0 18G14G31G06G24G12G25G29G02R02R20R01R08
                                R11R09R19R10R21E19
 113762411.023 8  88646036.06647                  21648258.620
  21648254.000          48.750          43.750
 122060254.461 7  95111886.900 7                  23227290.260    23227285.800
  23227285.020          47.900          43.750
 131569685.819 6 102521839.824 6  98250093.262 7  25036875.500    25036874.600
  25036873.720          41.200          38.550
 119709324.617 8  93280079.320 7  89393427.007 8  22779894.740    22779893.460
  22779893.040          48.250          46.950
 113895132.554 8  88749565.401 7                  21673455.860    21673451.600
  21673450.760          49.400          46.400
 107501811.829 8  83767754.610 8  80277460.388 8  20456870.160    20456868.380
  20456867.700          49.900          49.450
 108073937.460 8  84213614.605 8                  20565718.880    20565715.280
  20565714.620          49.850          48.600
 122784923.379 8  95676554.93946                  23365184.460
  23365177.160          48.200          41.700
 130650720.436 6 101617219.828 5                  24483888.760    24483891.340
  24483890.500          41.700          35.500
 104220388.069 7  81060334.298 7                  19489687.600    19489691.380
  19489689.140          44.550          46.700
 126082959.650 7  98064546.528 6                  23586428.680    23586432.900
  23586432.760          43.700          36.100
 129583048.559 6 100786816.170 5                  24198724.680    24198727.780
  24198726.900          41.800          35.600
 121258357.746 7  94312078.347 5                  22691843.280    22691846.480
  22691845.040          44.550          34.650
 111451901.773 8  86684757.951 6                  20871326.180    20871329.240
  20871326.760          48.050          36.850
 111745289.970 8  86913004.169 7                  20889548.440    20889549.040
  20889547.660          48.300          45.350
 105000828.276 8  81667358.148 7                  19697874.440    19697880.720
  19697879.360          48.400          42.200
 118367127.089 7  92063305.501 6                  22119677.660    22119678.840
  22119677.840          46.400          41.850
 149244553.977 7                 111448875.023 6  28400292.820
                        43.750
 15  1 27 22  6 55.0000000  0 18G14G31G06G24G12G25G29G02R02R20R01R08
                                R11R09R19R10R21E19
 113765379.813 8  88648349.42247                  21648823.560
  21648818.940          48.700          43.950
 122045356.543 7  95100278.147 7                  23224455.280    23224450.860
  23224450.080          47.950          43.700
 131578961.735 6 102529067.822 6  98257020.086 7  25038640.680    25038639.740
  25038638.920          40.650          39.000
 119724064.941 8  93291565.289 7  89404434.400 8  22782699.760    22782698.480
  22782698.020          48.350          46.850
 113905324.398 8  88757507.096 7                  21675395.260    21675391.020
  21675390.240          49.900          46.350
 107502013.578 8  83767911.819 8  80277611.038 8  20456908.540    20456906.780
  20456906.100          49.850          49.400
 108064887.716 8  84206562.861 8                  20563996.760    20563993.160
  20563992.500          49.600          48.500
 122784310.479 8  95676077.36746                  23365067.840
  23365060.520          48.000          41.650
 130643797.371 6 101611835.228 6                  24482591.340    24482594.080
  24482593.040          41.750          36.050
 104213253.770 7  81054785.400 7                  19488353.440    19488357.220
  19488354.960          44.750          46.700
 126090290.711 7  98070248.454 5                  23587800.080    23587804.280
  23587804.160          43.550          35.100
 129599773.415 7 100799824.380 6                  24201848.000    24201851.120
  24201850.180          42.200          36.050
 121241790.514 7  94299192.739 6                  22688742.940    22688746.100
  22688744.740          44.900          36.050
 111461784.555 8  86692444.559 6                  20873176.920    20873179.960
  20873177.460          48.100          36.350
 111759157.565 8  86923790.074 7                  20892140.820    20892141.420
  20892140.040          48.550          45.250
 104994666.401 8  81662565.587 7                  19696718.480    19696724.760
  19696723.400          48.450          42.600
 118346096.667 7  92046948.512 6                  22115747.620    22115748.840
  22115747.780          46.100          41.550
 149257130.297 7                 111458266.326 6  28402686.100
                        43.650
 15  1 27 22  7  0.0000000  0 18G14G31G06G24G12G25G29G02R02R20R01R08
                                R11R09R19R10R21E19
 113768363.365 8  88650674.26747                  21649391.320
  21649386.700          48.600          44.100
 122030460.548 7  95088670.872 7                  23221620.660    23221616.260
  23221615.480          47.850          43.600
 131588249.182 6 102536304.782 6  98263955.521 7  25040408.080    25040407.140
  25040406.360          41.050          39.050
 119738811.238 8  93303055.908 7  89415446.238 8  22785505.920    22785504.620
  22785504.200          48.400          46.800
 113915519.033 8  88765450.959 7                  21677335.220    21677331.020
  21677330.240          50.150          46.400
 107502221.381 8  83768073.737 8  80277766.225 8  20456948.080    20456946.320
  20456945.620          49.800          49.350
 108055850.476 8  84199520.858 8                  20562277.040    20562273.440
  20562272.760          49.600          48.350
 122783709.686 8  95675609.21546                  23364953.540
  23364946.160          48.050          41.750
 130636890.994 7 101606463.614 6                  24481297.040    24481299.920
  24481298.800          42.900          36.100
 104206139.881 7  81049252.382 7                  19487023.100    19487026.860
  19487024.600          44.750          46.700
 126097637.413 7  98075962.547 5                  23589174.420    23589178.640
  23589178.520          43.400          34.700
 129616500.226 7 100812834.105 6                  24204971.600    24204974.740
  24204973.840          42.200          36.350
 121225222.016 7  94286306.134 5                  22685642.380    22685645.600
  22685644.240          45.300          35.850
 111471676.468 7  86700138.263 6                  20875029.380    20875032.320
  20875029.880          47.950          36.350
 111773040.156 8  86934587.641 7                  20894736.020    20894736.580
  20894735.220          48.650          45.250
 104988513.231 8  81657779.780 7                  19695564.160    19695570.460
  19695569.080          48.800          42.500
 118325073.020 7  92030596.799 6                  22111818.800    22111820.040
  22111818.980          46.250          41.400
 149269703.361 7                 111467655.267 6  28405078.760
                        43.850
 15  1 27 22  7  5.0000000  0 18G14G31G06G24G12G25G29G02R02R20R01R08
                                R11R09R19R10R21E19
 113771363.998 8  88653012.41947                  21649962.340
  21649957.700          48.900          43.800
 122015568.881 7  95077066.978 7                  23218786.880    23218782.480
  23218781.700          47.850          43.650
 131597550.514 6 102543552.581 6  98270901.329 7  25042178.080    25042177.200
  25042176.440          40.700          39.050
 119753565.822 8  93314552.983 7  89426464.273 8  22788313.660    22788312.340
  22788311.920          48.600          46.850
 113925718.768 8  88773398.805 7                  21679276.180    21679271.960
  21679271.220          50.150          46.650
 107502437.549 8  83768242.178 8  80277927.650 8  20456989.180    20456987.440
  20456986.760          49.850          49.550
 108046828.093 8  84192490.429 8                  20560560.140    20560556.520
  20560555.860          49.600          48.350
 122783123.400 8  95675152.37946                  23364842.000
  23364834.580          48.350          41.250
 130630003.796 7 101601106.894 5                  24480006.400    24480009.300
  24480008.200          42.250          35.600
 104199049.040 7  81043737.290 7                  19485697.080    19485700.840
  19485698.580          44.350          46.750
 126105001.977 7  98081690.545 5                  23590552.080    23590556.340
  23590556.180          43.800          35.100
 129633231.407 7 100825847.185 6                  24208096.000    24208099.200
  24208098.360          42.400          36.050
 121208654.694 7  94273420.445 5                  22682541.960    22682545.340
  22682543.880          44.850          35.550
 111481579.910 7  86707840.932 6                  20876884.000    20876886.920
  20876884.480          47.950          36.700
 111786939.981 8  86945398.618 7                  20897334.500    20897335.020
  20897333.620          48.500          45.450
 104982371.192 8  81653002.642 7                  19694411.940    19694418.240
  19694416.840          48.700          42.650
 118304058.483 7  92014252.164 6                  22107891.660    22107892.960
  22107891.900          45.950          41.700
 149282275.573 7                 111477043.521 6  28407471.240
                        43.800
 15  1 27 22  7 10.0000000  0 18G14G31G06G24G12G25G29G02R02R20R01R08
                                R11R09R19R10R21E19
 113774380.651 8  88655363.05147                  21650536.380
  21650531.740          49.100          43.300
 122000680.462 7  95065465.621 7                  23215953.740    23215949.320
  23215948.520          47.950          43.800
 131606864.633 6 102550810.348 6  98277856.685 7  25043950.520    25043949.660
  25043948.840          40.600          39.400
 119768327.545 8  93326055.618 7  89437487.636 8  22791122.740    22791121.420
  22791121.000          48.550          46.750
 113935922.515 8  88781349.782 7                  21681217.940    21681213.660
  21681212.980          50.100          46.600
 107502661.056 8  83768416.344 8  80278094.557 8  20457031.720    20457029.980
  20457029.280          49.900          49.600
 108037819.543 8  84185470.784 8                  20558845.880    20558842.260
  20558841.560          49.800          48.400
 122782550.554 8  95674706.00646                  23364733.000
  23364725.560          48.300          41.900
 130623134.796 6 101595764.351 5                  24478719.140    24478722.180
  24478721.020          41.750          35.500
 104191980.105 7  81038239.227 7                  19484375.160    19484378.880
  19484376.640          44.750          46.800
 126112383.569 7  98087431.782 5                  23591932.960    23591937.160
  23591937.080          43.650          35.650
 129649965.790 7 100838862.800 6                  24211221.080    24211224.300
  24211223.440          42.300          36.350
 121192087.483 7  94260534.854 5                  22679441.640    22679445.080
  22679443.600          44.450          35.650
 111491493.700 8  86715551.666 6                  20878740.580    20878743.420
  20878741.020          48.100          36.650
 111800856.062 8  86956222.230 7                  20899936.000    20899936.480
  20899935.080          48.850          45.400
 104976239.227 8  81648233.332 7                  19693261.600    19693267.900
  19693266.520          48.450          42.550
 118283052.024 7  91997913.821 7                  22103966.060    22103967.360
  22103966.380          46.250          42.250
 149294845.875 7                 111486430.351 6  28409863.380
                        43.900
 15  1 27 22  7 15.0000000  0 18G14G31G06G24G12G25G29G02R02R20R01R08
                                R11R09R19R10R21E19
 113777412.260 8  88657725.34247                  21651113.300
  21651108.600          48.700          44.000
 121985794.281 7  95053865.993 7                  23213121.040    23213116.600
  23213115.820          47.400          43.700
 131616190.537 6 102558077.286 6  98284820.831 7  25045725.160    25045724.360
  25045723.500          39.800          39.400
 119783095.501 8  93337563.122 7  89448515.651 8  22793933.020    22793931.680
  22793931.260          48.100          46.550
 113946129.278 8  88789303.107 7                  21683160.300    21683155.960
  21683155.280          50.150          46.650
 107502890.833 8  83768595.402 8  80278266.153 8  20457075.440    20457073.720
  20457073.020          49.600          49.450
 108028823.800 8  84178461.118 8                  20557134.060    20557130.400
  20557129.740          49.800          48.300
 122781990.086 7  95674269.28646                  23364626.360
  23364618.900          47.900          41.750
 130616282.750 7 101590434.984 6                  24477435.020    24477438.080
  24477436.980          43.050          37.400
 104184931.924 7  81032757.314 7                  19483057.100    19483060.840
  19483058.600          44.400          46.900
 126119781.038 7  98093185.391 5                  23593316.800    23593321.020
  23593320.920          42.950          35.350
 129666702.401 7 100851880.172 5                  24214346.600    24214349.800
  24214348.800          42.950          35.800
 121175519.378 7  94247648.566 5                  22676341.100    22676344.700
  22676343.080          44.500          35.700
 111501416.876 7  86723269.690 6                  20880598.900    20880601.680
  20880599.320          47.950          37.150
 111814787.166 8  86967057.548 7                  20902540.320    20902540.760
  20902539.360          49.000          45.650
 104970116.154 8  81643470.946 7                  19692112.920    19692119.200
  19692117.840          48.250          42.700
 118262052.585 7  91981580.939 7                  22100041.820    22100043.160
  22100042.140          46.350          42.550
 149307413.167 7                 111495814.954 6  28412254.900
                        43.400
 15  1 27 22  7 20.0000000  0 18G14G31G06G24G12G25G29G02R02R20R01R08
                                R11R09R19R10R21E19
 113780460.714 8  88660100.76347                  21651693.400
  21651688.680          48.700          43.700
 121970912.199 7  95042269.566 7                  23210289.100    23210284.660
  23210283.840          47.400          43.650
 131625530.093 6 102565354.871 6  98291795.169 7  25047502.400    25047501.700
  25047500.820          40.550          39.950
 119797871.494 8  93349076.874 7  89459549.683 8  22796744.800    22796743.400
  22796743.020          48.250          46.350
 113956340.889 8  88797260.200 7                  21685103.600    21685099.180
  21685098.520          50.300          46.300
 107503128.796 8  83768780.827 8  80278443.855 8  20457120.700    20457119.000
  20457118.280          49.700          49.450
 108019842.695 8  84171462.857 8                  20555425.020    20555421.340
  20555420.680          49.700          48.150
 122781443.944 7  95673843.71447                  23364522.440
  23364515.000          47.650          42.100
 130609449.631 7 101585120.309 6                  24476154.540    24476157.580
  24476156.500          44.000          37.200
 104177906.487 7  81027293.078 7                  19481743.300    19481747.000
  19481744.800          44.700          46.950
 126127196.029 7  98098952.601 5                  23594703.920    23594708.100
  23594708.040          43.100          35.100
 129683443.017 7 100864900.637 5                  24217472.800    24217476.000
  24217474.940          43.750          35.600
 121158952.189 7  94234762.963 5                  22673240.760    22673244.320
  22673242.720          44.750          35.300
 111511351.324 7  86730996.483 6                  20882459.320    20882462.240
  20882459.740          47.900          36.850
 111828735.303 8  86977906.103 7                  20905147.800    20905148.240
  20905146.800          48.700          45.700
 104964004.104 8  81638717.139 7                  19690966.320    19690972.620
  19690971.280          48.250          42.700
 118241062.134 7  91965255.033 7                  22096119.260    22096120.640
  22096119.600          46.000          42.150
 149319979.365 7                 111505198.721 6  28414646.220
                        43.450
 15  1 27 22  7 25.0000000  0 18G14G31G06G24G12G25G29G02R02R20R01R08
                                R11R09R19R10R21E19
 113783525.367 8  88662488.80247                  21652276.620
  21652271.840          48.650          44.100
 121956033.554 7  95030675.820 7                  23207457.800    23207453.300
  23207452.540          47.150          43.900
 131634882.569 6 102572642.525 6  98298779.162 7  25049282.100    25049281.360
  25049280.600          41.100          40.150
 119812654.965 8  93360596.468 7  89470589.290 8  22799558.020    22799556.600
  22799556.180          48.200          46.400
 113966556.684 8  88805220.563 7                  21687047.700    21687043.180
  21687042.540          50.300          46.600
 107503374.233 8  83768972.076 8  80278627.129 8  20457167.380    20457165.700
  20457164.980          49.700          49.400
 108010875.568 8  84164475.491 8                  20553718.640    20553714.940
  20553714.300          49.600          48.350
 122780911.359 7  95673428.71946                  23364421.120
  23364413.680          47.900          41.850
 130602634.874 7 101579819.922 6                  24474877.620    24474880.540
  24474879.420          44.650          37.200
 104170903.139 7  81021846.027 7                  19480433.640    19480437.320
  19480435.140          45.000          47.050
 126134628.151 7  98104733.133 5                  23596094.300    23596098.520
  23596098.360          43.750          34.700
 129700186.978 7 100877923.661 6                  24220599.680    24220602.680
  24220601.680          43.600          36.550
 121142385.313 7  94221877.631 5                  22670140.500    22670144.080
  22670142.420          44.550          35.400
 111521296.367 8  86738731.510 6                  20884321.780    20884324.680
  20884322.160          48.400          37.000
 111842699.755 8  86988767.339 7                  20907758.320    20907758.760
  20907757.300          48.400          45.700
 104957902.446 8  81633971.407 7                  19689821.700    19689827.940
  19689826.640          48.300          42.950
 118220079.956 7  91948935.574 7                  22092198.240    22092199.640
  22092198.640          46.650          42.250
 149332543.763 7                 111514581.151 6  28417037.220
                        43.350
 15  1 27 22  7 30.0000000  0 18G14G31G06G24G12G25G29G02R02R20R01R08
                                R11R09R19R10R21E19
 113786605.327 8  88664888.76147                  21652862.720
  21652857.900          48.600          43.850
 121941157.479 7  95019084.069 7                  23204627.000    23204622.420
  23204621.700          47.300          43.800
 131644247.090 6 102579939.537 6  98305772.153 7  25051064.100    25051063.440
  25051062.580          41.100          40.350
 119827444.897 8  93372121.091 7  89481633.706 8  22802372.440    22802371.000
  22802370.560          48.250          46.400
 113976775.767 8  88813183.486 7                  21688992.440    21688987.840
  21688987.180          50.450          46.650
 107503626.249 8  83769168.448 8  80278815.321 8  20457215.300    20457213.640
  20457212.920          49.800          49.400
 108001921.579 8  84157498.357 8                  20552014.760    20552011.040
  20552010.400          49.650          48.350
 122780391.486 7  95673023.61346                  23364322.240
  23364314.740          47.950          41.550
 130595837.481 7 101574533.089 6                  24473603.920    24473606.680
  24473605.600          45.350          36.950
 104163920.921 7  81016415.415 7                  19479127.940    19479131.620
  19479129.440          45.050          47.000
 126142076.287 7  98110526.126 5                  23597487.600    23597491.620
  23597491.660          44.150          34.850
 129716933.334 7 100890948.582 6                  24223726.980    24223729.960
  24223728.880          43.100          36.300
 121125817.921 7  94208991.886 5                  22667040.160    22667043.580
  22667042.040          44.600          35.150
 111531251.040 8  86746474.023 6                  20886186.020    20886188.800
  20886186.400          48.650          36.750
 111856679.592 8  86999640.535 7                  20910371.680    20910372.180
  20910370.660          48.500          45.650
 104951810.204 8  81629232.989 7                  19688678.820    19688685.080
  19688683.780          48.650          42.500
 118199105.168 7  91932621.845 7                  22088278.600    22088279.960
  22088279.000          46.400          42.250
 149345105.468 7                 111523961.545 6  28419427.660
                        43.300
 15  1 27 22  7 35.0000000  0 18G14G31G06G24G12G25G29G02R02R20R01R08
                                R11R09R19R10R21E19
 113789701.831 8  88667301.62047                  21653451.960
  21653447.140          48.550          43.650
 121926285.237 7  95007495.314 7                  23201796.900    23201792.380
  23201791.600          47.250          43.550
 131653624.955 6 102587246.973 6  98312775.104 7  25052848.620    25052847.960
  25052847.220          41.250          40.000
 119842242.617 8  93383651.780 7  89492683.962 8  22805188.360    22805186.880
  22805186.460          48.000          46.300
 113986999.394 8  88821149.954 7                  21690938.020    21690933.300
  21690932.680          50.550          46.400
 107503886.155 8  83769370.976 8  80279009.421 8  20457264.740    20457263.100
  20457262.340          49.800          49.250
 107992981.954 8  84150532.420 8                  20550313.620    20550309.880
  20550309.240          49.700          48.400
 122779885.597 7  95672629.41446                  23364226.020
  23364218.480          47.950          41.900
 130589058.837 7 101569260.838 6                  24472333.700    24472336.280
  24472335.300          46.150          37.250
 104156961.261 7  81011002.350 7                  19477826.440    19477830.140
  19477827.960          46.400          47.000
 126149541.864 7  98116332.701 5                  23598884.200    23598888.240
  23598888.240          45.350          34.500
 129733683.314 7 100903976.371 6                  24226854.920    24226857.860
  24226856.740          44.000          36.350
 121109251.115 7  94196106.596 5                  22663939.960    22663943.400
  22663941.700          46.050          35.550
 111541216.748 8  86754225.138 6                  20888052.320    20888055.060
  20888052.660          49.550          36.800
 111870676.084 8  87010526.694 7                  20912988.160    20912988.660
  20912987.140          49.550          45.600
 104945728.557 8  81624502.819 7                  19687537.900    19687544.120
  19687542.880          49.450          42.650
 118178139.081 7  91916314.893 7                  22084360.520    22084361.960
  22084361.000          47.750          42.500
 149357665.752 7                 111533340.903 6  28421817.820
                        43.100
 15  1 27 22  7 40.0000000  0 18G14G31G06G24G12G25G29G02R02R20R01R08
                                R11R09R19R10R21E19
 113792813.053 8  88669725.94247                  21654044.020
  21654039.180          48.600          44.150
 121911415.045 7  94995908.161 7                  23198967.160    23198962.680
  23198961.900          47.600          43.750
 131663014.301 6 102594563.350 6  98319786.620 7  25054635.320    25054634.720
  25054634.060          41.950          39.950
 119857046.254 8  93395187.079 7  89503738.612 8  22808005.380    22808003.940
  22808003.460          48.100          46.200
 113997225.756 8  88829118.554 7                  21692884.120    21692879.320
  21692878.700          50.550          46.200
 107504152.094 8  83769578.205 8  80279207.998 8  20457315.340    20457313.680
  20457312.940          49.850          49.300
 107984054.944 8  84143576.306 8                  20548614.900    20548611.100
  20548610.480          49.800          48.450
 122779391.871 8  95672244.69446                  23364132.120
  23364124.580          48.200          41.950
 130582297.111 7 101564001.688 6                  24471066.580    24471069.200
  24471068.160          43.800          37.350
 104150022.114 7  81005605.236 7                  19476528.840    19476532.500
  19476530.320          45.850          47.050
 126157022.951 7  98122151.311 5                  23600283.760    23600287.580
  23600287.720          44.950          34.900
 129750435.256 7 100917005.649 5                  24229983.280    24229986.320
  24229985.000          44.050          35.850
 121092683.191 7  94183220.462 5                  22660839.500    22660843.000
  22660841.200          45.950          35.500
 111551191.492 8  86761983.276 6                  20889920.300    20889923.060
  20889920.600          49.200          36.750
 111884687.310 8  87021424.315 7                  20915607.400    20915607.940
  20915606.380          49.450          45.550
 104939655.722 8  81619779.505 7                  19686398.640    19686404.880
  19686403.640          49.150          42.650
 118157179.889 7  91900013.314 7                  22080443.740    22080445.280
  22080444.300          47.250          42.350
 149370222.769 7                 111542717.809 6  28424207.380
                        42.850
 15  1 27 22  7 45.0000000  0 18G14G31G06G24G12G25G29G02R02R20R01R08
                                R11R09R19R10R21E19
 113795941.691 8  88672163.83747                  21654639.380
  21654634.500          48.800          43.400
 121896549.561 7  94984324.667 7                  23196138.360    23196133.900
  23196133.080          47.300          43.800
 131672417.816 7 102601890.755 6  98326808.736 7  25056424.780    25056424.180
  25056423.460          42.150          40.100
 119871858.526 7  93406729.113 7  89514799.724 8  22810824.060    22810822.580
  22810822.100          47.850          46.250
 114007457.492 8  88837091.329 7                  21694831.180    21694826.320
  21694825.740          50.350          46.300
 107504426.753 8  83769792.224 8  80279413.110 8  20457367.600    20457365.960
  20457365.200          49.700          49.300
 107975143.187 8  84136632.076 8                  20546919.040    20546915.260
  20546914.620          49.650          48.450
 122778912.974 8  95671871.52246                  23364041.040
  23364033.480          48.500          41.500
 130575554.868 7 101558757.692 6                  24469803.060    24469805.560
  24469804.680          44.650          36.100
 104143106.372 7  81000226.320 7                  19475235.560    19475239.220
  19475237.040          45.450          47.000
 126164522.231 7  98127984.083 5                  23601686.680    23601690.480
  23601690.600          44.950          34.700
 129767191.677 7 100930038.392 6                  24233112.420    24233115.420
  24233114.180          43.950          36.900
 121076116.892 7  94170335.559 5                  22657739.320    22657742.820
  22657741.020          45.100          35.950
 111561178.146 8  86769750.665 6                  20891790.500    20891793.200
  20891790.760          48.900          36.700
 111898716.008 8  87032335.530 7                  20918229.920    20918230.460
  20918228.900          49.600          45.300
 104933594.499 8  81615065.218 7                  19685261.540    19685267.760
  19685266.580          49.150          42.300
 118136230.313 7  91883719.218 6                  22076528.760    22076530.320
  22076529.360          47.200          41.900
 149382779.222 7                 111552094.267 6  28426596.820
                        42.550
 15  1 27 22  7 50.0000000  0 18G14G31G06G24G12G25G29G02R02R20R01R08
                                R11R09R19R10R21E19
 113799085.193 8  88674613.32147                  21655237.600
  21655232.660          49.000          43.650
 121881686.256 7  94972742.873 7                  23193309.940    23193305.460
  23193304.680          47.650          43.950
 131681832.972 7 102609227.238 6  98333839.522 7  25058216.380    25058215.820
  25058215.140          42.300          40.100
 119886676.895 8  93418275.897 7  89525865.397 8  22813643.880    22813642.380
  22813641.900          48.000          46.400
 114017692.033 8  88845066.301 7                  21696778.760    21696773.900
  21696773.280          50.100          46.250
 107504707.617 8  83770011.078 8  80279622.850 8  20457421.040    20457419.380
  20457418.600          49.550          49.250
 107966244.168 8  84129697.777 8                  20545225.640    20545221.840
  20545221.200          49.700          48.500
 122778446.403 8  95671507.96646                  23363952.300
  23363944.680          48.500          41.750
 130568829.631 7 101553526.998 5                  24468542.780    24468545.240
  24468544.360          44.400          35.350
 104136211.382 7  80994863.553 7                  19473946.160    19473949.800
  19473947.640          45.400          46.850
 126172037.212 7  98133829.072 5                  23603092.520    23603096.200
  23603096.440          44.550          35.100
 129783950.023 7 100943072.615 6                  24236241.960    24236244.980
  24236243.740          42.650          36.550
 121059549.543 7  94157449.849 5                  22654638.960    22654642.340
  22654640.620          45.400          35.850
 111571174.105 8  86777525.304 6                  20893662.440    20893665.220
  20893662.680          48.450          36.100
 111912759.727 8  87043258.418 7                  20920855.280    20920855.760
  20920854.200          49.300          45.100
 104927542.300 8  81610357.953 7                  19684126.140    19684132.340
  19684131.200          48.950          42.250
 118115287.852 7  91867430.649 6                  22072615.080    22072616.680
  22072615.760          47.050          41.650
 149395332.503 7                 111561468.419 6  28428985.680
                        42.250
 15  1 27 22  7 55.0000000  0 18G14G31G06G24G12G25G29G02R02R20R01R08
                                R11R09R19R10R21E19
 113802246.297 8  88677076.52147                  21655839.140
  21655834.200          50.250          42.850
 121866827.906 8  94961164.938 7                  23190482.460    23190478.020
  23190477.280          49.050          43.750
 131691262.489 7 102616574.903 6  98340881.033 7  25060010.780    25060010.240
  25060009.560          44.350          40.350
 119901504.020 8  93429829.502 7  89536937.587 8  22816465.380    22816463.860
  22816463.380          49.350          46.650
 114027932.234 8  88853045.670 7                  21698727.400    21698722.560
  21698721.920          51.100          46.350
 107504997.419 8  83770236.896 8  80279839.247 8  20457476.180    20457474.560
  20457473.740          50.750          49.350
 107957360.636 8  84122775.552 8                  20543535.180    20543531.360
  20543530.720          50.800          48.600
 122777994.911 8  95671156.15446                  23363866.440
  23363858.760          49.700          40.600
 130562124.322 6 101548311.801 5                  24467286.200    24467288.700
  24467287.740          41.400          35.400
 104129340.062 7  80989519.195 7                  19472661.180    19472664.820
  19472662.660          44.050          46.750
 126179570.567 7  98139688.338 5                  23604501.760    23604505.460
  23604505.740          43.250          35.150
 129800713.184 6 100956110.635 5                  24239372.420    24239375.380
  24239374.200          41.000          35.750
 121042984.048 7  94144565.578 6                  22651539.000    22651542.260
  22651540.600          44.200          36.050
 111581182.106 7  86785309.307 6                  20895536.620    20895539.300
  20895536.840          47.300          36.400
 111926821.034 8  87054194.982 7                  20923483.920    20923484.360
  20923482.780          48.400          45.000
 104921501.933 7  81605659.885 7                  19682992.980    19682999.160
  19682998.040          47.700          42.250
 118094355.277 7  91851149.764 6                  22068703.240    22068704.900
  22068703.980          45.700          41.450
 149407885.456 7                 111570842.258 6  28431374.500
                        44.400
 15  1 27 22  8  0.0000000  0 18G14G31G06G24G12G25G29G02R02R20R01R08
                                R11R09R19R10R21E19
 113805421.515 8  88679550.71147                  21656443.380
  21656438.420          49.950          42.450
 121851971.064 8  94949588.178 7                  23187655.240    23187650.880
  23187650.120          48.900          43.750
 131700702.837 7 102623931.014 6  98347930.645 7  25061807.220    25061806.680
  25061806.080          44.100          40.250
 119916336.520 8  93441387.291 7  89548013.803 8  22819287.900    22819286.380
  22819285.880          49.100          46.550
 114038174.574 8  88861026.712 7                  21700676.440    21700671.580
  21700670.960          50.850          46.250
 107505292.628 8  83770466.931 8  80280059.701 8  20457532.340    20457530.720
  20457529.900          50.600          49.200
 107948489.064 8  84115862.649 8                  20541846.980    20541843.160
  20541842.520          50.650          48.350
 122777555.002 8  95670813.36646                  23363782.760
  23363775.040          49.300          40.700
 130555435.294 7 101543109.182 5                  24466032.740    24466035.140
  24466034.160          43.150          35.300
 104122488.712 7  80984190.368 7                  19471379.940    19471383.580
  19471381.400          44.450          46.650
 126187118.776 7  98145559.142 5                  23605913.820    23605917.580
  23605917.800          44.100          35.500
 129817477.397 7 100969149.424 6                  24242503.060    24242506.000
  24242504.840          42.200          36.550
 121026416.859 7  94131679.995 6                  22648438.660    22648442.040
  22648440.260          44.850          36.350
 111591198.597 7  86793099.909 6                  20897412.400    20897415.080
  20897412.600          47.800          36.300
 111940896.543 8  87065142.605 7                  20926115.180    20926115.560
  20926114.020          48.450          44.900
 104915469.783 7  81600968.217 7                  19681861.340    19681867.540
  19681866.400          47.950          42.100
 118073429.021 7  91834873.800 6                  22064792.580    22064794.280
  22064793.360          46.250          41.500
 149420434.460 7                 111580213.224 6  28433762.540
                        44.100
 15  1 27 22  8  5.0000000  0 18G14G31G06G24G12G25G29G02R02R20R01R08
                                R11R09R19R10R21E19
 113808613.437 8  88682037.92547                  21657050.800
  21657045.820          49.650          43.100
 121837118.305 8  94938014.612 7                  23184828.800    23184824.500
  23184823.760          48.400          43.750
 131710156.633 7 102631297.613 6  98354990.294 7  25063606.200    25063605.660
  25063605.140          43.350          40.000
 119931176.906 8  93452951.236 7  89559095.915 8  22822111.900    22822110.420
  22822109.920          48.700          46.700
 114048421.636 8  88869011.431 7                  21702626.360    21702621.540
  21702620.900          50.600          46.200
 107505595.870 8  83770703.232 8  80280286.150 8  20457590.040    20457588.420
  20457587.600          50.400          49.150
 107939632.064 8  84108961.101 8                  20540161.560    20540157.700
  20540157.100          50.400          48.350
 122777129.260 8  95670481.62946                  23363701.760
  23363694.040          48.950          41.250
 130548765.086 7 101537921.249 5                  24464782.780    24464785.040
  24464784.160          42.550          34.750
 104115660.053 7  80978879.197 7                  19470102.940    19470106.600
  19470104.380          44.750          46.850
 126194684.438 7  98151443.548 5                  23607329.180    23607332.940
  23607333.120          44.800          35.500
 129834245.379 6 100982191.146 6                  24245634.440    24245637.420
  24245636.200          41.900          37.400
 121009850.622 7  94118795.147 6                  22645338.520    22645341.940
  22645340.140          44.300          36.750
 111601226.264 7  86800899.204 6                  20899290.260    20899292.900
  20899290.440          47.700          36.600
 111954988.740 8  87076103.208 7                  20928749.560    20928749.920
  20928748.360          48.100          44.750
 104909448.579 7  81596285.067 7                  19680731.760    19680737.940
  19680736.800          47.950          42.250
 118052511.729 7  91818604.814 6                  22060883.580    22060885.340
  22060884.440          46.150          41.200
 149432982.205 7                 111589583.183 6  28436150.340
                        43.850
 15  1 27 22  8 10.0000000  0 18G14G31G06G24G12G25G29G02R02R20R01R08
                                R11R09R19R10R21E19
 113811820.349 8  88684536.81147                  21657661.060
  21657656.100          49.600          43.250
 121822267.901 8  94926442.881 7                  23182002.820    23181998.560
  23181997.880          48.650          43.700
 131719622.139 7 102638673.328 6  98362058.706 7  25065407.440    25065406.880
  25065406.460          43.000          39.650
 119946023.469 8  93464519.978 7  89570182.636 8  22824937.080    22824935.620
  22824935.140          48.400          46.550
 114058671.743 8  88876998.520 7                  21704576.840    21704572.080
  21704571.420          50.250          46.250
 107505905.428 8  83770944.446 8  80280517.324 8  20457648.960    20457647.300
  20457646.500          50.400          49.200
 107930787.952 8  84102069.582 8                  20538478.580    20538474.700
  20538474.100          50.200          48.400
 122776716.009 8  95670159.60946                  23363623.120
  23363615.380          48.600          41.200
 130542112.080 7 101532746.714 5                  24463536.040    24463538.240
  24463537.380          42.850          34.250
 104108852.309 7  80973584.289 7                  19468829.920    19468833.480
  19468831.300          44.450          46.900
 126202265.826 7  98157340.183 5                  23608747.520    23608751.260
  23608751.380          45.250          35.100
 129851015.368 7 100995234.431 6                  24248766.200    24248769.080
  24248767.980          42.450          37.300
 120993283.519 7  94105909.623 6                  22642238.220    22642241.760
  22642239.840          44.600          36.400
 111611263.304 7  86808705.790 6                  20901169.860    20901172.580
  20901170.060          47.650          36.300
 111969095.926 8  87087075.466 7                  20931386.740    20931387.120
  20931385.540          48.050          44.750
 104903436.598 7  81591609.085 7                  19679603.920    19679610.100
  19679608.980          47.850          42.250
 118031601.771 7  91802341.509 6                  22056976.000    22056977.820
  22056976.860          46.050          41.250
 149445526.884 7                 111598950.888 6  28438537.540
                        43.600
 15  1 27 22  8 15.0000000  0 18G14G31G06G24G12G25G29G02R02R20R01R08
                                R11R09R19R10R21E19
 113815043.356 8  88687048.24747                  21658274.400
  21658269.400          49.600          43.200
 121807420.960 8  94914873.837 7                  23179177.520    23179173.300
  23179172.620          48.450          43.700
 131729100.479 7 102646059.045 6  98369136.696 7  25067211.100    25067210.540
  25067210.100          43.000          39.450
 119960877.308 8  93476094.392 7  89581274.775 8  22827763.640    22827762.240
  22827761.720          48.550          46.650
 114068925.954 8  88884988.808 7                  21706528.120    21706523.380
  21706522.720          50.250          46.200
 107506222.438 8  83771191.467 8  80280754.044 8  20457709.280    20457707.620
  20457706.820          50.300          49.200
 107921957.824 8  84095188.956 8                  20536798.240    20536794.400
  20536793.800          50.100          48.400
 122776316.337 8  95669848.18146                  23363547.060
  23363539.300          48.400          41.650
 130535477.436 7 101527586.379 5                  24462292.820    24462294.840
  24462294.020          43.750          35.000
 104102066.607 7  80968306.521 7                  19467560.940    19467564.540
  19467562.360          44.650          47.000
 126209864.168 7  98163250.005 5                  23610168.980    23610172.660
  23610172.780          45.000          34.750
 129867788.435 7 101008280.117 6                  24251898.500    24251901.300
  24251900.340          42.950          37.100
 120976716.723 7  94093024.337 6                  22639137.940    22639141.580
  22639139.640          44.800          36.900
 111621310.903 7  86816520.599 6                  20903051.460    20903054.120
  20903051.600          47.500          36.700
 111983219.199 8  87098060.234 7                  20934026.900    20934027.280
  20934025.720          48.450          44.850
 104897435.034 8  81586941.196 7                  19678478.040    19678484.280
  19678483.080          48.200          42.350
 118010700.134 7  91786084.680 6                  22053070.000    22053071.880
  22053070.860          45.950          41.100
 149458069.626 7                 111608317.155 6  28440924.360
                        43.400
 15  1 27 22  8 20.0000000  0 18G14G31G06G24G12G25G29G02R02R20R01R08
                                R11R09R19R10R21E19
 113818283.031 8  88689572.66947                  21658890.900
  21658885.900          49.600          43.150
 121792578.094 8  94903307.978 7                  23176353.020    23176348.820
  23176348.100          48.350          43.650
 131738592.216 7 102653455.218 6  98376224.685 7  25069017.400    25069016.720
  25069016.340          42.250          39.650
 119975739.095 8  93487675.005 7  89592372.868 8  22830591.700    22830590.380
  22830589.840          48.250          46.550
 114079184.842 8  88892982.745 7                  21708480.280    21708475.620
  21708474.920          50.250          46.300
 107506547.423 8  83771444.702 8  80280996.737 8  20457771.140    20457769.460
  20457768.640          50.450          49.200
 107913142.263 8  84088319.692 8                  20535120.700    20535116.840
  20535116.280          50.050          48.650
 122775930.817 8  95669547.77846                  23363473.720
  23363465.920          48.450          41.650
 130528861.703 7 101522440.802 5                  24461053.080    24461055.080
  24461054.280          43.200          35.500
 104095303.578 7  80963046.383 7                  19466296.180    19466299.820
  19466297.660          44.950          46.950
 126217479.843 7  98169173.303 5                  23611593.680    23611597.340
  23611597.480          44.000          34.900
 129884565.197 7 101021328.680 6                  24255031.460    24255034.280
  24255033.360          42.550          37.000
 120960150.910 7  94080139.824 6                  22636037.880    22636041.560
  22636039.600          44.700          36.750
 111631369.716 7  86824344.104 6                  20904935.120    20904937.780
  20904935.300          47.650          36.300
 111997359.101 8  87109057.930 7                  20936670.220    20936670.560
  20936669.040          48.900          45.050
 104891444.356 8  81582281.780 7                  19677354.220    19677360.460
  19677359.200          48.250          42.300
 117989807.570 7  91769834.914 6                  22049165.660    22049167.560
  22049166.560          46.200          41.750
 149470611.041 7                 111617682.412 6  28443310.940
                        42.900
 15  1 27 22  8 25.0000000  0 18G14G31G06G24G12G25G29G02R02R20R01R08
                                R11R09R19R10R21E19
 113821539.429 8  88692110.12247                  21659510.580
  21659505.600          49.350          43.400
 121777739.334 8  94891745.317 7                  23173529.300    23173525.080
  23173524.380          48.350          43.500
 131748097.448 6 102660861.898 6  98383322.756 7  25070826.240    25070825.520
  25070825.060          41.500          39.800
 119990608.732 8  93499261.727 7  89603476.801 8  22833421.260    22833419.960
  22833419.440          48.150          46.450
 114089448.549 8  88900980.440 7                  21710433.380    21710428.720
  21710428.020          50.250          46.300
 107506880.524 8  83771704.265 8  80281245.477 8  20457834.520    20457832.860
  20457832.020          50.300          49.250
 107904341.390 8  84081461.885 8                  20533445.920    20533442.120
  20533441.540          50.200          48.550
 122775559.578 8  95669258.51946                  23363403.060
  23363395.260          48.400          41.100
 130522265.052 7 101517310.084 5                  24459816.960    24459818.920
  24459818.060          43.100          35.300
 104088563.327 7  80957803.970 7                  19465035.720    19465039.380
  19465037.180          44.800          46.750
 126225112.923 7  98175110.135 5                  23613021.640    23613025.380
  23613025.400          44.650          34.100
 129901345.737 7 101034380.176 6                  24258165.140    24258167.980
  24258167.080          42.000          37.650
 120943586.144 7  94067256.124 6                  22632938.020    22632941.720
  22632939.760          44.400          37.250
 111641439.737 7  86832176.341 6                  20906820.840    20906823.560
  20906821.080          47.250          36.300
 112011515.760 8  87120068.658 7                  20939316.660    20939317.040
  20939315.500          48.900          45.050
 104885464.653 8  81577630.902 7                  19676232.440    19676238.680
  19676237.400          48.050          42.300
 117968924.156 7  91753592.269 6                  22045263.040    22045264.940
  22045263.980          46.550          41.750
 149483151.164 7                 111627046.710 6  28445697.260
                        42.600
 15  1 27 22  8 30.0000000  0 18G14G31G06G24G12G25G29G02R02R20R01R08
                                R11R09R19R10R21E19
 113824810.547 8  88694659.04747                  21660133.060
  21660128.120          49.100          43.750
 121762902.735 8  94880184.336 7                  23170705.960    23170701.760
  23170701.060          48.250          43.300
 131757614.133 6 102668277.487 6  98390429.352 7  25072637.240    25072636.520
  25072635.980          41.300          40.100
 120005484.293 8  93510853.081 7  89614585.183 8  22836251.940    22836250.680
  22836250.180          48.000          46.450
 114099714.963 8  88908980.245 7                  21712387.020    21712382.340
  21712381.660          50.350          46.350
 107507219.687 8  83771968.554 8  80281498.756 8  20457899.060    20457897.380
  20457896.540          50.150          49.200
 107895553.158 8  84074613.924 8                  20531773.580    20531769.800
  20531769.200          50.150          48.450
 122775200.570 7  95668978.78246                  23363334.720
  23363326.940          47.950          41.100
 130515685.325 7 101512192.465 5                  24458583.900    24458586.040
  24458584.940          42.800          35.700
 104081843.794 7  80952577.675 7                  19463779.160    19463782.780
  19463780.560          44.800          46.900
 126232761.489 7  98181059.028 5                  23614452.460    23614456.240
  23614456.240          44.050          34.650
 129918127.851 6 101047432.913 6                  24261299.160    24261301.880
  24261301.080          41.250          37.550
 120927020.326 7  94054371.601 6                  22629837.960    22629841.640
  22629839.760          44.300          37.750
 111651518.943 7  86840015.725 6                  20908708.280    20908711.020
  20908708.540          47.300          36.100
 112025686.993 8  87131090.738 7                  20941965.880    20941966.240
  20941964.660          48.950          45.100
 104879494.010 8  81572987.064 7                  19675112.340    19675118.620
  19675117.300          48.550          42.300
 117948047.806 7  91737355.112 6                  22041361.720    22041363.720
  22041362.740          46.350          41.750
 149495687.979 7                 111636408.561 6  28448082.980
                        42.950
 15  1 27 22  8 35.0000000  0 18G14G31G06G24G12G25G29G02R02R20R01R08
                                R11R09R19R10R21E19
 113828097.774 8  88697220.51447                  21660758.600
  21660753.680          48.950          44.100
 121748069.688 8  94868626.110 7                  23167883.320    23167879.160
  23167878.400          48.150          43.650
 131767143.622 6 102675703.061 6  98397545.535 7  25074450.700    25074449.920
  25074449.360          41.650          39.900
 120020367.171 7  93522450.117 7  89625699.025 8  22839084.020    22839082.820
  22839082.340          47.850          46.650
 114109985.462 8  88916983.223 7                  21714341.420    21714336.760
  21714336.080          50.450          46.350
 107507566.298 8  83772238.630 8  80281757.585 8  20457965.020    20457963.360
  20457962.500          50.100          49.150
 107886778.956 8  84067776.874 8                  20530103.880    20530100.120
  20530099.520          50.050          48.450
 122774855.170 8  95668709.62946                  23363268.980
  23363261.200          48.250          41.700
 130509123.922 7 101507089.139 6                  24457354.200    24457356.300
  24457355.260          42.850          36.650
 104075146.384 7  80947368.574 7                  19462526.740    19462530.320
  19462528.080          44.750          47.100
 126240426.862 7  98187020.968 5                  23615886.420    23615890.160
  23615890.160          43.650          33.800
 129934913.066 7 101060488.041 6                  24264433.700    24264436.340
  24264435.660          42.250          37.650
 120910454.933 7  94041487.425 6                  22626737.980    22626741.660
  22626739.820          44.200          37.550
 111661608.712 7  86847863.317 6                  20910597.680    20910600.380
  20910598.020          47.200          36.400
 112039874.346 8  87142125.351 7                  20944618.100    20944618.480
  20944616.860          48.750          45.300
 104873533.833 8  81568351.373 7                  19673994.200    19674000.460
  19673999.160          48.450          42.550
 117927179.967 7  91721124.562 6                  22037462.020    22037464.100
  22037463.060          46.150          41.850
 149508222.870 7                 111645768.951 6  28450468.340
                        43.050
 15  1 27 22  8 40.0000000  0 18G14G31G06G24G12G25G29G02R02R20R01R08
                                R11R09R19R10R21E19
 113831400.724 8  88699794.24247                  21661387.140
  21661382.220          49.000          44.000
 121733239.796 7  94857070.360 7                  23165061.280    23165057.120
  23165056.360          47.850          43.700
 131776685.547 6 102683138.333 6  98404670.997 7  25076266.500    25076265.680
  25076265.260          41.800          40.000
 120035256.917 8  93534052.510 7  89636817.985 8  22841917.440    22841916.280
  22841915.780          48.050          46.350
 114120259.687 8  88924989.117 7                  21716296.580    21716291.900
  21716291.200          50.550          46.350
 107507919.941 8  83772514.194 8  80282021.673 8  20458032.320    20458030.620
  20458029.760          49.900          49.200
 107878018.392 8  84060950.452 8                  20528436.800    20528433.040
  20528432.460          49.700          48.400
 122774523.009 8  95668450.80547                  23363205.760
  23363198.020          48.150          42.300
 130502580.649 7 101501999.956 6                  24456127.920    24456130.100
  24456129.060          42.850          37.350
 104068470.695 7  80942176.373 7                  19461278.340    19461281.920
  19461279.700          44.700          47.100
 126248108.582 7  98192995.649 5                  23617323.420    23617327.160
  23617327.140          43.500          34.900
 129951700.900 7 101073545.236 6                  24267568.780    24267571.180
  24267570.700          42.050          37.600
 120893889.473 7  94028603.180 6                  22623637.980    22623641.640
  22623639.860          44.500          37.650
 111671708.642 7  86855718.808 6                  20912488.980    20912491.880
  20912489.380          47.100          36.550
 112054077.156 8  87153171.983 7                  20947273.220    20947273.540
  20947271.900          48.500          45.550
 104867583.649 7  81563723.454 7                  19672877.960    19672884.140
  19672882.880          47.800          42.300
 117906320.257 7  91704900.345 6                  22033563.840    22033566.000
  22033564.920          45.950          41.800
 149520755.423 7                 111655127.587 6  28452853.320
                        43.600
 15  1 27 22  8 45.0000000  0 18G14G31G06G24G12G25G29G02R02R20R01R08
                                R11R09R19R10R21E19
 113834719.055 8  88702379.95747                  21662018.600
  21662013.680          49.000          43.800
 121718412.756 7  94845516.834 7                  23162239.780    23162235.660
  23162234.820          47.850          43.600
 131786239.536 6 102690583.006 6  98411805.470 7  25078084.560    25078083.660
  25078083.320          41.250          39.900
 120050153.240 8  93545660.024 7  89647941.847 8  22844752.120    22844751.000
  22844750.500          48.100          46.350
 114130537.296 8  88932997.648 7                  21718252.380    21718247.680
  21718246.980          50.500          46.300
 107508280.331 8  83772795.012 8  80282290.780 8  20458100.900    20458099.180
  20458098.340          49.800          49.100
 107869271.173 8  84054134.435 8                  20526772.240    20526768.500
  20526767.920          49.650          48.350
 122774203.776 8  95668202.05046                  23363145.000
  23363137.300          48.000          41.400
 130496055.021 7 101496924.474 6                  24454905.000    24454907.180
  24454906.200          43.400          37.750
 104061816.404 7  80937000.815 7                  19460033.960    19460037.560
  19460035.340          44.750          47.100
 126255806.303 7  98198982.741 5                  23618763.440    23618767.140
  23618767.140          43.400          34.550
 129968491.039 6 101086604.187 6                  24270704.280    24270706.700
  24270706.180          41.600          37.850
 120877323.625 7  94015718.619 6                  22620537.920    22620541.580
  22620539.820          44.350          37.800
 111681818.363 7  86863581.930 6                  20914382.120    20914385.060
  20914382.600          47.300          36.450
 112068295.359 8  87164230.583 7                  20949931.140    20949931.500
  20949929.880          48.500          45.650
 104861643.118 8  81559103.031 7                  19671763.540    19671769.720
  19671768.440          48.300          42.350
 117885468.391 7  91688682.232 7                  22029667.140    22029669.340
  22029668.280          46.300          42.000
 149533285.317 7                 111664484.263 6  28455237.760
                        44.100
 15  1 27 22  8 50.0000000  0 18G14G31G06G24G12G25G29G02R02R20R01R08
                                R11R09R19R10R21E19
 113838055.146 8  88704979.50447                  21662653.440
  21662648.540          49.050          43.800
 121703590.936 7  94833967.369 7                  23159419.280    23159415.120
  23159414.300          47.800          43.650
 131795808.001 6 102698038.951 6  98418950.751 7  25079905.380    25079904.500
  25079904.200          41.650          39.950
 120065058.509 8  93557274.522 7  89659072.411 8  22847588.500    22847587.380
  22847586.900          48.450          46.550
 114140820.670 8  88941010.662 7                  21720209.280    21720204.560
  21720203.860          50.450          46.200
 107508649.805 8  83773082.917 8  80282566.694 8  20458171.220    20458169.460
  20458168.640          49.850          49.150
 107860539.679 8  84047330.675 8                  20525110.700    20525106.960
  20525106.400          49.850          48.500
 122773899.804 7  95667965.18847                  23363087.140
  23363079.480          47.850          42.250
 130489549.331 7 101491864.490 6                  24453685.820    24453688.060
  24453687.100          42.550          38.400
 104055186.026 7  80931843.857 7                  19458794.060    19458797.640
  19458795.420          44.500          47.100
 126263522.574 7  98204984.258 5                  23620206.900    23620210.560
  23620210.560          44.150          34.000
 129985285.823 6 101099666.774 6                  24273840.560    24273843.080
  24273842.500          41.800          36.950
 120860759.889 7  94002835.726 6                  22617438.200    22617441.920
  22617440.160          44.550          37.900
 111691940.372 7  86871454.600 6                  20916277.600    20916280.600
  20916278.140          47.200          36.650
 112082531.191 8  87175302.888 7                  20952592.360    20952592.700
  20952591.140          48.950          45.750
 104855714.602 8  81554491.975 7                  19670651.340    19670657.560
  19670656.240          48.150          42.400
 117864626.714 7  91672472.045 7                  22025772.360    22025774.580
  22025773.520          46.700          42.200
 149545814.885 7                 111673840.676 6  28457622.160
                        44.000
 15  1 27 22  8 55.0000000  0 18G14G31G06G24G12G25G29G02R02R20R01R08
                                R11R09R19R10R21E19
 113841405.287 8  88707590.00547                  21663290.960
  21663286.080          49.100          43.650
 121688770.704 7  94822419.144 7                  23156599.100    23156594.880
  23156594.080          47.900          43.750
 131805387.250 7 102705503.301 6  98426104.087 7  25081728.280    25081727.360
  25081726.920          42.200          40.050
 120079969.081 8  93568893.144 7  89670206.929 8  22850425.920    22850424.760
  22850424.280          48.800          46.350
 114151106.125 8  88949025.302 7                  21722166.580    21722161.780
  21722161.120          50.250          46.150
 107509024.689 8  83773375.039 8  80282846.653 8  20458242.560    20458240.820
  20458239.980          49.850          49.150
 107851820.230 8  84040536.310 8                  20523451.420    20523447.720
  20523447.160          50.050          48.600
 122773607.469 8  95667737.40146                  23363031.520
  23363023.860          48.500          41.600
 130483060.164 6 101486817.379 6                  24452469.700    24452472.020
  24452471.140          41.750          38.000
 104048575.753 7  80926702.531 7                  19457557.900    19457561.480
  19457559.280          44.550          46.900
 126271253.598 7  98210997.287 5                  23621653.180    23621656.760
  23621656.800          44.500          34.300
 130002081.560 6 101112730.090 6                  24276977.080    24276979.720
  24276978.960          41.850          37.650
 120844194.498 7  93989951.537 6                  22614338.200    22614341.940
  22614340.220          44.250          37.600
 111702070.887 7  86879333.883 6                  20918174.640    20918177.740
  20918175.280          47.700          36.250
 112096781.000 8  87186386.073 7                  20955256.180    20955256.520
  20955255.000          48.900          45.550
 104849794.545 8  81549887.483 7                  19669540.760    19669546.940
  19669545.660          48.400          42.400
 117843791.571 7  91656266.938 6                  22021878.800    22021881.060
  22021879.980          46.700          41.800
 149558340.503 7                 111683194.125 6  28460005.820
                        44.250
 15  1 27 22  9  0.0000000  0 18G14G31G06G24G12G25G29G02R02R20R01R08
                                R11R09R19R10R21E19
 113844771.678 8  88710213.16747                  21663931.580
  21663926.680          49.300          43.100
 121673954.181 8  94810873.812 7                  23153779.620    23153775.400
  23153774.600          48.600          43.800
 131814979.409 7 102712977.708 6  98433267.078 7  25083553.620    25083552.700
  25083552.280          42.950          40.400
 120094887.050 8  93580517.530 7  89681346.967 8  22853264.760    22853263.560
  22853263.080          49.000          46.450
 114161395.826 8  88957043.247 7                  21724124.680    21724119.860
  21724119.180          50.550          46.400
 107509407.208 8  83773673.102 8  80283132.285 8  20458315.340    20458313.600
  20458312.780          50.100          49.300
 107843114.990 8  84033753.012 8                  20521794.880    20521791.160
  20521790.620          50.300          48.600
 122773328.897 8  95667520.33246                  23362978.520
  23362970.880          48.700          40.400
 130476589.466 7 101481784.629 6                  24451257.080    24451259.380
  24451258.620          43.000          37.700
 104041987.698 7  80921578.482 7                  19456325.900    19456329.500
  19456327.300          44.750          46.900
 126279001.520 7  98217023.442 5                  23623102.660    23623106.260
  23623106.220          43.950          34.350
 130018880.353 7 101125795.770 6                  24280114.160    24280116.700
  24280115.980          42.850          37.400
 120827629.687 7  93977067.801 6                  22611238.300    22611242.060
  22611240.360          44.500          37.250
 111712212.148 7  86887221.531 6                  20920073.760    20920076.900
  20920074.440          47.800          37.000
 112111046.887 8  87197481.752 7                  20957923.040    20957923.380
  20957921.840          48.950          45.450
 104843885.163 8  81545291.295 7                  19668432.140    19668438.300
  19668437.080          48.750          42.350
 117822965.199 7  91640068.644 6                  22017986.920    22017989.140
  22017988.060          46.900          41.700
 149570864.270 7                 111692546.198 6  28462389.140
                        44.350
 15  1 27 22  9  5.0000000  0 18G14G31G06G24G12G25G29G02R02R20R01R08
                                R11R09R19R10R21E19
 113848154.287 8  88712848.96847                  21664575.280
  21664570.400          49.200          43.500
 121659141.387 8  94799331.379 7                  23150960.860    23150956.600
  23150955.780          48.400          44.150
 131824584.486 7 102720462.184 6  98440439.706 7  25085381.400    25085380.460
  25085380.120          42.750          40.350
 120109812.344 8  93592147.636 7  89692492.477 8  22856105.000    22856103.740
  22856103.260          48.900          46.700
 114171689.781 8  88965064.511 7                  21726083.600    21726078.740
  21726078.060          50.400          46.550
 107509797.287 8  83773977.063 8  80283423.577 8  20458389.580    20458387.840
  20458387.000          50.000          49.400
 107834423.955 8  84026980.781 8                  20520141.000    20520137.320
  20520136.780          50.100          48.700
 122773064.106 8  95667314.00346                  23362928.140
  23362920.520          48.650          41.700
 130470137.394 7 101476766.369 6                  24450047.940    24450050.340
  24450049.480          43.000          37.100
 104035422.016 7  80916471.850 7                  19455098.060    19455101.700
  19455099.540          44.950          47.150
 126286766.280 7  98223062.698 5                  23624555.200    23624558.840
  23624558.760          43.650          34.150
 130035682.243 7 101138863.888 6                  24283251.740    24283254.260
  24283253.600          42.750          38.250
 120811065.493 7  93964184.544 6                  22608138.520    22608142.240
  22608140.580          44.050          37.150
 111722364.066 7  86895117.466 6                  20921974.860    20921978.020
  20921975.620          47.650          36.900
 112125328.784 8  87208589.895 7                  20960592.920    20960593.240
  20960591.700          49.000          45.400
 104837986.376 8  81540703.362 7                  19667325.520    19667331.720
  19667330.540          48.400          42.650
 117802147.565 7  91623877.149 6                  22014096.640    22014098.820
  22014097.780          47.300          41.800
 149583386.186 7                 111701896.899 6  28464772.100
                        44.100
 15  1 27 22  9 10.0000000  0 18G14G31G06G24G12G25G29G02R02R20R01R08
                                R11R09R19R10R21E19
 113851552.248 8  88715496.72447                  21665221.900
  21665217.000          49.100          43.700
 121644331.483 8  94787791.202 7                  23148142.660    23148138.380
  23148137.540          48.400          43.900
 131834201.656 7 102727956.088 6  98447621.349 7  25087211.480    25087210.520
  25087210.140          42.650          39.600
 120124744.306 8  93603782.923 7  89703642.962 8  22858946.520    22858945.180
  22858944.700          49.000          46.450
 114181987.149 8  88973088.428 7                  21728043.140    21728038.240
  21728037.580          50.200          46.250
 107510194.100 8  83774286.260 8  80283719.899 8  20458465.100    20458463.340
  20458462.520          49.900          49.250
 107825746.299 8  84020218.971 8                  20518489.700    20518486.020
  20518485.480          49.800          48.400
 122772812.264 8  95667117.75046                  23362880.200
  23362872.640          48.350          41.350
 130463703.049 6 101471761.841 6                  24448842.120    24448844.560
  24448843.620          41.850          36.750
 104028877.813 7  80911381.914 7                  19453874.240    19453877.900
  19453875.780          44.800          47.150
 126294547.053 7  98229114.406 5                  23626010.700    23626014.380
  23626014.280          43.100          33.800
 130052486.294 6 101151933.668 6                  24286389.840    24286392.340
  24286391.620          41.700          37.150
 120794501.073 7  93951301.114 6                  22605038.700    22605042.520
  22605040.760          44.050          37.900
 111732525.878 7  86903021.096 6                  20923877.820    20923881.060
  20923878.620          47.800          36.950
 112139625.983 8  87219709.944 7                  20963265.680    20963265.940
  20963264.400          49.150          45.350
 104832097.464 8  81536123.098 7                  19666220.780    19666226.960
  19666225.820          48.350          42.750
 117781337.885 7  91607691.830 6                  22010207.880    22010210.020
  22010208.980          47.400          41.800
 149595905.423 7                 111711245.585 6  28467154.540
                        43.900
 15  1 27 22  9 15.0000000  0 18G14G31G06G24G12G25G29G02R02R20R01R08
                                R11R09R19R10R21E19
 113854966.300 8  88718157.02047                  21665871.600
  21665866.660          49.150          43.750
 121629525.281 8  94776253.904 7                  23145325.160    23145320.820
  23145320.020          48.450          44.050
 131843831.621 7 102735459.966 6  98454812.555 7  25089044.040    25089042.940
  25089042.640          43.100          39.700
 120139683.565 8  93615423.915 7  89714798.908 8  22861789.420    22861788.040
  22861787.540          48.950          46.600
 114192288.661 8  88981115.576 7                  21730003.440    21729998.580
  21729997.880          50.200          46.250
 107510598.414 8  83774601.306 8  80284021.816 8  20458542.040    20458540.280
  20458539.460          49.850          49.250
 107817082.764 8  84013468.171 8                  20516841.080    20516837.400
  20516836.860          49.800          48.400
 122772574.093 8  95666932.17746                  23362834.860
  23362827.340          48.100          41.650
 130457287.196 7 101466771.717 5                  24447639.800    24447642.220
  24447641.260          42.900          34.900
 104022355.762 7  80906309.207 7                  19452654.580    19452658.280
  19452656.160          44.700          47.050
 126302344.686 7  98235179.203 5                  23627469.400    23627473.160
  23627472.940          43.350          33.900
 130069293.269 6 101165005.736 6                  24289528.460    24289530.940
  24289530.160          40.850          36.000
 120777937.096 7  93938418.027 6                  22601938.960    22601942.780
  22601941.060          44.100          37.900
 111742698.333 7  86910932.995 6                  20925782.760    20925786.080
  20925783.580          47.650          36.400
 112153939.043 8  87230842.330 7                  20965941.380    20965941.600
  20965940.080          49.000          45.250
 104826218.962 8  81531550.926 7                  19665117.980    19665124.200
  19665123.040          48.050          42.600
 117760536.885 7  91591513.277 6                  22006320.740    22006322.880
  22006321.820          47.400          41.650
 149608422.723 7                 111720592.824 6  28469536.540
                        43.800
 15  1 27 22  9 20.0000000  0 18G14G31G06G24G12G25G29G02R02R20R01R08
                                R11R09R19R10R21E19
 113858396.154 8  88720829.63847                  21666524.300
  21666519.320          49.150          43.900
 121614722.448 8  94764719.235 7                  23142508.280    23142503.940
  23142503.120          48.300          44.200
 131853474.109 7 102742973.603 6  98462013.115 7  25090878.960    25090877.780
  25090877.640          42.900          39.350
 120154629.701 8  93627070.258 7  89725959.986 8  22864633.660    22864632.240
  22864631.680          48.700          46.700
 114202594.027 8  88989145.739 7                  21731964.460    21731959.620
  21731958.900          50.200          46.350
 107511009.936 8  83774921.979 8  80284329.127 8  20458620.340    20458618.580
  20458617.800          49.800          49.300
 107808433.086 8  84006728.174 8                  20515195.100    20515191.400
  20515190.880          49.950          48.700
 122772349.356 7  95666757.06146                  23362792.020
  23362784.640          47.600          41.650
 130450889.556 6 101461795.787 6                  24446440.920    24446443.280
  24446442.360          41.800          36.350
 104015855.694 7  80901253.607 7                  19451439.000    19451442.760
  19451440.620          44.700          47.100
 126310158.687 7  98241256.761 5                  23628931.140    23628934.920
  23628934.780          43.300          33.950
 130086102.972 6 101178079.946 5                  24292667.560    24292670.100
  24292669.180          41.550          35.100
 120761373.391 7  93925535.166 6                  22598839.260    22598843.020
  22598841.460          44.250          37.400
 111752881.126 7  86918852.949 6                  20927689.680    20927693.000
  20927690.520          47.500          36.650
 112168267.663 8  87241986.826 7                  20968619.980    20968620.240
  20968618.680          49.150          45.300
 104820350.689 7  81526986.735 7                  19664017.120    19664023.280
  19664022.220          47.850          42.700
 117739744.309 7  91575341.279 7                  22002435.160    22002437.280
  22002436.240          47.700          42.000
 149620937.782 7                 111729938.371 6  28471918.100
                        43.550
 15  1 27 22  9 25.0000000  0 18G14G31G06G24G12G25G29G02R02R20R01R08
                                R11R09R19R10R21E19
 113861841.854 8  88723514.59547                  21667180.040
  21667175.000          49.150          43.300
 121599923.107 8  94753187.287 7                  23139692.060    23139687.720
  23139686.920          48.750          44.250
 131863129.178 7 102750497.027 6  98469223.074 7  25092716.280    25092715.080
  25092714.960          42.550          40.000
 120169583.007 8  93638722.189 7  89737126.415 8  22867479.240    22867477.760
  22867477.220          48.400          46.900
 114212903.340 8  88997178.972 7                  21733926.240    21733921.420
  21733920.680          50.150          46.250
 107511428.707 8  83775248.296 8  80284641.852 8  20458700.020    20458698.260
  20458697.480          49.850          49.350
 107799797.305 8  83999998.996 8                  20513551.760    20513548.060
  20513547.560          50.200          48.750
 122772138.101 7  95666592.44346                  23362751.760
  23362744.460          47.550          41.850
 130444510.256 6 101456834.114 6                  24445245.480    24445247.800
  24445246.940          41.800          37.350
 104009377.673 7  80896215.142 7                  19450227.600    19450231.340
  19450229.200          44.650          47.000
 126317989.099 7  98247347.063 5                  23630396.020    23630399.700
  23630399.560          44.000          33.100
 130102915.256 6 101191156.129 6                  24295807.160    24295809.640
  24295808.660          40.550          36.000
 120744809.945 7  93912652.478 6                  22595739.600    22595743.320
  22595741.820          43.850          37.100
 111763074.308 7  86926780.980 6                  20929598.540    20929601.860
  20929599.400          47.750          36.600
 112182612.097 8  87253143.601 7                  20971301.540    20971301.780
  20971300.220          49.200          45.050
 104814492.915 7  81522430.686 7                  19662918.220    19662924.440
  19662923.320          47.950          42.600
 117718960.243 7  91559175.896 7                  21998551.200    21998553.200
  21998552.240          47.700          42.000
 149633450.625 7                 111739282.326 6  28474299.240
                        43.600
 15  1 27 22  9 30.0000000  0 18G14G31G06G24G12G25G29G02R02R20R01R08
                                R11R09R19R10R21E19
 113865302.954 8  88726211.55447                  21667838.680
  21667833.600          48.950          44.200
 121585126.729 8  94741657.638 7                  23136876.420    23136872.060
  23136871.280          48.600          44.400
 131872796.297 7 102758029.849 6  98476442.025 7  25094555.920    25094554.680
  25094554.540          42.350          39.750
 120184542.868 8  93650379.218 7  89748297.746 8  22870326.040    22870324.520
  22870324.000          48.100          46.850
 114223216.082 8  89005214.871 7                  21735888.660    21735883.840
  21735883.100          49.900          46.250
 107511854.234 8  83775579.877 8  80284959.611 8  20458781.000    20458779.240
  20458778.460          49.850          49.400
 107791174.911 8  83993280.248 8                  20511911.000    20511907.260
  20511906.760          50.150          48.900
 122771939.802 7  95666437.93647                  23362713.960
  23362706.740          47.400          42.600
 130438148.692 7 101451886.228 6                  24444053.300    24444055.620
  24444054.860          42.250          37.150
 104002921.088 7  80891193.354 7                  19449020.140    19449023.940
  19449021.820          44.700          47.050
 126325835.583 7  98253449.900 5                  23631863.840    23631867.420
  23631867.260          43.550          33.000
 130119729.731 6 101204234.048 6                  24298947.220    24298949.660
  24298948.640          40.600          37.150
 120728246.291 7  93899769.657 6                  22592639.920    22592643.640
  22592642.180          44.700          36.950
 111773277.369 8  86934716.690 6                  20931509.300    20931512.640
  20931510.140          48.000          36.800
 112196971.594 8  87264312.091 7                  20973985.860    20973986.140
  20973984.580          49.150          44.950
 104808644.941 7  81517882.264 7                  19661821.200    19661827.380
  19661826.260          47.950          42.600
 117698184.185 7  91543016.744 7                  21994668.740    21994670.700
  21994669.740          47.650          42.000
 149645960.768 7                 111748624.216 6  28476679.860
                        43.300
 15  1 27 22  9 35.0000000  0 18G14G31G06G24G12G25G29G02R02R20R01R08
                                R11R09R19R10R21E19
 113868780.232 8  88728921.11547                  21668500.400
  21668495.260          49.000          43.800
 121570334.128 8  94730130.938 7                  23134061.480    23134057.120
  23134056.380          48.650          44.250
 131882476.238 7 102765572.672 6  98483670.568 7  25096397.960    25096396.720
  25096396.580          42.450          39.100
 120199510.134 8  93662042.016 7  89759474.585 8  22873174.240    22873172.720
  22873172.180          48.100          46.800
 114233533.046 8  89013254.055 7                  21737851.860    21737847.080
  21737846.340          50.000          46.200
 107512287.330 8  83775917.348 8  80285283.020 8  20458863.420    20458861.660
  20458860.900          49.800          49.450
 107782566.729 8  83986572.567 8                  20510272.900    20510269.180
  20510268.680          50.100          48.900
 122771755.306 7  95666294.17947                  23362678.800
  23362671.660          47.600          42.350
 130431805.657 6 101446952.742 6                  24442864.580    24442867.040
  24442866.260          40.550          36.600
 103996486.788 7  80886188.901 7                  19447816.900    19447820.700
  19447818.560          44.500          46.800
 126333698.921 7  98259565.811 5                  23633334.880    23633338.360
  23633338.160          43.250          31.800
 130136547.183 6 101217314.250 6                  24302087.740    24302090.160
  24302089.260          41.250          38.150
 120711683.281 7  93886887.307 6                  22589540.400    22589544.180
  22589542.640          44.650          37.100
 111783491.171 8  86942660.752 6                  20933422.060    20933425.320
  20933422.880          48.250          37.000
 112211347.163 8  87275493.083 7                  20976673.220    20976673.480
  20976671.940          49.050          44.850
 104802807.586 7  81513342.091 7                  19660726.120    19660732.300
  19660731.160          47.900          42.450
 117677416.978 7  91526864.470 7                  21990787.940    21990789.860
  21990788.900          47.450          42.300
 149658469.035 7                 111757964.691 6  28479060.120
                        43.800
 15  1 27 22  9 40.0000000  0 18G14G31G06G24G12G25G29G02R02R20R01R08
                                R11R09R19R10R21E19
 113872273.691 8  88731643.29747                  21669165.160
  21669160.020          49.100          43.350
 121555545.373 8  94718607.226 7                  23131247.300    23131242.880
  23131242.160          48.400          44.050
 131892169.101 6 102773125.561 6  98490908.748 7  25098242.540    25098241.140
  25098241.000          41.750          39.250
 120214484.647 7  93673710.473 7  89770656.871 8  22876023.780    22876022.260
  22876021.740          47.750          46.600
 114243854.224 8  89021296.534 7                  21739815.920    21739811.140
  21739810.380          49.950          46.250
 107512728.025 8  83776260.751 8  80285612.122 8  20458947.260    20458945.520
  20458944.760          49.900          49.450
 107773972.799 8  83979876.007 8                  20508637.540    20508633.820
  20508633.300          50.050          48.800
 122771584.619 7  95666161.18147                  23362646.260
  23362639.200          47.550          42.700
 130425481.298 6 101442033.755 6                  24441679.320    24441682.140
  24441681.100          39.200          36.550
 103990074.897 7  80881201.878 7                  19446617.880    19446621.640
  19446619.480          44.150          46.900
 126341578.974 7  98265694.763 5                  23634808.900    23634812.500
  23634812.100          42.400          32.550
 130153367.655 6 101230396.771 6                  24305228.940    24305231.400
  24305230.420          41.100          37.950
 120695120.958 7  93874005.500 6                  22586441.000    22586444.740
  22586443.260          44.850          37.050
 111793715.642 8  86950613.120 6                  20935336.800    20935340.020
  20935337.640          48.250          36.600
 112225738.684 8  87286686.486 7                  20979363.520    20979363.800
  20979362.260          48.700          44.750
 104796980.846 7  81508810.180 7                  19659633.020    19659639.200
  19659638.080          47.850          42.350
 117656658.681 7  91510719.132 7                  21986908.820    21986910.720
  21986909.740          47.350          42.400
 149670975.394 7                 111767303.782 6  28481440.080
                        44.050
 15  1 27 22  9 45.0000000  0 18G14G31G06G24G12G25G29G02R02R20R01R08
                                R11R09R19R10R21E19
 113875782.927 8  88734377.76547                  21669832.960
  21669827.760          49.100          43.300
 121540760.007 8  94707086.175 7                  23128433.740    23128429.340
  23128428.580          48.300          44.150
 131901874.413 6 102780688.131 6  98498156.224 7  25100089.420    25100088.020
  25100087.860          41.150          39.600
 120229466.156 7  93685384.377 7  89781844.348 8  22878874.640    22878873.160
  22878872.660          47.400          46.700
 114254179.268 8  89029342.017 7                  21741780.700    21741775.940
  21741775.140          50.050          46.200
 107513175.867 8  83776609.721 8  80285946.547 8  20459032.480    20459030.760
  20459029.980          49.700          49.400
 107765392.724 8  83973190.238 8                  20507004.820    20507001.100
  20507000.540          49.950          48.750
 122771427.347 7  95666038.61647                  23362616.280
  23362609.280          47.450          42.400
 130419175.273 6 101437129.102 6                  24440497.440    24440500.440
  24440499.360          41.550          37.000
 103983685.042 7  80876231.993 7                  19445422.940    19445426.740
  19445424.520          44.100          46.900
 126349475.460 7  98271836.453 5                  23636286.060    23636289.400
  23636289.260          42.850          32.300
 130170190.496 6 101243481.183 6                  24308370.460    24308373.000
  24308372.020          41.100          37.600
 120678558.747 7  93861123.791 6                  22583341.600    22583345.340
  22583343.900          45.050          36.800
 111803950.481 8  86958573.550 6                  20937253.480    20937256.780
  20937254.280          48.400          36.850
 112240145.742 8  87297891.969 7                  20982056.760    20982057.020
  20982055.440          48.800          44.600
 104791164.403 8  81504286.292 7                  19658541.860    19658548.080
  19658546.940          48.050          42.650
 117635908.860 7  91494580.384 7                  21983031.260    21983033.160
  21983032.140          47.350          42.750
 149683479.456 7                 111776641.142 6  28483819.580
                        44.050
 15  1 27 22  9 50.0000000  0 18G14G31G06G24G12G25G29G02R02R20R01R08
                                R11R09R19R10R21E19
 113879307.553 8  88737124.22247                  21670503.660
  21670498.440          49.150          43.900
 121525977.619 8  94695567.436 7                  23125620.720    23125616.340
  23125615.580          48.150          43.950
 131911591.751 6 102788260.079 6  98505412.680 7  25101938.540    25101937.140
  25101936.820          40.850          38.900
 120244454.222 7  93697063.389 7  89793036.738 8  22881726.720    22881725.280
  22881724.800          47.000          46.750
 114264507.691 8  89037390.134 7                  21743746.160    21743741.380
  21743740.560          50.250          46.250
 107513630.470 8  83776963.953 8  80286286.023 8  20459118.980    20459117.280
  20459116.500          49.700          49.450
 107756826.089 8  83966514.932 8                  20505374.660    20505370.920
  20505370.340          50.000          48.650
 122771283.036 7  95665926.17846                  23362588.820
  23362581.840          47.800          41.650
 130412887.008 6 101432238.250 5                  24439319.000    24439322.040
  24439320.900          41.900          35.900
 103977316.650 7  80871278.799 7                  19444232.000    19444235.820
  19444233.600          44.150          46.950
 126357387.718 7  98277990.415 5                  23637766.140    23637769.580
  23637769.420          42.750          32.450
 130187015.504 7 101256567.277 6                  24311512.380    24311514.960
  24311513.980          43.250          37.100
 120661996.418 7  93848241.986 6                  22580242.180    22580245.940
  22580244.480          44.650          36.250
 111814195.222 8  86966541.683 6                  20939172.020    20939175.260
  20939172.780          48.000          36.650
 112254567.803 8  87309109.134 7                  20984752.840    20984753.000
  20984751.400          48.850          44.550
 104785357.914 8  81499770.134 7                  19657452.600    19657458.840
  19657457.680          48.000          42.250
 117615167.106 7  91478447.915 7                  21979155.200    21979157.040
  21979156.080          47.150          42.550
 149695980.786 7                 111785976.433 6  28486198.580
                        44.200
 15  1 27 22  9 55.0000000  0 18G14G31G06G24G12G25G29G02R02R20R01R08
                                R11R09R19R10R21E19
 113882849.484 8  88739884.17247                  21671177.660
  21671172.420          49.100          43.950
 121511200.207 8  94684052.584 7                  23122808.680    23122804.300
  23122803.500          48.000          44.000
 131921323.057 6 102795842.923 6  98512679.564 7  25103790.300    25103788.920
  25103788.500          41.400          39.000
 120259450.756 7  93708748.994 7  89804235.450 8  22884580.400    22884579.060
  22884578.540          47.200          46.700
 114274841.453 8  89045442.425 7                  21745712.640    21745707.820
  21745706.980          50.450          46.250
 107514093.783 8  83777324.978 8  80286632.004 8  20459207.140    20459205.440
  20459204.660          49.650          49.450
 107748274.853 8  83959851.629 8                  20503747.420    20503743.660
  20503743.080          50.000          48.800
 122771153.696 7  95665825.39646                  23362564.220
  23362557.180          47.850          41.500
 130406618.419 6 101427362.637 6                  24438144.260    24438147.240
  24438146.080          41.950          36.100
 103970971.770 7  80866343.897 7                  19443045.500    19443049.300
  19443047.080          44.650          47.150
 126365317.988 7  98284158.401 5                  23639249.620    23639253.080
  23639252.960          42.650          32.800
 130203844.447 7 101269656.438 6                  24314655.040    24314657.680
  24314656.740          42.750          36.850
 120645435.904 7  93835361.594 6                  22577143.100    22577146.860
  22577145.380          44.400          36.050
 111824451.840 8  86974519.052 6                  20941092.800    20941096.080
  20941093.540          48.100          37.150
 112269007.005 8  87320339.639 7                  20987452.120    20987452.220
  20987450.620          49.000          44.850
 104779563.307 8  81495263.226 7                  19656365.580    19656371.820
  19656370.640          48.400          42.600
 117594435.428 7  91462323.294 7                  21975281.020    21975282.820
  21975281.860          47.600          42.700
 149708481.307 7                 111795311.153 6  28488577.480
                        44.050
 15  1 27 22 10  0.0000000  0 18G14G31G06G24G12G25G29G02R02R20R01R08
                                R11R09R19R10R21E19
 113886405.524 8  88742655.11147                  21671854.360
  21671849.100          49.200          43.750
 121496424.576 8  94672539.114 7                  23119996.960    23119992.560
  23119991.780          48.450          43.550
 131931065.113 6 102803434.150 6  98519954.497 7  25105644.160    25105642.800
  25105642.360          41.700          38.700
 120274452.560 7  93720438.705 7  89815438.089 8  22887435.060    22887433.820
  22887433.300          47.400          46.650
 114285177.361 8  89053496.381 7                  21747679.540    21747674.680
  21747673.840          50.600          46.100
 107514562.592 8  83777690.288 8  80286982.093 8  20459296.340    20459294.640
  20459293.880          49.900          49.350
 107739735.812 8  83953197.835 8                  20502122.520    20502118.760
  20502118.140          50.000          48.700
 122771036.099 8  95665733.76046                  23362541.840
  23362534.780          48.400          41.350
 130400366.497 7 101422500.043 5                  24436972.660    24436975.500
  24436974.480          42.650          35.800
 103964647.187 7  80861424.791 7                  19441862.760    19441866.560
  19441864.380          44.550          47.000
 126373262.865 7  98290337.735 5                  23640735.900    23640739.380
  23640739.260          43.150          33.250
 130220674.288 7 101282746.266 6                  24317797.840    24317800.560
  24317799.660          42.150          36.750
 120628874.011 7  93822480.124 6                  22574043.720    22574047.500
  22574046.020          45.150          36.350
 111834717.010 8  86982503.079 6                  20943015.200    20943018.440
  20943015.900          48.450          36.600
 112283459.880 8  87331580.766 7                  20990153.960    20990154.040
  20990152.400          49.000          44.750
 104773777.368 8  81490763.043 7                  19655280.160    19655286.380
  19655285.220          48.450          42.250
 117573710.616 7  91446203.996 7                  21971408.160    21971409.960
  21971408.940          47.900          42.400
 149720977.834 7                 111804642.900 6  28490955.620
                        43.950
 15  1 27 22 10  5.0000000  0 18G14G31G06G24G12G25G29G02R02R20R01R08
                                R11R09R19R10R21E19
 113889978.142 8  88745438.96047                  21672534.180
  21672528.940          49.150          43.300
 121481653.189 8  94661028.930 7                  23117186.060    23117181.640
  23117180.840          48.250          43.400
 131940820.416 7 102811035.687 6  98527239.313 7  25107500.560    25107499.180
  25107498.660          42.100          38.500
 120289462.132 7  93732134.463 7  89826646.535 8  22890291.200    22890290.040
  22890289.520          47.600          46.600
 114295517.886 8  89061553.931 7                  21749647.300    21749642.420
  21749641.560          50.600          46.250
 107515039.374 8  83778061.808 8  80287338.137 8  20459387.080    20459385.380
  20459384.600          49.950          49.300
 107731211.480 8  83946555.502 8                  20500500.400    20500496.620
  20500496.020          49.950          48.750
 122770932.743 8  95665653.21746                  23362522.200
  23362515.100          48.300          41.500
 130394133.699 7 101417652.347 5                  24435804.620    24435807.440
  24435806.460          42.200          35.850
 103958345.391 7  80856523.391 7                  19440684.260    19440688.120
  19440685.940          44.150          46.900
 126381224.880 7  98296530.429 5                  23642225.440    23642228.760
  23642228.680          43.050          32.300
 130237507.296 7 101295838.568 6                  24320941.300    24320944.020
  24320943.180          43.650          37.850
 120612313.117 7  93809599.443 5                  22570944.560    22570948.400
  22570946.760          44.700          35.950
 111844993.375 8  86990495.801 6                  20944939.680    20944942.840
  20944940.360          48.300          36.600
 112297929.108 8  87342834.610 7                  20992858.880    20992858.900
  20992857.280          49.000          44.800
 104768002.540 8  81486271.510 7                  19654196.820    19654203.040
  19654201.880          48.650          42.250
 117552995.169 7  91430091.981 7                  21967537.060    21967538.760
  21967537.780          47.700          42.550
 149733472.834 7                 111813973.488 6  28493333.460
                        43.650
 15  1 27 22 10 10.0000000  0 18G14G31G06G24G12G25G29G02R02R20R01R08
                                R11R09R19R10R21E19
 113893567.672 8  88748236.00047                  21673217.220
  21673212.000          48.900          43.750
 121466886.445 8  94649522.386 7                  23114376.020    23114371.600
  23114370.780          48.250          43.400
 131950589.325 7 102818647.834 6  98534534.278 7  25109359.520    25109358.280
  25109357.600          42.700          38.650
 120304479.765 7  93743836.513 7  89837860.997 8  22893148.860    22893147.820
  22893147.320          47.300          46.450
 114305863.409 8  89069615.382 7                  21751616.040    21751611.080
  21751610.220          50.550          46.350
 107515524.506 8  83778439.837 8  80287700.414 8  20459479.400    20459477.720
  20459476.920          50.150          49.350
 107722702.211 8  83939924.907 8                  20498881.160    20498877.360
  20498876.760          49.900          48.850
 122770843.967 8  95665584.04546                  23362505.340
  23362498.180          48.200          41.650
 130387920.321 6 101412819.730 6                  24434640.200    24434643.100
  24434642.100          41.850          36.600
 103952066.849 7  80851640.082 7                  19439510.120    19439514.020
  19439511.820          44.050          46.900
 126389204.414 7  98302736.742 5                  23643718.220    23643721.360
  23643721.400          42.350          33.050
 130254343.942 7 101308933.730 6                  24324085.420    24324088.140
  24324087.400          44.050          37.750
 120595753.764 7  93796719.928 5                  22567845.680    22567849.540
  22567847.820          45.150          35.800
 111855281.343 8  86998497.557 6                  20946866.320    20946869.500
  20946866.980          48.350          36.450
 112312414.855 8  87354101.308 7                  20995566.860    20995566.900
  20995565.280          49.000          45.050
 104762239.272 8  81481788.976 7                  19653115.680    19653121.840
  19653120.720          48.400          42.250
 117532289.482 8  91413987.570 6                  21963667.760    21963669.400
  21963668.440          48.000          41.900
 149745966.676 7                 111823303.187 6  28495711.080
                        43.200
 15  1 27 22 10 15.0000000  0 18G14G31G06G24G12G25G29G02R02R20R01R08
                                R11R09R19R10R21E19
 113897171.350 8  88751044.05647                  21673902.960
  21673897.780          48.850          43.550
 121452121.548 8  94638017.272 7                  23111566.360    23111561.900
  23111561.060          48.300          43.250
 131960369.014 7 102826268.363 6  98541837.289 7  25111220.540    25111219.320
  25111218.580          43.100          38.650
 120319502.694 7  93755542.677 7  89849079.409 8  22896007.560    22896006.580
  22896006.080          47.200          46.400
 114316211.118 8  89077678.525 7                  21753585.180    21753580.180
  21753579.340          50.300          46.550
 107516015.189 8  83778822.190 8  80288066.832 8  20459572.780    20459571.080
  20459570.300          50.150          49.350
 107714205.200 8  83933303.854 8                  20497264.240    20497260.420
  20497259.820          49.850          48.850
 122770766.986 8  95665524.04946                  23362490.720
  23362483.500          48.350          41.250
 130381723.697 6 101408000.099 6                  24433478.980    24433481.860
  24433480.840          41.700          36.750
 103945808.510 7  80846772.479 7                  19438339.760    19438343.660
  19438341.500          44.150          47.000
 126397198.497 6  98308954.360 5                  23645213.620    23645216.880
  23645216.860          41.850          33.300
 130271181.290 7 101322029.414 6                  24327229.720    24327232.420
  24327231.760          43.300          38.050
 120579192.972 7  93783839.308 5                  22564746.560    22564750.340
  22564748.620          45.050          35.600
 111865577.877 8  87006505.966 6                  20948794.580    20948797.700
  20948795.180          48.350          36.550
 112326914.461 8  87365378.765 7                  20998277.440    20998277.460
  20998275.880          48.850          45.100
 104756484.804 8  81477313.264 7                  19652036.200    19652042.280
  19652041.180          48.400          42.350
 117511590.738 7  91397888.539 7                  21959799.780    21959801.340
  21959800.380          47.950          42.350
 149758456.503 7                 111832629.919 6  28498087.940
                        42.800
 15  1 27 22 10 20.0000000  0 18G14G31G06G24G12G25G29G02R02R20R01R08
                                R11R09R19R10R21E19
 113900791.533 8  88753864.97647                  21674591.860
  21674586.680          48.850          44.000
 121437360.863 8  94626515.439 7                  23108757.500    23108752.980
  23108752.140          48.050          43.150
 131970161.846 7 102833899.141 6  98549150.100 7  25113084.100    25113082.800
  25113082.120          42.400          38.650
 120334533.286 7  93767254.821 7  89860303.550 8  22898867.720    22898866.800
  22898866.260          47.300          46.350
 114326563.346 8  89085745.192 7                  21755555.160    21755550.160
  21755549.320          50.150          46.600
 107516513.750 8  83779210.681 8  80288439.138 8  20459667.660    20459665.960
  20459665.180          49.950          49.350
 107705722.810 8  83926694.195 8                  20495650.080    20495646.320
  20495645.660          49.850          48.800
 122770704.154 8  95665475.09646                  23362478.800
  23362471.500          48.300          41.600
 130375545.906 6 101403195.154 5                  24432321.180    24432324.160
  24432323.080          41.800          35.650
 103939573.018 7  80841922.649 7                  19437173.640    19437177.600
  19437175.420          44.450          47.000
 126405209.560 7  98315185.170 5                  23646712.200    23646715.540
  23646715.480          42.200          33.500
 130288021.862 6 101335127.599 6                  24330374.580    24330377.240
  24330376.700          41.450          37.200
 120562633.235 7  93770959.527 5                  22561647.600    22561651.340
  22561649.640          45.000          35.700
 111875885.414 8  87014522.932 6                  20950724.900    20950727.980
  20950725.440          48.350          36.200
 112341430.223 8  87376668.796 7                  21000990.980    21000991.080
  21000989.500          48.750          44.950
 104750741.405 8  81472846.168 7                  19650958.760    19650964.820
  19650963.720          48.600          42.350
 117490901.367 8  91381796.819 7                  21955933.540    21955935.040
  21955934.100          48.100          42.000
 149770944.719 7                 111841955.435 6  28500464.440
                        42.050
 15  1 27 22 10 25.0000000  0 18G14G31G06G24G12G25G29G02R02R20R01R08
                                R11R09R19R10R21E19
 113904428.767 8  88756699.19047                  21675283.980
  21675278.820          49.050          43.950
 121422604.999 7  94615017.368 7                  23105949.560    23105945.020
  23105944.140          47.950          42.900
 131979968.376 7 102841540.595 6  98556473.168 7  25114950.260    25114948.980
  25114948.240          42.650          38.750
 120349572.147 7  93778973.413 7  89871533.864 8  22901729.480    22901728.560
  22901728.040          47.450          46.150
 114336920.716 8  89093815.872 7                  21757526.120    21757521.120
  21757520.280          50.050          46.550
 107517020.822 8  83779605.806 8  80288817.799 8  20459764.160    20459762.440
  20459761.660          49.800          49.400
 107697255.627 8  83920096.390 8                  20494038.840    20494035.060
  20494034.420          49.850          48.800
 122770656.041 8  95665437.62046                  23362469.640
  23362462.320          48.100          41.350
 130369387.770 7 101398405.472 5                  24431167.100    24431170.200
  24431168.960          42.300          35.150
 103933360.808 7  80837090.941 7                  19436011.900    19436015.900
  19436013.700          44.450          46.850
 126413238.381 7  98321429.813 5                  23648214.060    23648217.560
  23648217.380          42.300          32.400
 130304866.097 6 101348228.657 6                  24333520.140    24333522.940
  24333522.300          41.600          38.200
 120546075.104 7  93758080.976 5                  22558548.960    22558552.780
  22558550.940          45.000          35.500
 111886204.693 8  87022549.049 6                  20952657.420    20952660.440
  20952657.920          48.100          36.750
 112355962.725 8  87387971.847 7                  21003707.640    21003707.780
  21003706.200          48.800          44.850
 104745009.704 8  81468388.187 7                  19649883.520    19649889.600
  19649888.460          48.250          42.300
 117470221.968 7  91365712.846 6                  21952069.200    21952070.620
  21952069.620          47.900          41.950
 149783431.913 6                 111851280.190 6  28502840.720
                        41.000
 15  1 27 22 10 30.0000000  0 18G14G31G06G24G12G25G29G02R02R20R01R08
                                R11R09R19R10R21E19
 113908080.107 8  88759544.38447                  21675978.800
  21675973.640          49.200          43.700
 121407850.969 8  94603520.717 7                  23103141.960    23103137.420
  23103136.460          48.100          43.250
 131989785.662 7 102849190.422 6  98563804.252 7  25116818.440    25116817.120
  25116816.380          42.900          38.600
 120364616.262 7  93790696.097 7  89882768.099 8  22904592.260    22904591.360
  22904590.800          47.550          46.250
 114347280.214 8  89101888.205 7                  21759497.460    21759492.460
  21759491.660          50.000          46.700
 107517533.419 8  83780005.224 8  80289200.577 8  20459861.720    20459860.000
  20459859.200          49.800          49.450
 107688800.674 8  83913508.117 8                  20492429.900    20492426.140
  20492425.480          49.750          48.900
 122770619.732 7  95665409.33146                  23362462.700
  23362455.380          47.900          41.700
 130363246.278 7 101393628.745 6                  24430016.140    24430019.160
  24430017.980          43.800          36.300
 103927169.021 7  80832275.113 7                  19434853.980    19434857.980
  19434855.780          44.650          46.800
 126421281.632 7  98327685.679 5                  23649718.720    23649722.260
  23649722.060          43.050          32.650
 130321710.979 7 101361330.176 6                  24336665.720    24336668.800
  24336668.080          42.100          38.500
 120529515.669 7  93745201.407 5                  22555450.120    22555453.940
  22555452.040          45.250          35.700
 111896532.655 8  87030581.902 6                  20954591.560    20954594.520
  20954592.000          48.200          36.850
 112370508.882 8  87399285.508 7                  21006426.880    21006427.020
  21006425.460          49.050          44.950
 104739286.777 8  81463937.017 7                  19648809.880    19648816.020
  19648814.820          48.150          42.350
 117449549.521 7  91349634.273 6                  21948206.120    21948207.500
  21948206.480          47.900          41.950
 149795915.039 6                 111860601.895 6  28505216.180
                        40.400
 15  1 27 22 10 35.0000000  0 18G14G31G06G24G12G25G29G02R02R20R01R08
                                R11R09R19R10R21E19
 113911747.074 8  88762401.75047                  21676676.600
  21676671.440          49.150          43.500
 121393100.324 8  94592026.697 7                  23100335.000    23100330.440
  23100329.460          48.200          43.100
 131999615.216 6 102856849.815 6  98571144.502 7  25118688.960    25118687.560
  25118686.920          41.950          39.000
 120379667.154 7  93802424.060 7  89894007.411 8  22907456.340    22907455.400
  22907454.860          47.600          46.150
 114357643.315 8  89109963.342 7                  21761469.460    21761464.500
  21761463.720          50.050          46.550
 107518053.060 8  83780410.136 8  80289588.625 8  20459960.620    20459958.860
  20459958.080          49.750          49.400
 107680359.505 8  83906930.595 8                  20490823.580    20490819.860
  20490819.200          49.800          48.950
 122770596.731 7  95665391.40846                  23362458.280
  23362450.980          47.750          41.800
 130357122.971 7 101388866.177 6                  24428868.700    24428871.740
  24428870.460          43.700          36.250
 103920998.936 7  80827476.156 7                  19433700.100    19433704.120
  19433701.920          44.600          46.700
 126429341.073 7  98333954.137 5                  23651226.420    23651229.940
  23651229.840          43.050          33.600
 130338558.111 6 101374433.453 6                  24339811.860    24339814.780
  24339814.200          41.900          37.400
 120512956.399 7  93732321.977 6                  22552351.280    22552355.060
  22552353.200          45.150          36.050
 111906870.833 8  87038622.696 6                  20956527.560    20956530.500
  20956528.000          48.300          36.350
 112385070.316 8  87410611.061 7                  21009149.000    21009149.120
  21009147.560          49.200          44.800
 104733574.165 8  81459493.875 7                  19647738.220    19647744.360
  19647743.120          48.200          42.250
 117428885.584 7  91333562.331 6                  21944344.640    21944345.900
  21944344.900          47.800          41.800
 149808395.659 6                 111869921.788 6  28507591.160
                        40.350
