     2.11           OBSERVATION DATA    M (MIXED)           RINEX VERSION / TYPE
teqc  2011Oct11     IGN-E (SPG)         20150127 13:00:51UTCPGM / RUN BY / DATE
Linux 2.4.21-27.ELsmp|Opteron|gcc -static|Linux x86_64|=+   COMMENT
BIT 2 OF LLI FLAGS DATA COLLECTED UNDER A/S CONDITION       COMMENT
VALE                                                        MARKER NAME
13439M001                                                   MARKER NUMBER
Programas GeodesicosInstituto Geografico Nacional           OBSERVER / AGENCY
1700071             LEICA GR10          3.03/6.214          REC # / TYPE / VERS
10190012            LEIAR25.R3      LEIT                    ANT # / TYPE
  4929534.0457   -29050.6755  4033709.9250                  APPROX POSITION XYZ
        3.0390        0.0000        0.0000                  ANTENNA: DELTA H/E/N
     1     1                                                WAVELENGTH FACT L1/2
     8    L1    L2    L5    C1    C2    P2    S1    S2      # / TYPES OF OBSERV
     5.0000                                                 INTERVAL
Forced Modulo Decimation to 5 seconds                       COMMENT
DefaultJobName                                              COMMENT
DefaultUserDiscription                                      COMMENT
Project creator:                                            COMMENT
 SNR is mapped to RINEX snr flag value [0-9]                COMMENT
  L1 & L2: min(max(int(snr_dBHz/6), 0), 9)                  COMMENT
  2015     1    27    12     0    0.0000000     GPS         TIME OF FIRST OBS
    15                                                      LEAP SECONDS
                                                            END OF HEADER
 15  1 27 12  0  0.0000000  0 21G30G06G07G08G02G17G03G23G09G10G20G16
                                R17R02R12R13R19R03R18R11R04
 123620738.827 7  96327927.352 7  92314275.034 8  23524219.340    23524222.920
  23524222.100          47.300          44.400
 107688961.420 8  83913481.304 8  80417084.292 8  20492525.820    20492526.740
  20492525.920          49.950          50.000
 113940201.017 8  88784641.829 7                  21682075.280    21682073.480
  21682072.860          49.700          46.300
 133142052.788 7 103747069.64245                  25336085.920
  25336086.180          42.500          34.100
 119180089.698 8  92867603.10347                  22679211.160
  22679206.620          48.500          42.600
 130338560.110 7 101562436.856 6                  24802633.300    24802637.540
  24802637.060          43.300          39.100
 124329720.989 7  96880287.938 7  92843609.578 8  23659167.800    23659170.600
  23659169.720          45.100          43.350
 115180379.451 8  89750911.56247                  21918093.200
  21918087.560          49.900          43.650
 107202926.963 8  83534776.156 8  80054170.366 8  20400023.740    20400022.920
  20400022.500          50.200          49.750
 109313766.302 8  85179576.34747                  20801711.940
  20801708.820          49.850          45.850
 107351204.344 8  83650251.56047                  20428257.000
  20428253.540          48.900          47.250
 134047299.150 6 104452438.79245                  25508352.680
  25508353.220          41.150          33.450
 124837708.637 7  97095968.070 6                  23328936.180    23328943.560
  23328941.980          45.300          39.750
 113479205.104 8  88261617.039 7                  21265958.940    21265963.960
  21265963.260          49.000          44.700
 113171391.038 7  88022222.680 7                  21185918.960    21185924.600
  21185924.080          44.350          42.450
 114508628.709 7  89062364.000 7                  21443760.880    21443766.940
  21443765.240          42.050          44.250
 118993390.767 7  92550419.957 7                  22244554.500    22244557.700
  22244555.640          47.150          42.450
 107270557.563 7  83432684.196 7                  20039033.960    20039035.980
  20039034.520          47.200          47.000
 112784245.293 8  87721089.253 7                  21128292.740    21128298.600
  21128297.900          49.050          46.350
 129706648.273 6 100882976.882 5                  24272822.240    24272831.380
  24272829.760          39.750          31.100
 122173243.194 7  95023665.480 7                  22814987.120    22814992.180
  22814990.260          44.050          42.950
 15  1 27 12  0  5.0000000  0 21G30G06G07G08G02G17G03G23G09G10G20G16
                                R17R02R12R13R19R03R18R11R04
 123602807.375 7  96313954.816 7  92300884.719 8  23520807.100    23520810.640
  23520809.840          47.600          44.400
 107689261.682 8  83913715.271 8  80417308.512 8  20492582.940    20492583.880
  20492583.060          50.050          50.150
 113928130.868 8  88775236.527 7                  21679778.400    21679776.600
  21679776.000          49.900          46.400
 133155815.379 7 103757793.72745                  25338704.860
  25338705.220          42.650          33.350
 119166504.527 8  92857017.25647                  22676625.980
  22676621.420          48.600          42.100
 130353816.631 7 101574325.007 6                  24805536.500    24805540.880
  24805540.260          43.600          38.850
 124343059.249 7  96890681.363 7  92853569.932 8  23661705.960    23661708.800
  23661707.940          46.050          43.400
 115191634.221 8  89759681.50247                  21920234.880
  21920229.340          49.950          43.450
 107207346.492 8  83538219.948 8  80057470.664 8  20400864.760    20400863.900
  20400863.480          50.350          49.850
 109305798.044 8  85173367.31547                  20800195.660
  20800192.520          49.950          45.650
 107355870.863 8  83653887.80847                  20429145.020
  20429141.540          49.150          47.050
 134039358.913 6 104446251.63644                  25506841.660
  25506841.980          41.900          28.100
 124859443.759 7  97112873.107 6                  23332997.960    23333005.320
  23333003.760          45.600          40.300
 113488901.946 8  88269159.023 7                  21267776.140    21267781.120
  21267780.460          48.800          44.500
 113173295.298 7  88023703.773 7                  21186275.480    21186281.100
  21186280.580          44.550          42.700
 114491929.128 7  89049375.454 7                  21440633.600    21440639.640
  21440637.940          42.250          44.400
 118984397.013 7  92543424.823 7                  22242873.200    22242876.400
  22242874.400          47.200          42.750
 107267428.102 7  83430250.175 7                  20038449.340    20038451.340
  20038449.940          46.850          47.200
 112796027.042 8  87730252.825 7                  21130499.880    21130505.760
  21130505.040          49.050          46.200
 129724488.029 6 100896852.243 5                  24276160.660    24276169.880
  24276168.220          40.200          31.200
 122160105.196 7  95013447.060 7                  22812533.580    22812538.780
  22812536.860          44.600          42.450
 15  1 27 12  0 10.0000000  0 21G30G06G07G08G02G17G03G23G09G10G20G16
                                R17R02R12R13R19R03R18R11R04
 123584878.728 7  96299984.461 7  92287496.449 8  23517395.400    23517398.900
  23517398.140          47.650          44.800
 107689577.857 8  83913961.640 8  80417544.614 8  20492643.080    20492644.020
  20492643.220          50.150          50.150
 113916071.329 8  88765839.493 7                  21677483.540    21677481.740
  21677481.160          50.100          46.550
 133169585.737 7 103768523.86845                  25341325.320
  25341325.640          42.850          33.300
 119152928.014 8  92846438.15947                  22674042.440
  22674037.880          48.700          42.600
 130369071.255 7 101586211.695 6                  24808439.360    24808443.800
  24808443.040          43.800          38.800
 124356401.059 7  96901077.560 7  92863532.958 8  23664244.820    23664247.700
  23664246.820          46.450          43.350
 115202893.896 8  89768455.25247                  21922377.500
  21922372.020          50.100          43.700
 107211775.541 8  83541671.148 8  80060778.069 8  20401707.600    20401706.720
  20401706.280          50.400          49.900
 109297836.889 8  85167163.81947                  20798680.700
  20798677.560          49.950          45.450
 107360546.129 8  83657530.87147                  20430034.720
  20430031.200          49.200          47.050
 134031428.644 6 104440072.23145                  25505332.560
  25505332.920          41.550          32.300
 124881179.169 7  97129778.362 6                  23337059.720    23337067.100
  23337065.560          45.600          40.600
 113498602.662 8  88276704.016 7                  21269594.100    21269599.040
  21269598.400          48.650          44.700
 113175221.521 7  88025201.944 7                  21186636.100    21186641.700
  21186641.180          44.300          42.400
 114475242.497 6  89036396.971 7                  21437508.720    21437514.740
  21437513.100          41.950          44.650
 118975423.099 7  92536445.112 7                  22241195.580    22241198.720
  22241196.860          46.550          42.200
 107264304.324 7  83427820.572 7                  20037865.740    20037867.820
  20037866.420          46.600          46.850
 112807825.813 8  87739429.634 7                  21132710.220    21132716.080
  21132715.340          48.750          46.000
 129742338.386 6 100910735.852 5                  24279501.040    24279510.220
  24279508.640          39.750          30.850
 122146968.255 7  95003229.454 7                  22810080.240    22810085.540
  22810083.620          44.750          42.550
 15  1 27 12  0 15.0000000  0 22G30G06G07G08G02G17G03G23G09G10G20G16
                                R14R17R02R12R13R19R03R18R11R04
 123566953.413 7  96286016.714 7  92274110.702 8  23513984.300    23513987.800
  23513987.040          47.550          44.950
 107689910.574 8  83914220.905 8  80417793.070 8  20492706.360    20492707.340
  20492706.540          50.100          50.200
 113904023.010 8  88756451.201 7                  21675190.820    21675189.000
  21675188.440          50.200          46.700
 133183364.414 7 103779260.48945                  25343947.360
  25343947.720          43.300          31.100
 119139360.732 8  92835866.26547                  22671460.660
  22671456.100          48.450          42.950
 130384324.511 7 101598097.330 6                  24811341.940    24811346.340
  24811345.740          43.900          39.400
 124369747.054 7  96911477.031 7  92873499.116 8  23666784.520    23666787.340
  23666786.460          46.550          43.200
 115214158.987 8  89777233.23947                  21924521.160
  21924515.720          50.050          43.600
 107216214.701 8  83545130.238 8  80064093.034 8  20402552.380    20402551.460
  20402551.000          50.550          49.850
 109289883.474 8  85160966.35747                  20797167.220
  20797164.060          49.950          45.900
 107365230.743 8  83661181.22247                  20430926.200
  20430922.660          49.200          47.050
 134023508.806 6 104433900.92844                  25503825.420
  25503825.680          41.300          29.550
 130926482.128 6                                  24561475.200
                        37.200
 124902915.399 7  97146684.260 6                  23341121.680    23341129.080
  23341127.560          45.850          40.950
 113508307.756 8  88284252.411 7                  21271412.860    21271417.800
  21271417.180          48.800          44.650
 113177170.244 7  88026717.609 7                  21187000.940    21187006.540
  21187006.020          44.300          42.450
 114458569.546 7  89023429.133 7                  21434386.400    21434392.420
  21434390.800          42.300          44.750
 118966469.416 7  92529481.137 7                  22239521.720    22239524.940
  22239523.080          46.350          42.550
 107261186.828 7  83425395.855 7                  20037283.380    20037285.420
  20037284.040          46.950          46.950
 112819642.131 8  87748620.098 7                  21134923.820    21134929.680
  21134928.900          48.850          45.950
 129760200.101 6 100924628.293 5                  24282843.660    24282852.760
  24282851.140          38.850          31.650
 122133833.026 7  94993013.185 7                  22807627.220    22807632.640
  22807630.680          44.150          42.200
 15  1 27 12  0 20.0000000  0 22G30G06G07G08G02G17G03G23G09G10G20G16
                                R14R17R02R12R13R19R03R18R11R04
 123549031.877 7  96272051.917 7  92260727.767 8  23510573.940    23510577.460
  23510576.680          47.250          44.900
 107690260.210 8  83914493.350 8  80418054.159 8  20492772.880    20492773.860
  20492773.060          49.950          50.150
 113891986.293 8  88747071.951 7                  21672900.320    21672898.500
  21672897.960          50.050          46.600
 133197151.872 7 103790003.97145                  25346571.080
  25346571.400          42.950          33.300
 119125803.127 8  92825301.90347                  22668880.720
  22668876.200          48.450          43.250
 130399576.849 7 101609982.214 6                  24814244.340    24814248.780
  24814248.220          44.300          39.300
 124383097.648 7  96921880.072 7  92883468.679 8  23669325.100    23669327.920
  23669327.000          46.800          43.550
 115225429.942 8  89786015.79047                  21926665.940
  21926660.520          50.250          43.300
 107220664.360 8  83548597.513 8  80067415.829 8  20403399.160    20403398.200
  20403397.720          50.550          49.800
 109281938.228 8  85154775.26547                  20795655.260
  20795652.120          49.900          45.500
 107369925.109 8  83664839.16747                  20431819.500
  20431815.940          49.000          47.150
 134015599.862 6 104427738.14245                  25502320.340
  25502320.580          40.750          30.550
 130904381.141 5                                  24557329.640
                        35.450
 124924652.840 7  97163591.096 6                  23345183.900    23345191.300
  23345189.800          46.100          40.700
 113518017.821 8  88291804.679 7                  21273232.560    21273237.500
  21273236.920          48.450          44.950
 113179142.041 7  88028251.240 7                  21187370.060    21187375.660
  21187375.160          44.550          42.800
 114441910.720 6  89010472.287 7                  21431266.700    21431272.800
  21431271.140          41.500          44.700
 118957536.452 7  92522533.296 7                  22237851.740    22237854.960
  22237853.180          46.550          42.700
 107258075.902 7  83422976.253 7                  20036702.220    20036704.260
  20036702.920          47.250          46.850
 112831476.465 8  87757824.569 7                  21137140.800    21137146.640
  21137145.880          49.050          46.050
 129778073.546 6 100938529.822 5                  24286188.380    24286197.500
  24286195.920          39.550          31.550
 122120699.844 7  94982798.505 7                  22805174.640    22805180.080
  22805178.120          43.900          42.100
 15  1 27 12  0 25.0000000  0 22G30G06G07G08G02G17G03G23G09G10G20G16
                                R14R17R02R12R13R19R03R18R11R04
 123531112.382 7  96258088.699 7  92247346.362 8  23507163.960    23507167.440
  23507166.700          47.350          45.050
 107690625.038 8  83914777.632 8  80418326.598 8  20492842.260    20492843.280
  20492842.500          49.950          50.150
 113879959.461 8  88737700.398 7                  21670611.700    21670609.880
  21670609.320          50.050          46.700
 133210946.301 7 103800752.86845                  25349196.060
  25349196.460          43.000          33.750
 119112253.475 8  92814743.72747                  22666302.300
  22666297.780          48.600          42.800
 130414826.479 7 101621864.985 6                  24817146.280    24817150.780
  24817150.260          45.100          39.600
 124396451.037 7  96932285.284 7  92893440.360 8  23671866.200    23671869.020
  23671868.040          47.250          43.200
 115236705.015 8  89794801.54647                  21928811.520
  21928806.080          50.350          43.300
 107225122.764 8  83552071.588 8  80070745.157 8  20404247.600    20404246.580
  20404246.100          50.550          49.850
 109273999.357 8  85148589.12747                  20794144.520
  20794141.360          49.950          45.300
 107374627.456 8  83668503.32147                  20432714.360
  20432710.760          49.250          47.100
 134007700.083 6 104421582.48444                  25500817.040
  25500817.100          41.000          28.600
 130882274.916 5 101797412.875 4                  24553182.280
  24553203.060          35.500          29.500
 124946389.687 7  97180497.464 6                  23349246.060    23349253.500
  23349251.940          46.350          40.300
 113527730.933 8  88299359.310 7                  21275052.800    21275057.800
  21275057.240          48.250          45.150
 113181135.076 7  88029801.374 7                  21187743.200    21187748.720
  21187748.280          44.550          43.050
 114425264.146 6  88997524.962 7                  21428149.240    21428155.440
  21428153.800          41.800          44.700
 118948622.394 7  92515600.147 7                  22236185.280    22236188.560
  22236186.820          46.300          42.150
 107254970.012 7  83420560.547 7                  20036122.000    20036124.060
  20036122.700          47.600          46.750
 112843326.973 8  87767041.618 7                  21139360.840    21139366.640
  21139365.880          49.300          46.200
 129795956.714 6 100952438.950 5                  24289534.960    24289544.060
  24289542.560          40.750          32.150
 122107567.024 7  94972584.119 6                  22802722.060    22802727.580
  22802725.620          44.700          41.800
 15  1 27 12  0 30.0000000  0 22G30G06G07G08G02G17G03G23G09G10G20G16
                                R14R17R02R12R13R19R03R18R11R04
 123513197.330 7  96244128.949 7  92233968.270 8  23503754.800    23503758.320
  23503757.580          47.250          44.650
 107691007.421 8  83915075.586 8  80418612.138 8  20492915.000    20492916.060
  20492915.260          50.050          50.100
 113867944.910 8  88728338.421 7                  21668325.400    21668323.580
  21668323.040          50.250          46.750
 133224750.075 7 103811509.03145                  25351822.780
  25351823.160          43.150          33.600
 119098714.055 8  92804193.53847                  22663725.820
  22663721.280          48.550          42.350
 130430075.864 7 101633747.569 6                  24820048.140    24820052.780
  24820052.180          45.250          39.450
 124409809.635 7  96942694.579 7  92903415.915 8  23674408.300    23674411.100
  23674410.080          46.850          42.950
 115247986.551 8  89803592.34847                  21930958.340
  21930952.860          50.300          43.350
 107229592.292 8  83555554.337 8  80074082.784 8  20405098.160    20405097.120
  20405096.620          50.450          49.750
 109266069.261 8  85142409.83647                  20792635.420
  20792632.300          49.750          45.750
 107379340.183 8  83672175.57347                  20433611.160
  20433607.540          49.450          46.800
 133999811.912 6 104415435.86944                  25499315.940
  25499315.920          41.300          29.250
 130860165.797 5 101780217.126 5                  24549034.940
  24549055.280          35.800          31.300
 124968128.298 7  97197405.218 6                  23353308.460    23353315.920
  23353314.400          45.750          40.200
 113537449.491 8  88306918.179 7                  21276874.100    21276879.060
  21276878.580          48.700          45.100
 113183151.726 7  88031369.892 7                  21188120.760    21188126.220
  21188125.780          44.800          42.750
 114408632.286 6  88984589.088 7                  21425034.520    21425040.860
  21425039.240          41.550          45.100
 118939729.686 7  92508683.581 7                  22234522.800    22234526.140
  22234524.380          46.200          42.300
 107251871.371 7  83418150.496 7                  20035543.140    20035545.180
  20035543.860          47.600          47.000
 112855196.039 8  87776273.095 7                  21141584.320    21141590.140
  21141589.400          49.350          46.350
 129813852.062 6 100966357.540 5                  24292883.760    24292892.980
  24292891.580          41.150          32.700
 122094436.847 7  94962371.777 7                  22800270.020    22800275.560
  22800273.620          44.700          42.300
 15  1 27 12  0 35.0000000  0 22G30G06G07G08G02G17G03G23G09G10G20G16
                                R14R17R02R12R13R19R03R18R11R04
 123495284.167 7  96230170.671 7  92220591.591 8  23500346.020    23500349.500
  23500348.780          47.200          44.450
 107691404.841 8  83915385.256 8  80418908.908 8  20492990.600    20492991.700
  20492990.880          49.950          50.150
 113855940.097 8  88718984.027 7                  21666040.960    21666039.160
  21666038.600          50.150          46.800
 133238560.661 7 103822270.52445                  25354450.820
  25354451.380          42.900          33.400
 119085182.425 8  92793649.41547                  22661150.820
  22661146.280          48.450          42.650
 130445322.311 7 101645627.899 6                  24822949.500    24822954.120
  24822953.540          45.350          39.550
 124423170.904 7  96953105.943 7  92913393.464 8  23676950.940    23676953.640
  23676952.700          47.000          43.200
 115259271.998 8  89812386.19447                  21933105.880
  21933100.380          50.400          43.400
 107234070.371 8  83559043.749 8  80077426.811 8  20405950.360    20405949.240
  20405948.740          50.450          49.750
 109258145.448 8  85136235.44447                  20791127.540
  20791124.440          49.600          45.950
 107384060.739 8  83675853.93147                  20434509.480
  20434505.820          49.450          46.900
 133991932.722 6 104409296.24545                  25497816.520
  25497816.440          41.350          33.250
 130838051.462 5 101762976.49815                  24544886.300    24544906.880
  24544906.720          35.000          31.550
 124989866.154 7  97214312.386 6                  23357370.760    23357378.260
  23357376.680          45.950          40.000
 113547171.066 8  88314479.403 7                  21278695.960    21278700.940
  21278700.480          48.800          45.300
 113185189.435 7  88032954.783 7                  21188502.260    21188507.760
  21188507.240          45.050          42.600
 114392012.521 6  88971662.621 7                  21421922.100    21421928.520
  21421926.920          41.350          45.300
 118930855.829 7  92501781.700 7                  22232863.820    22232867.280
  22232865.520          45.850          42.550
 107248777.402 7  83415744.081 7                  20034965.140    20034967.220
  20034965.880          47.250          46.950
 112867081.127 8  87785517.045 7                  21143810.820    21143816.640
  21143815.940          49.050          46.300
 129831757.112 6 100980283.686 5                  24296234.400    24296243.720
  24296242.320          40.800          31.850
 122081306.827 7  94952159.567 7                  22797818.020    22797823.600
  22797821.720          44.750          42.450
 15  1 27 12  0 40.0000000  0 22G30G06G07G08G02G17G03G23G09G10G20G16
                                R14R17R02R12R13R19R03R18R11R04
 123477375.222 7  96216215.680 7  92207218.063 8  23496938.060    23496941.520
  23496940.780          46.750          44.400
 107691819.603 8  83915708.443 8  80419218.631 8  20493069.480    20493070.620
  20493069.820          50.000          50.150
 113843947.371 8  88709639.051 7                  21663758.840    21663757.000
  21663756.500          50.100          46.750
 133252380.321 7 103833039.10245                  25357080.620
  25357081.100          42.600          32.150
 119071660.885 8  92783113.16247                  22658577.720
  22658573.200          48.150          42.950
 130460568.134 7 101657507.728 6                  24825850.740    24825855.340
  24825854.760          45.100          39.250
 124436537.134 7  96963521.177 7  92923374.720 8  23679494.500    23679497.160
  23679496.180          47.100          43.000
 115270563.705 8  89821184.92347                  21935254.640
  21935249.100          50.400          43.300
 107238559.348 8  83562541.653 8  80080778.970 8  20406804.620    20406803.460
  20406802.940          50.550          49.750
 109250230.209 8  85130067.72947                  20789621.280
  20789618.200          49.650          45.650
 107388791.422 8  83679540.17547                  20435409.720
  20435406.020          49.350          46.700
 133984064.941 6 104403165.51044                  25496319.320
  25496319.400          41.200          29.800
 130815934.093 5 101745774.318 5                  24540736.480    24540758.120
  24540756.920          35.250          32.100
 125011605.581 7  97231220.760 6                  23361433.340    23361440.860
  23361439.320          45.950          40.450
 113556897.831 8  88322044.652 7                  21280518.760    21280523.760
  21280523.360          48.450          45.300
 113187250.614 7  88034557.923 7                  21188888.120    21188893.620
  21188893.120          45.000          42.550
 114375407.407 6  88958747.546 7                  21418812.360    21418818.940
  21418817.340          41.350          45.400
 118922003.165 7  92494896.327 7                  22231208.820    22231212.380
  22231210.600          45.800          42.300
 107245690.694 7  83413343.315 7                  20034388.500    20034390.560
  20034389.240          47.100          46.950
 112878984.506 8  87794775.212 7                  21146040.720    21146046.580
  21146045.900          48.950          46.350
 129849673.948 6 100994219.007 5                  24299587.200    24299596.600
  24299595.280          40.500          32.150
 122068179.301 7  94941949.277 7                  22795366.500    22795372.140
  22795370.240          45.050          42.600
 15  1 27 12  0 45.0000000  0 22G30G06G07G08G02G17G03G23G09G10G20G16
                                R14R17R02R12R13R19R03R18R11R04
 123459470.347 7  96202263.863 7  92193847.569 8  23493530.860    23493534.320
  23493533.600          46.900          44.250
 107692251.495 8  83916044.977 8  80419541.137 8  20493151.640    20493152.820
  20493152.020          49.950          50.150
 113831966.531 8  88700303.344 7                  21661478.960    21661477.160
  21661476.620          49.950          46.650
 133266208.900 7 103843814.58245                  25359712.080
  25359712.640          42.200          33.750
 119058149.277 8  92772584.63847                  22656006.520
  22656002.020          48.300          43.250
 130475813.157 7 101669386.918 6                  24828751.820    24828756.380
  24828755.800          44.700          38.700
 124449908.156 7  96973940.147 7  92933359.561 8  23682038.960    23682041.660
  23682040.580          46.950          43.000
 115281861.477 8  89829988.36547                  21937404.540
  21937398.980          50.400          43.200
 107243058.999 8  83566047.875 8  80084139.090 8  20407660.920    20407659.700
  20407659.200          50.400          49.600
 109242323.330 8  85123906.52747                  20788116.600
  20788113.560          49.650          45.500
 107393532.073 8  83683234.18347                  20436311.880
  20436308.140          49.250          46.850
 133976208.313 6 104397043.53145                  25494824.260
  25494824.200          41.500          30.650
 130793813.649 5 101728569.781 5                  24536586.460    24536608.580
  24536606.960          34.950          32.000
 125033346.308 7  97248130.146 6                  23365496.180    23365503.740
  23365502.200          46.100          39.600
 113566629.620 8  88329613.812 7                  21282342.500    21282347.540
  21282347.120          48.600          45.200
 113189335.011 7  88036179.104 7                  21189278.380    21189283.740
  21189283.320          44.700          42.500
 114358816.534 6  88945843.540 7                  21415705.340    21415711.980
  21415710.400          41.350          44.900
 118913171.431 7  92488027.194 6                  22229557.740    22229561.400
  22229559.520          45.850          41.900
 107242610.881 7  83410947.909 7                  20033813.140    20033815.220
  20033813.880          46.800          47.000
 112890905.959 8  87804047.435 7                  21148274.040    21148279.920
  21148279.220          49.050          46.200
 129867602.588 6 101008163.488 5                  24302942.320    24302951.740
  24302950.380          40.400          31.300
 122055054.101 7  94931740.801 7                  22792915.400    22792921.060
  22792919.240          45.250          42.250
 15  1 27 12  0 50.0000000  0 22G30G06G07G08G02G17G03G23G09G10G20G16
                                R14R17R02R12R13R19R03R18R11R04
 123441568.049 7  96188314.043 7  92180478.991 8  23490124.180    23490127.620
  23490126.860          46.800          43.900
 107692699.069 8  83916393.738 8  80419875.366 8  20493236.760    20493238.000
  20493237.180          49.850          50.050
 113819996.093 8  88690975.741 7                  21659201.080    21659199.280
  21659198.760          49.950          46.350
 133280044.849 7 103854595.85345                  25362344.960
  25362345.440          42.750          32.250
 119044646.119 8  92762062.70347                  22653436.920
  22653432.440          48.300          42.950
 130491055.873 7 101681264.310 6                  24831652.460    24831657.080
  24831656.500          44.650          38.700
 124463282.453 7  96984361.661 7  92943346.850 8  23684584.060    23684586.720
  23684585.660          47.000          42.850
 115293163.810 8  89838795.37247                  21939555.320
  21939549.760          50.600          43.150
 107247567.853 8  83569561.260 8  80087506.088 8  20408518.960    20408517.700
  20408517.180          50.450          49.550
 109234423.351 8  85117750.70147                  20786613.240
  20786610.240          49.550          45.650
 107398281.217 8  83686934.81747                  20437215.620
  20437211.860          49.200          46.900
 133968361.515 7 104390929.13045                  25493331.000
  25493331.160          42.000          31.350
 130771688.464 5 101711361.511 5                  24532436.020    24532457.280
  24532456.700          34.550          32.900
 125055086.917 7  97265039.475 6                  23369559.000    23369566.540
  23369564.980          45.350          39.400
 113576365.074 8  88337185.833 7                  21284166.920    21284172.000
  21284171.540          48.650          44.950
 113191441.080 7  88037817.157 7                  21189672.680    21189678.000
  21189677.580          44.400          42.300
 114342238.546 6  88932949.558 7                  21412600.740    21412607.460
  21412605.880          41.550          44.800
 118904359.276 7  92481173.283 6                  22227910.360    22227914.040
  22227912.100          46.350          41.850
 107239536.345 7  83408556.589 7                  20033238.780    20033240.860
  20033239.500          46.800          46.550
 112902844.023 8  87813332.582 7                  21150510.480    21150516.320
  21150515.640          48.850          46.000
 129885541.592 6 101022116.019 5                  24306299.420    24306308.760
  24306307.420          40.750          32.050
 122041929.624 7  94921532.889 7                  22790464.460    22790470.120
  22790468.360          44.900          42.300
 15  1 27 12  0 55.0000000  0 22G30G06G07G08G02G17G03G23G09G10G20G16
                                R14R17R02R12R13R19R03R18R11R04
 123423669.275 7  96174366.973 7  92167113.059 8  23486718.160    23486721.540
  23486720.760          46.900          43.800
 107693163.242 8  83916755.434 8  80420221.988 8  20493325.060    20493326.320
  20493325.520          49.850          50.000
 113808037.051 8  88681657.017 7                  21656925.340    21656923.560
  21656923.020          50.050          46.400
 133293889.127 7 103865383.57646                  25364979.440
  25364979.980          42.300          36.800
 119031152.360 8  92751548.09047                  22650869.140
  22650864.680          48.250          43.300
 130506297.213 7 101693140.642 6                  24834552.820    24834557.520
  24834556.920          44.300          38.600
 124476661.003 7  96994786.491 7  92953337.311 8  23687129.960    23687132.560
  23687131.520          46.750          43.100
 115304471.627 8  89847606.65547                  21941707.160
  21941701.600          50.200          43.400
 107252086.811 8  83573082.529 8  80090880.632 8  20409378.920    20409377.620
  20409377.100          50.600          49.600
 109226531.226 8  85111600.99547                  20785111.360
  20785108.420          49.550          45.400
 107403039.804 8  83690642.80347                  20438121.180
  20438117.380          49.100          46.900
 133960525.201 7 104384822.94244                  25491839.820
  25491840.140          42.450          29.700
 130749559.515 5 101694150.338 5                  24528284.560    24528305.800
  24528305.180          34.150          32.050
 125076828.225 7  97281949.325 6                  23373621.940    23373629.440
  23373627.940          44.950          39.600
 113586105.057 8  88344761.366 7                  21285992.200    21285997.300
  21285996.820          48.450          44.600
 113193569.801 7  88039472.839 7                  21190071.220    21190076.520
  21190076.080          44.750          42.300
 114325674.427 6  88920066.364 7                  21409498.760    21409505.500
  21409503.960          41.950          44.950
 118895567.450 7  92474335.205 6                  22226266.780    22226270.500
  22226268.500          46.950          41.500
 107236468.258 7  83406170.309 7                  20032665.640    20032667.700
  20032666.320          46.800          46.400
 112914799.632 8  87822631.379 7                  21152750.180    21152756.000
  21152755.320          49.050          45.800
 129903491.662 6 101036077.190 5                  24309658.660    24309668.180
  24309666.560          39.850          30.800
 122028806.831 7  94911326.301 6                  22788013.840    22788019.540
  22788017.780          45.550          41.800
 15  1 27 12  1  0.0000000  0 22G30G06G07G08G02G17G03G23G09G10G20G16
                                R14R17R02R12R13R19R03R18R11R04
 123405772.665 7  96160421.580 7  92153748.737 8  23483312.560    23483315.860
  23483315.040          47.050          44.000
 107693642.648 8  83917128.992 8  80420579.980 8  20493416.240    20493417.540
  20493416.720          49.800          49.950
 113796087.973 8  88672346.057 7                  21654651.520    21654649.740
  21654649.200          50.050          46.550
 133307740.310 7 103876176.71845                  25367615.260
  25367615.780          42.350          34.850
 119017666.623 8  92741039.72747                  22648302.860
  22648298.420          48.000          43.200
 130521535.770 7 101705014.799 6                  24837452.640    24837457.440
  24837456.820          44.050          38.750
 124490042.397 7  97005213.540 7  92963329.904 8  23689676.380    23689678.980
  23689677.940          46.450          43.250
 115315783.498 8  89856421.08647                  21943859.740
  21943854.220          50.100          43.750
 107256614.494 8  83576610.596 8  80094261.701 8  20410240.520    20410239.180
  20410238.680          50.550          49.550
 109218645.562 8  85105456.32447                  20783610.720
  20783607.820          49.400          44.900
 107407806.418 8  83694357.04347                  20439028.280
  20439024.400          48.950          47.400
 133952698.251 7 104378723.99645                  25490350.380
  25490350.740          42.050          33.850
 130727425.547 5 101676935.231 5                  24524132.340    24524154.120
  24524152.660          33.550          30.750
 125098568.855 7  97298858.627 6                  23377684.760    23377692.240
  23377690.800          44.400          39.100
 113595848.180 8  88352339.349 7                  21287818.060    21287823.180
  21287822.660          48.250          44.500
 113195719.756 7  88041145.018 7                  21190473.700    21190479.000
  21190478.520          44.950          42.650
 114309122.784 7  88907192.881 7                  21406399.160    21406405.880
  21406404.360          42.000          44.950
 118886794.706 7  92467511.947 6                  22224626.800    22224630.480
  22224628.480          46.400          41.350
 107233405.069 7  83403787.818 7                  20032093.380    20032095.420
  20032094.060          47.150          46.250
 112926771.333 8  87831942.690 7                  21154992.920    21154998.720
  21154998.020          49.150          46.000
 129921451.475 6 101050045.916 5                  24313019.600    24313029.100
  24313027.480          39.750          31.200
 122015684.384 7  94901119.956 6                  22785563.280    22785569.000
  22785567.240          44.700          41.800
 15  1 27 12  1  5.0000000  0 22G30G06G07G08G02G17G03G23G09G10G20G16
                                R14R17R02R12R13R19R03R18R11R04
 123387881.876 7  96146480.715 7  92140388.752 8  23479908.060    23479911.340
  23479910.440          46.750          43.850
 107694140.904 8  83917517.237 8  80420952.055 8  20493511.020    20493512.340
  20493511.540          49.950          49.900
 113784152.500 8  88663045.697 7                  21652380.280    21652378.480
  21652377.940          50.050          46.350
 133321602.050 7 103886978.05245                  25370253.040
  25370253.600          42.800          32.950
 119004192.554 7  92730540.45547                  22645738.800
  22645734.380          47.850          43.150
 130536775.184 7 101716889.610 6                  24840352.600    24840357.460
  24840356.840          44.100          38.900
 124503430.259 7  97015645.623 7  92973327.310 8  23692224.000    23692226.600
  23692225.660          46.050          43.450
 115327103.039 8  89865241.49947                  21946013.760
  21946008.300          49.950          43.050
 107261154.519 8  83580148.278 8  80097651.991 8  20411104.480    20411103.100
  20411102.620          50.700          49.650
 109210770.027 8  85099319.54147                  20782112.040
  20782109.140          49.350          45.100
 107412584.675 8  83698080.35847                  20439937.580
  20439933.660          49.050          47.150
 133944884.184 6 104372635.15845                  25488863.400
  25488863.860          41.900          30.200
 130705290.175 5 101659719.057 4                  24519979.920    24520000.220
  24519999.980          33.550          29.750
 125120312.427 7  97315770.233 6                  23381748.040    23381755.540
  23381754.140          43.800          38.650
 113605598.096 8  88359922.596 7                  21289645.160    21289650.340
  21289649.780          48.000          44.400
 113197894.723 7  88042836.649 7                  21190880.820    21190886.060
  21190885.680          44.450          42.800
 114292587.363 7  88894332.004 7                  21403302.640    21403309.300
  21403307.820          42.000          44.850
 118878044.720 7  92460706.404 7                  22222991.020    22222994.700
  22222992.760          46.550          42.100
 107230350.602 7  83401412.128 7                  20031522.760    20031524.840
  20031523.440          47.150          46.700
 112938762.761 8  87841269.341 7                  21157239.340    21157245.100
  21157244.360          49.050          45.900
 129939424.620 6 101064025.018 5                  24316383.040    24316392.620
  24316390.980          41.050          31.700
 122002565.918 7  94890916.723 6                  22783113.460    22783119.160
  22783117.420          44.250          41.400
 15  1 27 12  1 10.0000000  0 22G30G06G07G08G02G17G03G23G09G10G20G16
                                R14R17R02R12R13R19R03R18R11R04
 123369993.522 7  96132541.769 7  92127030.599 8  23476504.020    23476507.260
  23476506.360          46.650          43.850
 107694654.670 8  83917917.570 8  80421335.709 8  20493608.780    20493610.120
  20493609.300          49.900          50.000
 113772227.301 8  88653753.350 7                  21650111.000    21650109.200
  21650108.640          50.150          46.400
 133335470.982 7 103897784.99944                  25372892.200
  25372892.960          42.850          29.300
 118990726.867 8  92720047.72847                  22643176.320
  22643171.960          48.250          42.350
 130552012.054 7 101728762.457 6                  24843252.120    24843257.000
  24843256.400          44.700          39.000
 124516821.269 7  97026080.149 7  92983327.071 8  23694772.180    23694774.820
  23694773.960          45.950          43.500
 115338426.963 8  89874065.32247                  21948168.620
  21948163.240          49.800          43.350
 107265703.554 8  83583692.982 8  80101048.991 8  20411970.160    20411968.760
  20411968.260          50.650          49.650
 109202901.231 8  85093188.01747                  20780614.600
  20780611.760          49.450          44.950
 107417371.247 8  83701810.15547                  20440848.480
  20440844.500          49.150          47.050
 133937079.766 7 104366553.82145                  25487378.260
  25487378.720          42.000          31.750
 130683149.976 5 101642499.093 4                  24515826.240    24515847.160
  24515846.140          34.650          28.500
 125142055.532 7  97332681.486 6                  23385811.260    23385818.820
  23385817.460          43.350          39.050
 113615351.314 8  88367508.422 7                  21291472.880    21291478.120
  21291477.500          48.450          44.800
 113200091.136 7  88044544.976 7                  21191292.000    21191297.200
  21191296.860          44.500          42.600
 114276064.580 7  88881480.961 7                  21400208.480    21400215.140
  21400213.680          42.100          45.200
 118869314.040 7  92453915.898 7                  22221358.900    22221362.560
  22221360.640          46.400          42.050
 107227301.355 7  83399040.483 7                  20030953.100    20030955.180
  20030953.800          47.350          46.750
 112950770.512 8  87850608.697 7                  21159488.840    21159494.560
  21159493.780          49.150          45.850
 129957407.749 6 101078011.888 5                  24319748.320    24319757.840
  24319756.300          40.750          32.250
 121989448.167 7  94880714.040 6                  22780663.780    22780669.500
  22780667.700          44.750          41.150
 15  1 27 12  1 15.0000000  0 23G30G06G07G08G02G17G03G23G09G10G20G16
                                G05R14R17R02R12R13R19R03R18R11R04
 123352109.570 7  96118606.246 7  92113675.725 8  23473100.820    23473103.960
  23473103.100          47.000          43.800
 107695185.836 8  83918331.466 8  80421732.355 8  20493709.840    20493711.160
  20493710.380          49.850          50.050
 113760314.311 8  88644470.509 7                  21647844.040    21647842.200
  21647841.660          50.250          46.400
 133349348.979 7 103908599.02345                  25375533.100
  25375533.900          42.750          32.300
 118977271.409 8  92709562.95247                  22640615.800
  22640611.460          48.150          42.600
 130567248.296 7 101740634.829 6                  24846151.500    24846156.420
  24846155.900          44.100          39.900
 124530217.308 7  97036518.593 7  92993330.571 8  23697321.340    23697324.080
  23697323.200          45.950          43.550
 115349757.129 8  89882894.00447                  21950324.640
  21950319.340          49.900          43.650
 107270263.477 8  83587246.167 8  80104454.126 8  20412837.900    20412836.480
  20412835.980          50.600          49.600
 109195041.088 8  85087063.23247                  20779118.840
  20779116.000          49.300          45.550
 107422168.017 8  83705547.89647                  20441761.300
  20441757.300          49.200          47.050
 133929286.840 6 104360481.41145                  25485895.340
  25485895.800          41.650          32.200
 134224233.24916                                  25542022.380
                        37.400
 130661007.032 5 101625276.968 4                  24511672.160    24511691.760
  24511691.700          35.200          27.750
 125163800.249 7  97349593.983 6                  23389874.780    23389882.420
  23389881.080          43.550          39.050
 113625109.979 8  88375098.488 7                  21293301.640    21293306.880
  21293306.220          48.250          44.500
 113202311.057 7  88046271.582 7                  21191707.600    21191712.760
  21191712.460          44.550          42.900
 114259556.781 7  88868641.574 7                  21397117.120    21397123.760
  21397122.300          42.200          44.950
 118860604.685 7  92447141.962 6                  22219730.760    22219734.380
  22219732.500          46.700          41.800
 107224259.214 7  83396674.380 7                  20030384.820    20030386.860
  20030385.480          47.050          46.800
 112962796.501 8  87859962.232 7                  21161741.740    21161747.400
  21161746.640          49.250          45.900
 129975402.886 6 101092008.083 5                  24323115.880    24323125.480
  24323123.840          40.350          32.100
 121976332.981 7  94870513.346 6                  22778214.640    22778220.340
  22778218.460          44.850          40.900
 15  1 27 12  1 20.0000000  0 23G30G06G07G08G02G17G03G23G09G10G20G16
                                G05R14R17R02R12R13R19R03R18R11R04
 123334227.643 7  96104672.294 7  92100322.368 8  23469697.980    23469701.060
  23469700.220          46.650          44.000
 107695732.055 8  83918757.089 8  80422140.244 8  20493813.780    20493815.120
  20493814.320          49.800          50.150
 113748411.196 8  88635195.363 7                  21645578.980    21645577.100
  21645576.560          50.200          46.350
 133363233.692 7 103919418.25745                  25378175.260
  25378176.140          42.150          33.800
 118963823.821 8  92699084.32447                  22638056.800
  22638052.480          48.300          42.700
 130582481.567 7 101752504.871 6                  24849050.380    24849055.340
  24849054.780          44.650          39.700
 124543615.991 7  97046959.100 7  93003336.069 8  23699871.020    23699873.800
  23699872.960          45.950          43.450
 115361091.179 8  89891725.72347                  21952481.400
  21952476.140          49.550          43.950
 107274831.921 8  83590805.991 8  80107865.627 8  20413707.260    20413705.820
  20413705.320          50.400          49.650
 109187187.235 8  85080943.35547                  20777624.260
  20777621.460          49.200          45.550
 107426972.667 8  83709291.77547                  20442675.620
  20442671.580          49.000          47.200
 133921503.037 6 104354416.11445                  25484414.080
  25484414.580          41.100          32.500
 134209111.714 6                                  25539144.280
                        37.000
 130638858.890 5 101608050.783 4                  24507517.040    24507536.240
  24507536.580          35.800          28.250
 125185543.964 7  97366505.701 6                  23393938.120    23393945.740
  23393944.480          43.200          38.600
 113634871.509 8  88382690.787 7                  21295130.960    21295136.180
  21295135.440          48.300          44.300
 113204552.076 7  88048014.597 7                  21192127.140    21192132.360
  21192132.000          44.300          42.800
 114243061.212 7  88855811.702 7                  21394028.080    21394034.660
  21394033.220          42.250          45.000
 118851914.238 7  92440382.714 7                  22218106.160    22218109.760
  22218107.940          46.900          42.050
 107221221.864 7  83394312.003 7                  20029817.400    20029819.420
  20029818.060          46.850          46.950
 112974838.366 8  87869328.120 7                  21163997.640    21164003.280
  21164002.480          48.900          45.950
 129993407.425 6 101106011.611 5                  24326485.200    24326494.720
  24326493.180          40.000          31.700
 121963217.896 7  94860312.737 6                  22775765.460    22775771.180
  22775769.260          45.050          41.100
 15  1 27 12  1 25.0000000  0 23G30G06G07G08G02G17G03G23G09G10G20G16
                                G05R14R17R02R12R13R19R03R18R11R04
 123316349.114 7  96090741.007 7  92086971.551 8  23466295.800    23466298.860
  23466298.020          46.800          44.100
 107696294.699 8  83919195.512 8  80422560.404 8  20493920.840    20493922.180
  20493921.400          49.950          50.150
 113736519.314 8  88625928.969 7                  21643316.040    21643314.140
  21643313.580          50.050          46.450
 133377126.471 7 103930243.79745                  25380818.940
  25380819.900          42.400          34.200
 118950385.500 8  92688612.91147                  22635499.560
  22635495.240          48.150          43.100
 130597713.187 7 101764373.633 6                  24851948.880    24851953.920
  24851953.300          44.600          40.000
 124557018.688 7  97057402.756 7  93013344.563 8  23702421.500    23702424.260
  23702423.460          46.200          43.450
 115372430.474 8  89900561.51347                  21954639.180
  21954633.960          50.000          43.550
 107279410.252 8  83594373.527 8  80111284.517 8  20414578.500    20414577.020
  20414576.560          50.450          49.650
 109179341.081 8  85074829.47847                  20776131.140
  20776128.380          49.200          45.250
 107431786.577 8  83713042.87547                  20443591.720
  20443587.640          49.250          47.000
 133913729.749 6 104348359.02546                  25482934.840
  25482935.040          40.600          37.050
 134193989.093 6 104566751.38245                  25536265.760
  25536262.160          36.850          31.850
 130616706.969 5 101590821.700 4                  24503361.220    24503379.720
  24503380.920          35.200          28.750
 125207288.183 7  97383417.829 6                  23398001.560    23398009.240
  23398007.980          43.200          39.400
 113644637.385 8  88390286.467 7                  21296961.100    21296966.320
  21296965.540          48.400          44.050
 113206815.569 7  88049775.086 7                  21192550.840    21192556.080
  21192555.740          44.100          43.000
 114226579.317 7  88842992.463 7                  21390941.660    21390948.100
  21390946.680          42.100          44.950
 118843244.115 7  92433639.304 6                  22216485.380    22216488.940
  22216487.160          46.900          41.750
 107218190.662 7  83391954.405 7                  20029251.080    20029253.180
  20029251.800          46.950          46.250
 112986897.432 8  87878707.386 7                  21166256.720    21166262.340
  21166261.560          48.700          45.900
 130011422.777 6 101120023.552 5                  24329856.580    24329866.100
  24329864.540          40.600          31.200
 121950104.335 7  94850113.318 6                  22773316.560    22773322.260
  22773320.380          44.850          41.000
 15  1 27 12  1 30.0000000  0 23G30G06G07G08G02G17G03G23G09G10G20G16
                                G05R14R17R02R12R13R19R03R18R11R04
 123298474.602 7  96076812.841 7  92073623.717 8  23462894.380    23462897.420
  23462896.580          46.850          44.000
 107696874.334 8  83919647.175 8  80422993.237 8  20494031.160    20494032.480
  20494031.700          49.900          50.200
 113724639.276 8  88616671.809 7                  21641055.380    21641053.420
  21641052.840          49.950          46.450
 133391027.840 7 103941076.03945                  25383464.280
  25383465.240          42.100          33.950
 118936957.034 8  92678149.18247                  22632944.220
  22632939.880          48.150          43.400
 130612943.689 7 101776241.511 6                  24854847.200    24854852.240
  24854851.700          44.350          40.250
 124570426.002 7  97067850.005 7  93023356.497 8  23704972.860    23704975.600
  23704974.800          46.100          43.100
 115383775.567 8  89909401.84547                  21956798.080
  21956792.860          50.000          43.700
 107283999.030 8  83597949.196 8  80114711.186 8  20415451.720    20415450.240
  20415449.760          50.300          49.750
 109171503.175 8  85068722.02547                  20774639.600
  20774636.860          49.400          45.650
 107436610.292 8  83716801.61947                  20444509.660
  20444505.560          49.200          46.950
 133905967.651 6 104342310.68945                  25481457.740
  25481457.960          41.050          32.800
 134178866.002 5 104554977.24355                  25533387.200
  25533393.460          34.800          30.100
 130594551.690 5 101573630.783 4                  24499204.900
  24499224.340          34.500          26.550
 125229033.402 7  97400330.713 6                  23402065.140    23402072.820
  23402071.680          43.100          39.400
 113654408.182 8  88397885.977 7                  21298792.160    21298797.320
  21298796.540          48.400          44.050
 113209101.975 7  88051553.404 7                  21192978.860    21192984.060
  21192983.800          44.200          43.050
 114210111.957 6  88830184.526 7                  21387857.860    21387864.240
  21387862.860          41.950          44.850
 118834594.921 7  92426912.158 6                  22214868.500    22214872.080
  22214870.280          46.950          41.550
 107215166.202 7  83389602.052 7                  20028686.060    20028688.140
  20028686.780          46.900          46.900
 112998974.320 8  87888100.512 7                  21168519.140    21168524.720
  21168523.980          48.650          45.850
 130029449.532 6 101134044.378 5                  24333230.080    24333239.540
  24333237.960          40.550          31.400
 121936992.903 7  94839915.545 6                  22770868.060    22770873.740
  22770871.880          45.050          40.950
 15  1 27 12  1 35.0000000  0 22G30G06G07G08G02G17G03G23G09G10G20G16
                                R14R17R02R12R13R19R03R18R11R04
 123280602.521 7  96062886.566 7  92060277.726 8  23459493.420    23459496.460
  23459495.600          46.350          44.400
 107697469.394 8  83920110.857 8  80423437.607 8  20494144.400    20494145.720
  20494144.940          49.900          50.200
 113712769.504 8  88607422.644 7                  21638796.660    21638794.680
  21638794.080          50.050          46.550
 133404936.300 7 103951913.76145                  25386110.920
  25386111.880          42.100          32.800
 118923536.911 8  92667691.94547                  22630390.460
  22630386.120          48.150          43.150
 130628171.586 7 101788107.354 6                  24857745.040    24857750.000
  24857749.500          44.500          40.600
 124583836.346 7  97078299.607 7  93033370.691 8  23707524.800    23707527.520
  23707526.700          46.350          43.250
 115395124.917 8  89918245.47847                  21958957.820
  21958952.580          50.200          43.450
 107288596.677 8  83601531.777 8  80118144.503 8  20416326.620    20416325.140
  20416324.660          50.350          49.800
 109163671.987 8  85062619.80547                  20773149.340
  20773146.620          49.550          45.150
 107441442.271 8  83720566.79547                  20445429.200
  20445425.060          49.150          47.000
 133898215.166 6 104336269.78544                  25479982.480
  25479982.920          41.550          29.050
 130572391.677 5                                  24495047.520
                        34.100
 125250777.926 7  97417243.058 6                  23406128.620    23406136.340
  23406135.260          44.050          39.650
 113664182.302 8  88405488.063 7                  21300623.800    21300628.960
  21300628.180          48.050          44.300
 113211409.858 7  88053348.422 7                  21193410.920    21193416.160
  21193415.880          43.950          43.150
 114193657.365 6  88817386.512 7                  21384776.420    21384782.760
  21384781.440          41.800          44.950
 118825965.028 7  92420200.010 6                  22213255.240    22213258.740
  22213257.000          46.350          41.800
 107212146.889 7  83387253.676 7                  20028122.000    20028124.100
  20028122.720          46.850          46.350
 113011067.357 8  87897506.196 7                  21170784.580    21170790.160
  21170789.440          48.650          45.900
 130047486.198 6 101148072.879 5                  24336605.380    24336614.940
  24336613.300          40.550          31.950
 121923881.878 7  94829718.081 6                  22768419.660    22768425.300
  22768423.460          45.200          41.000
 15  1 27 12  1 40.0000000  0 22G30G06G07G08G02G17G03G23G09G10G20G16
                                R14R17R02R12R13R19R03R18R11R04
 123262734.407 7  96048963.399 7  92046934.705 8  23456093.200    23456096.240
  23456095.400          46.600          44.050
 107698081.416 8  83920587.751 8  80423894.629 8  20494260.880    20494262.180
  20494261.420          49.850          50.100
 113700911.517 8  88598182.654 7                  21636540.180    21636538.140
  21636537.540          50.100          46.400
 133418853.326 7 103962758.18345                  25388759.220
  25388760.240          42.700          32.650
 118910126.662 8  92657242.40747                  22627838.580
  22627834.220          48.250          43.050
 130643398.377 7 101799972.353 6                  24860642.620    24860647.580
  24860647.080          44.250          40.100
 124597251.242 7  97088752.759 7  93043388.289 8  23710077.580    23710080.320
  23710079.460          45.850          43.250
 115406479.998 8  89927093.58947                  21961118.640
  21961113.380          50.500          43.350
 107293204.728 8  83605122.465 8  80121585.579 8  20417203.520    20417202.020
  20417201.540          50.400          49.750
 109155848.991 8  85056523.96247                  20771660.660
  20771657.940          49.550          45.000
 107446284.001 8  83724339.56747                  20446350.580
  20446346.400          49.250          47.400
 133890473.763 6 104330237.49845                  25478509.340
  25478509.740          40.800          31.950
 130550228.429 5                                  24490889.860
                        35.300
 125272523.349 7  97434156.104 6                  23410192.260    23410200.020
  23410199.000          44.200          39.350
 113673961.223 8  88413093.873 7                  21302456.340    21302461.540
  21302460.720          48.300          44.400
 113213740.750 7  88055161.335 7                  21193847.220    21193852.520
  21193852.280          43.950          42.750
 114177217.134 6  88804599.675 7                  21381697.700    21381704.060
  21381702.660          41.950          44.850
 118817355.954 7  92413504.083 7                  22211645.820    22211649.380
  22211647.600          46.700          42.050
 107209134.295 7  83384910.551 7                  20027559.220    20027561.300
  20027559.920          47.000          46.900
 113023178.059 8  87906925.608 7                  21173053.300    21173058.880
  21173058.200          48.900          46.000
 130065534.034 6 101162110.079 5                  24339982.840    24339992.420
  24339990.740          38.850          30.950
 121910772.973 7  94819522.269 6                  22765971.700    22765977.260
  22765975.460          44.800          40.800
 15  1 27 12  1 45.0000000  0 22G30G06G07G08G02G17G03G23G09G10G20G16
                                R14R17R02R12R13R19R03R18R11R04
 123244869.854 7  96035042.995 7  92033594.311 8  23452693.680    23452696.700
  23452695.860          46.900          44.000
 107698709.916 8  83921077.487 8  80424363.961 8  20494380.500    20494381.800
  20494381.020          50.050          50.000
 113689064.859 8  88588951.501 7                  21634285.860    21634283.760
  21634283.180          50.250          46.100
 133432778.416 7 103973608.89845                  25391409.080
  25391410.040          43.300          31.350
 118896725.786 8  92646800.16547                  22625288.480
  22625284.100          48.350          42.150
 130658623.555 7 101811836.089 6                  24863539.920    24863544.800
  24863544.380          45.000          40.400
 124610670.217 7  97099209.075 7  93053408.936 8  23712631.100    23712633.920
  23712633.040          45.950          43.700
 115417840.360 8  89935945.81547                  21963280.480
  21963275.200          50.550          43.100
 107297822.682 8  83608720.869 8  80125034.053 8  20418082.300    20418080.780
  20418080.300          50.650          49.700
 109148033.760 8  85050434.17047                  20770173.460
  20770170.760          49.650          45.300
 107451135.053 8  83728119.60847                  20447273.720
  20447269.520          49.350          46.950
 133882742.920 6 104324213.51844                  25477038.200
  25477038.660          41.700          27.300
 130528061.646 6                                  24486731.260
                        36.350
 125294269.106 7  97451069.419 6                  23414256.060    23414263.740
  23414262.740          44.950          39.050
 113683744.605 8  88420703.170 7                  21304289.720    21304294.940
  21304294.100          48.800          44.800
 113216094.137 7  88056991.736 7                  21194287.760    21194293.120
  21194292.880          44.800          43.250
 114160790.863 7  88791823.700 7                  21378621.600    21378627.880
  21378626.500          42.800          44.750
 118808767.360 7  92406824.065 6                  22210040.220    22210043.800
  22210042.040          46.750          41.650
 107206127.803 7  83382572.164 7                  20026997.580    20026999.660
  20026998.280          47.250          46.950
 113035306.005 8  87916358.444 7                  21175325.300    21175330.860
  21175330.200          49.050          45.950
 130083592.769 6 101176155.747 5                  24343362.260    24343371.800
  24343370.180          40.150          31.050
 121897665.653 7  94809327.687 6                  22763524.040    22763529.460
  22763527.760          45.450          40.600
 15  1 27 12  1 50.0000000  0 22G30G06G07G08G02G17G03G23G09G10G20G16
                                R14R17R02R12R13R19R03R18R11R04
 123227008.469 7  96021125.065 7  92020256.292 8  23449294.780    23449297.760
  23449296.920          47.000          43.750
 107699354.551 8  83921579.803 8  80424845.331 8  20494503.180    20494504.480
  20494503.700          50.050          50.050
 113677229.192 8  88579728.915 7                  21632033.600    21632031.520
  21632030.900          50.200          46.200
 133446711.252 7 103984465.65344                  25394060.400
  25394061.360          42.650          29.800
 118883333.932 8  92636364.96747                  22622740.080
  22622735.700          48.300          42.450
 130673846.720 7 101823698.263 6                  24866436.820    24866441.700
  24866441.300          44.900          40.250
 124624092.923 7  97109668.308 7  93063432.354 8  23715185.320    23715188.220
  23715187.340          45.750          43.450
 115429205.606 8  89944801.84547                  21965443.240
  21965437.940          50.800          42.900
 107302450.190 8  83612326.723 8  80128489.654 8  20418962.900    20418961.360
  20418960.900          50.650          49.750
 109140225.929 8  85044350.14747                  20768687.680
  20768684.980          49.450          45.400
 107455995.012 8  83731906.58347                  20448198.560
  20448194.340          49.450          47.050
 133875022.390 6 104318197.50444                  25475569.020
  25475569.380          41.550          28.950
 130505890.729 6                                  24482571.800
                        36.250
 125316014.949 7  97467982.817 6                  23418319.820    23418327.540
  23418326.560          44.850          39.850
 113693531.948 8  88428315.538 7                  21306123.840    21306129.040
  21306128.260          48.950          44.550
 113218469.733 7  88058839.422 7                  21194732.460    21194737.860
  21194737.620          44.650          43.100
 114144378.242 7  88779058.341 7                  21375548.040    21375554.320
  21375552.900          42.850          44.750
 118800198.810 7  92400159.629 6                  22208438.340    22208441.960
  22208440.220          46.800          41.750
 107203127.319 7  83380238.466 7                  20026437.040    20026439.080
  20026437.760          47.250          46.700
 113047450.758 8  87925804.357 7                  21177600.420    21177605.920
  21177605.340          48.700          45.750
 130101661.940 6 101190209.565 5                  24346743.660    24346753.260
  24346751.600          39.950          31.200
 121884559.678 7  94799134.163 6                  22761076.640    22761082.020
  22761080.260          45.150          40.300
 15  1 27 12  1 55.0000000  0 23G30G06G07G08G02G17G03G23G09G10G20G16
                                G05R14R17R02R12R13R19R03R18R11R04
 123209152.237 7  96007211.139 7  92006922.133 8  23445896.840    23445899.800
  23445898.980          47.250          43.700
 107700017.266 8  83922096.200 8  80425340.218 8  20494629.320    20494630.600
  20494629.820          50.100          50.000
 113665406.445 8  88570516.395 7                  21629783.820    21629781.680
  21629781.100          50.200          46.100
 133460653.728 7 103995329.87345                  25396713.580
  25396714.580          42.600          32.800
 118869953.080 8  92625938.32747                  22620193.780
  22620189.420          48.050          42.700
 130689069.780 7 101835560.345 6                  24869333.720    24869338.580
  24869338.160          45.450          40.150
 124637521.318 7  97120131.965 7  93073460.029 8  23717740.600    23717743.600
  23717742.680          45.900          43.550
 115440577.711 8  89953663.22747                  21967607.300
  21967601.980          50.300          43.300
 107307089.215 8  83615941.541 8  80131953.858 8  20419845.700    20419844.140
  20419843.680          50.650          49.600
 109132427.461 8  85038273.42147                  20767203.680
  20767200.960          49.200          45.450
 107460865.873 8  83735702.05747                  20449125.480
  20449121.240          49.450          46.650
 133867314.178 6 104312191.09344                  25474102.220
  25474102.640          41.550          29.700
 134103227.49416                                  25518996.140
                        36.000
 130483717.846 6                                  24478412.000
                        37.600
 125337762.699 7  97484897.661 6                  23422383.940    23422391.720
  23422390.720          45.250          39.950
 113703325.338 8  88435932.611 7                  21307959.060    21307964.300
  21307963.560          48.250          44.600
 113220869.362 7  88060705.802 7                  21195181.680    21195187.140
  21195186.880          44.500          43.050
 114127981.097 7  88766305.010 7                  21372477.400    21372483.660
  21372482.200          42.200          44.650
 118791652.356 7  92393512.383 6                  22206840.640    22206844.280
  22206842.520          46.800          41.500
 107200134.611 7  83377910.810 7                  20025877.940    20025880.020
  20025878.720          47.100          47.150
 113059614.269 8  87935264.843 7                  21179879.040    21179884.540
  21179883.960          48.750          45.700
 130119743.479 6 101204272.976 5                  24350127.400    24350137.000
  24350135.280          40.900          31.800
 121871456.886 7  94788943.119 6                  22758629.800    22758635.080
  22758633.360          45.100          40.600
 15  1 27 12  2  0.0000000  0 23G30G06G07G08G02G17G03G23G09G10G20G16
                                G05R14R17R02R12R13R19R03R18R11R04
 123191298.443 7  95993299.120 7  91993589.788 8  23442499.400    23442502.320
  23442501.500          46.700          43.800
 107700695.360 8  83922624.585 8  80425846.583 8  20494758.400    20494759.640
  20494758.860          49.700          50.150
 113653593.961 8  88561311.872 7                  21627535.960    21627533.800
  21627533.220          49.700          46.300
 133474603.133 6 104006199.51745                  25399368.080
  25399368.960          41.650          34.600
 118856580.520 7  92615518.16747                  22617649.060
  22617644.700          47.750          43.400
 130704290.023 7 101847420.260 6                  24872230.080    24872234.920
  24872234.440          45.000          40.250
 124650952.663 7  97130597.930 7  93083489.906 8  23720296.500    23720299.540
  23720298.660          45.400          43.800
 115451954.016 8  89962527.86947                  21969772.140
  21969766.800          49.650          44.050
 107311737.010 8  83619563.206 8  80135424.612 8  20420730.140    20420728.560
  20420728.120          50.200          49.650
 109124635.641 8  85032201.88647                  20765720.940
  20765718.240          48.750          46.100
 107465744.897 8  83739503.89447                  20450053.980
  20450049.680          48.900          47.550
 133859615.616 6 104306192.22846                  25472637.240
  25472637.660          39.850          36.550
 134088098.076 6 104484231.58854                  25516117.060
  25516116.740          36.250          28.950
 130461540.141 6                                  24474251.360    24474266.920
                        36.850          30.250
 125359509.765 7  97501811.991 6                  23426447.920    23426455.720
  23426454.760          45.650          40.200
 113713121.954 7  88443552.192 7                  21309794.920    21309800.160
  21309799.460          47.950          44.600
 113223290.349 7  88062588.797 7                  21195634.920    21195640.360
  21195640.140          44.250          43.100
 114111596.747 6  88753561.637 7                  21369409.140    21369415.360
  21369413.920          41.950          44.850
 118783125.138 7  92386880.118 6                  22205246.560    22205250.200
  22205248.420          46.550          41.700
 107197147.002 7  83375587.102 7                  20025319.840    20025321.900
  20025320.620          47.050          46.600
 113071793.827 8  87944737.824 7                  21182160.660    21182166.160
  21182165.600          48.550          45.900
 130137834.709 6 101218343.937 5                  24353512.900    24353522.420
  24353520.880          40.550          32.550
 121858354.562 7  94778752.429 6                  22756183.080    22756188.240
  22756186.560          45.150          40.700
 15  1 27 12  2  5.0000000  0 23G30G06G07G08G02G17G03G23G09G10G20G16
                                G05R14R17R02R12R13R19R03R18R11R04
 123173447.340 7  95979389.188 7  91980259.435 8  23439102.460    23439105.300
  23439104.440          46.850          43.600
 107701389.022 8  83923165.092 8  80426364.575 8  20494890.440    20494891.640
  20494890.860          49.800          50.200
 113641791.905 8  88552115.474 7                  21625290.080    21625287.920
  21625287.340          49.550          46.350
 133488559.614 6 104017074.69545                  25402023.880
  25402024.580          40.600          32.900
 118843216.479 7  92605104.62047                  22615105.980
  22615101.600          47.850          43.050
 130719507.657 7 101859278.122 6                  24875125.960    24875130.780
  24875130.320          44.650          40.050
 124664387.171 7  97141066.358 7  93093522.148 8  23722853.000    23722856.080
  23722855.280          45.350          43.850
 115463334.639 8  89971395.87247                  21971937.780
  21971932.480          49.600          44.000
 107316393.765 8  83623191.844 8  80138902.067 8  20421616.300    20421614.700
  20421614.280          50.100          49.650
 109116850.695 8  85026135.70047                  20764239.500
  20764236.800          49.050          45.750
 107470632.280 8  83743312.23647                  20450984.060
  20450979.700          49.000          46.900
 133851926.811 6 104300200.93145                  25471174.100
  25471174.460          39.700          32.650
 134072966.782 6 104472439.194 5                  25513237.260    25513239.580
  25513241.500          36.750          32.750
 130439357.839 6 101452904.808 4                  24470089.880    24470108.320
  24470108.620          36.400          28.550
 125381256.220 7  97518725.849 6                  23430511.880    23430519.600
  23430518.640          45.550          40.550
 113722922.032 8  88451174.470 7                  21311631.460    21311636.680
  21311636.000          48.200          44.550
 113225732.945 7  88064488.593 7                  21196092.220    21196097.620
  21196097.440          44.850          42.950
 114095225.530 7  88740828.472 7                  21366343.380    21366349.540
  21366348.120          42.050          44.950
 118774617.388 7  92380262.988 6                  22203656.140    22203659.760
  22203657.980          46.350          41.450
 107194164.674 7  83373267.525 7                  20024762.720    20024764.780
  20024763.500          46.800          46.950
 113083989.622 8  87954223.428 7                  21184445.300    21184450.820
  21184450.300          48.100          45.900
 130155935.731 6 101232422.470 5                  24356900.320    24356909.780
  24356908.320          40.200          32.700
 121845252.881 7  94768562.226 6                  22753736.480    22753741.540
  22753739.900          44.800          40.600
 15  1 27 12  2 10.0000000  0 23G30G06G07G08G02G17G03G23G09G10G20G16
                                G05R14R17R02R12R13R19R03R18R11R04
 123155600.706 7  95965482.739 7  91966932.430 8  23435706.360    23435709.140
  23435708.300          46.550          43.350
 107702100.068 8  83923719.160 8  80426895.553 8  20495025.780    20495026.960
  20495026.180          49.850          50.050
 113630002.094 8  88542928.624 7                  21623046.520    21623044.400
  21623043.820          49.450          46.250
 133502525.052 6 104027956.85445                  25404681.360
  25404681.960          41.300          33.850
 118829862.790 7  92594699.15747                  22612564.860
  22612560.500          47.900          43.150
 130734724.448 7 101871135.327 6                  24878021.620    24878026.460
  24878025.980          44.150          39.750
 124677826.646 7  97151538.663 7  93103558.098 8  23725410.480    23725413.560
  23725412.740          45.600          43.350
 115474721.371 8  89980268.64447                  21974104.580
  21974099.320          49.450          44.250
 107321061.319 8  83626828.903 8  80142387.574 8  20422504.520    20422502.920
  20422502.480          50.100          49.550
 109109074.441 8  85020076.28947                  20762759.700
  20762757.040          49.200          44.800
 107475529.836 8  83747128.51847                  20451916.060
  20451911.660          49.000          47.000
 133844249.496 6 104294218.65245                  25469713.140
  25469713.460          40.900          34.750
 134057835.436 6 104460648.526 5                  25510357.960    25510359.820
  25510362.300          37.400          32.700
 130417172.911 5 101435650.070 4                  24465927.920    24465947.680
  24465947.320          35.800          28.150
 125403003.928 7  97535640.679 6                  23434576.020    23434583.800
  23434582.780          45.750          40.050
 113732727.378 8  88458800.847 7                  21313469.000    21313474.200
  21313473.560          48.000          44.800
 113228198.858 7  88066406.519 7                  21196553.920    21196559.200
  21196559.080          45.000          42.850
 114078869.254 6  88728106.935 7                  21363280.280    21363286.560
  21363285.080          41.600          44.950
 118766131.103 7  92373662.561 7                  22202069.740    22202073.340
  22202071.560          46.650          42.000
 107191189.577 7  83370953.553 7                  20024206.940    20024209.020
  20024207.740          46.900          46.600
 113096203.402 8  87963723.026 7                  21186733.300    21186738.900
  21186738.360          48.500          46.050
 130174048.490 6 101246510.145 5                  24360289.900    24360299.340
  24360297.960          39.800          31.500
 121832153.784 7  94758374.050 6                  22751290.340    22751295.380
  22751293.740          44.750          41.000
 15  1 27 12  2 15.0000000  0 23G30G06G07G08G02G17G03G23G09G10G20G16
                                G05R14R17R02R12R13R19R03R18R11R04
 123137757.724 7  95951579.143 7  91953608.173 8  23432310.960    23432313.660
  23432312.800          46.800          43.200
 107702827.683 8  83924286.129 8  80427438.903 8  20495164.260    20495165.420
  20495164.660          49.800          50.050
 113618223.794 8  88533750.732 7                  21620805.140    21620803.040
  21620802.460          49.600          46.350
 133516498.533 7 104038845.24245                  25407340.400
  25407340.980          42.050          30.500
 118816518.621 7  92584301.10247                  22610025.560
  22610021.160          47.950          43.550
 130749939.607 7 101882991.240 6                  24880917.020    24880921.880
  24880921.360          43.850          38.950
 124691270.283 7  97162014.194 7  93113597.148 8  23727968.760    23727971.800
  23727970.980          46.050          43.700
 115486113.421 8  89989145.53947                  21976272.380
  21976267.180          49.800          43.650
 107325738.800 8  83630473.687 8  80145880.504 8  20423394.620    20423393.020
  20423392.580          50.200          49.600
 109101306.069 8  85014023.00447                  20761281.440
  20761278.760          49.250          44.950
 107480436.797 8  83750952.12147                  20452849.840
  20452845.420          48.950          47.400
 133836582.904 6 104288244.69944                  25468254.280
  25468254.500          40.750          29.350
 134042703.188 6 104448857.162 5                  25507478.480    25507480.920
  25507480.520          38.050          33.050
 130394984.428 5 101418392.537 4                  24461765.220    24461784.480
                        35.550          29.350
 125424751.863 7  97552555.692 6                  23438640.200    23438647.980
  23438646.940          45.250          40.050
 113742537.251 8  88466430.720 7                  21315307.380    21315312.580
  21315311.960          48.350          44.550
 113230687.313 7  88068341.971 7                  21197019.820    21197025.040
  21197024.920          44.800          42.850
 114062527.041 6  88715396.325 7                  21360219.880    21360226.160
  21360224.680          41.400          44.850
 118757665.396 7  92367078.114 7                  22200487.200    22200490.800
  22200489.020          47.400          42.200
 107188220.698 7  83368644.440 7                  20023652.300    20023654.400
  20023653.120          47.150          46.450
 113108434.325 8  87973235.956 7                  21189024.560    21189030.180
  21189029.660          48.450          46.050
 130192171.977 6 101260606.163 5                  24363681.560    24363690.820
  24363689.560          40.150          30.750
 121819056.162 7  94748187.017 6                  22748844.480    22748849.500
  22748847.920          45.350          40.950
 15  1 27 12  2 20.0000000  0 23G30G06G07G08G02G17G03G23G09G10G20G16
                                G05R14R17R02R12R13R19R03R18R11R04
 123119917.946 7  95937678.029 7  91940286.270 8  23428916.160    23428918.860
  23428917.900          47.200          43.150
 107703571.336 8  83924865.597 8  80427994.221 8  20495305.820    20495306.940
  20495306.200          49.900          50.100
 113606456.445 8  88524581.379 7                  21618565.860    21618563.780
  21618563.200          49.900          46.300
 133530479.581 7 104049739.55345                  25410000.880
  25410001.540          42.450          33.350
 118803183.456 8  92573910.07347                  22607487.940
  22607483.580          48.000          42.600
 130765152.596 7 101894845.480 6                  24883811.960    24883816.880
  24883816.340          44.050          38.550
 124704717.527 7  97172492.541 7  93123638.903 8  23730527.740    23730530.740
  23730529.920          46.250          43.600
 115497510.250 8  89998026.17747                  21978441.120
  21978435.960          49.900          43.350
 107330425.703 8  83634125.816 8  80149380.458 8  20424286.500    20424284.880
  20424284.460          50.200          49.650
 109093545.044 8  85007975.45447                  20759804.520
  20759801.880          49.100          45.300
 107485352.578 8  83754782.59847                  20453785.320
  20453780.860          49.050          47.200
 133828926.582 6 104282278.72044                  25466797.300
  25466797.540          40.400          27.200
 134027569.495 6 104437064.662 5                  25504598.940    25504601.540
  25504601.820          36.350          32.750
 130372791.858 5 101401131.842 4                  24457601.780    24457620.700
                        35.650          28.600
 125446499.702 7  97569470.611 6                  23442704.340    23442712.100
  23442711.060          44.850          39.650
 113752351.025 8  88474063.649 7                  21317146.480    21317151.680
  21317151.100          48.300          44.750
 113233197.819 7  88070294.585 7                  21197489.820    21197495.040
  21197494.880          44.600          42.900
 114046198.429 6  88702696.310 7                  21357161.980    21357168.280
  21357166.820          41.400          44.700
 118749219.672 7  92360509.220 6                  22198908.400    22198912.000
  22198910.180          46.850          41.950
 107185257.604 7  83366339.804 7                  20023098.780    20023100.880
  20023099.560          47.150          46.650
 113120681.886 8  87982761.826 7                  21191318.920    21191324.560
  21191324.060          48.350          46.000
 130210305.665 6 101274710.149 5                  24367075.000    24367084.320
  24367083.020          40.400          30.250
 121805959.831 7  94738000.975 6                  22746398.880    22746403.840
  22746402.400          45.050          41.700
 15  1 27 12  2 25.0000000  0 23G30G06G07G08G02G17G03G23G09G10G20G16
                                G05R14R17R02R12R13R19R03R18R11R04
 123102081.914 7  95923779.837 7  91926967.183 8  23425522.040    23425524.720
  23425523.760          46.850          43.100
 107704331.632 8  83925458.037 8  80428561.969 8  20495450.540    20495451.620
  20495450.880          50.050          50.050
 113594700.655 8  88515421.032 7                  21616328.760    21616326.700
  21616326.160          49.950          46.350
 133544468.780 7 104060640.21745                  25412662.920
  25412663.580          42.700          33.000
 118789857.918 8  92563526.53947                  22604952.160
  22604947.800          48.000          42.650
 130780364.016 7 101906698.502 6                  24886706.580    24886711.580
  24886710.960          43.850          38.500
 124718169.009 7  97182974.200 7  93133683.812 8  23733087.540    23733090.520
  23733089.660          46.350          43.150
 115508912.395 8  90006910.95347                  21980610.860
  21980605.760          50.150          43.550
 107335122.625 8  83637785.755 8  80152887.892 8  20425180.280    20425178.680
  20425178.260          50.350          49.650
 109085791.967 8  85001934.10247                  20758329.140
  20758326.480          48.900          45.550
 107490277.760 8  83758620.40647                  20454722.560
  20454718.100          49.150          47.050
 133821281.086 6 104276321.18245                  25465342.400
  25465342.500          40.950          30.650
 134012434.980 6 104425271.547 5                  25501718.540    25501721.700
  25501721.860          36.750          32.900
 130350595.958 6                                  24453437.700
                        38.200
 125468247.912 7  97586385.844 6                  23446768.540    23446776.400
  23446775.260          45.400          40.400
 113762169.321 8  88481700.097 7                  21318986.440    21318991.580
  21318991.100          48.550          44.550
 113235731.011 7  88072264.854 7                  21197964.100    21197969.280
  21197969.060          44.700          42.900
 114029884.050 6  88690007.363 7                  21354106.760    21354113.120
  21354111.640          41.500          44.800
 118740794.629 7  92353956.416 6                  22197333.480    22197337.040
  22197335.260          47.100          41.900
 107182300.863 7  83364040.117 7                  20022546.420    20022548.520
  20022547.180          47.100          46.300
 113132946.674 8  87992301.099 7                  21193616.540    21193622.180
  21193621.660          48.650          45.650
 130228450.175 6 101288822.541 5                  24370470.600    24370479.760
  24370478.480          40.950          31.100
 121792865.103 7  94727816.187 6                  22743953.620    22743958.520
  22743957.140          44.700          41.500
 15  1 27 12  2 30.0000000  0 23G30G06G07G08G02G17G03G23G09G10G20G16
                                G05R14R17R02R12R13R19R03R18R11R04
 123084248.375 7  95909883.602 7  91913649.960 8  23422128.420    23422131.080
  23422130.140          47.250          43.350
 107705107.259 8  83926062.418 8  80429141.169 8  20495598.160    20495599.220
  20495598.500          50.150          50.050
 113582955.141 8  88506268.695 7                  21614093.640    21614091.620
  21614091.040          49.850          46.400
 133558464.726 7 104071546.13145                  25415326.260
  25415327.060          42.950          32.200
 118776540.671 8  92553149.47747                  22602417.960
  22602413.580          48.000          43.000
 130795572.514 7 101918549.253 6                  24889600.660    24889605.720
  24889605.040          43.600          38.950
 124731623.364 7  97193458.100 7  93143730.873 8  23735647.860    23735650.800
  23735649.960          46.250          43.250
 115520318.562 8  90015798.86747                  21982781.380
  21982776.340          50.400          43.200
 107339828.220 8  83641452.450 8  80156401.805 8  20426075.720    20426074.140
  20426073.700          50.400          49.700
 109078045.509 8  84995897.90747                  20756855.000
  20756852.360          48.800          45.600
 107495211.077 8  83762464.54947                  20455661.360
  20455656.900          49.150          47.200
 133813645.157 6 104270371.11845                  25463889.300
  25463889.420          39.600          30.700
 133997298.339 6 104413476.777 5                  25498837.800    25498841.460
  25498840.580          37.650          32.750
 130328395.499 6                                  24449272.920
                        37.850
 125489995.237 7  97603300.359 6                  23450832.600    23450840.520
  23450839.320          45.900          40.100
 113771990.798 8  88489339.013 7                  21320827.000    21320832.140
  21320831.660          48.500          44.700
 113238285.457 7  88074251.643 7                  21198442.280    21198447.440
  21198447.260          44.350          43.050
 114013582.623 6  88677328.484 7                  21351054.060    21351060.360
  21351058.880          41.350          44.800
 118732388.797 7  92347418.543 7                  22195762.140    22195765.620
  22195763.900          47.050          42.100
 107179349.205 7  83361744.398 7                  20021995.020    20021997.140
  20021995.800          47.050          47.000
 113145227.334 8  88001852.712 7                  21195917.140    21195922.760
  21195922.240          48.850          45.900
 130246604.129 6 101302942.269 4                  24373867.840    24373876.940
  24373875.680          41.100          29.950
 121779770.842 7  94717631.782 6                  22741508.380    22741513.200
  22741511.960          44.700          41.600
 15  1 27 12  2 35.0000000  0 23G30G06G07G08G02G17G03G23G09G10G20G16
                                G05R14R17R02R12R13R19R03R18R11R04
 123066419.914 7  95895991.302 7  91900336.523 8  23418735.740    23418738.420
  23418737.460          47.200          43.700
 107705900.804 8  83926680.752 8  80429733.755 8  20495749.200    20495750.240
  20495749.500          50.200          50.000
 113571222.512 8  88497126.398 7                  21611860.940    21611858.960
  21611858.360          49.750          46.200
 133572470.097 6 104082459.41745                  25417991.400
  25417992.260          41.850          34.000
 118763234.322 7  92542780.89647                  22599885.820
  22599881.460          47.750          42.600
 130810780.671 7 101930399.718 6                  24892494.680    24892499.740
  24892499.040          42.700          38.700
 124745083.225 7  97203946.289 7  93153782.063 8  23738209.220    23738212.100
  23738211.240          45.750          43.000
 115531731.369 8  90024691.95647                  21984953.200
  21984948.180          50.200          43.500
 107344545.079 8  83645127.925 8  80159924.145 8  20426973.300    20426971.720
  20426971.300          50.300          49.700
 109070308.276 8  84989868.89847                  20755382.600
  20755380.000          48.900          45.250
 107500155.137 8  83766317.05847                  20456602.200
  20456597.740          49.000          46.850
 133806021.428 6 104264430.55545                  25462438.500
  25462438.780          38.650          32.600
 133982162.119 6 104401682.321 5                  25495957.200    25495960.480
  25495962.640          37.100          33.250
 130306192.831 6                                  24445107.580
                        38.250
 125511744.208 7  97620216.163 6                  23454896.960    23454904.960
  23454903.740          45.100          40.350
 113781818.115 8  88496982.487 7                  21322668.700    21322673.780
  21322673.280          48.400          44.500
 113240863.932 7  88076257.122 7                  21198924.960    21198930.160
  21198929.940          44.400          43.000
 113997296.675 6  88664661.643 7                  21348004.120    21348010.520
  21348009.000          40.800          44.700
 118724004.936 7  92340897.770 6                  22194194.860    22194198.380
  22194196.640          47.300          41.900
 107176405.197 7  83359454.597 7                  20021445.040    20021447.220
  20021445.840          47.100          46.650
 113157526.496 8  88011418.702 7                  21198221.200    21198226.780
  21198226.280          48.150          45.850
 130264770.285 6 101317071.520 4                  24377267.480    24377276.340
  24377275.140          40.200          29.450
 121766679.694 7  94707449.783 6                  22739063.760    22739068.520
  22739067.300          44.700          41.500
 15  1 27 12  2 40.0000000  0 23G30G06G07G08G02G17G03G23G09G10G20G16
                                G05R14R17R02R12R13R19R03R18R11R04
 123048594.820 7  95882101.644 7  91887025.610 8  23415343.700    23415346.400
  23415345.480          47.050          43.800
 107706710.560 8  83927311.729 8  80430338.427 8  20495903.320    20495904.340
  20495903.620          50.150          50.000
 113559501.029 8  88487992.785 7                  21609630.400    21609628.440
  21609627.840          49.750          46.150
 133586483.109 6 104093378.60445                  25420657.920
  25420658.900          41.350          33.550
 118749937.167 7  92532419.48247                  22597355.400
  22597351.100          47.800          42.650
 130825986.713 7 101942248.532 6                  24895388.320    24895393.360
  24895392.700          42.600          38.900
 124758546.868 7  97214437.419 7  93163836.048 8  23740771.260    23740774.080
  23740773.240          45.350          42.600
 115543149.074 8  90033588.86047                  21987125.940
  21987120.920          50.300          43.400
 107349271.511 8  83648810.861 8  80163453.619 8  20427872.700    20427871.160
  20427870.720          50.300          49.550
 109062578.549 8  84983845.73947                  20753911.620
  20753909.060          49.100          44.850
 107505108.219 8  83770176.59847                  20457544.740
  20457540.260          49.100          47.000
 133798408.142 6 104258498.07445                  25460989.760
  25460990.200          39.600          34.600
 133967024.731 6 104389886.993 5                  25493076.660    25493079.740
  25493082.080          36.600          31.350
 130283986.411 6                                  24440941.480
                        37.000
 125533493.018 7  97637131.844 6                  23458961.300    23458969.260
  23458968.040          45.250          39.000
 113791649.528 8  88504629.131 7                  21324511.160    21324516.160
  21324515.680          48.550          44.350
 113243464.573 7  88078279.837 7                  21199411.800    21199417.000
  21199416.800          44.200          43.000
 113981024.658 6  88652005.647 7                  21344956.840    21344963.320
  21344961.720          40.900          44.550
 118715641.340 7  92334392.753 6                  22192631.400    22192634.860
  22192633.200          47.100          41.850
 107173467.127 7  83357169.453 7                  20020896.200    20020898.340
  20020897.020          46.700          47.200
 113169842.326 8  88020997.674 7                  21200528.380    21200534.000
  21200533.460          48.150          45.850
 130282946.739 6 101331208.758 5                  24380669.020    24380677.760
  24380676.560          39.000          30.850
 121753589.912 7  94697268.839 6                  22736619.440    22736624.080
  22736622.920          44.300          41.650
 15  1 27 12  2 45.0000000  0 23G30G06G07G08G02G17G03G23G09G10G20G16
                                G05R14R17R02R12R13R19R03R18R11R04
 123030773.481 7  95868214.915 7  91873717.484 8  23411952.380    23411955.100
  23411954.180          47.450          43.650
 107707536.872 8  83927955.607 8  80430955.483 8  20496060.580    20496061.580
  20496060.860          50.100          50.050
 113547791.029 8  88478868.113 7                  21607402.040    21607400.100
  21607399.480          49.900          46.350
 133600504.127 6 104104304.04845                  25423325.980
  25423327.000          40.350          33.750
 118736649.597 7  92522065.53847                  22594826.840
  22594822.540          47.800          43.300
 130841190.996 7 101954095.967 6                  24898281.580    24898286.680
  24898286.080          43.250          39.050
 124772014.636 7  97224931.765 7  93173893.128 8  23743334.080    23743336.900
  23743336.020          45.350          42.600
 115554572.031 8  90042489.86447                  21989299.680
  21989294.640          50.150          43.250
 107354007.824 8  83652501.495 8  80166990.476 8  20428773.960    20428772.440
  20428772.000          50.200          49.600
 109054856.706 8  84977828.72247                  20752442.180
  20752439.640          49.200          45.100
 107510070.667 8  83774043.44047                  20458489.060
  20458484.600          49.150          47.250
 133790805.740 6 104252574.13145                  25459543.100
  25459543.780          40.350          31.400
 133951886.409 6 104378090.926 5                  25490196.060    25490198.380
  25490201.500          37.300          31.650
 130261776.552 5                                  24436774.900
                        35.000
 125555242.109 7  97654047.760 6                  23463025.700    23463033.780
  23463032.420          45.000          39.700
 113801485.453 8  88512279.304 7                  21326354.480    21326359.440
  21326358.920          48.400          44.600
 113246087.712 7  88080320.045 7                  21199902.840    21199908.080
  21199907.880          43.700          43.000
 113964766.829 6  88639360.663 7                  21341912.240    21341918.740
  21341917.100          40.850          44.700
 118707298.267 7  92327903.697 6                  22191071.800    22191075.220
  22191073.580          47.050          41.750
 107170535.378 7  83354889.192 7                  20020348.520    20020350.660
  20020349.400          46.550          47.100
 113182175.222 8  88030589.927 7                  21202838.820    21202844.420
  21202843.820          48.400          45.850
 130301133.797 6 101345354.200 5                  24384072.540    24384081.280
  24384079.980          39.300          31.150
 121740501.699 7  94687089.136 6                  22734175.400    22734179.960
  22734178.820          44.250          41.800
 15  1 27 12  2 50.0000000  0 23G30G06G07G08G02G17G03G23G09G10G20G16
                                G05R14R17R02R12R13R19R03R18R11R04
 123012956.465 7  95854331.540 7  91860412.598 8  23408561.920    23408564.620
  23408563.740          47.450          44.100
 107708380.308 8  83928612.834 8  80431585.317 8  20496221.100    20496222.100
  20496221.360          50.100          50.100
 113536093.120 8  88469752.866 7                  21605176.000    21605174.060
  21605173.440          49.850          46.300
 133614533.718 6 104115236.14845                  25425995.680
  25425996.740          41.000          33.250
 118723372.171 7  92511719.50147                  22592300.220
  22592295.920          47.400          43.650
 130856394.064 7 101965942.471 6                  24901174.640    24901179.740
  24901179.140          43.400          38.500
 124785487.104 7  97235429.778 7  93183953.712 8  23745897.760    23745900.560
  23745899.740          45.400          42.750
 115566000.830 8  90051395.40947                  21991474.540
  21991469.480          50.000          43.700
 107358754.601 8  83656200.277 8  80170535.145 8  20429677.220    20429675.720
  20429675.300          50.250          49.550
 109047143.317 8  84971818.29347                  20750974.320
  20750971.840          49.300          44.950
 107515043.031 8  83777918.00847                  20459435.280
  20459430.800          49.250          47.000
 133783214.695 6 104246659.04645                  25458098.580
  25458099.060          40.150          34.000
 133936747.755 6 104366294.567 5                  25487315.200    25487317.020
  25487319.580          37.800          31.000
 130239563.780 5                                  24432607.580
                        35.100
 125576992.040 7  97670964.312 6                  23467090.240    23467098.340
  23467096.960          45.050          38.800
 113811326.356 8  88519933.326 7                  21328198.720    21328203.600
  21328203.120          48.750          44.900
 113248733.969 7  88082378.250 7                  21200398.240    21200403.500
  21200403.280          43.600          43.250
 113948523.859 6  88626727.258 7                  21338870.440    21338876.900
  21338875.280          40.550          44.950
 118698976.420 7  92321431.151 7                  22189516.140    22189519.540
  22189517.920          47.300          42.250
 107167610.528 7  83352614.320 7                  20019802.140    20019804.300
  20019803.040          46.650          47.050
 113194525.707 8  88040195.843 7                  21205152.480    21205158.120
  21205157.480          48.400          45.800
 130319332.056 6 101359508.387 5                  24387478.080    24387486.940
  24387485.500          38.950          31.300
 121727415.823 7  94676911.254 7                  22731731.760    22731736.220
  22731735.200          44.300          42.050
 15  1 27 12  2 55.0000000  0 23G30G06G07G08G02G17G03G23G09G10G20G16
                                G05R14R17R02R12R13R19R03R18R11R04
 122995141.537 7  95840449.805 7  91847109.269 8  23405171.840    23405174.520
  23405173.640          47.450          44.250
 107709238.653 8  83929281.671 8  80432226.285 8  20496384.460    20496385.440
  20496384.720          50.200          50.150
 113524405.046 8  88460645.290 7                  21602951.840    21602949.880
  21602949.260          49.800          46.350
 133628569.597 6 104126173.18545                  25428666.660
  25428667.560          41.000          31.550
 118710102.673 7  92501379.64847                  22589775.100
  22589770.840          47.400          43.250
 130871593.707 7 101977786.323 6                  24904067.080    24904072.180
  24904071.620          43.750          38.250
 124798962.022 7  97245929.691 7  93194016.128 8  23748461.920    23748464.700
  23748463.920          45.200          42.950
 115577433.157 8  90060303.71247                  21993650.040
  21993644.980          49.900          43.600
 107363509.577 8  83659905.450 8  80174085.937 8  20430582.060    20430580.560
  20430580.140          50.200          49.700
 109039436.130 8  84965812.70547                  20749507.640
  20749505.220          49.200          45.450
 107520023.084 8  83781798.56847                  20460382.960
  20460378.460          49.150          47.200
 133775632.866 6 104240751.14245                  25456655.820
  25456656.220          40.900          32.500
 133921606.553 6 104354496.236 5                  25484434.000    25484435.820
  25484438.540          38.900          31.550
 130217345.885 6                                  24428439.500
                        37.000
 125598740.392 7  97687879.646 6                  23471154.500    23471162.600
  23471161.160          45.000          38.650
 113821170.010 8  88527589.495 7                  21330043.500    21330048.320
  21330047.840          48.300          44.600
 113251401.076 7  88084452.674 7                  21200897.480    21200902.760
  21200902.580          44.150          43.100
 113932293.379 6  88614103.570 7                  21335830.920    21335837.440
  21335835.840          41.000          44.800
 118690673.477 7  92314973.319 6                  22187964.040    22187967.380
  22187965.780          46.450          41.950
 107164690.311 7  83350343.040 7                  20019256.640    20019258.800
  20019257.560          46.950          47.200
 113206891.539 8  88049813.693 7                  21207469.060    21207474.680
  21207474.040          48.850          45.700
 130337539.249 6 101373669.533 5                  24390885.380    24390894.460
  24390892.720          40.300          31.500
 121714329.741 7  94666733.203 6                  22729288.080    22729292.460
  22729291.520          44.600          41.600
 15  1 27 12  3  0.0000000  0 23G30G06G07G08G02G17G03G23G09G10G20G16
                                G05R14R17R02R12R13R19R03R18R11R04
 122977330.940 7  95826571.444 7  91833809.175 8  23401782.580    23401785.300
  23401784.400          47.600          44.250
 107710114.084 8  83929963.819 8  80432880.014 8  20496551.080    20496552.040
  20496551.300          50.300          50.150
 113512729.117 8  88451547.174 7                  21600730.000    21600727.980
  21600727.420          50.150          46.300
 133642614.024 7 104137116.86545                  25431339.240
  25431340.060          42.000          33.000
 118696843.344 7  92491047.69947                  22587251.900
  22587247.660          47.550          43.950
 130886792.108 7 101989629.192 6                  24906959.280    24906964.360
  24906963.820          43.850          38.300
 124812441.605 7  97256433.226 7  93204082.018 8  23751027.000    23751029.820
  23751029.020          46.050          42.600
 115588871.285 8  90069216.52747                  21995826.620
  21995821.580          49.600          43.800
 107368274.991 8  83663618.751 8  80177644.513 8  20431488.880    20431487.380
  20431486.960          50.300          49.750
 109031737.387 8  84959813.68147                  20748042.600
  20748040.180          49.150          45.350
 107525013.066 8  83785686.86047                  20461332.500
  20461328.040          49.150          46.950
 133768062.512 6 104234852.13845                  25455215.260
  25455215.620          41.000          35.200
 133906465.048 6 104342697.644 5                  25481552.640    25481554.320
  25481557.160          40.050          32.750
 130195125.202 6                                  24424270.720
  24424287.680          37.100          30.050
 125620489.550 7  97704795.601 6                  23475218.900    23475227.080
  23475225.540          45.500          39.150
 113831018.643 8  88535249.534 7                  21331889.200    21331893.960
  21331893.520          48.600          44.800
 113254091.252 7  88086545.031 7                  21201401.040    21201406.460
  21201406.200          43.950          43.350
 113916077.864 6  88601491.495 7                  21332794.200    21332800.740
  21332799.140          41.050          44.800
 118682391.696 7  92308531.949 6                  22186415.820    22186419.180
  22186417.600          46.850          41.600
 107161776.957 7  83348077.092 7                  20018712.400    20018714.620
  20018713.340          46.900          47.100
 113219274.920 8  88059445.189 7                  21209788.880    21209794.500
  21209793.860          48.850          45.450
 130355757.785 6 101387839.478 5                  24394294.760    24394303.800
  24394302.080          39.850          31.100
 121701246.021 7  94656556.976 7                  22726844.880    22726849.200
  22726848.260          44.400          42.050
 15  1 27 12  3  5.0000000  0 23G30G06G07G08G02G17G03G23G09G10G20G16
                                G05R14R17R02R12R13R19R03R18R11R04
 122959523.666 7  95812695.679 7  91820511.573 8  23398393.960    23398396.680
  23398395.860          47.550          44.250
 107711005.624 8  83930658.530 8  80433545.774 8  20496720.740    20496721.680
  20496720.960          50.250          50.150
 113501064.289 8  88442457.707 7                  21598510.260    21598508.240
  21598507.660          50.200          46.400
 133656665.918 6 104148066.43845                  25434013.220
  25434013.980          41.600          31.850
 118683593.164 7  92480722.90447                  22584730.420
  22584726.240          47.550          43.600
 130901988.273 7 102001470.341 6                  24909851.080    24909856.100
  24909855.480          43.500          36.950
 124825924.823 7  97266939.637 7  93214150.647 8  23753592.840    23753595.580
  23753594.760          46.300          42.550
 115600314.159 8  90078133.03847                  21998004.100
  21997999.080          49.800          43.700
 107373049.784 8  83667339.371 8  80181210.118 8  20432397.480    20432396.000
  20432395.580          50.400          49.800
 109024046.067 8  84953820.46147                  20746578.940
  20746576.580          49.050          45.800
 107530011.945 8  83789582.09247                  20462283.740
  20462279.300          49.200          47.150
 133760502.505 6 104228961.18545                  25453776.560
  25453777.120          40.350          32.350
 133891322.151 6 104330897.994 5                  25478671.040    25478672.900
  25478675.860          40.200          32.850
 130172900.663 6 101245640.17015                  24420101.440    24420121.280
  24420121.140          37.550          32.300
 125642238.368 7  97721711.276 6                  23479283.280    23479291.500
  23479289.920          45.750          39.250
 113840871.248 8  88542912.682 7                  21333735.580    21333740.380
  21333739.920          48.400          44.950
 113256803.572 7  88088654.613 7                  21201908.720    21201914.240
  21201913.980          44.050          43.200
 113899876.238 6  88588890.245 7                  21329760.180    21329766.740
  21329765.100          41.550          45.300
 118674130.086 7  92302106.247 7                  22184871.380    22184874.800
  22184873.180          47.000          42.050
 107158869.449 7  83345815.713 7                  20018169.300    20018171.500
  20018170.220          47.250          47.300
 113231674.835 8  88069089.570 7                  21212111.820    21212117.400
  21212116.780          48.800          45.650
 130373986.166 6 101402017.124 5                  24397706.020    24397714.720
  24397713.180          40.650          31.150
 121688163.476 7  94646381.673 7                  22724401.820    22724406.100
  22724405.200          44.400          42.350
 15  1 27 12  3 10.0000000  0 23G30G06G07G08G02G17G03G23G09G10G20G16
                                G05R14R17R02R12R13R19R03R18R11R04
 122941720.799 7  95798823.339 7  91807217.253 8  23395006.160    23395008.840
  23395008.060          47.100          44.050
 107711914.346 8  83931366.621 8  80434224.361 8  20496893.680    20496894.640
  20496893.880          50.000          50.100
 113489411.649 8  88433377.745 7                  21596292.840    21596290.800
  21596290.220          49.950          46.600
 133670726.380 6 104159022.58345                  25436688.840
  25436689.680          41.500          33.650
 118670353.246 7  92470406.10147                  22582210.920
  22582206.740          47.650          43.550
 130917183.216 7 102013310.542 6                  24912742.620    24912747.540
  24912746.940          42.450          36.350
 124839412.791 7  97277449.736 7  93224222.817 8  23756159.560    23756162.240
  23756161.420          46.400          42.700
 115611762.864 8  90087054.10447                  22000182.660
  22000177.680          49.700          43.750
 107377835.059 8  83671068.163 8  80184783.533 8  20433308.100    20433306.620
  20433306.180          50.250          49.800
 109016363.261 8  84947833.87347                  20745116.900
  20745114.600          48.850          45.600
 107535020.755 8  83793485.06647                  20463236.840
  20463232.460          49.050          47.200
 133752954.012 6 104223079.28345                  25452340.060
  25452340.860          39.050          35.800
 133876179.015 6 104319098.144 5                  25475789.360    25475791.400
  25475793.020          38.900          33.950
 130150673.357 6 101228352.430 5                  24415931.560    24415950.860
  24415951.060          39.300          33.900
 125663987.917 7  97738627.537 6                  23483347.740    23483355.940
  23483354.420          45.150          38.150
 113850728.869 8  88550579.711 7                  21335582.920    21335587.660
  21335587.300          48.250          44.900
 113259538.870 7  88090782.067 7                  21202420.720    21202426.320
  21202426.040          44.150          43.100
 113883689.474 6  88576300.560 7                  21326728.960    21326735.460
  21326733.860          41.400          45.150
 118665889.698 7  92295697.074 6                  22183330.900    22183334.460
  22183332.680          47.200          41.900
 107155968.835 7  83343559.670 7                  20017627.500    20017629.660
  20017628.380          47.400          47.100
 113244092.323 8  88078747.616 7                  21214438.060    21214443.620
  21214443.000          48.350          45.850
 130392225.836 6 101416203.544 5                  24401119.340    24401127.940
  24401126.520          39.700          31.350
 121675083.169 7  94636208.108 7                  22721959.180    22721963.480
  22721962.580          44.600          42.450
 15  1 27 12  3 15.0000000  0 23G30G06G07G08G02G17G03G23G09G10G20G16
                                G05R14R17R02R12R13R19R03R18R11R04
 122923920.969 7  95784953.371 7  91793925.206 8  23391618.900    23391621.600
  23391620.820          47.250          44.200
 107712838.822 8  83932086.990 8  80434914.717 8  20497069.620    20497070.540
  20497069.800          50.150          50.150
 113477769.799 8  88424306.186 7                  21594077.460    21594075.440
  21594074.860          49.900          46.650
 133684794.005 6 104169984.37445                  25439365.800
  25439366.540          41.550          30.600
 118657122.178 7  92460096.18747                  22579693.120
  22579688.960          47.750          43.700
 130932375.618 7 102025148.716 5                  24915633.620    24915638.540
  24915637.960          42.150          35.900
 124852904.075 7  97287962.407 7  93234297.465 8  23758726.880    23758729.580
  23758728.760          46.350          42.850
 115623215.985 8  90095978.60647                  22002362.080
  22002357.180          49.800          43.850
 107382629.378 8  83674804.002 8  80188363.708 8  20434220.400    20434218.960
  20434218.480          50.300          49.800
 109008687.596 8  84941852.84147                  20743656.240
  20743653.940          48.900          45.450
 107540038.140 8  83797394.71847                  20464191.600
  20464187.260          49.100          47.200
 133745415.634 6 104217205.22745                  25450905.540
  25450906.220          40.500          34.350
 133861034.213 6 104307297.022 5                  25472907.340    25472909.620
  25472911.360          39.350          33.000
 130128442.011 6 101211061.567 5                  24411760.900    24411779.040
  24411780.500          38.950          33.100
 125685736.914 7  97755543.372 6                  23487412.120    23487420.280
  23487418.760          45.800          37.850
 113860590.216 7  88558249.638 7                  21337430.920    21337435.680
  21337435.360          47.900          45.050
 113262296.013 7  88092926.508 7                  21202936.800    21202942.480
  21202942.160          44.600          43.050
 113867516.241 6  88563721.391 7                  21323700.240    21323706.720
  21323705.160          41.400          45.150
 118657669.191 7  92289303.334 6                  22181794.160    22181797.720
  22181795.900          46.950          41.600
 107153073.714 7  83341307.930 7                  20017086.700    20017088.840
  20017087.580          47.250          47.150
 113256525.949 8  88088418.201 7                  21216767.300    21216772.860
  21216772.240          48.600          45.800
 130410475.292 6 101430397.531 5                  24404534.460    24404543.060
  24404541.680          39.050          31.300
 121662003.722 7  94626035.215 7                  22719516.720    22719521.040
  22719520.120          44.900          42.400
 15  1 27 12  3 20.0000000  0 23G30G06G07G08G02G17G03G23G09G10G20G16
                                G05R14R17R02R12R13R19R03R18R11R04
 122906125.454 7  95771086.766 7  91780636.386 8  23388232.480    23388235.180
  23388234.400          47.400          43.450
 107713780.351 8  83932820.647 8  80435617.809 8  20497248.800    20497249.700
  20497248.960          50.200          50.150
 113466140.009 8  88415244.020 7                  21591864.400    21591862.340
  21591861.780          50.100          46.850
 133698870.006 6 104180952.62645                  25442044.340
  25442045.320          40.900          33.850
 118643901.255 8  92449794.17947                  22577177.260
  22577173.080          48.050          42.800
 130947566.609 7 102036985.817 5                  24918524.380    24918529.300
  24918528.720          42.700          35.750
 124866399.968 7  97298478.673 7  93244375.548 8  23761295.080    23761297.780
  23761297.000          46.050          43.050
 115634674.768 8  90104907.51847                  22004542.620
  22004537.740          49.850          44.100
 107387434.043 8  83678547.893 8  80191951.610 8  20435134.680    20435133.240
  20435132.780          50.300          49.700
 109001020.323 8  84935878.34147                  20742197.180
  20742194.900          49.150          45.400
 107545065.406 8  83801312.06647                  20465148.240
  20465143.920          49.050          47.000
 133737888.629 6 104211340.01845                  25449473.180
  25449473.920          41.150          31.200
 133845889.046 6 104295495.583 5                  25470025.180    25470027.900
  25470029.320          38.700          32.850
 130106207.794 6 101193768.445 5                  24407589.740    24407608.780
  24407609.100          37.200          32.100
 125707486.489 7  97772459.662 6                  23491476.600    23491484.720
  23491483.260          45.900          37.800
 113870456.522 8  88565923.419 7                  21339279.860    21339284.680
  21339284.340          48.050          44.800
 113265076.097 7  88095088.789 7                  21203457.200    21203462.900
  21203462.600          44.750          42.800
 113851357.943 6  88551153.826 7                  21320674.300    21320680.760
  21320679.220          41.550          45.100
 118649469.753 7  92282925.997 6                  22180261.360    22180264.900
  22180263.060          47.300          41.700
 107150185.340 7  83339061.402 7                  20016547.180    20016549.280
  20016548.000          47.750          47.050
 113268976.963 8  88098102.311 7                  21219099.780    21219105.360
  21219104.740          48.900          45.750
 130428735.829 6 101444600.179 5                  24407951.680    24407960.480
  24407958.860          39.100          31.150
 121648926.575 7  94615864.113 7                  22717074.700    22717079.040
  22717078.100          45.550          42.300
 15  1 27 12  3 25.0000000  0 23G30G06G07G08G02G17G03G23G09G10G20G16
                                G05R14R17R02R12R13R19R03R18R11R04
 122888333.827 7  95757223.183 7  91767350.466 8  23384846.800    23384849.540
  23384848.700          47.150          43.000
 107714738.504 8  83933567.258 8  80436333.309 8  20497431.140    20497432.040
  20497431.280          50.100          50.200
 113454521.911 8  88406190.958 7                  21589653.520    21589651.460
  21589650.920          50.050          46.850
 133712953.987 6 104191927.19145                  25444724.420
  25444725.360          41.850          32.250
 118630690.067 8  92439499.74947                  22574663.260
  22574659.060          48.100          43.350
 130962755.858 7 102048821.583 6                  24921414.800    24921419.760
  24921419.120          42.600          36.700
 124879900.025 7  97308998.173 7  93254456.736 8  23763864.100    23763866.800
  23763866.000          46.000          43.150
 115646138.788 8  90113840.51447                  22006724.160
  22006719.300          49.650          44.050
 107392248.607 8  83682299.499 8  80195546.895 8  20436050.840    20436049.420
  20436048.960          50.150          49.700
 108993360.998 8  84929910.04047                  20740739.640
  20740737.400          49.100          45.450
 107550102.024 8  83805236.70447                  20466106.660
  20466102.360          48.850          47.500
 133730372.675 6 104205483.40245                  25448042.980
  25448043.660          41.350          32.700
 133830743.051 6 104283693.529 5                  25467142.900    25467145.880
  25467146.900          38.900          33.950
 130083970.358 6 101176472.800 4                  24403418.000    24403436.300
  24403437.660          36.700          29.650
 125729236.059 7  97789375.953 6                  23495541.080    23495549.360
  23495547.780          45.450          37.550
 113880327.390 7  88573600.758 7                  21341129.620    21341134.520
  21341134.140          47.750          44.850
 113267878.819 7  88097268.682 7                  21203981.820    21203987.520
  21203987.280          44.350          43.000
 113835214.048 6  88538597.475 7                  21317651.080    21317657.540
  21317656.020          41.500          45.200
 118641291.137 7  92276564.849 6                  22178732.460    22178735.960
  22178734.100          47.100          41.850
 107147303.358 7  83336819.864 7                  20016008.820    20016010.900
  20016009.640          47.450          47.100
 113281444.968 8  88107799.642 7                  21221435.480    21221441.040
  21221440.440          48.950          45.750
 130447006.813 6 101458810.932 5                  24411370.820    24411379.700
  24411378.060          39.750          31.650
 121635851.037 7  94605694.258 7                  22714632.960    22714637.280
  22714636.340          45.950          42.250
 15  1 27 12  3 30.0000000  0 23G30G06G07G08G02G17G03G23G09G10G20G16
                                G05R14R17R02R12R13R19R03R18R11R04
 122870545.175 7  95743361.908 7  91754066.748 8  23381461.720    23381464.420
  23381463.540          47.300          43.350
 107715712.323 8  83934326.075 8  80437060.503 8  20497616.460    20497617.340
  20497616.580          50.100          50.200
 113442914.536 8  88397146.259 7                  21587444.700    21587442.660
  21587442.120          50.000          46.900
 133727044.918 6 104202907.07445                  25447405.860
  25447406.600          41.700          32.500
 118617487.658 8  92429212.16547                  22572150.920
  22572146.700          48.050          43.350
 130977942.416 7 102060655.220 6                  24924304.740    24924309.720
  24924309.020          42.700          36.300
 124893403.299 7  97319520.194 7  93264540.325 8  23766433.720    23766436.420
  23766435.660          45.600          43.300
 115657607.094 8  90122776.84047                  22008906.520
  22008901.680          49.900          43.750
 107397072.086 8  83686058.050 8  80199148.840 8  20436968.700    20436967.320
  20436966.840          50.250          49.700
 108985708.705 8  84923947.21647                  20739283.440
  20739281.200          49.200          45.550
 107555147.116 8  83809167.94247                  20467066.700
  20467062.420          48.950          47.100
 133722866.740 6 104199634.61744                  25446614.680
  25446615.240          41.650          29.500
 133815595.290 6 104271890.090 5                  25464260.340    25464263.640
  25464264.120          39.750          33.900
 130061728.739 5 101159178.618 4                  24399245.400
  24399264.760          35.200          28.000
 125750985.000 7  97806291.731 6                  23499605.420    23499613.580
  23499612.180          45.550          36.400
 113890201.701 7  88581280.758 7                  21342980.000    21342985.020
  21342984.600          47.850          44.700
 113270703.050 7  88099465.292 7                  21204510.460    21204516.220
  21204515.980          44.350          43.250
 113819083.646 6  88526051.612 7                  21314630.360    21314636.860
  21314635.320          41.800          45.350
 118633132.209 7  92270219.016 6                  22177207.220    22177210.720
  22177208.840          46.450          41.650
 107144426.801 7  83334582.544 7                  20015471.500    20015473.560
  20015472.300          47.600          47.600
 113293928.931 8  88117509.376 7                  21223774.160    21223779.720
  21223779.120          48.850          45.750
 130465287.324 6 101473029.089 5                  24414791.900    24414800.800
  24414799.020          39.650          31.750
 121622776.157 7  94595524.912 7                  22712191.360    22712195.580
  22712194.660          45.700          42.450
 15  1 27 12  3 35.0000000  0 23G30G06G07G08G02G17G03G23G09G10G20G16
                                G05R14R17R02R12R13R19R03R18R11R04
 122852760.001 7  95729503.349 7  91740785.635 8  23378077.280    23378079.940
  23378079.080          47.400          43.000
 107716702.327 8  83935097.503 8  80437799.794 8  20497804.860    20497805.740
  20497804.980          50.100          50.150
 113431318.404 8  88388110.316 7                  21585238.000    21585235.980
  21585235.440          49.850          46.800
 133741143.367 6 104213892.86345                  25450088.760
  25450089.560          41.400          33.200
 118604294.571 8  92418931.84047                  22569640.360
  22569636.100          48.150          42.800
 130993126.681 7 102072487.071 6                  24927194.240    24927199.100
  24927198.540          43.300          36.850
 124906910.298 7  97330045.098 7  93274626.694 8  23769004.020    23769006.740
  23769005.980          46.000          43.300
 115669080.174 8  90131716.89847                  22011089.820
  22011084.980          49.800          44.200
 107401905.018 8  83689823.969 8  80202757.844 8  20437888.360    20437887.000
  20437886.520          50.400          49.700
 108978063.955 8  84917990.27447                  20737828.720
  20737826.460          49.300          45.250
 107560201.220 8  83813106.20547                  20468028.420
  20468024.180          49.050          47.000
 133715371.417 6 104193794.13245                  25445188.420
  25445188.760          41.500          32.200
 133800446.237 6 104260085.641 5                  25461377.700    25461381.060
  25461381.600          40.000          32.500
 130039483.504 5 101141876.914 4                  24395072.060
  24395091.520          35.050          29.350
 125772733.503 7  97823207.204 6                  23503669.720    23503677.860
  23503676.480          45.550          37.350
 113900080.157 8  88588963.990 7                  21344831.180    21344836.260
  21344835.800          48.100          44.850
 113273549.298 7  88101679.042 7                  21205043.220    21205049.020
  21205048.800          44.150          43.000
 113802967.190 7  88513516.594 7                  21311612.280    21311618.780
  21311617.220          42.050          45.100
 118624993.603 7  92263888.983 6                  22175685.840    22175689.340
  22175687.340          47.200          41.550
 107141556.202 7  83332349.852 7                  20014935.300    20014937.320
  20014936.100          47.400          47.550
 113306429.322 8  88127231.886 7                  21226115.940    21226121.520
  21226120.860          48.800          45.900
 130483578.125 6 101487255.248 5                  24418214.840    24418223.600
  24418221.880          39.300          31.950
 121609702.619 7  94585356.617 7                  22709750.040    22709754.140
  22709753.260          45.850          42.650
 15  1 27 12  3 40.0000000  0 23G30G06G07G08G02G17G03G23G09G10G20G16
                                G05R14R17R02R12R13R19R03R18R11R04
 122834978.963 7  95715648.016 7  91727507.617 8  23374693.680    23374696.260
  23374695.400          47.650          43.150
 107717709.150 8  83935882.040 8  80438551.634 8  20497996.440    20497997.320
  20497996.560          50.050          50.100
 113419734.130 8  88379083.609 7                  21583033.540    21583031.560
  21583031.020          50.000          46.600
 133755249.966 6 104224885.00045                  25452773.140
  25452773.960          41.900          34.350
 118591111.410 8  92408659.25547                  22567131.700
  22567127.400          48.050          42.650
 131008309.296 7 102084317.652 6                  24930083.440    24930088.340
  24930087.740          43.050          36.750
 124920421.677 7  97340573.435 7  93284716.319 8  23771575.180    23771577.940
  23771577.180          45.700          43.500
 115680558.669 8  90140661.16447                  22013274.120
  22013269.280          49.950          43.850
 107406747.999 8  83693597.718 8  80206374.355 8  20438809.940    20438808.600
  20438808.120          50.450          49.700
 108970427.369 8  84912039.69647                  20736375.520
  20736373.280          49.450          45.300
 107565264.945 8  83817051.95947                  20468991.980
  20468987.780          49.100          47.150
 133707887.379 7 104187962.38245                  25443764.300
  25443764.660          42.050          31.650
 133785296.574 6 104248280.715 5                  25458494.880    25458498.000
  25458498.080          40.100          33.050
 130017235.119 6 101124572.788 5                  24390898.180
  24390917.980          36.600          30.650
 125794482.171 7  97840122.770 6                  23507734.020    23507742.300
  23507740.900          45.600          37.750
 113909963.243 8  88596650.834 7                  21346683.200    21346688.320
  21346687.900          48.350          44.650
 113276418.443 7  88103910.595 7                  21205580.320    21205586.120
  21205585.860          44.650          42.900
 113786865.581 7  88500993.133 7                  21308597.020    21308603.420
  21308601.880          42.550          45.050
 118616875.982 7  92257575.282 6                  22174168.360    22174171.840
  22174169.820          46.950          41.850
 107138692.072 7  83330122.204 7                  20014400.360    20014402.280
  20014401.120          47.700          47.600
 113318946.889 8  88136967.767 7                  21228460.900    21228466.480
  21228465.840          48.500          45.850
 130501879.587 6 101501489.706 5                  24421639.800    24421648.660
  24421646.820          39.950          32.150
 121596630.969 7  94575189.778 7                  22707309.040    22707313.120
  22707312.220          45.850          42.750
 15  1 27 12  3 45.0000000  0 23G30G06G07G08G02G17G03G23G09G10G20G16
                                G05R14R17R02R12R13R19R03R18R11R04
 122817200.550 7  95701794.729 7  91714231.561 8  23371310.560    23371313.120
  23371312.220          47.600          43.350
 107718731.254 8  83936678.485 8  80439314.900 8  20498190.960    20498191.840
  20498191.040          50.100          50.100
 113408160.249 8  88370065.012 7                  21580831.100    21580829.120
  21580828.560          50.100          46.550
 133769363.170 7 104235882.27645                  25455458.800
  25455459.680          42.650          33.750
 118577936.708 8  92398393.27047                  22564624.640
  22564620.280          48.100          43.200
 131023488.721 7 102096145.744 6                  24932972.020    24932976.940
  24932976.360          43.450          37.250
 124933935.842 7  97351103.929 7  93294808.073 8  23774146.840    23774149.640
  23774148.860          46.050          43.200
 115692041.019 8  90149608.43947                  22015459.160
  22015454.320          50.050          43.750
 107411599.532 8  83697378.135 8  80209997.261 8  20439733.140    20439731.820
  20439731.340          50.550          49.700
 108962797.457 8  84906094.31647                  20734923.620
  20734921.380          49.450          45.600
 107570336.783 8  83821004.03447                  20469957.080
  20469952.940          49.050          47.000
 133700413.024 7 104182138.16845                  25442341.980
  25442342.300          43.200          31.350
 133770144.778 6 104236474.132 5                  25455611.680    25455614.840
  25455614.380          40.050          33.650
 129994982.231 6 101107265.121 5                  24386723.540
  24386743.160          36.200          31.150
 125816229.608 7  97857037.394 6                  23511798.080    23511806.360
  23511805.000          45.900          37.650
 113919849.531 8  88604340.163 7                  21348535.840    21348541.040
  21348540.580          48.450          44.850
 113279308.806 7  88106158.657 7                  21206121.400    21206127.160
  21206126.900          44.350          42.550
 113770777.069 7  88488479.859 7                  21305584.180    21305590.580
  21305589.000          42.350          45.000
 118608777.724 7  92251276.660 7                  22172654.500    22172657.940
  22172655.960          47.000          42.250
 107135833.052 7  83327898.511 7                  20013866.340    20013868.200
  20013867.040          47.350          47.350
 113331480.066 8  88146715.773 7                  21230808.760    21230814.360
  21230813.720          48.100          46.050
 130520190.143 6 101515731.252 5                  24425066.440    24425075.080
  24425073.420          40.100          31.300
 121583559.675 7  94565023.232 7                  22704868.100    22704872.220
  22704871.260          45.700          42.650
 15  1 27 12  3 50.0000000  0 23G30G06G07G08G02G17G03G23G09G10G20G16
                                G05R14R17R02R12R13R19R03R18R11R04
 122799429.087 7  95687946.857 7  91700960.689 8  23367928.740    23367931.300
  23367930.420          47.700          43.150
 107719772.994 8  83937490.222 8  80440092.817 8  20498389.220    20498390.060
  20498389.280          50.150          50.000
 113396601.096 8  88361057.881 7                  21578631.440    21578629.480
  21578628.920          49.850          46.550
 133783487.268 7 104246888.07244                  25458146.520
  25458147.440          42.750          29.250
 118564774.833 8  92388137.25747                  22562120.060
  22562115.640          48.250          42.850
 131038669.323 7 102107974.750 6                  24935860.820    24935865.760
  24935865.080          43.600          36.900
 124947457.201 7  97361640.040 7  93304905.168 8  23776719.900    23776722.660
  23776721.940          45.900          42.900
 115703531.608 8  90158562.13747                  22017645.760
  22017640.940          49.900          43.600
 107416463.926 8  83701168.564 8  80213629.757 8  20440658.800    20440657.480
  20440657.020          50.450          49.700
 108955178.549 8  84900157.50747                  20733473.820
  20733471.580          49.400          45.350
 107575421.042 8  83824965.79047                  20470924.560
  20470920.460          48.800          47.250
 133692952.679 7 104176324.88345                  25440922.360
  25440922.700          43.050          30.650
 133754995.183 6 104224669.245 5                  25452728.860    25452731.640
  25452731.200          39.850          32.800
 129972729.310 6 101089944.636 5                  24382548.780    24382568.700
  24382568.280          37.050          33.800
 125837980.270 7  97873954.525 6                  23515862.760    23515871.100
  23515869.700          45.800          37.000
 113929743.342 8  88612035.343 7                  21350389.920    21350395.120
  21350394.680          48.050          44.800
 113282224.804 7  88108426.646 7                  21206667.320    21206672.980
  21206672.760          43.950          42.600
 113754706.098 6  88475980.217 7                  21302574.680    21302580.920
  21302579.380          41.950          44.900
 118600703.299 7  92244996.539 7                  22171145.080    22171148.480
  22171146.560          46.550          42.250
 107132983.429 7  83325682.138 7                  20013334.060    20013335.900
  20013334.720          47.600          47.350
 113344033.115 8  88156479.237 7                  21233160.320    21233165.960
  21233165.340          48.250          45.850
 130538514.249 6 101529983.315 5                  24428495.600    24428504.200
  24428502.560          39.250          31.000
 121570493.181 7  94554860.417 7                  22702428.020    22702432.140
  22702431.220          45.600          42.550
 15  1 27 12  3 55.0000000  0 23G30G06G07G08G02G17G03G23G09G10G20G16
                                G05R14R17R02R12R13R19R03R18R11R04
 122781659.518 7  95674100.464 7  91687691.225 8  23364547.300    23364549.880
  23364548.960          47.600          43.550
 107720829.259 8  83938313.288 8  80440881.578 8  20498590.240    20498591.080
  20498590.280          50.250          50.050
 113385051.574 8  88352058.270 7                  21576433.620    21576431.680
  21576431.120          49.850          46.450
 133797617.168 7 104257898.37845                  25460835.380
  25460836.440          42.600          31.750
 118551620.620 8  92377887.24047                  22559616.940
  22559612.440          48.350          42.800
 131053845.954 7 102119800.662 6                  24938748.840    24938753.780
  24938753.080          43.100          37.300
 124960980.617 7  97372177.756 7  93315003.785 8  23779293.340    23779296.040
  23779295.320          45.800          43.050
 115715025.288 8  90167518.24547                  22019832.940
  22019828.140          50.100          43.550
 107421336.064 8  83704965.035 8  80217268.034 8  20441585.940    20441584.620
  20441584.180          50.400          49.750
 108947565.511 8  84894225.27547                  20732025.120
  20732022.900          49.450          45.350
 107580512.607 8  83828933.23547                  20471893.420
  20471889.380          48.900          47.000
 133685501.304 7 104170518.58644                  25439504.460
  25439504.840          43.100          29.850
 133739842.648 6 104212862.088 5                  25449845.380    25449848.240
  25449847.640          39.600          34.050
 129950471.097 6 101072632.867 5                  24378373.120    24378393.700
  24378392.940          37.350          32.600
 125859728.777 7  97890870.006 6                  23519927.000    23519935.240
  23519933.960          45.800          37.200
 113939639.467 8  88619732.319 7                  21352244.440    21352249.660
  21352249.200          48.050          44.750
 113285161.166 7  88110710.490 7                  21207217.020    21207222.640
  21207222.420          44.150          43.000
 113738647.549 7  88463490.240 7                  21299567.480    21299573.680
  21299572.080          42.150          45.000
 118592647.520 7  92238730.945 6                  22169639.160    22169642.540
  22169640.620          46.750          41.800
 107130138.105 7  83323469.114 7                  20012802.580    20012804.400
  20012803.220          47.550          47.150
 113356600.838 8  88166254.130 7                  21235514.660    21235520.320
  21235519.720          48.450          45.650
 130556846.637 6 101544241.854 5                  24431926.320    24431934.800
  24431933.220          38.700          30.550
 121557426.278 7  94544697.282 7                  22699987.860    22699992.000
  22699991.060          45.350          42.550
 15  1 27 12  4  0.0000000  0 23G30G06G07G08G02G17G03G23G09G10G20G16
                                G05R14R17R02R12R13R19R03R18R11R04
 122763893.168 7  95660256.581 7  91674424.173 8  23361166.440    23361169.080
  23361168.160          47.650          43.750
 107721901.357 8  83939148.691 8  80441682.177 8  20498794.260    20498795.100
  20498794.300          50.300          50.150
 113373512.975 8  88343067.173 7                  21574237.880    21574235.960
  21574235.420          49.850          46.650
 133811754.154 7 104268914.16045                  25463525.580
  25463526.740          42.800          32.600
 118538475.433 8  92367644.24347                  22557115.520
  22557110.980          48.400          42.800
 131069019.930 7 102131624.502 6                  24941636.380    24941641.340
  24941640.640          43.000          37.050
 124974507.398 7  97382718.087 7  93325104.950 8  23781867.400    23781870.140
  23781869.440          46.200          43.150
 115726523.374 8  90176477.79047                  22022020.940
  22022016.180          50.000          43.600
 107426217.269 8  83708768.574 8  80220913.090 8  20442514.800    20442513.500
  20442513.060          50.550          49.800
 108939959.698 8  84888298.67647                  20730577.800
  20730575.600          49.350          45.950
 107585612.816 8  83832907.42247                  20472863.920
  20472859.920          49.050          47.400
 133678060.142 6 104164720.30744                  25438088.480
  25438088.760          41.700          29.050
 133724688.563 6 104201053.716 5                  25446961.600    25446964.400
  25446964.100          39.250          32.400
 129928208.938 5 101055317.982 5                  24374196.600    24374216.580
  24374216.280          35.050          30.650
 125881476.383 7  97907784.769 6                  23523991.080    23523999.300
  23523998.120          45.750          37.600
 113949539.295 7  88627432.187 7                  21354099.660    21354104.900
  21354104.420          47.700          44.750
 113288119.276 7  88113011.243 7                  21207770.820    21207776.360
  21207776.120          44.700          42.850
 113722603.000 6  88451011.155 7                  21296562.860    21296569.020
  21296567.420          41.600          44.900
 118584611.714 7  92232480.879 6                  22168136.960    22168140.320
  22168138.420          46.950          41.750
 107127298.176 7  83321260.293 7                  20012272.100    20012273.900
  20012272.720          47.600          47.250
 113369184.639 8  88176041.531 7                  21237872.020    21237877.680
  21237877.080          48.300          45.600
 130575188.756 6 101558507.919 5                  24435358.800    24435367.360
  24435365.680          39.250          30.250
 121544360.229 7  94534534.806 7                  22697547.860    22697551.980
  22697551.060          45.350          42.700
 15  1 27 12  4  5.0000000  0 23G30G06G07G08G02G17G03G23G09G10G20G16
                                G05R14R17R02R12R13R19R03R18R11R04
 122746132.128 7  95646416.837 7  91661161.082 8  23357786.600    23357789.280
  23357788.360          47.600          43.900
 107722991.425 8  83939998.094 8  80442496.190 8  20499001.700    20499002.520
  20499001.740          50.200          50.200
 113361987.447 8  88334086.255 7                  21572044.660    21572042.700
  21572042.200          49.800          46.600
 133825900.373 7 104279937.20845                  25466217.520
  25466218.720          42.600          30.500
 118525341.402 8  92357409.93747                  22554616.240
  22554611.660          48.450          43.250
 131084193.309 7 102143447.889 6                  24944523.800    24944528.760
  24944528.080          42.550          36.750
 124988039.666 7  97393262.700 7  93335210.205 8  23784442.520    23784445.240
  23784444.540          46.000          43.300
 115738028.010 8  90185442.43447                  22024210.220
  22024205.420          49.950          43.400
 107431109.639 8  83712580.812 8  80224566.491 8  20443445.780    20443444.480
  20443444.060          50.400          49.750
 108932363.240 8  84882379.36447                  20729132.220
  20729130.060          49.300          45.850
 107590723.782 8  83836889.99947                  20473836.460
  20473832.520          49.000          47.050
 133670631.356 6 104158931.64545                  25436674.880
  25436675.040          41.350          31.200
 133709534.904 6 104189245.700 5                  25444077.820    25444080.440
  25444080.300          39.700          32.900
 129905945.016 5 101038001.719 5                  24370019.860    24370038.600
  24370039.300          34.100          30.800
 125903225.351 7  97924700.596 6                  23528055.420    23528063.680
  23528062.440          45.350          38.050
 113959445.009 7  88635136.619 7                  21355955.960    21355961.180
  21355960.720          47.950          44.400
 113291101.297 7  88115330.588 7                  21208329.080    21208334.560
  21208334.320          44.800          42.550
 113706574.242 6  88438544.353 7                  21293561.200    21293567.380
  21293565.720          41.700          44.750
 118576598.125 7  92226248.106 6                  22166638.960    22166642.260
  22166640.360          47.300          41.850
 107124466.173 8  83319057.612 7                  20011743.120    20011744.860
  20011743.680          48.000          47.300
 113381786.613 8  88185843.059 7                  21240232.780    21240238.460
  21240237.860          48.850          45.700
 130593542.639 6 101572783.145 4                  24438793.520    24438801.980
  24438800.260          40.600          29.800
 121531297.222 7  94524374.697 7                  22695108.440    22695112.580
  22695111.680          45.250          42.550
 15  1 27 12  4 10.0000000  0 23G30G06G07G08G02G17G03G23G09G10G20G16
                                G05R14R17R02R12R13R19R03R18R11R04
 122728374.010 7  95632579.365 7  91647900.172 8  23354407.320    23354410.000
  23354409.100          47.700          43.950
 107724097.013 8  83940859.586 8  80443321.784 8  20499212.100    20499212.920
  20499212.120          50.250          50.150
 113350472.584 8  88325113.633 7                  21569853.480    21569851.500
  21569850.980          49.850          46.750
 133840053.366 6 104290965.47145                  25468910.760
  25468911.900          41.700          32.300
 118512216.089 8  92347182.42447                  22552118.600
  22552113.980          48.600          42.700
 131099363.684 7 102155268.912 6                  24947410.600    24947415.740
  24947414.920          43.050          36.750
 125001574.998 7  97403809.691 7  93345317.728 8  23787018.220    23787020.960
  23787020.280          45.800          43.100
 115749536.745 8  90194410.27347                  22026400.240
  22026395.460          50.050          43.100
 107436010.737 8  83716399.844 8  80228226.392 8  20444378.440    20444377.140
  20444376.700          50.350          49.800
 108924773.710 8  84876465.44547                  20727688.000
  20727685.820          49.350          45.950
 107595843.098 8  83840879.06647                  20474810.600
  20474806.700          49.100          46.950
 133663212.557 6 104153150.78545                  25435263.140
  25435263.260          41.050          34.550
 133694379.463 6 104177436.260 5                  25441193.700    25441196.100
  25441196.040          40.350          32.100
 129883676.876 5 101020682.220 5                  24365842.220    24365861.740
  24365861.580          32.900          30.100
 125924973.225 7  97941615.546 6                  23532119.560    23532127.800
  23532126.640          45.000          38.700
 113969354.239 7  88642843.794 7                  21357812.940    21357818.180
  21357817.680          47.750          43.900
 113294104.719 7  88117666.575 7                  21208891.380    21208896.860
  21208896.520          44.750          42.400
 113690559.052 6  88426088.095 7                  21290562.040    21290568.180
  21290566.540          41.500          44.800
 118568604.127 7  92220030.548 6                  22165144.620    22165147.860
  22165145.980          46.900          41.750
 107121639.247 7  83316858.902 7                  20011215.080    20011216.760
  20011215.600          47.400          47.200
 113394404.261 8  88195656.770 7                  21242596.480    21242602.160
  21242601.600          48.800          45.600
 130611905.780 6 101587065.620 5                  24442229.920    24442238.360
  24442236.620          39.700          30.750
 121518234.913 7  94514215.134 7                  22692669.140    22692673.300
  22692672.440          44.900          42.650
 15  1 27 12  4 15.0000000  0 23G30G06G07G08G02G17G03G23G09G10G20G16
                                G05R14R17R02R12R13R19R03R18R11R04
 122710619.482 8  95618744.683 7  91634641.949 8  23351028.720    23351031.440
  23351030.540          48.150          44.300
 107725218.790 8  83941733.693 8  80444159.467 8  20499425.560    20499426.380
  20499425.600          50.600          50.100
 113338969.007 8  88316149.798 7                  21567664.440    21567662.440
  21567661.920          50.300          46.750
 133854213.784 6 104301999.54545                  25471605.340
  25471606.500          41.400          32.300
 118499100.195 8  92336962.24647                  22549622.780
  22549618.100          48.950          42.750
 131114531.724 7 102167088.127 6                  24950297.000    24950302.160
  24950301.380          43.700          37.050
 125015114.048 7  97414359.577 7  93355428.024 8  23789594.620    23789597.380
  23789596.700          46.150          43.250
 115761050.202 8  90203381.78447                  22028591.200
  22028586.360          50.200          43.050
 107440921.221 8  83720226.187 8  80231893.310 8  20445312.860    20445311.580
  20445311.160          50.750          49.800
 108917191.742 8  84870557.41647                  20726245.220
  20726243.040          49.750          45.450
 107600971.377 8  83844875.11547                  20475786.440
  20475782.600          49.400          46.450
 133655804.428 6 104147378.16445                  25433853.460
  25433853.580          41.850          31.650
 133679222.653 6 104165625.767 5                  25438309.440    25438311.700
  25438311.360          40.250          32.500
 129861405.145 5 101003359.875 5                  24361664.020    24361683.940
  24361683.280          32.100          31.750
 125946720.606 7  97958530.118 6                  23536183.620    23536191.820
  23536190.680          43.850          38.600
 113979267.419 7  88650554.034 7                  21359670.620    21359675.860
  21359675.340          46.550          43.900
 113297130.252 7  88120019.761 7                  21209457.860    21209463.300
  21209462.920          43.050          42.750
 113674558.011 6  88413642.840 7                  21287565.520    21287571.660
  21287570.020          39.950          44.850
 118560630.500 7  92213828.823 6                  22163654.040    22163657.280
  22163655.400          45.600          41.850
 107118818.359 7  83314664.872 7                  20010688.160    20010689.800
  20010688.620          46.400          47.200
 113407038.242 7  88205483.192 7                  21244963.260    21244968.920
  21244968.380          47.850          45.400
 130630278.845 6 101601355.733 5                  24445668.200    24445676.860
  24445674.900          38.600          31.550
 121505173.740 7  94504056.456 7                  22690230.100    22690234.200
  22690233.400          43.750          42.250
 15  1 27 12  4 20.0000000  0 23G30G06G07G08G02G17G03G23G09G10G20G16
                                G05R14R17R02R12R13R19R03R18R11R04
 122692870.670 7  95604914.476 7  91621387.990 8  23347651.200    23347653.940
  23347653.060          47.950          44.400
 107726358.883 8  83942622.078 8  80445010.835 8  20499642.500    20499643.360
  20499642.560          50.250          50.150
 113327478.895 8  88307196.479 7                  21565477.960    21565475.920
  21565475.400          50.200          46.750
 133868383.696 7 104313041.02844                  25474301.720
  25474302.820          42.000          29.650
 118485995.829 8  92326751.07047                  22547129.120
  22547124.440          48.850          43.200
 131129699.496 7 102178907.139 6                  24953183.360    24953188.580
  24953187.880          43.250          36.900
 125028658.928 7  97424914.019 7  93365542.686 8  23792172.120    23792174.940
  23792174.240          45.850          43.700
 115772570.499 8  90212358.62647                  22030783.440
  22030778.580          50.200          43.650
 107445843.192 8  83724061.493 8  80235568.806 8  20446249.480    20446248.200
  20446247.800          50.700          49.900
 108909619.454 8  84864656.94047                  20724804.280
  20724802.100          49.650          46.000
 107606110.744 8  83848879.82147                  20476764.380
  20476760.600          49.150          46.650
 133648409.041 6 104141615.51044                  25432446.180
  25432446.380          41.700          29.850
 133664066.758 6 104153815.997 5                  25435425.380    25435427.560
  25435427.320          40.400          33.900
 129839132.119 5 100986036.576 5                  24357485.380    24357505.200
  24357504.840          33.450          31.500
 125968469.603 7  97975445.971 6                  23540247.980    23540256.220
  23540255.020          44.150          39.550
 113989186.766 7  88658269.082 7                  21361529.460    21361534.740
  21361534.160          46.850          44.050
 113300180.046 7  88122391.824 7                  21210028.780    21210034.300
  21210033.860          43.850          42.800
 113658573.416 6  88401210.392 7                  21284572.020    21284578.240
  21284576.600          40.450          44.900
 118552679.458 7  92207644.687 6                  22162167.680    22162170.940
  22162169.040          45.900          41.950
 107116005.579 7  83312477.154 7                  20010162.740    20010164.360
  20010163.160          45.900          47.200
 113419690.694 7  88215323.973 7                  21247333.500    21247339.180
  21247338.640          47.850          45.650
 130648663.951 6 101615655.262 5                  24449108.780    24449117.600
  24449115.420          39.650          31.550
 121492116.111 7  94493900.534 7                  22687791.700    22687795.780
  22687794.940          44.250          42.450
 15  1 27 12  4 25.0000000  0 23G30G06G07G08G02G17G03G23G09G10G20G16
                                G05R14R17R02R12R13R19R03R18R11R04
 122675123.530 7  95591085.558 7  91608135.281 8  23344273.980    23344276.800
  23344275.900          47.700          44.250
 107727513.199 8  83943521.538 8  80445872.820 8  20499862.140    20499863.020
  20499862.200          50.250          50.000
 113315998.172 8  88298250.473 7                  21563293.260    21563291.200
  21563290.680          50.250          46.700
 133882559.030 7 104324086.72744                  25476999.180
  25477000.380          42.650          29.150
 118472898.954 8  92316545.71247                  22544636.900
  22544632.160          48.700          42.800
 131144862.922 7 102190722.790 6                  24956068.860    24956074.160
  24956073.380          43.700          36.400
 125042205.564 7  97435469.814 7  93375658.660 8  23794749.940    23794752.840
  23794752.200          45.650          43.800
 115784093.580 8  90221337.65047                  22032976.220
  22032971.320          49.950          43.300
 107450772.592 8  83727902.581 8  80239249.849 8  20447187.520    20447186.240
  20447185.860          50.600          49.950
 108902052.813 8  84858760.86447                  20723364.440
  20723362.220          49.750          45.350
 107611257.145 8  83852889.99547                  20477743.660
  20477739.940          49.150          46.900
 133641022.460 6 104135859.74545                  25431040.620
  25431040.580          41.700          30.050
 133648907.717 6 104142003.757 5                  25432540.820    25432542.760
  25432542.620          40.000          33.200
 129816853.658 5 100968708.980 5                  24353305.820    24353325.440
  24353325.380          33.700          30.800
 125990216.091 7  97992359.841 6                  23544311.780    23544320.120
  23544318.920          44.500          40.150
 113999108.257 7  88665985.791 7                  21363388.720    21363394.060
  21363393.400          47.400          44.350
 113303249.985 7  88124779.537 7                  21210603.520    21210609.040
  21210608.600          43.800          43.000
 113642601.045 6  88388787.443 7                  21281580.940    21281587.080
  21281585.460          40.200          44.850
 118544746.726 7  92201474.783 6                  22160684.700    22160688.000
  22160686.100          46.100          41.650
 107113196.709 7  83310292.488 7                  20009638.020    20009639.640
  20009638.460          46.000          47.000
 113432357.438 7  88225175.860 7                  21249706.420    21249712.120
  21249711.560          47.850          45.700
 130667057.070 6 101629961.005 5                  24452550.880    24452559.580
  24452557.500          39.300          32.100
 121479057.757 7  94483744.044 7                  22685353.140    22685357.160
  22685356.300          44.100          42.000
 15  1 27 12  4 30.0000000  0 23G30G06G07G08G02G17G03G23G09G10G20G16
                                G05R14R17R02R12R13R19R03R18R11R04
 122657381.692 7  95577260.782 7  91594886.551 8  23340897.800    23340900.620
  23340899.740          47.800          44.150
 107728685.397 8  83944434.944 8  80446748.173 8  20500085.180    20500086.100
  20500085.260          50.100          50.100
 113304530.500 8  88289314.637 7                  21561111.040    21561108.940
  21561108.440          50.150          46.700
 133896743.443 7 104335139.50444                  25479698.400
  25479699.560          42.950          29.500
 118459813.190 8  92306349.02447                  22542146.800
  22542141.980          48.500          43.650
 131160025.701 7 102202537.920 6                  24958954.280    24958959.560
  24958958.840          44.100          36.550
 125055757.601 7  97446029.825 7  93385778.675 8  23797328.760    23797331.760
  23797331.120          45.600          43.300
 115795623.049 8  90230321.64247                  22035170.220
  22035165.280          49.950          43.550
 107455713.061 8  83731752.296 8  80242939.160 8  20448127.640    20448126.380
  20448126.040          50.650          49.950
 108894495.438 8  84852872.00947                  20721926.360
  20721924.100          49.750          45.750
 107616414.221 8  83856908.49447                  20478724.980
  20478721.300          48.950          47.050
 133633648.229 6 104130113.56444                  25429637.400
  25429637.480          41.500          28.300
 133633749.118 6 104130191.872 5                  25429656.300    25429658.340
  25429658.160          40.050          33.550
 129794573.321 5 100951379.920 5                  24349125.820    24349146.360
  24349145.480          31.500          30.500
 126011963.737 7  98009274.629 6                  23548375.860    23548384.240
  23548383.080          44.400          40.500
 114009035.558 7  88673707.013 7                  21365249.080    21365254.480
  21365253.780          47.600          44.350
 113306343.719 7  88127185.769 7                  21211182.740    21211188.240
  21211187.800          43.600          42.950
 113626644.665 6  88376376.939 7                  21278592.760    21278598.900
  21278597.340          40.650          44.950
 118536836.143 7  92195322.109 6                  22159205.840    22159209.260
  22159207.280          46.650          41.550
 107110395.470 7  83308113.750 7                  20009114.700    20009116.340
  20009115.160          46.550          47.050
 113445042.256 8  88235041.832 7                  21252082.720    21252088.440
  21252087.880          48.300          45.650
 130685461.764 6 101644275.748 5                  24455995.100    24456003.700
  24456001.720          38.850          30.750
 121466002.330 7  94473589.840 7                  22682915.140    22682919.080
  22682918.220          44.400          42.400
 15  1 27 12  4 35.0000000  0 23G30G06G07G08G02G17G03G23G09G10G20G16
                                G05R14R17R02R12R13R19R03R18R11R04
 122639644.155 7  95563439.339 7  91581641.002 8  23337522.440    23337525.240
  23337524.360          47.700          44.050
 107729874.438 8  83945361.466 8  80447636.084 8  20500311.400    20500312.360
  20500311.540          50.100          50.050
 113293074.840 8  88280388.153 7                  21558931.100    21558928.980
  21558928.500          49.950          46.600
 133910935.891 7 104346198.56744                  25482399.140
  25482400.360          43.150          29.600
 118446737.527 8  92296160.19947                  22539658.620
  22539653.760          48.600          43.150
 131175186.662 7 102214351.607 6                  24961839.340    24961844.520
  24961843.980          44.150          36.750
 125069313.977 7  97456593.210 7  93395901.919 8  23799908.480    23799911.500
  23799910.800          45.900          43.300
 115807157.847 8  90239309.78547                  22037365.240
  22037360.280          50.200          42.850
 107460663.499 8  83735609.780 8  80246635.912 8  20449069.700    20449068.420
  20449068.120          50.550          49.950
 108886946.291 8  84846989.56347                  20720489.840
  20720487.540          49.750          45.800
 107621580.917 8  83860934.48747                  20479708.120
  20479704.500          48.850          47.000
 133626285.381 6 104124376.21645                  25428236.340
  25428236.340          41.150          30.900
 133618589.944 6 104118379.555 5                  25426771.680    25426773.620
  25426773.200          40.150          33.650
 129772290.186 5 100934048.736 5                  24344945.400    24344965.500
  24344965.060          31.150          30.650
 126033711.431 7  98026189.455 6                  23552439.940    23552448.440
  23552447.180          44.050          39.850
 114018967.492 7  88681431.837 7                  21367110.320    21367115.760
  21367115.040          47.750          44.300
 113309460.202 7  88129609.701 7                  21211766.120    21211771.680
  21211771.260          43.850          43.100
 113610703.329 6  88363978.135 7                  21275607.400    21275613.620
  21275612.020          40.950          44.800
 118528946.631 7  92189185.826 6                  22157730.940    22157734.380
  22157732.380          46.450          41.900
 107107600.880 7  83305940.180 7                  20008592.600    20008594.280
  20008593.100          46.650          46.850
 113457743.957 8  88244920.928 7                  21254462.200    21254467.880
  21254467.360          48.350          45.400
 130703876.883 6 101658598.613 5                  24459441.260    24459449.640
  24459447.840          39.600          30.850
 121452948.870 7  94463437.161 7                  22680477.500    22680481.400
  22680480.500          44.750          42.200
 15  1 27 12  4 40.0000000  0 23G30G06G07G08G02G17G03G23G09G10G20G16
                                G05R14R17R02R12R13R19R03R18R11R04
 122621909.015 7  95549619.769 7  91568397.248 8  23334147.520    23334150.340
  23334149.460          47.600          43.800
 107731078.425 8  83946299.629 8  80448535.153 8  20500540.500    20500541.480
  20500540.640          50.000          50.050
 113281629.302 8  88271469.558 7                  21556753.080    21556750.980
  21556750.480          49.800          46.550
 133925134.455 7 104357262.36545                  25485101.060
  25485102.240          42.900          34.000
 118433670.062 8  92285977.76547                  22537171.980
  22537167.100          48.300          43.950
 131190343.953 7 102226162.438 6                  24964723.720    24964728.900
  24964728.320          44.050          36.650
 125082872.830 7  97467158.534 7  93406027.015 8  23802488.660    23802491.680
  23802491.020          46.150          43.550
 115818696.097 8  90248300.62047                  22039560.900
  22039555.940          50.050          43.450
 107465622.048 8  83739473.582 8  80250338.721 8  20450013.280    20450012.040
  20450011.740          50.350          49.900
 108879403.523 8  84841112.08547                  20719054.560
  20719052.180          49.700          45.800
 107626755.319 8  83864966.48447                  20480692.720
  20480689.140          48.750          46.800
 133618932.036 6 104118646.31945                  25426837.100
  25426836.900          39.900          31.300
 133603428.252 6 104106565.270 5                  25423886.560    25423888.360
  25423888.000          39.850          33.650
 129750002.370 5 100916713.892 5                  24340764.260    24340784.360
  24340783.760          32.400          32.100
 126055457.325 7  98043102.869 6                  23556503.720    23556512.240
  23556510.960          44.550          40.500
 114028902.216 8  88689158.837 7                  21368972.060    21368977.540
  21368976.800          48.400          44.300
 113312597.474 7  88132049.796 7                  21212353.460    21212359.000
  21212358.620          43.950          43.050
 113594774.906 6  88351589.362 7                  21272624.520    21272630.760
  21272629.100          40.900          44.750
 118521076.315 7  92183064.472 6                  22156259.640    22156263.160
  22156261.080          46.350          41.850
 107104810.925 7  83303770.211 7                  20008071.400    20008073.080
  20008071.900          47.150          46.950
 113470460.638 8  88254811.674 7                  21256844.500    21256850.140
  21256849.620          48.350          45.650
 130722300.550 6 101672928.129 5                  24462888.980    24462897.400
  24462895.620          39.950          32.100
 121439895.486 7  94453284.548 7                  22678039.860    22678043.740
  22678042.840          44.750          42.200
 15  1 27 12  4 45.0000000  0 23G30G06G07G08G02G17G03G23G09G10G20G16
                                G05R14R17R02R12R13R19R03R18R11R04
 122604178.927 7  95535804.133 7  91555157.273 8  23330773.580    23330776.360
  23330775.500          47.750          43.900
 107732299.976 8  83947251.483 8  80449447.352 8  20500772.920    20500773.920
  20500773.120          50.050          50.000
 113270196.531 8  88262560.913 7                  21554577.480    21554575.400
  21554574.900          49.850          46.650
 133939341.764 7 104368332.96245                  25487804.580
  25487805.940          42.950          30.000
 118420613.432 8  92275803.77647                  22534687.400
  22534682.500          48.550          43.150
 131205500.190 7 102237972.462 6                  24967607.880    24967613.060
  24967612.480          44.200          36.900
 125096436.749 7  97477727.801 7  93416155.892 8  23805069.800    23805072.820
  23805072.180          46.000          43.350
 115830240.385 8  90257296.15647                  22041757.740
  22041752.780          50.300          43.100
 107470591.325 8  83743345.744 8  80254049.539 8  20450958.900    20450957.680
  20450957.380          50.400          49.900
 108871869.749 8  84835241.61447                  20717620.980
  20717618.540          49.750          45.950
 107631940.089 8  83869006.56147                  20481679.320
  20481675.780          48.750          47.200
 133611590.738 6 104112925.85445                  25425440.060
  25425440.080          39.850          31.750
 133588266.720 6 104094751.131 5                  25421001.460    25421003.440
  25421002.840          40.800          32.800
 129727712.526 5 100899377.469 5                  24336582.700    24336602.840
  24336602.280          30.900          31.750
 126077203.962 7  98060016.873 6                  23560567.640    23560576.220
  23560574.880          44.150          40.700
 114038842.436 8  88696890.111 7                  21370834.860    21370840.320
  21370839.620          48.350          44.300
 113315758.229 7  88134508.153 7                  21212945.180    21212950.700
  21212950.380          43.650          43.350
 113578862.144 6  88339212.786 7                  21269644.580    21269650.820
  21269649.100          41.200          44.350
 118513227.787 7  92176960.051 6                  22154792.460    22154795.920
  22154793.840          46.200          41.750
 107102028.223 7  83301605.892 7                  20007551.580    20007553.260
  20007552.060          46.950          46.900
 113483194.914 8  88264716.107 7                  21259230.080    21259235.700
  21259235.180          48.400          45.750
 130740735.470 6 101687266.388 5                  24466338.820    24466347.320
  24466345.500          39.800          31.700
 121426844.722 7  94443133.971 7                  22675602.640    22675606.580
  22675605.660          44.550          42.200
 15  1 27 12  4 50.0000000  0 23G30G06G07G08G02G17G03G23G09G10G20G16
                                G05R14R17R02R12R13R19R03R18R11R04
 122586452.991 7  95521991.729 7  91541920.402 8  23327400.440    23327403.220
  23327402.340          47.400          43.650
 107733538.215 8  83948216.340 8  80450372.007 8  20501008.520    20501009.560
  20501008.740          49.900          50.100
 113258775.629 8  88253661.517 7                  21552404.120    21552402.080
  21552401.580          49.900          46.400
 133953556.874 7 104379409.65545                  25490509.660
  25490511.160          42.350          32.850
 118407566.782 8  92265637.56147                  22532204.720
  22532199.840          48.800          43.400
 131220654.425 7 102249780.942 6                  24970491.660    24970496.900
  24970496.260          44.000          37.800
 125110004.878 7  97488300.344 7  93426287.912 8  23807651.780    23807654.760
  23807654.140          46.750          43.750
 115841789.850 8  90266295.73747                  22043955.560
  22043950.600          50.200          43.550
 107475570.418 8  83747225.553 8  80257767.693 8  20451906.400    20451905.180
  20451904.900          50.550          49.850
 108864344.100 8  84829377.47647                  20716188.940
  20716186.460          49.800          45.850
 107637134.334 8  83873054.02747                  20482667.700
  20482664.240          48.750          47.300
 133604260.657 6 104107214.10044                  25424045.080
  25424045.300          40.200          29.150
 133573104.432 6 104082936.355 5                  25418116.180    25418118.140
  25418117.700          40.650          34.500
 129705419.705 5 100882038.789 5                  24332400.580    24332420.760
  24332420.140          31.950          32.300
 126098950.423 7  98076930.722 6                  23564631.540    23564640.200
  23564638.780          44.200          40.900
 114048787.205 8  88704624.923 7                  21372698.520    21372703.980
  21372703.300          48.500          44.000
 113318941.495 7  88136984.026 7                  21213541.080    21213546.680
  21213546.340          43.800          43.300
 113562964.316 6  88326847.813 7                  21266667.380    21266673.620
  21266671.920          41.300          44.500
 118505400.237 7  92170871.952 6                  22153329.160    22153332.640
  22153330.540          46.250          41.750
 107099252.018 7  83299446.629 7                  20007032.940    20007034.640
  20007033.420          47.300          46.950
 113495945.973 8  88274633.572 7                  21261618.780    21261624.420
  21261623.900          48.750          45.300
 130759180.739 6 101701612.693 5                  24469790.600    24469798.940
  24469797.280          38.500          30.150
 121413795.742 7  94432984.772 6                  22673165.800    22673169.740
  22673168.820          44.650          41.950
 15  1 27 12  4 55.0000000  0 23G30G06G07G08G02G17G03G23G09G10G20G16
                                G05R14R17R02R12R13R19R03R18R11R04
 122568730.226 7  95508181.803 7  91528685.887 8  23324027.880    23324030.640
  23324029.780          47.400          43.800
 107734792.090 8  83949193.388 8  80451308.346 8  20501247.080    20501248.180
  20501247.340          49.800          50.100
 113247365.572 8  88244770.576 7                  21550232.820    21550230.820
  21550230.280          49.800          46.600
 133967778.779 7 104390491.65545                  25493216.000
  25493217.580          42.050          33.650
 118394529.047 8  92255478.29947                  22529723.720
  22529718.860          48.700          43.400
 131235805.627 7 102261587.070 6                  24973374.860    24973380.120
  24973379.460          43.600          37.600
 125123576.164 7  97498875.355 7  93436422.291 8  23810234.400    23810237.320
  23810236.740          46.800          43.700
 115853343.463 8  90275298.54447                  22046154.160
  22046149.200          50.100          43.250
 107480558.288 8  83751112.211 8  80261492.409 8  20452855.580    20452854.340
  20452854.080          50.450          49.750
 108856825.508 8  84823518.84347                  20714758.260
  20714755.700          49.850          45.950
 107642337.022 8  83877108.07147                  20483657.700
  20483654.280          48.700          46.850
 133596940.750 6 104101510.24245                  25422652.120
  25422652.400          40.100          31.900
 133557940.315 6 104071120.176 5                  25415230.560    25415232.580
  25415231.760          40.500          35.150
 129683122.873 5 100864696.972 5                  24328217.620    24328237.980
  24328237.280          33.250          32.500
 126120695.736 7  98093843.679 6                  23568695.240    23568703.840
  23568702.480          43.650          40.500
 114058735.441 8  88712362.436 7                  21374562.860    21374568.280
  21374567.620          48.750          44.400
 113322146.358 7  88139476.703 7                  21214141.080    21214146.680
  21214146.340          43.750          43.250
 113547080.126 6  88314493.468 7                  21263692.780    21263699.000
  21263697.320          41.700          44.650
 118497592.551 7  92164799.322 6                  22151869.540    22151873.100
  22151870.940          47.000          41.850
 107096481.187 7  83297291.545 7                  20006515.300    20006517.020
  20006515.800          47.300          47.000
 113508712.611 8  88284563.173 7                  21264010.420    21264016.060
  21264015.540          48.850          45.550
 130777635.313 6 101715966.247 5                  24473244.140    24473252.140
  24473250.800          40.200          30.600
 121400747.480 7  94422836.147 7                  22670729.120    22670733.020
  22670732.120          44.750          42.400
 15  1 27 12  5  0.0000000  0 23G30G06G07G08G02G17G03G23G09G10G20G16
                                G05R14R17R02R12R13R19R03R18R11R04
 122551011.261 7  95494374.826 7  91515454.208 8  23320656.080    23320658.740
  23320657.960          46.950          43.900
 107736062.280 8  83950183.148 8  80452256.864 8  20501488.780    20501489.880
  20501489.060          49.850          50.100
 113235967.043 8  88235888.620 7                  21548063.740    21548061.740
  21548061.220          49.850          46.750
 133982008.120 7 104401579.42845                  25495923.740
  25495925.320          42.050          32.650
 118381500.912 8  92245326.51847                  22527244.580
  22527239.700          48.750          43.250
 131250954.599 7 102273391.412 6                  24976257.620    24976262.940
  24976262.220          43.300          37.950
 125137151.266 7  97509453.344 7  93446559.521 8  23812817.700    23812820.620
  23812820.020          46.550          43.600
 115864901.824 8  90284305.05147                  22048353.640
  22048348.740          50.050          43.150
 107485555.595 8  83755006.212 8  80265224.164 8  20453806.540    20453805.320
  20453805.060          50.550          49.750
 108849314.659 8  84817666.23347                  20713329.060
  20713326.420          49.800          45.900
 107647548.845 8  83881169.23047                  20484649.420
  20484646.080          48.450          47.600
 133589631.721 6 104095814.91745                  25421261.240
  25421261.580          40.000          31.300
 133542775.119 6 104059303.152 5                  25412344.720    25412346.840
  25412346.020          39.850          34.500
 129660822.930 5 100847352.688 5                  24324034.160    24324054.100
  24324053.860          32.500          31.150
 126142440.501 7  98110756.234 6                  23572758.840    23572767.440
  23572766.060          43.300          40.800
 114068687.870 8  88720103.208 7                  21376427.980    21376433.320
  21376432.740          48.350          44.700
 113325373.415 7  88141986.629 7                  21214745.160    21214750.740
  21214750.480          44.000          43.200
 113531210.575 6  88302150.503 7                  21260720.920    21260727.160
  21260725.480          41.600          44.950
 118489805.396 7  92158742.650 6                  22150413.820    22150417.400
  22150415.220          46.600          41.600
 107093716.483 7  83295141.227 7                  20005998.760    20006000.540
  20005999.300          47.400          47.100
 113521495.557 8  88294505.458 7                  21266405.120    21266410.800
  21266410.240          48.600          45.450
 130796099.768 6 101730327.502 5                  24476699.560    24476707.680
  24476706.140          39.600          30.850
 121387700.649 7  94412688.633 7                  22668292.700    22668296.620
  22668295.720          44.650          42.300
 15  1 27 12  5  5.0000000  0 23G30G06G07G08G02G17G03G23G09G10G20G16
                                G05R14R17R02R12R13R19R03R18R11R04
 122533296.959 7  95480571.490 7  91502226.019 8  23317285.120    23317287.800
  23317287.020          46.950          43.900
 107737349.603 8  83951186.255 8  80453218.171 8  20501733.740    20501734.860
  20501734.020          49.950          50.050
 113224580.895 8  88227016.306 7                  21545896.980    21545895.020
  21545894.500          49.900          46.650
 133996245.671 7 104412673.62445                  25498633.020
  25498634.640          42.600          32.100
 118368483.241 8  92235182.88347                  22524767.440
  22524762.540          48.700          43.300
 131266102.032 7 102285194.580 6                  24979140.120    24979145.440
  24979144.660          42.800          37.900
 125150730.961 7  97520034.902 7  93456700.204 8  23815401.900    23815404.760
  23815404.180          46.450          43.250
 115876465.797 8  90293315.93247                  22050554.160
  22050549.340          49.950          43.000
 107490563.176 8  83758908.217 8  80268963.580 8  20454759.440    20454758.220
  20454757.960          50.550          49.800
 108841812.357 8  84811820.28447                  20711901.480
  20711898.780          49.900          45.650
 107652770.585 8  83885238.11647                  20485643.060
  20485639.760          48.500          47.050
 133582334.421 6 104090128.70944                  25419872.580
  25419872.600          40.450          26.150
 133527609.622 6 104047485.859 5                  25409458.820    25409460.980
  25409460.120          40.300          34.650
 129638520.586 5 100830006.553 5                  24319850.380    24319870.360
  24319869.940          33.400          31.200
 126164185.527 7  98127668.987 6                  23576822.460    23576831.120
  23576829.720          43.550          41.050
 114078645.271 8  88727847.836 7                  21378294.060    21378299.300
  21378298.800          48.500          44.750
 113328623.451 7  88144514.438 7                  21215353.580    21215359.120
  21215358.900          44.050          43.000
 113515356.374 6  88289819.464 7                  21257751.960    21257758.200
  21257756.500          41.700          45.350
 118482039.731 7  92152702.688 7                  22148962.100    22148965.640
  22148963.580          47.150          42.400
 107090958.571 7  83292996.192 7                  20005483.520    20005485.360
  20005484.100          47.250          47.050
 113534295.593 8  88304461.031 7                  21268803.020    21268808.720
  21268808.140          48.900          45.700
 130814574.897 6 101744697.024 5                  24480156.920    24480165.020
  24480163.460          40.250          31.500
 121374656.090 7  94402542.868 7                  22665856.680    22665860.620
  22665859.760          45.050          42.400
 15  1 27 12  5 10.0000000  0 23G30G06G07G08G02G17G03G23G09G10G20G16
                                G05R14R17R02R12R13R19R03R18R11R04
 122515585.259 7  95466770.175 7  91488999.761 8  23313914.680    23313917.340
  23313916.560          47.050          44.050
 107738651.964 8  83952201.075 8  80454190.709 8  20501981.580    20501982.680
  20501981.860          50.050          50.150
 113213205.067 8  88218152.033 7                  21543732.220    21543730.240
  21543729.760          50.000          46.700
 134010489.345 7 104423772.56845                  25501343.540
  25501345.220          43.100          31.900
 118355473.949 8  92225045.78047                  22522291.880
  22522286.920          48.750          43.550
 131281245.822 7 102296994.901 6                  24982021.900    24982027.300
  24982026.500          42.200          38.050
 125164313.234 7  97530618.480 7  93466842.791 8  23817986.540    23817989.380
  23817988.800          46.000          43.650
 115888033.297 8  90302329.54547                  22052755.360
  22052750.540          49.850          43.050
 107495578.895 8  83762816.568 8  80272709.088 8  20455713.920    20455712.700
  20455712.440          50.350          49.850
 108834316.525 8  84805979.37447                  20710475.120
  20710472.380          49.950          45.850
 107658000.189 8  83889313.12047                  20486638.200
  20486634.920          48.600          47.150
 133575046.783 6 104084449.99545                  25418485.820
  25418485.800          40.050          32.400
 133512441.743 6 104035666.728 5                  25406572.460    25406574.640
  25406573.620          39.200          34.850
 129616213.636 5 100812656.848 5                  24315665.560    24315686.020
  24315685.200          33.450          31.150
 126185928.673 7  98144580.260 6                  23580885.700    23580894.420
  23580893.020          42.950          40.600
 114088605.697 8  88735594.826 7                  21380160.680    21380165.860
  21380165.400          48.300          44.550
 113331894.421 7  88147058.508 7                  21215965.860    21215971.440
  21215971.180          43.550          42.600
 113499515.393 7  88277498.706 7                  21254785.480    21254791.640
  21254790.020          42.050          45.250
 118474293.274 7  92146677.660 7                  22147513.980    22147517.520
  22147515.520          46.650          42.250
 107088205.526 7  83290854.936 7                  20004969.200    20004971.060
  20004969.800          47.100          46.900
 113547110.612 8  88314428.252 7                  21271203.740    21271209.460
  21271208.840          49.000          45.800
 130833058.512 6 101759073.161 5                  24483615.860    24483624.080
  24483622.400          38.700          30.500
 121361611.485 7  94392397.075 7                  22663420.640    22663424.560
  22663423.720          45.100          42.350
 15  1 27 12  5 15.0000000  0 23G30G06G07G08G02G17G03G23G09G10G20G16
                                G05R14R17R02R12R13R19R03R18R11R04
 122497880.235 7  95452974.065 7  91475778.485 8  23310545.500    23310548.180
  23310547.400          46.850          44.350
 107739973.461 8  83953230.807 8  80455177.530 8  20502233.040    20502234.180
  20502233.340          49.950          50.150
 113201843.649 8  88209298.990 7                  21541570.180    21541568.240
  21541567.760          49.850          46.850
 134024743.248 7 104434879.53245                  25504055.960
  25504057.880          42.450          32.550
 118342477.121 8  92214918.39047                  22519818.700
  22519813.680          48.650          43.900
 131296390.038 7 102308795.548 6                  24984903.780    24984909.240
  24984908.380          42.100          38.700
 125177902.148 7  97541207.220 7  93476990.328 8  23820572.400    23820575.300
  23820574.640          45.500          43.650
 115899608.390 8  90311349.08847                  22054958.000
  22054953.200          49.850          43.400
 107500606.858 8  83766734.463 8  80276463.720 8  20456670.720    20456669.500
  20456669.240          50.050          49.950
 108826831.276 8  84800146.71647                  20709050.760
  20709047.940          50.000          45.950
 107663241.745 8  83893397.44747                  20487635.600
  20487632.360          48.600          47.150
 133567772.831 6 104078781.98545                  25417101.580
  25417101.780          40.450          31.850
 133497275.660 6 104023849.018 5                  25403686.480    25403688.640
  25403687.440          39.750          33.650
 129593906.324 5 100795306.864 5                  24311480.680    24311501.200
  24311500.300          34.800          30.450
 126207674.131 7  98161493.314 6                  23584949.340    23584958.100
  23584956.760          43.550          40.200
 114098573.115 8  88743347.263 7                  21382028.640    21382033.740
  21382033.280          48.400          44.350
 113335190.405 7  88149622.048 7                  21216582.880    21216588.400
  21216588.140          43.400          42.450
 113483691.907 7  88265191.553 7                  21251822.240    21251828.440
  21251826.800          42.000          45.100
 118466570.281 7  92140670.908 7                  22146070.220    22146073.800
  22146071.820          47.150          42.350
 107085461.316 7  83288720.544 7                  20004456.520    20004458.420
  20004457.140          47.200          47.050
 113559944.707 8  88324410.324 7                  21273608.020    21273613.760
  21273613.140          48.850          46.000
 130851554.973 6 101773459.291 5                  24487077.100    24487085.420
  24487083.720          39.800          31.500
 121348571.193 7  94382254.626 7                  22660985.440    22660989.320
  22660988.520          45.600          42.400
 15  1 27 12  5 20.0000000  0 23G30G06G07G08G02G17G03G23G09G10G20G16
                                G05R14R17R02R12R13R19R03R18R11R04
 122480177.450 7  95439179.706 7  91462558.900 8  23307176.720    23307179.440
  23307178.660          47.050          44.400
 107741309.635 8  83954271.981 8  80456175.328 8  20502487.300    20502488.440
  20502487.620          49.950          50.200
 113190492.184 8  88200453.707 7                  21539410.040    21539408.120
  21539407.680          49.700          46.750
 134039002.915 7 104445990.94745                  25506769.460
  25506771.500          42.050          30.050
 118329488.329 8  92204797.26847                  22517347.040
  22517342.000          48.850          43.550
 131311530.202 7 102320593.030 6                  24987784.880    24987790.360
  24987789.560          42.700          38.650
 125191493.257 7  97551797.674 7  93487139.495 8  23823158.700    23823161.600
  23823160.920          45.600          43.150
 115911186.621 8  90320371.08047                  22057161.220
  22057156.460          49.850          42.700
 107505642.606 8  83770658.420 8  80280224.189 8  20457628.980    20457627.780
  20457627.520          50.000          49.900
 108819352.160 8  84794318.84447                  20707627.600
  20707624.700          50.000          45.650
 107668490.779 8  83897487.60047                  20488634.460
  20488631.240          48.800          47.150
 133560508.165 6 104073121.21245                  25415719.160
  25415719.560          41.200          31.800
 133482106.801 6 104012029.122 5                  25400799.960    25400802.060
  25400801.100          39.750          34.200
 129571594.313 5 100777953.216 5                  24307294.980    24307315.700
  24307314.520          34.850          30.600
 126229417.247 7  98178404.588 6                  23589012.600    23589021.460
  23589020.020          43.550          40.150
 114108543.074 8  88751101.675 7                  21383897.040    21383902.100
  21383901.620          48.650          44.300
 113338507.002 7  88152201.637 7                  21217203.680    21217209.260
  21217208.960          43.300          42.750
 113467881.240 7  88252894.384 7                  21248861.460    21248867.580
  21248865.980          42.200          44.900
 118458866.276 7  92134678.909 6                  22144630.040    22144633.560
  22144631.640          47.250          41.750
 107082721.675 7  83286589.710 7                  20003944.720    20003946.640
  20003945.360          47.200          46.800
 113572793.370 8  88334403.720 7                  21276015.020    21276020.800
  21276020.160          48.600          46.000
 130870059.639 6 101787851.801 5                  24490539.980    24490548.320
  24490546.660          40.750          31.900
 121335530.596 7  94372111.962 7                  22658550.240    22658554.120
  22658553.260          45.700          42.450
 15  1 27 12  5 25.0000000  0 23G30G06G07G08G02G17G03G23G09G10G20G16
                                G05R14R17R02R12R13R19R03R18R11R04
 122462478.730 7  95425388.518 7  91449342.349 8  23303808.760    23303811.520
  23303810.720          46.700          44.200
 107742662.310 8  83955326.012 8  80457185.444 8  20502744.700    20502745.860
  20502745.020          49.900          50.150
 113179152.490 8  88191617.590 7                  21537252.160    21537250.240
  21537249.780          49.650          46.650
 134053270.137 6 104457108.21345                  25509484.420
  25509486.480          41.850          32.500
 118316509.419 8  92194683.83547                  22514877.260
  22514872.160          48.750          43.200
 131326668.120 7 102332388.771 6                  24990665.600    24990670.960
  24990670.240          42.250          38.050
 125205088.336 7  97562391.224 7  93497291.660 8  23825745.740    23825748.720
  23825747.980          45.950          43.000
 115922769.804 8  90329396.92947                  22059365.420
  22059360.640          49.700          43.050
 107510687.942 8  83774589.849 8  80283991.812 8  20458589.100    20458587.900
  20458587.640          49.850          49.850
 108811881.021 8  84788497.18347                  20706205.920
  20706203.000          49.950          45.850
 107673749.078 8  83901584.97947                  20489635.060
  20489631.880          48.850          46.850
 133553254.621 6 104067469.11745                  25414338.940
  25414339.300          41.350          32.800
 133466937.074 6 104000208.574 5                  25397913.280    25397915.300
  25397914.560          39.350          35.300
 129549279.223 5 100760597.168 5                  24303108.540    24303129.280
  24303128.100          34.600          31.100
 126251159.898 7  98195315.484 6                  23593075.740    23593084.640
  23593083.200          43.950          40.250
 114118517.372 8  88758859.464 7                  21385766.260    21385771.300
  21385770.780          48.600          44.250
 113341845.923 7  88154798.571 7                  21217828.700    21217834.300
  21217833.960          43.800          42.650
 113452085.463 7  88240608.780 7                  21245903.460    21245909.540
  21245907.940          42.350          44.950
 118451183.130 7  92128703.122 6                  22143193.760    22143197.240
  22143195.340          47.400          41.900
 107079988.278 7  83284463.739 7                  20003434.140    20003435.980
  20003434.720          47.350          46.950
 113585658.437 8  88344409.866 7                  21278425.100    21278430.880
  21278430.240          48.650          45.800
 130888574.111 6 101802251.933 5                  24494004.720    24494013.140
  24494011.440          41.500          31.550
 121322491.699 7  94361970.629 7                  22656115.300    22656119.180
  22656118.320          46.000          42.650
 15  1 27 12  5 30.0000000  0 23G30G06G07G08G02G17G03G23G09G10G20G16
                                G05R14R17R02R12R13R19R03R18R11R04
 122444784.676 7  95411600.972 7  91436129.284 8  23300441.680    23300444.440
  23300443.640          47.100          44.150
 107744032.082 8  83956393.367 8  80458208.318 8  20503005.360    20503006.520
  20503005.680          50.000          50.150
 113167825.166 8  88182791.111 7                  21535096.640    21535094.700
  21535094.240          49.800          46.650
 134067545.451 7 104468231.86445                  25512200.940
  25512203.000          42.350          30.400
 118303540.966 8  92184578.56047                  22512409.480
  22512404.300          49.050          43.400
 131341804.336 7 102344183.190 6                  24993545.960    24993551.340
  24993550.620          42.800          38.300
 125218687.997 7  97572988.358 7  93507447.226 8  23828333.700    23828336.640
  23828335.900          46.050          43.250
 115934358.511 8  90338427.07747                  22061570.660
  22061565.860          49.800          43.100
 107515743.454 8  83778529.203 8  80287767.022 8  20459551.140    20459549.920
  20459549.680          50.050          49.900
 108804418.426 8  84782682.17847                  20704785.880
  20704782.900          50.100          45.700
 107679017.285 8  83905690.07847                  20490637.580
  20490634.380          49.000          46.750
 133546012.817 6 104061826.13645                  25412960.920
  25412961.200          41.050          30.650
 133451767.014 6 103988387.780 5                  25395026.480    25395028.520
  25395027.660          39.200          34.100
 129526961.762 5 100743239.304 5                  24298921.860    24298942.440
  24298941.240          35.300          30.400
 126272902.677 7  98212226.476 6                  23597138.880    23597147.880
  23597146.440          44.300          39.850
 114128496.634 8  88766621.100 7                  21387636.400    21387641.420
  21387640.860          48.450          43.900
 113345207.819 7  88157413.371 7                  21218458.020    21218463.640
  21218463.260          43.800          42.200
 113436305.058 7  88228335.142 7                  21242948.400    21242954.360
  21242952.780          42.600          44.950
 118443521.342 7  92122743.958 7                  22141761.480    22141764.980
  22141763.060          47.550          42.250
 107077261.687 7  83282343.055 7                  20002924.800    20002926.640
  20002925.340          47.200          46.850
 113598540.486 8  88354429.234 7                  21280838.340    21280844.160
  21280843.500          48.600          45.600
 130907099.319 6 101816660.459 5                  24497471.480    24497479.840
  24497478.200          41.650          33.100
 121309454.953 7  94351830.948 7                  22653680.740    22653684.680
  22653683.780          45.800          42.650
 15  1 27 12  5 35.0000000  0 23G30G06G07G08G02G17G03G23G09G10G20G16
                                G05R14R17R02R12R13R19R03R18R11R04
 122427093.977 7  95397816.022 7  91422918.711 8  23297075.220    23297078.020
  23297077.180          47.550          44.300
 107745417.572 8  83957472.966 8  80459242.934 8  20503269.000    20503270.180
  20503269.340          50.150          50.250
 113156508.878 8  88173973.224 7                  21532943.220    21532941.260
  21532940.820          49.850          46.850
 134081827.581 7 104479360.79045                  25514918.820
  25514920.720          42.300          31.650
 118290581.676 8  92174480.40947                  22509943.480
  22509938.200          49.250          43.600
 131356937.558 7 102355975.266 6                  24996425.720    24996431.180
  24996430.440          43.400          38.650
 125232290.904 7  97583587.989 7  93517605.207 8  23830922.240    23830925.180
  23830924.420          46.350          43.150
 115945951.371 8  90347460.46147                  22063776.720
  22063771.880          50.000          43.100
 107520807.779 8  83782475.424 8  80291548.815 8  20460514.840    20460513.660
  20460513.380          50.250          49.900
 108796963.021 8  84776872.76547                  20703367.180
  20703364.180          49.950          45.800
 107684294.026 8  83909801.81247                  20491641.700
  20491638.520          48.850          47.500
 133538781.389 6 104056191.27545                  25411584.800
  25411585.000          40.150          34.650
 133436595.306 6 103976565.676 5                  25392139.380    25392141.340
  25392140.800          39.350          32.650
 129504640.484 6 100725878.426 5                  24294734.360    24294754.440
  24294753.660          36.250          30.000
 126294644.209 7  98229136.509 6                  23601201.820    23601210.860
  23601209.440          43.900          39.600
 114138479.478 8  88774385.515 7                  21389507.220    21389512.240
  21389511.600          48.050          43.800
 113348591.262 7  88160044.929 7                  21219091.460    21219096.920
  21219096.580          44.150          42.100
 113420538.627 7  88216072.366 7                  21239995.880    21240001.840
  21240000.240          42.800          44.900
 118435879.608 7  92116800.381 7                  22140332.940    22140336.440
  22140334.560          47.100          42.450
 107074540.487 7  83280226.577 7                  20002416.460    20002418.300
  20002416.980          47.350          47.000
 113611438.091 8  88364460.696 7                  21283254.480    21283260.380
  21283259.680          48.450          45.800
 130925633.752 6 101831076.094 5                  24500939.940    24500948.260
  24500946.700          39.900          32.200
 121296418.953 7  94341691.843 7                  22651246.360    22651250.260
  22651249.380          45.950          42.900
 15  1 27 12  5 40.0000000  0 23G30G06G07G08G02G17G03G23G09G10G20G16
                                G05R14R17R02R12R13R19R03R18R11R04
 122409407.504 7  95384034.371 7  91409711.300 8  23293709.560    23293712.420
  23293711.580          47.350          44.250
 107746819.702 8  83958565.532 8  80460289.971 8  20503535.820    20503536.980
  20503536.160          50.200          50.150
 113145204.548 8  88165164.665 7                  21530792.060    21530790.060
  21530789.660          49.900          46.850
 134096117.352 6 104490495.69545                  25517638.080
  25517639.740          41.950          32.050
 118277632.398 8  92164390.07147                  22507479.380
  22507474.020          49.200          43.950
 131372068.616 7 102367765.680 6                  24999305.120    24999310.560
  24999309.860          42.950          38.350
 125245897.911 7  97594190.836 7  93527766.269 8  23833511.600    23833514.540
  23833513.780          46.550          43.250
 115957549.292 8  90356497.80047                  22065983.740
  22065978.860          50.000          42.850
 107525881.778 8  83786429.190 8  80295337.831 8  20461480.380    20461479.220
  20461478.940          50.350          49.800
 108789515.710 8  84771069.67347                  20701950.040
  20701947.020          49.850          45.900
 107689580.209 8  83913920.91747                  20492647.620
  20492644.460          48.950          47.000
 133531561.270 6 104050565.18045                  25410210.820
  25410211.040          39.400          33.100
 133421422.826 6 103964742.952 5                  25389252.160    25389254.000
  25389253.640          39.400          33.500
 129482316.468 5 100708515.425 4                  24290546.300    24290566.360
  24290565.580          35.950          29.900
 126316385.367 7  98246046.261 6                  23605264.700    23605273.720
  23605272.320          44.550          39.250
 114148466.841 8  88782153.452 7                  21391378.900    21391383.880
  21391383.220          48.450          43.950
 113351997.124 7  88162693.922 7                  21219729.060    21219734.400
  21219734.080          44.850          42.450
 113404787.260 7  88203821.305 7                  21237046.180    21237052.080
  21237050.500          42.700          44.900
 118428258.734 7  92110873.045 7                  22138908.320    22138911.860
  22138909.940          47.000          42.600
 107071825.762 7  83278115.130 7                  20001909.340    20001911.120
  20001909.840          47.300          47.150
 113624352.185 8  88374504.979 7                  21285673.720    21285679.660
  21285678.980          48.650          46.100
 130944178.117 6 101845499.493 5                  24504410.260    24504418.580
  24504417.000          40.650          31.250
 121283384.766 7  94331554.148 7                  22648812.300    22648816.240
  22648815.340          45.750          43.200
 15  1 27 12  5 45.0000000  0 23G30G06G07G08G02G17G03G23G09G10G20G16
                                G05R14R17R02R12R13R19R03R18R11R04
 122391725.250 7  95370256.016 7  91396507.047 8  23290344.700    23290347.560
  23290346.740          47.550          43.900
 107748238.402 8  83959671.008 8  80461349.399 8  20503805.800    20503806.960
  20503806.120          50.050          50.150
 113133912.068 8  88156365.334 7                  21528643.180    21528641.180
  21528640.760          49.850          46.600
 134110414.691 7 104501636.44345                  25520358.820
  25520360.380          42.350          31.000
 118264693.088 8  92154307.49247                  22505017.160
  22505011.740          49.200          43.300
 131387197.427 7 102379554.343 6                  25002184.100    25002189.460
  25002188.780          42.900          37.850
 125259509.005 7  97604796.866 7  93537930.371 8  23836101.760    23836104.640
  23836103.900          46.900          43.200
 115969152.192 8  90365539.01147                  22068191.700
  22068186.820          50.050          43.100
 107530965.439 8  83790390.482 8  80299134.075 8  20462447.780    20462446.600
  20462446.300          50.200          49.700
 108782076.462 8  84765272.85947                  20700534.400
  20700531.380          49.850          45.900
 107694875.781 8  83918047.33647                  20493655.360
  20493652.180          48.900          46.850
 133524352.367 6 104044947.81845                  25408838.940
  25408839.100          39.000          32.650
 133406249.520 6 103952919.591 5                  25386364.860    25386366.680
  25386366.260          38.800          34.050
 129459989.529 6 100691150.171 4                  24286357.620    24286377.900
  24286376.920          36.000          29.850
 126338126.030 7  98262955.609 6                  23609327.520    23609336.540
  23609335.160          44.950          39.350
 114158458.657 8  88789924.870 7                  21393251.380    21393256.320
  21393255.640          48.350          43.850
 113355425.424 7  88165360.365 7                  21220370.920    21220376.220
  21220375.840          44.700          42.600
 113389050.890 7  88191581.913 7                  21234099.260    21234105.140
  21234103.580          42.200          45.000
 118420658.862 7  92104962.035 7                  22137487.620    22137491.180
  22137489.240          47.000          42.850
 107069117.329 7  83276008.576 7                  20001403.360    20001405.180
  20001403.880          47.350          46.750
 113637282.686 8  88384562.019 7                  21288096.040    21288101.980
  21288101.360          48.750          46.250
 130962732.394 6 101859930.585 5                  24507882.440    24507890.580
  24507889.200          40.400          31.850
 121270352.258 7  94321417.774 7                  22646378.560    22646382.540
  22646381.660          45.700          43.250
 15  1 27 12  5 50.0000000  0 23G30G06G07G08G02G17G03G23G09G10G20G16
                                G05R14R17R02R12R13R19R03R18R11R04
 122374047.626 7  95356481.254 7  91383306.235 8  23286980.760    23286983.580
  23286982.780          47.600          43.900
 107749674.104 8  83960789.735 8  80462421.499 8  20504079.020    20504080.180
  20504079.340          50.000          50.100
 113122631.872 8  88147575.585 7                  21526496.620    21526494.620
  21526494.220          50.100          46.600
 134124720.009 7 104512783.43245                  25523081.080
  25523082.600          42.450          31.950
 118251764.203 8  92144233.04847                  22502556.920
  22502551.460          49.300          43.200
 131402324.414 7 102391341.582 6                  25005062.720    25005068.040
  25005067.380          43.000          38.200
 125273124.550 7  97615406.365 7  93548097.810 8  23838692.760    23838695.600
  23838694.940          46.900          43.150
 115980760.453 8  90374584.40247                  22070400.680
  22070395.800          50.150          42.600
 107536059.145 8  83794359.593 8  80302937.803 8  20463417.080    20463415.920
  20463415.580          50.300          49.700
 108774645.684 8  84759482.65347                  20699120.400
  20699117.380          49.900          45.900
 107700181.115 8  83922181.35847                  20494664.940
  20494661.780          49.000          46.900
 133517155.097 6 104039339.57845                  25407469.300
  25407469.720          38.800          34.950
 133391075.850 6 103941095.997 5                  25383477.520    25383479.220
  25383478.700          38.400          33.200
 129437660.257 6 100673783.078 4                  24282168.680    24282188.560
  24282187.800          36.250          29.750
 126359866.572 7  98279864.862 6                  23613390.260    23613399.320
  23613397.980          45.050          39.100
 114168455.310 8  88797700.037 7                  21395124.760    21395129.640
  21395129.000          48.650          44.050
 113358876.592 7  88168044.603 7                  21221017.040    21221022.280
  21221021.880          44.950          42.550
 113373329.865 7  88179354.459 7                  21231155.280    21231161.120
  21231159.560          42.100          44.950
 118413080.293 7  92099067.603 7                  22136070.880    22136074.480
  22136072.520          47.000          42.800
 107066415.757 7  83273907.352 7                  20000898.700    20000900.500
  20000899.200          47.350          47.000
 113650229.959 8  88394632.097 7                  21290521.520    21290527.480
  21290526.880          49.100          46.200
 130981297.065 6 101874369.765 5                  24511356.500    24511364.760
  24511363.300          40.050          30.800
 121257321.715 7  94311282.926 7                  22643945.140    22643949.200
  22643948.380          45.700          43.500
 15  1 27 12  5 55.0000000  0 23G30G06G07G08G02G17G03G23G09G10G20G16
                                G05R14R17R02R12R13R19R03R18R11R04
 122356372.895 7  95342708.757 7  91370107.608 8  23283617.340    23283620.180
  23283619.340          47.600          43.800
 107751125.056 8  83961920.349 8  80463505.006 8  20504355.140    20504356.280
  20504355.440          50.050          50.100
 113111362.288 8  88138794.099 7                  21524352.100    21524350.080
  21524349.680          50.250          46.450
 134139031.591 6 104523935.32444                  25525804.540
  25525805.920          41.950          29.300
 118238844.031 8  92134165.38847                  22500098.340
  22500092.820          49.250          43.400
 131417447.802 7 102403126.015 6                  25007940.640    25007946.000
  25007945.240          43.200          37.500
 125286742.864 7  97626018.018 7  93558267.314 8  23841284.300    23841287.080
  23841286.420          46.900          42.750
 115992372.378 8  90383632.65847                  22072610.360
  22072605.480          49.950          42.900
 107541161.146 8  83798335.180 8  80306747.745 8  20464387.960    20464386.800
  20464386.460          50.350          49.700
 108767221.646 8  84753697.69747                  20697707.680
  20697704.700          49.900          46.000
 107705494.490 8  83926321.65047                  20495676.080
  20495672.880          49.200          46.650
 133509967.817 6 104033739.09045                  25406101.560
  25406102.100          39.550          32.100
 133375900.072 6 103929270.720 5                  25380589.680    25380591.280
  25380590.860          38.350          34.250
 129415326.924 6 100656412.836 5                  24277978.880    24277998.840
  24277997.960          36.650          31.400
 126381605.376 7  98296772.764 6                  23617452.720    23617461.780
  23617460.440          45.700          38.400
 114178455.106 8  88805477.642 7                  21396998.760    21397003.640
  21397002.960          48.600          44.050
 113362348.851 7  88170745.249 7                  21221667.020    21221672.280
  21221671.900          44.850          42.600
 113357622.547 7  88167137.667 7                  21228213.840    21228219.640
  21228218.080          42.300          45.300
 118405521.377 7  92093188.457 7                  22134657.800    22134661.420
  22134659.440          46.650          42.350
 107063719.106 7  83271809.955 7                  20000394.960    20000396.680
  20000395.460          47.400          47.050
 113663192.290 8  88404713.900 7                  21292949.860    21292955.800
  21292955.200          49.250          46.050
 130999870.405 6 101888815.711 5                  24514832.260    24514840.380
  24514839.080          41.200          30.800
 121244291.592 7  94301148.411 7                  22641511.820    22641515.920
  22641515.200          46.000          44.000
 15  1 27 12  6  0.0000000  0 23G30G06G07G08G02G17G03G23G09G10G20G16
                                G05R14R17R02R12R13R19R03R18R11R04
 122338703.656 7  95328940.535 7  91356913.052 8  23280254.980    23280257.760
  23280257.000          47.950          43.700
 107752593.822 8  83963064.843 8  80464601.810 8  20504634.660    20504635.780
  20504634.940          50.250          50.150
 113100105.829 8  88130022.838 7                  21522210.100    21522208.020
  21522207.640          50.350          46.550
 134153351.980 6 104535094.05545                  25528529.640
  25528531.200          41.550          30.900
 118225935.133 8  92124106.51147                  22497641.880
  22497636.320          49.600          43.100
 131432570.167 7 102414909.656 6                  25010818.320    25010823.740
  25010823.040          42.700          38.400
 125300366.470 7  97636633.801 7  93568440.757 8  23843876.820    23843879.580
  23843878.980          47.000          42.800
 116003990.482 8  90392685.71147                  22074821.220
  22074816.340          50.200          42.450
 107546274.017 8  83802319.229 8  80310565.786 8  20465360.920    20465359.760
  20465359.400          50.600          49.800
 108759806.903 8  84747919.97847                  20696296.720
  20696293.740          50.050          45.800
 107710818.503 8  83930470.22947                  20496689.240
  20496686.000          49.550          46.250
 133502793.027 6 104028148.38845                  25404736.220
  25404736.660          39.350          32.750
 133360724.691 6 103917445.733 5                  25377701.880    25377703.640
  25377703.140          38.950          35.900
 129392992.039 6 100639041.396 5                  24273788.820    24273808.920
  24273807.820          36.600          31.650
 126403344.880 7  98313681.232 6                  23621515.320    23621524.360
  23621523.040          45.600          38.600
 114188460.620 8  88813259.694 7                  21398873.820    21398878.700
  21398878.000          48.650          44.200
 113365844.749 7  88173464.264 7                  21222321.440    21222326.760
  21222326.340          44.750          42.600
 113341931.431 6  88154933.475 7                  21225275.400    21225281.220
  21225279.680          41.900          45.000
 118397984.554 7  92087326.475 7                  22133248.860    22133252.520
  22133250.480          47.050          42.100
 107061030.172 7  83269718.568 7                  19999892.680    19999894.360
  19999893.160          47.550          46.900
 113676172.187 8  88414809.375 7                  21295381.460    21295387.420
  21295386.820          48.900          45.750
 131018454.872 6 101903270.294 5                  24518310.100    24518318.260
  24518316.940          41.100          31.700
 121231264.334 7  94291016.110 7                  22639079.020    22639083.220
  22639082.520          46.000          43.600
 15  1 27 12  6  5.0000000  0 23G30G06G07G08G02G17G03G23G09G10G20G16
                                G05R14R17R02R12R13R19R03R18R11R04
 122321039.655 8  95315176.383 7  91343722.431 8  23276893.620    23276896.380
  23276895.620          48.150          44.250
 107754080.151 8  83964223.019 8  80465711.737 8  20504917.520    20504918.640
  20504917.780          50.600          50.300
 113088862.265 8  88121261.630 7                  21520070.520    21520068.420
  21520068.020          50.450          46.650
 134167680.933 7 104546259.46844                  25531256.320
  25531258.220          42.150          29.200
 118213037.279 8  92114056.23547                  22495187.520
  22495181.920          49.700          42.900
 131447691.301 7 102426692.300 6                  25013695.760    25013701.200
  25013700.540          43.050          38.800
 125313995.131 7  97647253.510 7  93578617.975 8  23846470.280    23846473.060
  23846472.400          47.100          43.000
 116015614.515 8  90401743.39747                  22077033.180
  22077028.360          50.250          43.000
 107551397.461 8  83806311.519 8  80314391.742 8  20466335.880    20466334.720
  20466334.340          50.850          49.900
 108752401.229 8  84742149.33247                  20694887.460
  20694884.500          50.250          45.450
 107716152.863 8  83934626.86747                  20497704.380
  20497701.100          49.850          46.450
 133495630.509 6 104022567.17245                  25403373.220
  25403373.720          39.600          31.900
 133345549.496 6 103905620.902 6                  25374814.100    25374815.840
  25374815.520          39.700          36.350
 129370655.350 5 100621668.544 5                  24269598.320    24269618.400
  24269617.320          35.300          30.750
 126425084.991 7  98330590.143 6                  23625578.020    23625587.120
  23625585.780          45.250          38.000
 114198471.598 8  88821046.008 7                  21400749.880    21400754.760
  21400754.060          48.250          44.300
 113369364.060 7  88176201.504 7                  21222980.300    21222985.640
  21222985.200          44.650          43.100
 113326256.297 6  88142741.713 7                  21222339.940    21222345.740
  21222344.240          41.350          45.250
 118390469.776 7  92081481.643 7                  22131844.060    22131847.680
  22131845.680          46.900          42.300
 107058348.520 7  83267632.833 7                  19999391.740    19999393.380
  19999392.200          47.100          47.200
 113689169.392 8  88424918.304 7                  21297816.280    21297822.260
  21297821.660          48.450          45.850
 131037050.320 6 101917733.408 5                  24521790.020    24521798.340
  24521796.900          40.400          31.650
 121218239.840 7  94280885.966 7                  22636646.780    22636651.000
  22636650.360          45.700          43.600
 15  1 27 12  6 10.0000000  0 23G30G06G07G08G02G17G03G23G09G10G20G16
                                G05R14R17R02R12R13R19R03R18R11R04
 122303377.507 7  95301413.692 7  91330533.173 8  23273532.620    23273535.360
  23273534.580          47.850          44.000
 107755580.643 8  83965392.235 8  80466832.228 8  20505203.060    20505204.160
  20505203.320          50.600          50.300
 113077628.274 8  88112507.883 7                  21517932.760    21517930.660
  21517930.240          50.350          46.800
 134182014.954 6 104557428.82144                  25533984.020
  25533985.860          41.850          27.600
 118200147.077 8  92104011.93347                  22492734.600
  22492729.000          49.700          43.000
 131462807.694 7 102438471.290 6                  25016572.340    25016577.740
  25016577.140          42.950          38.350
 125327625.421 7  97657874.501 7  93588796.422 8  23849064.060    23849066.820
  23849066.140          47.300          42.600
 116027241.123 8  90410803.08047                  22079245.660
  22079240.840          50.100          42.950
 107556528.105 8  83810309.428 8  80318223.063 8  20467312.220    20467311.060
  20467310.680          50.850          50.000
 108745001.209 8  84736383.09547                  20693479.280
  20693476.340          50.100          45.900
 107721494.212 8  83938788.96247                  20498720.860
  20498717.540          49.700          46.750
 133488476.905 6 104016992.96045                  25402011.940
  25402012.360          40.050          33.600
 133330371.094 6 103893793.585 5                  25371925.680    25371927.480
  25371927.300          38.600          35.850
 129348313.387 5 100604291.611 4                  24265406.900    24265427.060
  24265425.800          34.900          29.750
 126446822.136 7  98347496.771 6                  23629640.160    23629649.300
  23629647.920          45.300          37.950
 114208484.458 8  88828833.794 7                  21402626.300    21402631.240
  21402630.520          48.350          44.750
 113372903.316 7  88178954.260 7                  21223642.860    21223648.240
  21223647.840          44.650          43.200
 113310593.757 6  88130559.746 7                  21219406.760    21219412.660
  21219411.160          41.500          45.000
 118382973.469 7  92075651.201 7                  22130442.680    22130446.340
  22130444.320          47.200          42.100
 107055670.779 7  83265550.158 7                  19998891.540    19998893.120
  19998892.000          47.150          46.950
 113702180.465 8  88435038.020 7                  21300253.680    21300259.700
  21300259.080          48.400          45.800
 131055653.224 6 101932202.321 5                  24525271.280    24525279.820
  24525278.240          40.900          32.700
 121205214.499 7  94270755.164 7                  22634214.400    22634218.600
  22634218.020          46.050          43.850
 15  1 27 12  6 15.0000000  0 23G30G06G07G08G02G17G03G23G09G10G20G16
                                G05R14R17R02R12R13R19R03R18R11R04
 122285721.030 7  95287655.410 7  91317348.164 8  23270172.660    23270175.420
  23270174.620          47.500          44.150
 107757099.117 8  83966575.453 8  80467966.151 8  20505492.020    20505493.140
  20505492.300          50.600          50.300
 113066407.632 8  88103764.533 7                  21515797.540    21515795.460
  21515795.000          50.250          46.800
 134196357.905 6 104568605.13545                  25536713.380
  25536715.500          41.500          30.800
 118187268.290 8  92093976.52047                  22490283.880
  22490278.240          49.450          43.150
 131477923.244 7 102450249.618 6                  25019448.700    25019454.120
  25019453.600          42.100          39.050
 125341261.166 7  97668499.739 7  93598978.930 8  23851658.880    23851661.640
  23851660.940          47.200          42.800
 116038874.056 8  90419867.68847                  22081459.300
  22081454.540          50.000          42.850
 107561669.734 8  83814315.884 8  80322062.587 8  20468290.660    20468289.500
  20468289.100          50.750          49.900
 108737610.666 8  84730624.23147                  20692072.880
  20692069.980          50.050          46.050
 107726846.371 8  83942959.46347                  20499739.380
  20499736.020          49.400          46.950
 133481336.053 6 104011428.63145                  25400653.200
  25400653.380          39.550          32.950
 133315193.245 6 103881966.699 6                  25369037.440    25369039.260
  25369038.920          38.850          36.050
 129325970.085 5 100586913.599 5                  24261215.340    24261235.480
  24261234.120          35.750          30.050
 126468559.944 7  98364403.914 6                  23633702.400    23633711.580
  23633710.140          45.650          37.850
 114218503.288 8  88836626.205 7                  21404503.860    21404508.780
  21404508.120          48.350          44.750
 113376466.374 7  88181725.518 7                  21224309.900    21224315.260
  21224314.920          44.700          43.350
 113294947.753 6  88118390.642 7                  21216476.700    21216482.660
  21216481.160          41.150          44.950
 118375499.544 7  92069838.129 7                  22129045.540    22129049.140
  22129047.140          46.900          42.600
 107053000.784 7  83263473.504 7                  19998392.800    19998394.340
  19998393.180          47.550          47.150
 113715209.229 8  88445171.484 7                  21302694.380    21302700.400
  21302699.800          48.400          45.750
 131074267.351 6 101946679.965 5                  24528754.660    24528763.360
  24528761.620          40.200          30.400
 121192192.221 7  94260626.736 7                  22631782.640    22631786.760
  22631786.240          46.250          43.550
 15  1 27 12  6 20.0000000  0 23G30G06G07G08G02G17G03G23G09G10G20G16
                                G05R14R17R02R12R13R19R03R18R11R04
 122268067.584 7  95273899.499 7  91304165.422 8  23266813.300    23266816.060
  23266815.260          47.350          44.100
 107758632.914 8  83967770.620 8  80469111.518 8  20505783.880    20505785.020
  20505784.160          50.400          50.300
 113055197.696 8  88095029.525 7                  21513664.360    21513662.260
  21513661.780          50.300          46.750
 134210707.103 6 104579786.34445                  25539443.900
  25539446.060          40.750          31.350
 118174398.304 8  92083947.96947                  22487834.820
  22487829.160          49.650          43.050
 131493035.228 7 102462025.151 6                  25022324.380    25022329.840
  25022329.380          43.350          39.350
 125354899.725 7  97679127.173 7  93609163.550 8  23854254.260    23854256.980
  23854256.240          46.900          42.950
 116050510.678 8  90428935.18047                  22083673.660
  22083668.920          49.600          42.950
 107566819.721 8  83818328.859 8  80325908.353 8  20469270.680    20469269.480
  20469269.100          50.800          49.850
 108730226.934 8  84724870.67947                  20690667.800
  20690664.900          49.900          45.850
 107732206.639 8  83947136.29747                  20500759.460
  20500756.060          49.250          46.950
 133474205.235 6 104005872.12345                  25399296.360
  25399296.300          38.750          31.500
 133300013.327 6 103870138.193 6                  25366148.840    25366150.580
  25366150.160          39.400          36.200
 129303622.874 6 100569532.536 5                  24257023.020    24257043.380
  24257041.740          36.250          30.950
 126490295.989 7  98381309.689 6                  23637764.300    23637773.500
  23637772.100          45.350          38.400
 114228525.377 8  88844421.156 7                  21406382.040    21406386.880
  21406386.320          48.300          44.600
 113380050.546 7  88184513.207 7                  21224980.900    21224986.240
  21224985.960          44.550          42.950
 113279315.624 6  88106232.344 7                  21213549.200    21213555.280
  21213553.740          41.250          44.900
 118368045.339 7  92064040.423 7                  22127652.040    22127655.620
  22127653.700          46.700          43.100
 107050335.845 7  83261400.769 7                  19997895.000    19997896.500
  19997895.340          47.600          46.800
 113728252.988 8  88455316.627 7                  21305137.900    21305143.920
  21305143.320          48.800          45.800
 131092890.174 6 101961164.412 5                  24532239.680    24532248.220
  24532246.660          38.700          30.050
 121179170.356 7  94250498.636 7                  22629350.900    22629355.000
  22629354.520          46.150          44.050
 15  1 27 12  6 25.0000000  0 23G30G06G07G08G02G17G03G23G09G10G20G16
                                G05R14R17R02R12R13R19R03R18R11R04
 122250419.911 7  95260148.084 7  91290986.977 8  23263455.040    23263457.840
  23263457.020          47.250          44.250
 107760184.755 8  83968979.845 8  80470270.352 8  20506079.200    20506080.320
  20506079.480          50.200          50.300
 113044001.199 8  88086304.988 7                  21511533.760    21511531.640
  21511531.140          50.150          46.900
 134225065.308 6 104590974.52545                  25542176.160
  25542178.220          40.000          30.850
 118161539.855 8  92073928.39647                  22485387.940
  22485382.260          49.250          43.150
 131508146.364 7 102473800.027 6                  25025199.960    25025205.460
  25025204.880          42.700          38.950
 125368543.784 7  97689758.899 7  93619352.272 8  23856850.640    23856853.360
  23856852.620          46.300          42.750
 116062153.732 8  90438007.67347                  22085889.240
  22085884.540          49.750          42.950
 107571980.726 8  83822350.419 8  80329762.342 8  20470252.800    20470251.580
  20470251.200          50.600          49.800
 108722852.737 8  84719124.56047                  20689264.500
  20689261.640          49.600          46.200
 107737577.729 8  83951321.56247                  20501781.580
  20501778.140          49.050          47.200
 133467087.224 6 104000325.67445                  25397941.860
  25397941.820          39.350          31.500
 133284834.094 6 103858310.223 6                  25363260.320    25363262.220
  25363261.700          38.750          36.050
 129281274.391 6 100552150.526 5                  24252830.460    24252850.700
  24252849.120          36.600          31.350
 126512032.860 7  98398216.090 6                  23641826.400    23641835.600
  23641834.200          45.450          38.700
 114238553.249 8  88852220.609 7                  21408261.280    21408266.120
  21408265.580          48.300          44.150
 113383658.687 7  88187319.539 7                  21225656.380    21225661.760
  21225661.480          44.700          42.950
 113263700.097 6  88094086.949 7                  21210624.780    21210630.980
  21210629.420          41.600          44.900
 118360613.577 7  92058260.180 7                  22126262.780    22126266.360
  22126264.480          46.650          42.700
 107047678.655 7  83259334.084 7                  19997398.620    19997400.080
  19997398.940          47.600          46.850
 113741314.485 8  88465475.567 7                  21307584.780    21307590.780
  21307590.160          48.950          45.600
 131111524.404 6 101975657.691 5                  24535726.800    24535735.440
  24535733.800          40.350          30.750
 121166151.669 7  94240373.013 7                  22626919.780    22626923.880
  22626923.440          46.400          43.900
 15  1 27 12  6 30.0000000  0 23G30G06G07G08G02G17G03G23G09G10G20G16
                                G05R14R17R02R12R13R19R03R18R11R04
 122232775.307 7  95246399.061 7  91277810.837 8  23260097.380    23260100.220
  23260099.380          47.050          44.300
 107761751.925 8  83970201.008 8  80471440.637 8  20506377.440    20506378.540
  20506377.720          50.250          50.350
 113032815.417 8  88077588.795 7                  21509405.180    21509403.040
  21509402.540          50.150          46.950
 134239429.705 6 104602167.55045                  25544909.700
  25544911.760          40.350          32.100
 118148690.224 8  92063915.70147                  22482942.740
  22482937.080          49.150          43.650
 131523253.908 7 102485572.084 6                  25028074.880    25028080.400
  25028079.760          42.650          39.450
 125382190.662 7  97700392.801 7  93629543.105 8  23859447.540    23859450.300
  23859449.580          45.850          42.750
 116073800.441 8  90447083.01847                  22088105.540
  22088100.840          49.800          43.400
 107577150.062 8  83826378.469 8  80333622.561 8  20471236.500    20471235.280
  20471234.880          50.550          49.750
 108715485.393 8  84713383.77947                  20687862.540
  20687859.680          49.600          46.150
 107742956.952 8  83955513.16047                  20502805.260
  20502801.780          49.000          47.450
 133459979.250 6 103994786.95645                  25396589.280
  25396589.300          39.800          32.200
 133269652.748 6 103846480.618 6                  25360371.420    25360373.280
  25360372.620          38.650          36.050
 129258921.964 6 100534765.440 5                  24248637.060    24248657.260
  24248655.760          36.250          31.300
 126533767.760 7  98415120.952 6                  23645888.160    23645897.300
  23645895.920          45.000          38.550
 114248584.369 7  88860022.576 7                  21410141.100    21410145.960
  21410145.400          47.950          44.650
 113387287.882 7  88190142.227 7                  21226335.780    21226341.180
  21226340.940          44.700          43.300
 113248098.479 6  88081952.363 7                  21207703.080    21207709.240
  21207707.740          41.700          45.250
 118353201.612 7  92052495.308 7                  22124877.180    22124880.820
  22124878.940          46.600          42.600
 107045026.641 7  83257271.398 7                  19996903.200    19996904.680
  19996903.500          47.600          46.900
 113754390.979 8  88475646.167 7                  21310034.500    21310040.440
  21310039.780          49.100          45.750
 131130167.109 6 101990157.593 5                  24539215.520    24539224.040
  24539222.580          40.500          32.350
 121153133.389 7  94230247.692 7                  22624488.720    22624492.800
  22624492.440          46.150          44.000
 15  1 27 12  6 35.0000000  0 23G30G06G07G08G02G17G03G23G09G10G20G16
                                G05R14R17R02R12R13R19R03R18R11R04
 122215135.146 7  95232653.497 7  91264638.009 8  23256740.560    23256743.380
  23256742.580          47.400          44.600
 107763335.772 8  83971435.174 8  80472623.386 8  20506678.840    20506679.960
  20506679.120          50.200          50.350
 113021641.735 8  88068882.042 7                  21507278.920    21507276.760
  21507276.260          50.250          46.850
 134253801.744 6 104613366.51645                  25547644.560
  25547646.640          39.700          33.200
 118135850.793 8  92053910.95847                  22480499.460
  22480493.800          49.200          43.650
 131538359.273 7 102497342.462 6                  25030949.340    25030954.920
  25030954.240          42.750          39.650
 125395841.688 7  97711029.931 7  93639737.020 8  23862045.260    23862048.000
  23862047.300          46.350          42.700
 116085452.142 8  90456162.26047                  22090322.800
  22090318.060          50.100          42.950
 107582329.097 8  83830414.080 8  80337490.018 8  20472222.060    20472220.820
  20472220.400          50.450          49.750
 108708126.260 8  84707649.39747                  20686462.140
  20686459.260          49.800          46.400
 107748345.657 8  83959712.14947                  20503830.740
  20503827.200          49.100          47.050
 133452882.766 6 103989257.26344                  25395238.900
  25395239.180          39.950          29.600
 133254470.754 6 103834650.521 5                  25357482.340    25357484.240
  25357483.540          38.250          35.200
 129236566.946 6 100517378.353 5                  24244443.180    24244463.500
  24244461.840          36.450          31.050
 126555502.260 7  98432025.526 6                  23649949.780    23649958.880
  23649957.480          44.750          38.700
 114258620.000 8  88867828.057 7                  21412021.720    21412026.640
  21412026.100          48.000          45.050
 113390939.580 7  88192982.439 7                  21227019.340    21227024.820
  21227024.620          44.450          43.400
 113232512.180 6  88069829.709 7                  21204784.220    21204790.420
  21204788.920          41.900          45.300
 118345810.674 7  92046746.809 7                  22123495.540    22123499.160
  22123497.280          46.800          42.650
 107042381.034 7  83255213.698 7                  19996408.980    19996410.440
  19996409.260          47.950          46.900
 113767483.789 8  88485829.454 7                  21312487.240    21312493.140
  21312492.480          48.900          45.800
 131148819.819 6 102004665.257 5                  24542706.080    24542714.520
  24542713.180          39.750          31.950
 121140116.827 7  94220123.715 7                  22622057.980    22622062.020
  22622061.700          46.150          44.000
 15  1 27 12  6 40.0000000  0 23G30G06G07G08G02G17G03G23G09G10G20G16
                                G05R14R17R02R12R13R19R03R18R11R04
 122197499.271 7  95218911.271 7  91251468.370 8  23253384.620    23253387.400
  23253386.600          47.550          44.550
 107764936.119 8  83972682.200 8  80473818.449 8  20506983.380    20506984.500
  20506983.680          50.150          50.250
 113010479.990 8  88060184.586 7                  21505154.920    21505152.740
  21505152.260          50.350          46.850
 134268181.126 6 104624571.28345                  25550380.860
  25550383.040          38.350          32.000
 118123021.393 8  92043914.02947                  22478058.080
  22478052.440          49.150          43.200
 131553462.174 7 102509110.929 6                  25033823.380    25033828.960
  25033828.280          42.300          39.150
 125409496.672 7  97721670.168 7  93649933.917 8  23864643.740    23864646.460
  23864645.720          46.450          42.050
 116097108.680 8  90465245.27947                  22092541.000
  22092536.240          50.150          42.600
 107587517.593 8  83834457.066 8  80341364.544 8  20473209.400    20473208.160
  20473207.740          50.550          49.750
 108700775.159 8  84701921.27147                  20685063.260
  20685060.340          50.000          46.050
 107753743.650 8  83963918.38047                  20504857.980
  20504854.400          49.250          47.000
 133445797.596 6 103983736.33345                  25393890.600
  25393890.880          39.250          31.200
 133239287.905 6 103822819.752 5                  25354593.160    25354595.080
  25354594.360          37.700          35.950
 129214209.148 6 100499989.070 5                  24240248.800    24240269.260
  24240267.460          37.500          31.700
 126577235.886 7  98448929.399 6                  23654011.280    23654020.400
  23654018.920          44.800          38.750
 114268660.050 8  88875636.984 7                  21413903.200    21413908.180
  21413907.660          48.300          44.800
 113394613.609 7  88195840.015 7                  21227707.140    21227712.620
  21227712.460          44.900          43.600
 113216940.881 7  88057718.718 7                  21201868.160    21201874.400
  21201872.900          42.000          45.250
 118338440.603 7  92041014.542 7                  22122117.780    22122121.360
  22122119.500          47.250          42.450
 107039741.788 7  83253160.961 7                  19995916.000    19995917.420
  19995916.220          47.800          47.350
 113780592.679 8  88496025.260 7                  21314943.020    21314948.900
  21314948.180          48.850          45.800
 131167482.154 6 102019180.380 5                  24546198.480    24546206.720
  24546205.560          39.350          32.100
 121127101.859 7  94210000.983 7                  22619627.540    22619631.580
  22619631.300          46.350          43.750
 15  1 27 12  6 45.0000000  0 23G30G06G07G08G02G17G03G23G09G10G20G16
                                G05R14R17R02R12R13R19R03R18R11R04
 122179868.916 7  95205173.350 7  91238302.859 8  23250029.680    23250032.480
  23250031.680          47.600          44.600
 107766554.231 8  83973943.063 8  80475026.771 8  20507291.300    20507292.400
  20507291.600          50.100          50.300
 112999331.409 8  88051497.392 7                  21503033.440    21503031.240
  21503030.760          50.400          46.750
 134282569.201 6 104635782.72245                  25553118.740
  25553121.220          37.900          31.250
 118110203.285 8  92033925.89947                  22475618.860
  22475613.220          49.100          42.950
 131568563.953 7 102520878.508 6                  25036697.160    25036702.760
  25036702.180          42.750          38.700
 125423156.882 7  97732314.481 7  93660134.704 8  23867243.200    23867245.920
  23867245.160          45.900          42.650
 116108771.330 8  90474333.05047                  22094760.380
  22094755.560          50.150          42.850
 107592716.838 8  83838508.418 8  80345247.088 8  20474198.800    20474197.540
  20474197.120          50.400          49.750
 108693433.320 8  84696200.36147                  20683666.180
  20683663.200          50.100          45.450
 107759152.212 8  83968132.83747                  20505887.220
  20505883.600          49.250          47.000
 133438724.925 6 103978225.15045                  25392544.680
  25392545.220          39.800          32.750
 133224105.417 6 103810989.246 6                  25351704.120    25351705.960
  25351705.440          39.650          36.100
 129191849.833 6 100482598.604 5                  24236054.140    24236074.720
  24236072.720          37.250          31.700
 126598970.160 7  98465833.782 6                  23658072.900    23658082.000
  23658080.500          44.100          38.850
 114278705.772 8  88883450.314 7                  21415785.700    21415790.760
  21415790.280          48.450          44.950
 113398311.282 7  88198715.983 7                  21228399.320    21228404.820
  21228404.700          44.700          43.500
 113201385.787 6  88045620.319 7                  21198955.160    21198961.440
  21198959.900          41.700          45.250
 118331092.825 7  92035299.604 7                  22120744.220    22120747.780
  22120745.900          46.900          42.850
 107037110.056 7  83251114.051 7                  19995424.420    19995425.820
  19995424.580          47.850          47.050
 113793718.951 8  88506234.576 7                  21317402.020    21317407.860
  21317407.140          48.400          45.850
 131186155.534 6 102033704.111 5                  24549692.880    24549701.140
  24549699.980          39.700          30.600
 121114089.793 7  94199880.500 7                  22617197.600    22617201.640
  22617201.440          46.350          43.900
 15  1 27 12  6 50.0000000  0 23G30G06G07G08G02G17G03G23G09G10G20G16
                                G05R14R17R02R12R13R19R03R18R11R04
 122162240.742 7  95191437.115 7  91225138.984 8  23246675.180    23246677.940
  23246677.140          47.600          44.750
 107768186.729 8  83975215.133 8  80476245.838 8  20507601.960    20507603.060
  20507602.260          50.050          50.300
 112988192.654 8  88042817.853 7                  21500913.820    21500911.620
  21500911.120          50.450          46.800
 134296962.496 6 104646998.27345                  25555857.720
  25555860.280          38.600          33.100
 118097393.098 8  92023943.94347                  22473181.140
  22473175.500          49.250          43.550
 131583661.168 7 102532642.550 6                  25039570.120    25039575.660
  25039575.160          42.700          39.050
 125436818.957 7  97742960.224 7  93670336.865 8  23869842.980    23869845.680
  23869844.940          45.800          42.400
 116120436.657 8  90483422.91547                  22096980.280
  22096975.400          50.150          43.050
 107597923.420 8  83842565.491 8  80349135.117 8  20475189.600    20475188.340
  20475187.900          50.500          49.900
 108686097.403 8  84690484.06747                  20682270.200
  20682267.180          50.200          45.600
 107764567.962 8  83972352.89847                  20506917.840
  20506914.180          49.350          46.850
 133431661.448 6 103972721.18745                  25391200.420
  25391201.020          39.800          34.000
 133208919.954 6 103799156.407 6                  25348814.520    25348816.280
  25348815.840          39.700          36.050
 129169485.697 6 100465204.401 5                  24231858.660    24231879.240
  24231877.240          36.000          31.600
 126620701.447 7  98482735.824 6                  23662133.940    23662143.140
  23662141.540          44.000          39.000
 114288753.653 8  88891265.317 7                  21417668.600    21417673.780
  21417673.320          48.350          44.650
 113402029.018 7  88201607.547 7                  21229095.280    21229100.780
  21229100.680          44.900          43.400
 113185843.866 7  88033532.171 7                  21196044.620    21196050.980
  21196049.380          42.100          45.450
 118323763.816 7  92029599.265 7                  22119374.120    22119377.720
  22119375.840          46.750          42.850
 107034482.399 7  83249070.336 7                  19994933.580    19994934.960
  19994933.700          47.850          47.150
 113806859.136 8  88516454.710 7                  21319863.620    21319869.460
  21319868.720          48.300          46.000
 131204836.430 6 102048233.703 5                  24553188.740    24553197.020
  24553195.800          39.650          30.750
 121101077.152 7  94189759.569 7                  22614767.620    22614771.660
  22614771.460          46.400          44.000
 15  1 27 12  6 55.0000000  0 23G30G06G07G08G02G17G03G23G09G10G20G16
                                G05R14R17R02R12R13R19R03R18R11R04
 122144617.531 7  95177704.759 7  91211978.804 8  23243321.620    23243324.380
  23243323.580          47.550          44.850
 107769836.371 8  83976500.569 8  80477477.712 8  20507915.880    20507916.980
  20507916.180          50.100          50.250
 112977066.522 8  88034148.149 7                  21498796.620    21498794.360
  21498793.880          50.550          46.750
 134311363.789 6 104658220.03545                  25558598.240
  25558601.020          39.450          33.250
 118084593.644 8  92013970.34547                  22470745.480
  22470739.800          49.250          43.150
 131598756.515 7 102544405.133 6                  25042442.700    25042448.240
  25042447.720          43.150          39.050
 125450485.639 7  97753609.574 6  93680542.496 8  23872443.640    23872446.320
  23872445.580          45.750          41.950
 116132107.461 8  90492517.04547                  22099201.200
  22099196.300          49.850          43.600
 107603140.125 8  83846630.460 8  80353030.707 8  20476182.320    20476181.060
  20476180.620          50.400          49.900
 108678770.163 8  84684774.53147                  20680875.920
  20680872.820          50.250          45.650
 107769993.689 8  83976580.73547                  20507950.360
  20507946.660          49.400          46.600
 133424610.031 6 103967226.56045                  25389858.520
  25389859.160          40.650          32.000
 133193734.294 6 103787323.446 5                  25345924.840    25345926.620
  25345926.180          38.400          35.650
 129147119.666 6 100447808.754 5                  24227662.700    24227683.220
  24227681.340          37.050          30.950
 126642432.633 7  98499637.805 6                  23666194.900    23666204.060
  23666202.540          44.350          39.550
 114298806.566 7  88899084.250 7                  21419552.460    21419557.700
  21419557.280          47.900          44.850
 113405769.801 7  88204517.041 7                  21229795.560    21229801.100
  21229800.960          44.600          43.300
 113170317.714 6  88021456.287 7                  21193137.020    21193143.400
  21193141.820          41.800          45.600
 118316456.498 7  92023915.798 7                  22118008.060    22118011.660
  22118009.800          46.750          43.000
 107031861.767 7  83247032.069 7                  19994444.060    19994445.400
  19994444.140          47.400          47.350
 113820016.054 8  88526687.859 7                  21322328.380    21322334.160
  21322333.460          48.450          45.750
 131223527.592 6 102062771.284 5                  24556686.560    24556694.880
  24556693.660          38.600          30.250
 121088066.749 7  94179640.385 7                  22612338.040    22612342.000
  22612341.880          46.150          43.750
 15  1 27 12  7  0.0000000  0 23G30G06G07G08G02G17G03G23G09G10G20G16
                                G05R14R17R02R12R13R19R03R18R11R04
 122126999.620 7  95163976.529 7  91198822.588 8  23239969.020    23239971.780
  23239970.980          47.450          44.950
 107771503.503 8  83977799.630 8  80478722.646 8  20508233.120    20508234.240
  20508233.440          50.150          50.300
 112965953.336 8  88025488.523 7                  21496681.860    21496679.580
  21496679.100          50.300          46.900
 134325773.401 6 104669448.28445                  25561340.360
  25561342.920          40.100          31.900
 118071805.234 8  92004005.35047                  22468311.920
  22468306.240          49.300          43.350
 131613850.428 7 102556166.576 6                  25045315.000    25045320.480
  25045319.960          43.150          39.550
 125464157.291 7  97764262.787 7  93690751.812 8  23875045.240    23875047.960
  23875047.180          45.350          42.300
 116143784.044 8  90501615.66447                  22101423.200
  22101418.300          49.900          43.250
 107608367.269 8  83850703.553 8  80356934.094 8  20477177.020    20477175.760
  20477175.320          50.350          50.000
 108671451.958 8  84679072.03447                  20679483.320
  20679480.180          50.100          45.850
 107775429.718 8  83980816.59247                  20508984.840
  20508981.100          49.450          46.950
 133417570.824 6 103961741.44244                  25388518.920
  25388519.760          40.400          26.500
 133178548.781 6 103775490.589 5                  25343035.180    25343036.940
  25343036.600          38.100          35.600
 129124751.940 6 100430411.754 4                  24223466.340    24223486.900
  24223485.060          36.550          29.250
 126664164.041 7  98516539.961 6                  23670256.040    23670265.080
  23670263.660          44.050          39.900
 114308864.892 8  88906907.380 7                  21421437.360    21421442.660
  21421442.260          48.300          45.000
 113409533.808 7  88207444.598 7                  21230500.180    21230505.740
  21230505.580          44.650          43.350
 113154807.707 7  88009392.951 7                  21190232.520    21190238.860
  21190237.280          42.200          45.650
 118309171.107 7  92018249.374 7                  22116646.140    22116649.720
  22116647.860          46.550          42.700
 107029248.424 7  83244999.460 7                  19993955.880    19993957.180
  19993955.920          47.650          47.000
 113833190.002 8  88536934.245 7                  21324796.320    21324802.060
  21324801.380          48.700          45.850
 131242229.339 6 102077317.102 5                  24560186.280    24560194.760
  24560193.460          39.200          30.300
 121075058.884 7  94169523.167 7                  22609908.860    22609912.800
  22609912.760          46.200          43.600
 15  1 27 12  7  5.0000000  0 23G30G06G07G08G02G17G03G23G09G10G20G16
                                G05R14R17R02R12R13R19R03R18R11R04
 122109384.783 7  95150250.701 7  91185668.669 8  23236617.020    23236619.840
  23236619.020          47.400          44.750
 107773185.886 8  83979110.578 8  80479978.973 8  20508553.260    20508554.400
  20508553.580          50.100          50.350
 112954850.847 8  88016837.245 7                  21494569.160    21494566.860
  21494566.360          50.200          46.900
 134340189.112 6 104680681.27945                  25564083.600
  25564086.080          39.400          33.600
 118059025.669 8  91994047.25747                  22465880.080
  22465874.360          49.150          43.400
 131628940.577 7 102567925.073 6                  25048186.540    25048192.140
  25048191.600          43.250          39.150
 125477831.645 7  97774918.099 7  93700963.160 8  23877647.340    23877650.100
  23877649.340          45.400          42.200
 116155464.159 8  90510717.04247                  22103645.860
  22103640.980          49.700          43.550
 107613602.614 8  83854783.038 8  80360843.601 8  20478173.300    20478172.020
  20478171.580          50.300          49.950
 108664140.551 8  84673374.83847                  20678092.020
  20678088.860          49.900          45.700
 107780873.772 8  83985058.71047                  20510020.840
  20510017.060          49.450          46.750
 133410541.768 6 103956264.25945                  25387181.300
  25387182.120          39.050          35.100
 133163361.182 6 103763656.096 5                  25340145.040    25340146.780
  25340146.400          36.950          34.650
 129102380.152 6 100413011.584 5                  24219269.280    24219289.820
  24219288.080          36.350          30.950
 126685893.196 7  98533440.344 6                  23674316.640    23674325.740
  23674324.280          43.850          39.700
 114318926.311 8  88914732.923 7                  21423322.840    21423328.160
  21423327.820          48.250          44.550
 113413318.819 7  88210388.483 7                  21231208.720    21231214.300
  21231214.100          44.350          43.300
 113139311.597 7  87997340.431 7                  21187330.580    21187336.940
  21187335.340          42.550          45.400
 118301905.409 7  92012598.274 7                  22115287.920    22115291.480
  22115289.640          46.950          42.750
 107026640.104 7  83242970.776 7                  19993468.640    19993469.940
  19993468.660          47.550          47.350
 113846378.748 8  88547192.142 7                  21327267.020    21327272.740
  21327272.100          48.350          45.750
 131260939.473 6 102091869.436 5                  24563687.600    24563696.240
  24563694.680          38.200          30.300
 121062051.330 7  94159406.202 7                  22607479.780    22607483.740
  22607483.700          46.100          43.400
 15  1 27 12  7 10.0000000  0 23G30G06G07G08G02G17G03G23G09G10G20G16
                                G05R14R17R02R12R13R19R03R18R11R04
 122091775.204 7  95136528.961 7  91172518.672 8  23233266.020    23233268.800
  23233268.040          47.300          44.650
 107774885.670 8  83980435.089 8  80481248.286 8  20508876.720    20508877.860
  20508877.040          50.300          50.350
 112943761.271 8  88008196.034 7                  21492458.880    21492456.560
  21492456.100          50.350          46.850
 134354612.968 6 104691920.72145                  25566828.340
  25566830.620          40.050          32.250
 118046257.128 8  91984097.74747                  22463450.300
  22463444.600          49.150          43.450
 131644029.106 7 102579682.337 6                  25051057.840    25051063.420
  25051062.940          42.800          38.750
 125491510.873 7  97785577.219 7  93711178.135 8  23880250.400    23880253.180
  23880252.420          45.400          42.000
 116167149.989 8  90519822.87547                  22105869.620
  22105864.740          49.700          43.300
 107618848.298 8  83858870.591 8  80364760.836 8  20479171.540    20479170.260
  20479169.800          50.350          49.950
 108656838.091 8  84667684.61547                  20676702.400
  20676699.200          49.850          46.050
 107786328.047 8  83989308.79247                  20511058.800
  20511054.940          49.550          47.150
 133403524.887 6 103950796.57645                  25385845.960
  25385847.020          39.550          30.750
 133148173.649 6 103751821.636 5                  25337254.900    25337256.580
  25337256.320          37.500          34.350
 129080006.698 6 100395610.113 5                  24215071.880    24215092.380
  24215090.880          36.350          31.050
 126707622.536 7  98550340.875 6                  23678377.340    23678386.440
  23678384.980          43.350          39.800
 114328992.996 8  88922562.561 7                  21425209.340    21425214.680
  21425214.320          48.350          44.700
 113417127.107 7  88213350.478 7                  21231921.660    21231927.200
  21231927.020          44.400          43.200
 113123831.713 7  87985300.548 7                  21184431.660    21184438.080
  21184436.460          42.850          45.700
 118294661.540 7  92006964.170 7                  22113933.760    22113937.260
  22113935.460          47.100          42.800
 107024038.929 7  83240947.628 7                  19992982.740    19992984.000
  19992982.720          47.700          47.050
 113859584.365 8  88557463.165 7                  21329740.880    21329746.600
  21329745.960          48.400          45.950
 131279660.142 6 102106429.934 4                  24567190.820    24567199.620
  24567197.940          37.650          29.350
 121049046.400 7  94149291.279 7                  22605051.220    22605055.140
  22605055.140          46.000          43.550
 15  1 27 12  7 15.0000000  0 23G30G06G07G08G02G17G03G23G09G10G20G16
                                G05R14R17R02R12R13R19R03R18R11R04
 122074170.246 7  95122810.829 7  91159372.132 8  23229915.900    23229918.660
  23229917.920          47.100          44.550
 107776602.243 8  83981772.676 8  80482530.145 8  20509203.360    20509204.520
  20509203.720          50.200          50.150
 112932684.011 8  87999564.407 7                  21490350.960    21490348.640
  21490348.180          50.350          46.700
 134369044.427 6 104703165.92245                  25569574.620
  25569576.840          40.000          30.050
 118033498.987 8  91974156.34747                  22461022.480
  22461016.800          49.200          43.350
 131659115.424 6 102591437.885 6                  25053928.720    25053934.300
  25053933.780          41.900          38.750
 125505194.326 7  97796239.635 7  93721396.282 8  23882854.260    23882857.040
  23882856.260          45.450          42.000
 116178840.909 8  90528932.66647                  22108094.320
  22108089.500          49.900          42.800
 107624103.709 8  83862965.714 8  80368685.324 8  20480171.620    20480170.340
  20480169.900          50.400          49.800
 108649543.999 8  84662000.91147                  20675314.380
  20675311.180          49.800          45.850
 107791791.941 8  83993566.36847                  20512098.580
  20512094.680          49.550          46.800
 133396519.759 6 103945338.07245                  25384512.880
  25384513.880          38.500          33.450
 133132985.616 6 103739986.777 5                  25334364.660    25334366.260
  25334365.740          37.700          35.250
 129057630.947 5 100378206.892 5                  24210874.140    24210894.540
  24210893.200          35.900          31.600
 126729351.306 7  98567240.957 6                  23682437.940    23682446.980
  23682445.580          43.850          39.650
 114339064.370 8  88930395.841 7                  21427096.740    21427102.100
  21427101.720          48.500          44.550
 113420957.916 7  88216329.996 7                  21232638.800    21232644.300
  21232644.140          44.250          43.150
 113108367.344 7  87973272.716 7                  21181535.700    21181542.080
  21181540.480          42.600          45.550
 118287439.006 7  92001346.647 7                  22112583.600    22112587.060
  22112585.220          46.700          42.400
 107021444.337 7  83238929.627 7                  19992498.040    19992499.320
  19992498.040          47.600          47.150
 113872806.263 8  88567746.848 7                  21332217.780    21332223.520
  21332222.880          48.200          45.950
 131298390.756 6 102120998.189 5                  24570695.920    24570704.580
  24570703.120          38.350          31.400
 121036043.258 7  94139177.737 7                  22602622.940    22602626.880
  22602626.920          46.250          43.450
 15  1 27 12  7 20.0000000  0 23G30G06G07G08G02G17G03G23G09G10G20G16
                                G05R14R17R02R12R13R19R03R18R11R04
 122056567.462 7  95109094.394 7  91146227.218 8  23226566.200    23226568.960
  23226568.220          47.300          44.400
 107778333.107 8  83983121.397 8  80483822.669 8  20509532.740    20509533.900
  20509533.100          50.250          50.200
 112921616.518 8  87990940.394 7                  21488244.880    21488242.580
  21488242.080          50.450          46.800
 134383480.956 6 104714415.18945                  25572321.780
  25572323.900          39.700          30.550
 118020748.705 8  91964221.07047                  22458596.200
  22458590.460          49.300          43.050
 131674196.974 7 102603189.705 6                  25056798.680    25056804.300
  25056803.780          42.200          38.300
 125518879.526 7  97806903.407 7  93731615.734 8  23885458.460    23885461.260
  23885460.440          45.800          42.250
 116190534.345 8  90538044.43547                  22110319.540
  22110314.700          49.850          42.850
 107629366.346 8  83867066.466 8  80372615.213 8  20481173.060    20481171.800
  20481171.360          50.400          49.850
 108642255.741 8  84656321.75547                  20673927.460
  20673924.240          49.900          46.050
 107797262.888 8  83997829.44547                  20513139.700
  20513135.760          49.450          46.400
 133389523.712 6 103939886.61944                  25383181.600
  25383182.800          39.800          26.800
 133117794.417 6 103728149.508 5                  25331473.820    25331475.500
  25331474.900          37.250          35.800
 129035250.230 6 100360799.802 5                  24206675.580    24206695.960
  24206694.500          36.350          30.300
 126751076.846 7  98584138.541 6                  23686497.880    23686507.020
  23686505.600          44.700          39.650
 114349137.824 8  88938230.752 7                  21428984.500    21428989.880
  21428989.480          48.450          44.400
 113424808.701 7  88219325.049 7                  21233359.660    21233365.100
  21233365.000          44.250          42.950
 113092915.882 7  87961254.931 7                  21178642.180    21178648.500
  21178646.900          43.200          45.450
 118280235.200 7  91995743.696 7                  22111236.920    22111240.360
  22111238.520          46.550          42.550
 107018853.733 7  83236914.718 7                  19992014.060    19992015.340
  19992014.120          47.200          47.600
 113886041.805 8  88578041.152 7                  21334697.240    21334703.000
  21334702.360          48.350          45.950
 131317128.677 6 102135572.124 5                  24574202.460    24574211.220
  24574209.680          41.250          32.650
 121023039.487 7  94129063.709 7                  22600194.580    22600198.500
  22600198.600          46.650          43.650
 15  1 27 12  7 25.0000000  0 23G30G06G07G08G02G17G03G23G09G10G20G16
                                G05R14R17R02R12R13R19R03R18R11R04
 122038970.172 7  95095382.232 7  91133086.405 8  23223217.520    23223220.260
  23223219.520          46.950          44.550
 107780081.586 8  83984483.849 8  80485128.348 8  20509865.460    20509866.600
  20509865.820          50.250          50.150
 112910562.178 8  87982326.632 7                  21486141.320    21486139.000
  21486138.520          50.250          46.850
 134397925.924 6 104725671.00845                  25575070.620
  25575072.620          39.300          32.800
 118008009.713 8  91954294.59247                  22456172.080
  22456166.280          49.300          43.150
 131689277.100 7 102614940.444 6                  25059668.380    25059673.960
  25059673.380          42.350          38.250
 125532569.821 7  97817571.149 7  93741838.957 8  23888063.660    23888066.420
  23888065.660          46.100          42.600
 116202233.702 8  90547160.80647                  22112545.880
  22112541.000          49.800          43.250
 107634639.483 8  83871175.406 8  80376552.945 8  20482176.520    20482175.260
  20482174.820          50.400          49.900
 108634976.676 8  84650649.76247                  20672542.300
  20672539.080          49.850          45.700
 107802744.279 8  84002100.65947                  20514182.820
  20514178.820          49.350          46.450
 133382540.209 6 103934444.94645                  25381852.720
  25381854.040          39.850          34.600
 133102603.484 6 103716312.442 6                  25328582.880    25328584.760
  25328583.800          36.650          36.250
 129012868.026 6 100343391.523 5                  24202476.560    24202496.880
  24202495.560          36.950          30.900
 126772802.581 7  98601036.300 6                  23690557.880    23690567.060
  23690565.660          44.800          39.750
 114359216.825 8  88946069.976 7                  21430873.300    21430878.660
  21430878.260          48.400          44.350
 113428682.886 7  88222338.306 7                  21234084.920    21234090.340
  21234090.220          44.350          43.000
 113077480.907 7  87949249.961 7                  21175751.740    21175758.040
  21175756.420          43.050          45.300
 118273053.527 7  91990157.965 7                  22109894.360    22109897.760
  22109895.920          46.850          42.300
 107016270.640 7  83234905.643 7                  19991531.520    19991532.820
  19991531.580          47.400          46.950
 113899294.508 8  88588348.811 7                  21337179.940    21337185.660
  21337185.020          48.800          45.850
 131335877.166 6 102150154.286 5                  24577710.960    24577719.620
  24577718.220          41.100          31.650
 121010038.370 7  94118951.739 7                  22597766.720    22597770.640
  22597770.740          46.350          43.250
 15  1 27 12  7 30.0000000  0 23G30G06G07G08G02G17G03G23G09G10G20G16
                                G05R14R17R02R12R13R19R03R18R11R04
 122021378.223 7  95081674.232 7  91119949.563 8  23219869.900    23219872.620
  23219871.880          46.950          44.600
 107781847.493 8  83985859.870 8  80486447.041 8  20510201.540    20510202.640
  20510201.860          50.150          50.200
 112899520.781 8  87973722.973 7                  21484040.220    21484037.880
  21484037.420          50.100          46.800
 134412379.032 6 104736933.13045                  25577820.980
  25577822.680          38.850          35.100
 117995281.807 8  91944376.73447                  22453750.060
  22453744.220          49.350          42.850
 131704355.612 7 102626689.883 6                  25062537.760    25062543.280
  25062542.740          42.900          37.950
 125546264.958 7  97828242.656 7  93752065.845 8  23890669.800    23890672.560
  23890671.820          46.150          42.350
 116213938.744 8  90556281.60247                  22114773.320
  22114768.400          49.900          42.650
 107639922.982 8  83875292.412 8  80380498.415 8  20483181.940    20483180.680
  20483180.240          50.350          49.850
 108627706.597 8  84644984.76247                  20671158.820
  20671155.620          49.800          45.650
 107808235.917 8  84006379.84347                  20515227.860
  20515223.840          49.450          46.850
 133375569.084 6 103929012.89145                  25380526.140
  25380527.500          38.950          33.750
 133087412.635 5 103704475.422 6                  25325692.020    25325693.920
  25325692.940          35.600          37.250
 128990484.271 6 100325982.052 5                  24198277.440    24198297.560
  24198296.380          37.150          31.850
 126794528.438 7  98617934.119 6                  23694617.940    23694627.160
  23694625.780          45.000          39.650
 114369301.192 8  88953913.331 7                  21432763.120    21432768.500
  21432768.020          48.750          44.050
 113432580.233 7  88225369.559 7                  21234814.580    21234819.880
  21234819.800          44.500          42.700
 113062062.047 7  87937257.523 7                  21172864.360    21172870.580
  21172868.960          42.950          45.450
 118265893.797 7  91984589.281 6                  22108555.920    22108559.300
  22108557.420          47.550          41.650
 107013694.793 7  83232902.216 7                  19991050.320    19991051.680
  19991050.400          47.250          47.300
 113912564.046 8  88598669.548 7                  21339665.780    21339671.520
  21339670.860          48.750          45.800
 131354636.082 6 102164744.575 5                  24581221.300    24581230.060
  24581228.700          38.700          30.300
 120997039.991 7  94108841.893 7                  22595339.340    22595343.260
  22595343.400          46.300          43.200
 15  1 27 12  7 35.0000000  0 23G30G06G07G08G02G17G03G23G09G10G20G16
                                G05R14R17R02R12R13R19R03R18R11R04
 122003789.280 7  95067968.575 7  91106814.980 8  23216522.840    23216525.520
  23216524.840          47.150          44.850
 107783628.517 8  83987247.681 8  80487777.030 8  20510540.460    20510541.560
  20510540.780          50.250          50.250
 112888490.088 8  87965127.645 7                  21481941.120    21481938.800
  21481938.320          50.100          46.850
 134426838.065 6 104748199.91145                  25580572.480
  25580574.060          39.350          30.050
 117982562.651 8  91934465.71247                  22451329.740
  22451323.840          49.450          43.300
 131719430.210 7 102638436.288 6                  25065406.420    25065412.000
  25065411.460          43.300          38.500
 125559962.684 7  97838916.204 7  93762294.643 8  23893276.440    23893279.180
  23893278.460          45.950          42.750
 116225647.168 8  90565405.05647                  22117001.380
  22116996.420          49.650          43.400
 107645214.516 8  83879415.694 8  80384449.886 8  20484188.900    20484187.640
  20484187.220          50.400          49.950
 108620443.242 8  84639325.01547                  20669776.620
  20669773.440          49.700          45.750
 107813735.500 8  84010665.23547                  20516274.440
  20516270.380          49.650          46.550
 133368608.011 6 103923588.71944                  25379201.440
  25379202.560          40.150          28.750
 133072219.526 6 103692636.669 6                  25322800.880    25322802.860
  25322801.820          36.550          37.200
 128968096.643 6 100308569.593 5                  24194077.560    24194097.460
  24194096.480          37.750          30.850
 126816251.899 7  98634830.099 6                  23698677.540    23698686.760
  23698685.360          45.150          39.000
 114379388.478 8  88961759.010 7                  21434653.480    21434658.860
  21434658.320          48.650          44.600
 113436498.431 7  88228417.049 7                  21235548.120    21235553.380
  21235553.300          44.100          43.050
 113046657.197 7  87925275.994 7                  21169979.580    21169985.760
  21169984.140          42.750          45.550
 118258753.765 7  91979035.922 6                  22107221.160    22107224.460
  22107222.580          47.450          41.550
 107011123.720 7  83230902.489 7                  19990570.000    19990571.360
  19990570.120          47.550          47.200
 113925848.135 8  88609001.611 7                  21342154.320    21342160.100
  21342159.420          48.300          45.850
 131373403.234 6 102179341.232 5                  24584733.220    24584742.240
  24584740.700          38.400          30.000
 120984041.717 7  94098732.143 7                  22592912.020    22592915.900
  22592916.100          46.750          43.250
 15  1 27 12  7 40.0000000  0 23G30G06G07G08G02G17G03G23G09G10G20G16
                                G05R14R17R02R12R13R19R03R18R11R04
 121986205.396 7  95054266.851 7  91093684.153 8  23213176.780    23213179.420
  23213178.680          47.100          44.650
 107785426.640 8  83988648.814 8  80489119.776 8  20510882.640    20510883.740
  20510882.960          50.150          50.250
 112877472.065 8  87956542.174 7                  21479844.460    21479842.120
  21479841.660          50.100          46.750
 134441304.930 6 104759472.78345                  25583325.520
  25583327.020          39.900          34.100
 117969854.267 8  91924563.07947                  22448911.440
  22448905.480          49.300          43.100
 131734502.813 7 102650181.116 6                  25068274.660    25068280.260
  25068279.740          42.550          37.750
 125573664.942 7  97849593.264 7  93772526.829 8  23895883.920    23895886.680
  23895885.920          45.950          42.650
 116237360.931 8  90574532.64547                  22119230.460
  22119225.440          49.750          43.200
 107650516.022 8  83883546.733 8  80388408.796 8  20485197.720    20485196.480
  20485196.080          50.400          49.900
 108613188.558 8  84633672.01647                  20668396.100
  20668392.920          49.700          45.800
 107819244.972 8  84014958.32347                  20517322.860
  20517318.780          49.550          46.750
 133361658.944 6 103918173.88446                  25377879.120
  25377880.020          39.850          36.100
 133057026.178 6 103680797.711 6                  25319909.600    25319911.660
  25319910.760          36.850          36.650
 128945706.992 6 100291155.512 4                  24189877.240    24189896.960
  24189896.080          37.400          29.900
 126837974.919 7  98651725.733 6                  23702737.060    23702746.320
  23702744.860          45.300          39.550
 114389480.756 8  88969608.545 7                  21436544.780    21436550.120
  21436549.580          48.400          44.350
 113440439.619 7  88231482.409 7                  21236285.920    21236291.220
  21236291.100          44.200          42.900
 113031268.231 7  87913306.800 7                  21167097.760    21167103.920
  21167102.300          42.400          45.350
 118251635.239 7  91973499.288 6                  22105890.420    22105893.660
  22105891.800          47.250          41.800
 107008559.676 7  83228908.239 7                  19990090.960    19990092.380
  19990091.140          47.450          47.050
 113939148.699 8  88619346.470 7                  21344645.960    21344651.740
  21344651.060          48.100          45.600
 131392180.300 6 102193945.615 4                  24588247.100    24588256.100
  24588254.580          38.850          29.450
 120971045.644 7  94088624.107 7                  22590485.060    22590488.920
  22590489.140          46.700          42.950
 15  1 27 12  7 45.0000000  0 23G30G06G07G08G02G17G03G23G09G10G20G16
                                G05R14R17R02R12R13R19R03R18R11R04
 121968626.561 7  95040569.068 7  91080557.125 8  23209831.640    23209834.260
  23209833.520          46.750          44.700
 107787241.911 8  83990063.310 8  80490475.334 8  20511228.080    20511229.180
  20511228.400          50.250          50.300
 112866466.760 8  87947966.620 7                  21477750.200    21477747.880
  21477747.420          50.050          46.650
 134455779.671 6 104770751.82645                  25586080.020
  25586081.480          40.050          31.400
 117957156.730 8  91914668.89647                  22446495.180
  22446489.200          49.200          43.750
 131749573.437 7 102661924.419 6                  25071142.520    25071148.140
  25071147.560          42.250          37.650
 125587371.832 7  97860273.947 7  93782762.464 8  23898492.300    23898495.080
  23898494.280          45.800          42.600
 116249080.091 8  90583664.45047                  22121460.560
  22121455.500          49.800          43.150
 107655827.602 8  83887685.628 8  80392375.236 8  20486208.480    20486207.240
  20486206.840          50.400          49.900
 108605942.621 8  84628025.84247                  20667017.240
  20667014.060          49.600          45.800
 107824764.422 8  84019259.19447                  20518373.220
  20518369.100          49.400          46.700
 133354721.951 6 103912768.40245                  25376559.060
  25376559.980          39.000          33.050
 133041832.643 6 103668958.611 6                  25317018.380    25317020.460
  25317019.800          36.950          37.250
 128923315.439 6 100273739.954 5                  24185676.560    24185696.320
  24185695.360          38.000          31.500
 126859697.687 7  98668621.164 6                  23706796.580    23706805.720
  23706804.340          44.550          39.450
 114399578.114 8  88977462.035 7                  21438437.040    21438442.340
  21438441.800          48.500          43.700
 113444403.621 7  88234565.519 7                  21237028.040    21237033.300
  21237033.160          44.100          42.600
 113015895.274 7  87901350.061 7                  21164218.920    21164225.020
  21164223.440          42.400          45.400
 118244538.542 7  91967979.639 6                  22104563.760    22104566.920
  22104565.120          47.050          41.650
 107006002.486 7  83226919.311 7                  19989613.220    19989614.640
  19989613.460          47.650          47.350
 113952465.815 8  88629704.216 7                  21347140.680    21347146.540
  21347145.820          48.250          45.250
 131410967.555 6 102208557.951 5                  24591762.880    24591771.780
  24591770.380          40.100          30.800
 120958051.788 7  94078517.779 7                  22588058.520    22588062.360
  22588062.600          46.800          42.850
 15  1 27 12  7 50.0000000  0 23G30G06G07G08G02G17G03G23G09G10G20G16
                                G05R14R17R02R12R13R19R03R18R11R04
 121951051.458 7  95026874.198 7  91067432.862 8  23206487.200    23206489.840
  23206489.080          47.100          44.650
 107789072.957 8  83991490.097 8  80491842.665 8  20511576.540    20511577.620
  20511576.840          50.200          50.250
 112855472.740 8  87939399.859 7                  21475658.100    21475655.780
  21475655.320          49.950          46.700
 134470260.927 6 104782035.91145                  25588835.720
  25588837.200          39.600          32.950
 117944468.633 8  91904782.07847                  22444080.720
  22444074.740          48.950          43.700
 131764640.717 7 102673665.126 6                  25074009.740    25074015.380
  25074014.800          42.750          37.350
 125601081.920 7  97870957.112 7  93793000.499 8  23901101.280    23901104.080
  23901103.180          45.550          42.250
 116260803.248 8  90592799.37347                  22123691.420
  22123686.320          49.800          43.250
 107661147.816 8  83891831.243 8  80396348.115 8  20487220.880    20487219.640
  20487219.260          50.300          49.900
 108598704.035 8  84622385.39447                  20665639.740
  20665636.600          49.600          45.650
 107830292.430 8  84023566.73347                  20519425.220
  20519421.060          49.300          46.900
 133347795.585 6 103907371.25944                  25375241.040
  25375241.840          39.750          27.000
 133026637.511 6 103657118.263 6                  25314126.780    25314129.000
  25314128.340          37.050          37.950
 128900920.764 6 100256321.986 5                  24181475.360    24181495.000
  24181494.100          38.550          31.750
 126881418.757 7  98685515.250 6                  23710855.700    23710864.960
  23710863.540          44.850          39.450
 114409679.015 8  88985318.296 7                  21440330.000    21440335.160
  21440334.660          48.500          44.150
 113448389.113 7  88237665.340 7                  21237774.120    21237779.420
  21237779.260          44.300          43.100
 113000536.970 7  87889404.728 7                  21161342.860    21161348.920
  21161347.320          42.200          45.150
 118237462.080 7  91962475.730 7                  22103240.860    22103243.980
  22103242.260          46.800          42.100
 107003450.893 7  83224934.733 7                  19989136.540    19989137.960
  19989136.800          47.150          46.800
 113965798.008 8  88640073.687 7                  21349638.240    21349644.120
  21349643.420          48.150          45.350
 131429763.410 6 102223176.933 5                  24595280.200    24595289.180
  24595287.840          40.300          31.700
 120945058.767 7  94068412.106 7                  22585632.160    22585636.020
  22585636.200          46.650          43.000
 15  1 27 12  7 55.0000000  0 23G30G06G07G08G02G17G03G23G09G10G20G16
                                G05R14R17R02R12R13R19R03R18R11R04
 121933480.950 7  95013182.893 7  91054312.037 8  23203143.620    23203146.280
  23203145.500          47.000          44.850
 107790920.625 8  83992929.832 8  80493222.411 8  20511928.160    20511929.200
  20511928.440          50.200          50.300
 112844490.916 8  87930842.606 7                  21473568.300    21473566.020
  21473565.560          49.900          46.900
 134484749.559 6 104793325.73845                  25591592.760
  25591594.380          38.300          33.050
 117931790.897 8  91894903.33147                  22441668.240
  22441662.240          48.950          43.000
 131779705.577 7 102685403.916 6                  25076876.520    25076882.140
  25076881.460          43.100          37.550
 125614796.067 7  97881643.447 7  93803241.550 8  23903711.020    23903713.840
  23903712.960          45.900          42.650
 116272531.249 8  90601938.06747                  22125923.180
  22125918.060          49.800          42.700
 107666477.543 8  83895984.266 8  80400328.099 8  20488235.100    20488233.840
  20488233.480          50.350          49.950
 108591473.684 8  84616751.36247                  20664263.820
  20664260.720          49.600          45.900
 107835829.885 8  84027881.63447                  20520479.000
  20520474.800          49.250          47.000
 133340880.794 6 103901983.15745                  25373925.180
  25373926.260          38.100          32.050
 133011441.664 6 103645277.358 6                  25311235.080    25311237.460
  25311236.760          37.750          36.850
 128878523.605 6 100238902.104 5                  24177273.560    24177293.160
  24177292.360          37.500          31.050
 126903138.833 7  98702408.578 6                  23714914.660    23714923.900
  23714922.500          45.350          38.650
 114419784.479 8  88993178.092 7                  21442223.780    21442228.900
  21442228.400          48.250          43.950
 113452397.049 7  88240782.613 7                  21238524.440    21238529.700
  21238529.560          44.200          42.950
 112985194.154 7  87877471.439 7                  21158469.600    21158475.680
  21158474.100          42.100          45.300
 118230406.811 7  91956988.320 6                  22101921.900    22101925.000
  22101923.340          47.000          41.600
 107000905.775 7  83222955.215 7                  19988661.080    19988662.520
  19988661.340          46.950          47.050
 113979146.130 7  88650455.551 7                  21352138.780    21352144.660
  21352143.980          47.900          45.300
 131448568.886 6 102237803.402 5                  24598799.340    24598808.560
  24598807.040          39.400          31.500
 120932067.567 7  94058307.863 7                  22583206.140    22583210.020
  22583210.140          46.650          42.850
 15  1 27 12  8  0.0000000  0 23G30G06G07G08G02G17G03G23G09G10G20G16
                                G05R14R17R02R12R13R19R03R18R11R04
 121915916.422 7  94999496.260 7  91041195.685 8  23199801.140    23199803.820
  23199803.060          47.000          44.850
 107792786.312 8  83994383.609 8  80494615.623 8  20512283.200    20512284.260
  20512283.460          50.200          50.250
 112833522.682 8  87922295.941 7                  21471481.100    21471478.820
  21471478.380          49.950          47.050
 134499246.912 6 104804622.33846                  25594351.540
  25594353.160          39.400          36.950
 117919124.893 8  91885033.71947                  22439257.980
  22439251.980          49.000          43.400
 131794769.259 7 102697141.816 6                  25079743.140    25079748.700
  25079747.920          43.400          36.750
 125628515.691 7  97892334.040 7  93813486.706 8  23906321.800    23906324.620
  23906323.780          45.550          42.900
 116284265.523 8  90611081.65147                  22128156.140
  22128151.060          49.750          43.300
 107671818.149 8  83900145.779 8  80404316.219 8  20489251.380    20489250.140
  20489249.780          50.250          50.000
 108584252.977 8  84611124.84147                  20662889.740
  20662886.680          49.600          45.950
 107841378.154 8  84032204.95147                  20521534.840
  20521530.600          49.350          46.850
 133333979.114 6 103896605.27245                  25372611.820
  25372612.820          38.600          32.150
 132996246.548 6 103633437.009 6                  25308343.560    25308346.020
  25308345.400          38.200          36.500
 128856125.476 6 100221481.440 5                  24173071.720    24173091.160
  24173090.360          37.950          30.950
 126924859.410 7  98719302.327 6                  23718973.720    23718982.980
  23718981.560          45.750          38.650
 114429895.868 8  89001042.500 7                  21444118.680    21444123.740
  21444123.240          48.900          43.950
 113456428.740 7  88243918.371 7                  21239279.180    21239284.480
  21239284.300          44.150          42.750
 112969868.383 6  87865551.404 7                  21155599.540    21155605.660
  21155604.060          41.850          45.300
 118223374.122 7  91951518.440 6                  22100607.180    22100610.220
  22100608.620          47.000          41.350
 106998368.426 7  83220981.709 7                  19988187.080    19988188.540
  19988187.340          47.350          47.000
 113992511.616 8  88660850.919 7                  21354642.620    21354648.460
  21354647.780          48.450          45.400
 131467385.250 6 102252438.376 5                  24602320.580    24602329.940
  24602328.300          38.500          30.550
 120919079.467 7  94048206.022 7                  22580780.660    22580784.560
  22580784.640          46.650          42.700
 15  1 27 12  8  5.0000000  0 23G30G06G07G08G02G17G03G23G09G10G20G16
                                G05R14R17R02R12R13R19R03R18R11R04
 121898354.585 7  94985811.720 7  91028081.342 8  23196459.220    23196461.900
  23196461.160          46.850          44.700
 107794666.714 8  83995848.852 8  80496019.813 8  20512641.060    20512642.100
  20512641.280          50.100          50.200
 112822564.762 8  87913757.314 7                  21469395.860    21469393.620
  21469393.160          49.900          46.950
 134513749.630 6 104815923.14545                  25597111.360
  25597112.920          40.150          31.950
 117906467.296 8  91875170.66347                  22436849.320
  22436843.320          48.950          43.100
 131809828.523 7 102708876.282 6                  25082608.880    25082614.400
  25082613.820          42.650          37.150
 125642237.484 7  97903026.318 7  93823733.472 8  23908932.960    23908935.860
  23908934.960          45.250          42.700
 116296002.708 8  90620227.50147                  22130389.640
  22130384.560          49.700          42.900
 107677166.338 8  83904313.197 8  80408309.997 8  20490269.100    20490267.860
  20490267.500          50.250          49.950
 108577038.599 8  84605503.25047                  20661516.840
  20661513.820          49.550          46.050
 107846933.935 8  84036534.12747                  20522592.100
  20522587.820          49.100          47.150
 133327087.033 6 103891234.84544                  25371300.300
  25371301.680          39.550          27.500
 132981048.794 6 103621594.624 6                  25305451.520    25305453.940
  25305453.300          38.550          36.050
 128833723.152 6 100204057.504 4                  24168869.100    24168888.360
  24168887.560          37.100          29.900
 126946577.076 7  98736193.793 6                  23723032.220    23723041.500
  23723040.120          45.750          38.950
 114440009.779 8  89008908.869 7                  21446014.080    21446019.060
  21446018.560          49.050          44.050
 113460480.786 7  88247069.956 7                  21240037.700    21240043.060
  21240042.840          44.350          42.700
 112954556.219 6  87853641.957 7                  21152732.100    21152738.160
  21152736.600          41.950          45.300
 118216360.659 7  91946063.533 6                  22099296.020    22099299.140
  22099297.480          46.650          41.250
 106995835.657 7  83219011.795 7                  19987713.920    19987715.380
  19987714.180          47.250          46.850
 114005891.118 8  88671257.183 7                  21357149.080    21357154.920
  21357154.220          48.450          45.300
 131486209.272 6 102267079.259 5                  24605843.280    24605852.460
  24605850.960          37.800          30.500
 120906091.164 7  94038104.029 7                  22578355.160    22578359.060
  22578359.120          46.450          42.650
 15  1 27 12  8 10.0000000  0 23G30G06G07G08G02G17G03G23G09G10G20G16
                                G05R14R17R02R12R13R19R03R18R11R04
 121880797.587 7  94972130.955 7  91014970.621 8  23193118.240    23193120.880
  23193120.120          46.550          44.500
 107796563.955 8  83997327.226 8  80497436.581 8  20513002.120    20513003.140
  20513002.320          50.050          50.100
 112811619.271 8  87905228.371 7                  21467313.000    21467310.760
  21467310.300          49.950          46.850
 134528259.866 6 104827229.85945                  25599872.560
  25599874.080          40.250          33.700
 117893820.265 8  91865315.83847                  22434442.680
  22434436.660          48.650          43.300
 131824885.434 7 102720608.906 6                  25085474.180    25085479.600
  25085479.140          42.900          36.300
 125655963.556 7  97913721.933 7  93833983.439 8  23911544.900    23911547.880
  23911546.980          45.050          42.350
 116307744.906 8  90629377.26147                  22132624.100
  22132619.040          49.600          42.700
 107682524.217 8  83908488.172 8  80412311.012 8  20491288.660    20491287.440
  20491287.080          50.250          49.900
 108569832.671 8  84599888.24947                  20660145.580
  20660142.580          49.650          45.700
 107852499.377 8  84040870.83147                  20523651.200
  20523646.900          49.250          47.000
 133320206.802 6 103885873.65745                  25369991.060
  25369992.040          38.300          33.100
 132965850.635 6 103609751.905 6                  25302559.440    25302561.880
  25302561.140          38.200          36.250
 128811318.650 6 100186631.874 5                  24164665.980    24164685.140
  24164684.400          36.750          30.750
 126968294.130 7  98753084.776 6                  23727090.640    23727100.000
  23727098.540          45.900          38.000
 114450128.340 8  89016778.853 7                  21447910.340    21447915.300
  21447914.740          48.700          43.700
 113464555.390 7  88250239.091 7                  21240800.420    21240805.820
  21240805.640          44.250          42.700
 112939259.641 6  87841744.640 7                  21149867.500    21149873.620
  21149872.040          41.850          45.300
 118209368.748 7  91940625.392 6                  22097988.880    22097992.040
  22097990.360          46.250          41.400
 106993309.481 7  83217046.995 7                  19987241.980    19987243.440
  19987242.260          47.400          46.950
 114019286.698 8  88681675.953 7                  21359658.540    21359664.400
  21359663.680          48.450          45.700
 131505042.984 6 102281727.671 5                  24609367.760    24609376.800
  24609375.400          38.250          30.350
 120893104.732 7  94028003.477 7                  22575930.040    22575933.900
  22575933.920          46.400          42.800
 15  1 27 12  8 15.0000000  0 23G30G06G07G08G02G17G03G23G09G10G20G16
                                G05R14R17R02R12R13R19R03R18R11R04
 121863244.991 7  94958453.634 7  91001863.176 8  23189778.100    23189780.720
  23189779.960          47.050          44.150
 107798477.560 8  83998818.345 8  80498865.576 8  20513366.280    20513367.280
  20513366.460          49.950          50.100
 112800685.802 8  87896708.790 7                  21465232.420    21465230.200
  21465229.720          49.850          47.050
 134542777.103 6 104838541.97645                  25602635.160
  25602636.640          40.600          34.400
 117881183.400 8  91855468.93647                  22432037.940
  22432031.960          48.700          43.300
 131839939.558 7 102732339.361 5                  25088338.920    25088344.360
  25088343.880          42.700          34.950
 125669693.439 7  97924420.511 7  93844236.247 8  23914157.580    23914160.600
  23914159.720          45.250          42.700
 116319491.702 8  90638530.60147                  22134859.420
  22134854.380          49.450          42.800
 107687891.332 8  83912670.339 8  80416318.919 8  20492310.000    20492308.740
  20492308.420          50.200          49.950
 108562634.728 8  84594279.46447                  20658775.840
  20658772.860          49.600          45.700
 107858074.056 8  84045214.73247                  20524712.060
  20524707.720          49.200          47.000
 133313337.913 6 103880521.30944                  25368683.960
  25368685.060          39.750          29.350
 132950651.522 6 103597908.440 5                  25299667.240    25299669.520
  25299668.740          38.500          35.950
 128788911.595 6 100169204.253 5                  24160462.380    24160481.380
  24160480.760          37.450          32.050
 126990009.944 7  98769974.833 6                  23731148.760    23731158.040
  23731156.660          45.300          37.700
 114460251.213 8  89024652.200 7                  21449807.460    21449812.260
  21449811.760          48.400          43.900
 113468652.182 7  88253425.461 7                  21241567.340    21241572.780
  21241572.600          44.600          42.350
 112923978.475 6  87829859.301 7                  21147005.740    21147011.940
  21147010.400          41.650          45.400
 118202397.646 7  91935203.422 6                  22096685.620    22096688.880
  22096687.140          46.400          41.800
 106990789.490 7  83215087.002 7                  19986771.220    19986772.700
  19986771.480          47.200          46.650
 114032697.969 8  88692106.927 7                  21362170.920    21362176.820
  21362176.080          48.400          45.600
 131523885.853 6 102296383.238 4                  24612893.940    24612902.920
  24612901.640          39.350          28.950
 120880119.854 7  94017904.148 7                  22573505.200    22573509.040
  22573509.040          46.300          42.350
 15  1 27 12  8 20.0000000  0 23G30G06G07G08G02G17G03G23G09G10G20G16
                                G05R14R17R02R12R13R19R03R18R11R04
 121845696.242 7  94944779.288 7  90988758.598 8  23186438.660    23186441.260
  23186440.500          47.200          44.200
 107800406.994 8  84000321.796 8  80500306.382 8  20513733.460    20513734.440
  20513733.620          50.000          50.200
 112789763.805 8  87888198.147 7                  21463154.020    21463151.840
  21463151.320          49.850          47.150
 134557300.868 6 104849859.17245                  25605398.980
  25605400.440          40.950          34.050
 117868556.081 8  91845629.47047                  22429635.020
  22429629.060          48.650          43.150
 131854990.313 7 102744067.206 6                  25091203.020    25091208.520
  25091207.880          42.750          36.000
 125683426.565 7  97935121.624 7  93854491.474 8  23916770.900    23916773.960
  23916773.080          44.800          42.400
 116331242.495 8  90647687.05447                  22137095.520
  22137090.500          49.450          42.900
 107693267.113 8  83916859.261 8  80420333.298 8  20493332.960    20493331.720
  20493331.400          50.200          50.000
 108555444.231 8  84588676.48447                  20657407.520
  20657404.540          49.650          45.950
 107863657.323 8  84049565.32447                  20525774.540
  20525770.200          49.150          46.900
 133306479.829 6 103875177.33145                  25367378.940
  25367380.260          38.750          31.800
 132935450.872 6 103586063.794 6                  25296774.740    25296776.880
  25296775.780          37.400          36.600
 128766501.414 6 100151774.234 5                  24156258.200    24156277.100
  24156276.640          38.050          31.850
 127011723.923 7  98786863.430 6                  23735206.480    23735215.860
  23735214.480          44.600          38.800
 114470377.773 8  89032528.393 7                  21451705.220    21451709.920
  21451709.440          48.700          43.950
 113472770.480 7  88256628.553 7                  21242338.280    21242343.700
  21242343.580          44.500          42.700
 112908712.296 6  87817985.624 7                  21144146.820    21144153.060
  21144151.540          41.350          45.500
 118195446.970 7  91929797.347 6                  22095386.200    22095389.480
  22095387.800          46.350          41.800
 106988275.050 7  83213131.341 7                  19986301.480    19986303.020
  19986301.740          47.350          46.800
 114046124.285 8  88702549.609 7                  21364686.140    21364692.020
  21364691.300          48.250          45.700
 131542737.470 6 102311045.613 4                  24616421.820    24616430.760
  24616429.500          38.850          29.550
 120867135.840 7  94007805.483 7                  22571080.500    22571084.300
  22571084.280          46.000          42.400
 15  1 27 12  8 25.0000000  0 23G30G06G07G08G02G17G03G23G09G10G20G16
                                G05R14R17R02R12R13R19R03R18R11R04
 121828152.655 7  94931108.963 7  90975657.874 8  23183100.220    23183102.760
  23183102.020          47.300          44.100
 107802353.546 8  84001838.587 8  80501759.978 8  20514103.900    20514104.840
  20514104.040          50.050          50.200
 112778854.538 8  87879697.422 7                  21461078.040    21461075.860
  21461075.360          49.650          47.250
 134571832.389 6 104861182.45445                  25608164.260
  25608165.640          41.450          34.650
 117855939.678 8  91835798.50947                  22427234.160
  22427228.240          48.400          43.500
 131870038.967 7 102755793.366 6                  25094066.680    25094072.200
  25094071.500          42.650          36.200
 125697164.276 7  97945826.301 7  93864750.123 8  23919385.080    23919388.160
  23919387.320          44.850          42.300
 116342998.605 8  90656847.64447                  22139332.600
  22139327.620          49.400          43.150
 107698652.849 8  83921055.932 8  80424355.112 8  20494357.840    20494356.600
  20494356.280          50.100          50.000
 108548262.495 8  84583080.32647                  20656040.880
  20656037.900          49.700          45.650
 107869250.541 8  84053923.67247                  20526838.880
  20526834.560          49.000          47.250
 133299633.900 6 103869842.93545                  25366076.180
  25366077.560          39.850          33.850
 132920250.041 6 103574219.021 6                  25293882.120    25293884.320
  25293882.920          36.950          36.600
 128744089.604 6 100134342.914 5                  24152053.760    24152072.640
  24152072.180          37.600          31.650
 127033437.394 7  98803751.635 6                  23739264.240    23739273.600
  23739272.240          45.300          39.350
 114480509.371 8  89040408.514 7                  21453603.920    21453608.540
  21453608.060          48.700          43.850
 113476911.627 7  88259849.437 7                  21243113.540    21243118.940
  21243118.820          44.200          43.000
 112893462.184 6  87806124.443 7                  21141290.880    21141297.220
  21141295.720          41.550          45.900
 118188518.061 7  91924408.195 6                  22094090.860    22094094.160
  22094092.480          46.550          41.350
 106985767.540 7  83211181.045 7                  19985833.020    19985834.620
  19985833.280          47.550          47.100
 114059566.917 8  88713004.984 7                  21367204.420    21367210.280
  21367209.600          48.100          45.950
 131561599.122 6 102325715.774 5                  24619951.500    24619960.480
  24619959.220          38.950          30.600
 120854154.021 7  93997708.532 7                  22568656.200    22568660.040
  22568659.900          46.050          42.100
