     2.11           OBSERVATION DATA    M (MIXED)           RINEX VERSION / TYPE
teqc  2011Oct11     IGN-E (SPG)         20150127 11:09:50UTCPGM / RUN BY / DATE
Linux 2.4.21-27.ELsmp|Opteron|gcc -static|Linux x86_64|=+   COMMENT
BIT 2 OF LLI FLAGS DATA COLLECTED UNDER A/S CONDITION       COMMENT
VALE                                                        MARKER NAME
13439M001                                                   MARKER NUMBER
Programas GeodesicosInstituto Geografico Nacional           OBSERVER / AGENCY
1700071             LEICA GR10          3.03/6.214          REC # / TYPE / VERS
10190012            LEIAR25.R3      LEIT                    ANT # / TYPE
  4929534.0457   -29050.6755  4033709.9250                  APPROX POSITION XYZ
        3.0390        0.0000        0.0000                  ANTENNA: DELTA H/E/N
     1     1                                                WAVELENGTH FACT L1/2
     8    L1    L2    L5    C1    C2    P2    S1    S2      # / TYPES OF OBSERV
     5.0000                                                 INTERVAL
Forced Modulo Decimation to 5 seconds                       COMMENT
DefaultJobName                                              COMMENT
DefaultUserDiscription                                      COMMENT
Project creator:                                            COMMENT
 SNR is mapped to RINEX snr flag value [0-9]                COMMENT
  L1 & L2: min(max(int(snr_dBHz/6), 0), 9)                  COMMENT
  2015     1    27    10     0    0.0000000     GPS         TIME OF FIRST OBS
    15                                                      LEAP SECONDS
                                                            END OF HEADER
 15  1 27 10  0  0.0000000  0 22G11G06G08G04G17G03G23G31G09G10G20G32
                                G01R24R17R02R12R10R03R18R11R01
 124923221.421 7  97342741.39746                  23772107.480
  23772106.680          46.600          38.900
 120965988.514 7  94259212.251 7  90331742.368 8  23019063.380    23019065.380
  23019064.500          47.650          45.350
 125917480.559 7  98117538.13246                  23961290.720
  23961290.720          46.900          37.750
 128632518.933 7 100233118.76645                  24477963.060
  24477964.460          45.600          35.300
 113812423.556 8  88684957.643 7                  21657791.800    21657789.220
  21657788.660          49.700          47.100
 109817859.817 8  85572355.607 8  82006843.564 8  20897643.820    20897643.840
  20897643.120          49.550          49.100
 108240886.305 8  84343516.03148                  20597550.280
  20597544.660          50.600          48.150
 128674358.193 7 100265728.833 6                  24485912.860    24485913.180
  24485912.500          45.300          40.650
 113343082.368 8  88319308.611 8  84639346.394 8  21568460.180    21568459.960
  21568459.480          49.900          49.000
 126672704.972 7  98706010.69246                  24105016.300
  24105016.360          44.200          36.600
 109454551.330 8  85289222.65347                  20828511.200
  20828507.760          49.250          46.850
 126424597.672 7  98512679.77146                  24057798.320
  24057797.740          46.950          37.400
 114755477.278 8  89419862.150 8  85694022.213 8  21837243.260    21837244.120
  21837243.900          49.450          48.100
 115204949.425 7  89603855.313 6                  21543913.020    21543917.920
  21543915.840          47.100          40.200
 104194238.206 8  81039961.440 7                  19471190.820    19471193.120
  19471191.900          49.100          47.450
 104971533.166 8  81644542.493 7                  19671622.600    19671626.460
  19671625.740          49.300          46.850
 129122768.071 6 100428871.653 5                  24172052.420    24172064.800
  24172064.020          37.100          35.100
 127096154.868 7  98852621.753 5                  23842912.140    23842923.800
  23842922.800          43.250          34.000
 118392539.661 7  92083107.279 7                  22116719.540    22116722.980
  22116721.720          46.200          43.650
 117455155.738 7  91354019.877 7                  22003311.560    22003317.760
  22003316.760          47.600          43.750
 122213021.051 7  95054604.064 5                  22870490.140    22870498.080
  22870495.860          44.150          34.800
 115430330.076 7  89779148.142 6                  21593631.440    21593636.780
  21593636.260          47.300          38.800
 15  1 27 10  0  5.0000000  0 22G11G06G08G04G17G03G23G31G09G10G20G32
                                G01R24R17R02R12R10R03R18R11R01
 124941439.029 7  97356936.90946                  23775574.180
  23775573.420          46.600          39.250
 120950556.269 7  94247187.131 7  90320218.295 8  23016126.740    23016128.740
  23016127.840          47.750          45.350
 125912572.016 7  98113713.29246                  23960356.680
  23960356.600          47.150          37.700
 128649563.314 7 100246400.05746                  24481206.520
  24481207.940          45.450          36.650
 113815705.641 8  88687515.110 7                  21658416.360    21658413.800
  21658413.220          49.850          47.050
 109824296.127 8  85577370.903 8  82011649.888 8  20898868.580    20898868.620
  20898867.920          49.700          49.000
 108237109.430 8  84340573.00748                  20596831.580
  20596825.960          50.700          48.050
 128681088.719 7 100270973.384 6                  24487193.680    24487193.940
  24487193.320          45.650          40.600
 113329910.553 8  88309044.862 8  84629510.299 8  21565953.660    21565953.420
  21565952.940          50.000          48.850
 126657673.317 7  98694297.70445                  24102155.840
  24102155.960          44.150          35.600
 109447543.656 8  85283762.12247                  20827177.720
  20827174.260          49.450          46.850
 126438805.546 7  98523750.83246                  24060502.020
  24060501.400          46.650          37.800
 114767704.968 8  89429390.212 8  85703153.260 8  21839570.120    21839570.980
  21839570.780          49.450          48.050
 115225120.507 7  89619543.912 6                  21547685.160    21547690.020
  21547688.000          46.800          40.200
 104195376.276 8  81040846.597 7                  19471403.440    19471405.820
  19471404.580          49.100          47.350
 104972259.448 8  81645107.379 7                  19671758.700    19671762.580
  19671761.860          49.100          46.950
 129104427.016 6 100414606.427 6                  24168618.860    24168631.260
  24168630.500          36.900          36.600
 127101996.261 7  98857165.061 5                  23844007.980    23844019.520
  23844018.580          42.750          33.650
 118379830.712 7  92073222.557 7                  22114345.420    22114348.860
  22114347.620          45.950          43.550
 117438249.949 7  91340870.938 7                  22000144.560    22000150.700
  22000149.700          47.650          43.600
 122203970.560 7  95047564.835 5                  22868796.420    22868804.380
  22868802.180          44.800          34.400
 115444470.360 7  89790146.151 6                  21596276.660    21596281.960
  21596281.480          47.250          39.350
 15  1 27 10  0 10.0000000  0 22G11G06G08G04G17G03G23G31G09G10G20G32
                                G01R24R17R02R12R10R03R18R11R01
 124959658.447 7  97371133.83046                  23779041.220
  23779040.480          46.800          39.100
 120935125.733 7  94235163.332 7  90308695.496 8  23013190.440    23013192.360
  23013191.520          47.850          45.450
 125907674.268 7  98109896.85346                  23959424.660
  23959424.540          47.400          37.700
 128666608.991 7 100259682.37445                  24484450.220
  24484451.700          45.650          35.300
 113819001.741 8  88690083.493 7                  21659043.560    21659041.020
  21659040.440          49.950          46.950
 109830736.373 8  85582389.272 8  82016459.152 8  20900094.100    20900094.160
  20900093.440          49.400          49.050
 108233344.276 8  84337639.12347                  20596115.100
  20596109.460          50.750          47.850
 128687831.539 7 100276227.516 6                  24488476.820    24488477.100
  24488476.500          45.400          40.600
 113316747.490 8  88298787.930 8  84619680.747 8  21563448.800    21563448.560
  21563448.060          50.000          48.750
 126642642.599 7  98682585.46445                  24099295.560
  24099295.580          43.850          35.800
 109440541.011 8  85278305.51847                  20825845.200
  20825841.720          49.550          47.000
 126453011.562 7  98534820.41846                  24063205.320
  24063204.680          46.600          37.150
 114779939.815 8  89438923.853 8  85712289.666 8  21841898.320    21841899.200
  21841899.000          49.550          48.150
 115245299.650 7  89635238.774 6                  21551458.800    21551463.580
  21551461.620          46.350          40.600
 104196535.354 8  81041748.096 7                  19471620.020    19471622.480
  19471621.200          49.450          47.250
 104972993.756 8  81645678.503 7                  19671896.340    19671900.180
  19671899.480          48.950          46.800
 129086084.537 6 100400340.119 6                  24165185.060    24165197.500
  24165196.760          37.350          36.350
 127107855.325 7  98861722.130 5                  23845107.120    23845118.700
  23845117.740          42.800          33.750
 118367127.134 7  92063342.018 7                  22111972.260    22111975.820
  22111974.540          46.700          43.450
 117421354.841 7  91327730.311 7                  21996979.520    21996985.620
  21996984.660          47.850          43.650
 122194935.213 7  95040537.366 5                  22867105.540    22867113.380
  22867111.260          44.950          33.850
 115458611.124 7  89801144.509 6                  21598921.980    21598927.300
  21598926.800          47.900          39.250
 15  1 27 10  0 15.0000000  0 22G11G06G08G04G17G03G23G31G09G10G20G32
                                G01R24R17R02R12R10R03R18R11R01
 124977883.244 7  97385334.94846                  23782509.300
  23782508.540          47.000          38.600
 120919700.464 8  94223143.651 7  90297176.622 8  23010255.120    23010257.020
  23010256.180          48.000          45.650
 125902790.885 7  98106091.61546                  23958495.360
  23958495.220          47.150          38.350
 128683659.624 7 100272968.53845                  24487694.880
  24487696.380          45.850          34.150
 113822315.422 8  88692665.572 7                  21659674.140    21659671.620
  21659671.000          49.950          46.950
 109837184.080 8  85587413.444 8  82021273.991 8  20901321.040    20901321.120
  20901320.400          49.900          49.050
 108229594.419 8  84334717.15348                  20595401.520
  20595395.880          50.750          48.100
 128694590.219 7 100281494.007 6                  24489762.980    24489763.240
  24489762.660          44.800          40.700
 113303596.738 8  88288540.596 8  84609860.376 8  21560946.280    21560946.040
  21560945.560          50.150          48.750
 126627616.392 7  98670876.75445                  24096436.160
  24096436.180          44.200          35.950
 109433546.958 8  85272855.60547                  20824514.300
  20824510.800          49.550          46.650
 126467219.236 7  98545891.31646                  24065908.960
  24065908.280          46.650          37.650
 114792185.369 8  89448465.831 8  85721434.060 8  21844228.580    21844229.460
  21844229.280          49.650          48.250
 115265490.600 7  89650942.813 6                  21555234.620    21555239.360
  21555237.440          46.600          40.550
 104197719.171 8  81042668.833 7                  19471841.220    19471843.700
  19471842.440          49.200          47.650
 104973739.686 8  81646258.669 7                  19672036.140    19672039.960
  19672039.260          49.100          46.950
 129067744.341 6 100386075.585 6                  24161751.820    24161764.260
  24161763.480          36.900          36.100
 127113735.586 7  98866295.656 5                  23846210.160    23846221.800
  23846220.900          42.400          34.050
 118354432.502 7  92053468.423 7                  22109600.760    22109604.380
  22109603.120          46.350          43.750
 117404474.133 8  91314600.872 7                  21993817.200    21993823.300
  21993822.320          48.050          43.400
 122185918.518 7  95033524.387 5                  22865418.180    22865425.920
  22865423.780          45.100          33.550
 115472755.936 7  89812146.040 6                  21601568.040    21601573.440
  21601572.900          47.250          39.750
 15  1 27 10  0 20.0000000  0 22G11G06G08G04G17G03G23G31G09G10G20G32
                                G01R24R17R02R12R10R03R18R11R01
 124996111.288 7  97399538.59446                  23785978.000
  23785977.220          47.200          37.750
 120904278.409 7  94211126.465 7  90285660.159 8  23007320.400    23007322.280
  23007321.480          47.800          45.450
 125897919.790 7  98102295.94846                  23957568.360
  23957568.220          47.100          38.150
 128700713.092 7 100286256.92645                  24490940.100
  24490941.500          45.900          34.550
 113825644.607 8  88695259.734 7                  21660307.660    21660305.120
  21660304.520          50.000          46.950
 109843637.196 8  85592441.841 8  82026092.862 8  20902549.020    20902549.120
  20902548.400          49.750          49.050
 108225857.758 8  84331805.47148                  20594690.480
  20594684.820          50.700          48.000
 128701362.664 7 100286771.215 6                  24491051.760    24491051.980
  24491051.480          44.850          40.550
 113290456.230 8  88278301.240 8  84600047.667 8  21558445.720    21558445.480
  21558445.000          50.000          48.650
 126612592.588 7  98659169.88746                  24093577.280
  24093577.240          44.700          36.250
 109426559.398 8  85267410.75247                  20823184.620
  20823181.120          49.400          46.800
 126481426.503 7  98556961.89646                  24068612.500
  24068611.860          46.700          37.600
 114804439.550 8  89458014.534 8  85730584.899 8  21846560.460    21846561.400
  21846561.180          49.700          48.100
 115285691.299 7  89666654.444 6                  21559012.240    21559017.000
  21559015.080          46.750          40.100
 104198925.450 8  81043607.041 7                  19472066.620    19472069.120
  19472067.880          49.100          47.650
 104974495.027 8  81646846.148 7                  19672177.720    19672181.520
  19672180.820          49.250          47.050
 129049404.154 6 100371811.076 5                  24158318.400    24158330.880
  24158330.160          37.250          35.950
 127119635.165 7  98870884.219 5                  23847316.800    23847328.400
  23847327.700          42.250          33.850
 118341744.572 7  92043600.043 7                  22107230.520    22107234.180
  22107232.940          45.800          43.850
 117387605.620 8  91301480.915 7                  21990657.200    21990663.220
  21990662.240          48.250          43.400
 122176918.514 7  95026524.380 5                  22863733.980    22863741.580
  22863739.480          45.250          33.500
 115486902.712 7  89823149.059 6                  21604214.500    21604219.860
  21604219.380          47.300          39.350
 15  1 27 10  0 25.0000000  0 22G11G06G08G04G17G03G23G31G09G10G20G32
                                G01R24R17R02R12R10R03R18R11R01
 125014343.865 7  97413745.77446                  23789447.620
  23789446.760          47.650          37.350
 120888860.831 7  94199112.776 7  90274147.034 8  23004386.560    23004388.380
  23004387.620          47.850          45.400
 125893062.264 7  98098510.86146                  23956643.960
  23956643.780          46.750          38.100
 128717770.693 7 100299548.52645                  24494186.040
  24494187.440          45.700          35.550
 113828990.541 8  88697866.955 7                  21660944.360    21660941.840
  21660941.220          50.000          47.050
 109850096.987 8  85597475.429 8  82030916.719 8  20903778.260    20903778.420
  20903777.660          50.000          49.050
 108222135.619 8  84328905.10548                  20593982.180
  20593976.520          50.800          48.300
 128708150.197 7 100292060.172 6                  24492343.400    24492343.660
  24492343.100          44.750          40.400
 113277327.246 8  88268070.873 8  84590243.556 8  21555947.340    21555947.120
  21555946.640          50.100          48.650
 126597572.498 7  98647465.91345                  24090719.040
  24090719.080          44.000          35.650
 109419579.631 8  85261971.97347                  20821856.440
  20821852.940          49.550          46.600
 126495634.647 7  98568033.15746                  24071316.260
  24071315.640          46.800          37.750
 114816703.633 8  89467570.947 8  85739743.124 8  21848894.220    21848895.200
  21848894.980          49.700          48.150
 115305902.832 7  89682374.515 6                  21562791.920    21562796.680
  21562794.740          46.800          40.250
 104200155.664 8  81044563.868 7                  19472296.520    19472299.020
  19472297.800          49.200          47.650
 104975261.181 8  81647442.033 7                  19672321.280    19672325.080
  19672324.400          49.150          47.150
 129031065.433 6 100357547.677 5                  24154885.360    24154897.720
  24154897.080          37.350          35.750
 127125555.328 7  98875488.821 5                  23848427.360    23848439.020
  23848438.320          42.350          33.700
 118329064.847 7  92033738.063 7                  22104861.800    22104865.500
  22104864.260          45.950          44.050
 117370750.692 8  91288371.526 7                  21987499.740    21987505.740
  21987504.740          48.000          43.750
 122167936.519 7  95019538.410 5                  22862053.140    22862060.660
  22862058.640          45.450          34.600
 115501052.759 7  89834154.638 6                  21606861.560    21606867.000
  21606866.460          47.050          39.800
 15  1 27 10  0 30.0000000  0 22G11G06G08G04G17G03G23G31G09G10G20G32
                                G01R24R17R02R12R10R03R18R11R01
 125032580.120 7  97427955.81346                  23792917.900
  23792917.000          47.550          37.450
 120873446.903 7  94187101.927 7  90262636.651 8  23001453.400    23001455.200
  23001454.440          47.850          45.350
 125888217.481 7  98094735.69346                  23955721.980
  23955721.820          46.850          37.900
 128734831.570 7 100312842.65345                  24497432.660
  24497434.120          46.100          33.650
 113832352.392 8  88700486.578 7                  21661584.080    21661581.600
  21661580.960          49.900          47.000
 109856562.589 8  85602513.553 8  82035744.920 8  20905008.620    20905008.780
  20905008.020          49.950          49.000
 108218427.130 8  84326015.37747                  20593276.480
  20593270.820          50.950          47.850
 128714951.899 7 100297360.184 6                  24493637.740    24493637.980
  24493637.400          44.050          40.400
 113264208.957 8  88257848.831 8  84580447.440 8  21553450.960    21553450.800
  21553450.300          49.900          48.650
 126582555.280 7  98635764.18546                  24087861.360
  24087861.320          44.000          36.250
 109412606.798 8  85256538.59447                  20820529.580
  20820526.080          49.600          46.350
 126509842.810 7  98579104.42646                  24074019.960
  24074019.380          46.650          36.300
 114828976.771 8  89477134.417 8  85748908.119 8  21851229.700    21851230.720
  21851230.500          49.700          48.050
 115326124.364 7  89698102.361 6                  21566573.480    21566578.160
  21566576.300          46.550          39.800
 104201408.795 8  81045538.518 7                  19472530.680    19472533.180
  19472531.980          49.250          47.300
 104976037.200 8  81648045.605 7                  19672466.720    19672470.500
  19672469.820          49.050          46.950
 129012727.359 6 100343284.757 5                  24151452.440    24151464.700
  24151464.120          37.150          35.300
 127131495.115 7  98880108.658 5                  23849541.580    23849553.340
  23849552.620          42.000          33.300
 118316392.457 7  92023881.763 7                  22102494.480    22102498.120
  22102496.960          46.050          43.650
 117353908.545 8  91275272.085 7                  21984344.620    21984350.640
  21984349.600          48.250          43.800
 122158971.500 7  95012565.651 5                  22860375.440    22860382.980
  22860380.980          45.450          34.850
 115515205.290 7  89845162.135 6                  21609509.120    21609514.480
  21609514.020          46.950          38.850
 15  1 27 10  0 35.0000000  0 22G11G06G08G04G17G03G23G31G09G10G20G32
                                G01R24R17R02R12R10R03R18R11R01
 125050818.456 7  97442167.48946                  23796388.580
  23796387.640          47.200          38.500
 120858035.085 7  94175092.731 7  90251127.837 8  22998520.640    22998522.400
  22998521.660          47.650          45.400
 125883383.878 7  98090969.25446                  23954802.140
  23954801.980          46.850          38.000
 128751894.158 7 100326138.16646                  24500679.640
  24500681.060          45.850          36.700
 113835728.574 8  88703117.364 7                  21662226.520    21662224.060
  21662223.420          49.750          47.050
 109863032.441 8  85607554.999 8  82040576.307 8  20906239.800    20906239.960
  20906239.200          50.000          49.100
 108214730.683 8  84323135.03347                  20592573.100
  20592567.400          50.900          47.750
 128721766.222 7 100302670.044 6                  24494934.480    24494934.720
  24494934.120          44.050          40.750
 113251099.793 8  88247633.915 8  84570658.141 8  21550956.340    21550956.200
  21550955.700          49.850          48.850
 126567539.371 7  98624063.48745                  24085003.940
  24085003.900          43.800          35.250
 109405639.362 8  85251109.42847                  20819203.740
  20819200.240          49.600          46.400
 126524049.441 7  98590174.52446                  24076723.400
  24076722.760          46.000          38.050
 114841257.395 8  89486703.722 8  85758078.703 8  21853566.600    21853567.680
  21853567.460          49.700          48.100
 115346354.334 7  89713836.766 6                  21570356.620    21570361.440
  21570359.460          46.200          39.750
 104202683.433 8  81046529.907 7                  19472768.860    19472771.380
  19472770.160          49.050          46.850
 104976821.529 8  81648655.650 7                  19672613.720    19672617.480
  19672616.800          48.900          46.650
 128994388.352 6 100329021.141 5                  24148019.300    24148031.560
  24148031.020          37.050          34.800
 127137452.891 7  98884742.479 5                  23850659.220    23850670.840
  23850670.280          42.800          33.600
 118303725.703 7  92014029.846 7                  22100128.200    22100131.800
  22100130.720          46.200          43.400
 117337077.588 8  91262181.364 7                  21981191.640    21981197.700
  21981196.620          48.050          43.400
 122150022.090 7  95005605.020 5                  22858700.660    22858708.180
  22858706.240          44.800          33.650
 115529358.552 7  89856170.226 6                  21612156.820    21612162.140
  21612161.700          46.550          38.400
 15  1 27 10  0 40.0000000  0 22G11G06G08G04G17G03G23G31G09G10G20G32
                                G01R24R17R02R12R10R03R18R11R01
 125069062.363 7  97456383.47746                  23799860.260
  23799859.380          47.050          37.300
 120842628.829 7  94163087.860 7  90239623.166 8  22995588.940    22995590.700
  22995589.980          47.650          45.050
 125878564.950 7  98087214.23946                  23953885.100
  23953884.960          47.100          37.750
 128768961.859 7 100339437.62045                  24503927.580
  24503929.000          45.900          34.200
 113839122.565 8  88705762.025 7                  21662872.360    21662869.940
  21662869.280          49.800          46.800
 109869510.013 8  85612602.443 8  82045413.443 8  20907472.460    20907472.600
  20907471.860          50.100          48.950
 108211049.759 8  84320266.77947                  20591872.660
  20591866.940          50.800          47.850
 128728596.623 7 100307992.416 6                  24496234.280    24496234.520
  24496233.940          44.150          40.550
 113238003.230 8  88237428.799 8  84560878.250 8  21548464.100    21548463.980
  21548463.500          49.650          48.650
 126552528.228 7  98612366.46445                  24082147.400
  24082147.340          43.800          35.000
 109398680.767 8  85245687.13847                  20817879.580
  20817876.080          49.550          46.350
 126538258.022 7  98601246.10246                  24079427.220
  24079426.520          46.650          37.800
 114853548.970 8  89496281.558 7  85767257.457 8  21855905.600    21855906.680
  21855906.480          49.700          47.950
 115366596.238 7  89729580.442 6                  21574142.020    21574146.800
  21574144.840          46.400          39.850
 104203982.945 8  81047540.630 7                  19473011.700    19473014.240
  19473012.980          49.050          46.700
 104977617.681 8  81649274.868 7                  19672762.940    19672766.700
  19672766.040          49.100          46.650
 128976051.867 6 100314759.513 5                  24144586.600    24144598.820
  24144598.340          36.650          34.500
 127143432.143 7  98889392.996 5                  23851780.860    23851792.660
  23851791.980          42.900          33.600
 118291068.178 7  92004185.123 7                  22097763.660    22097767.240
  22097766.180          45.900          43.300
 117320261.259 8  91249102.003 7                  21978041.380    21978047.420
  21978046.360          48.400          43.000
 122141091.768 7  94998659.221 5                  22857029.460    22857037.000
  22857035.060          45.450          33.750
 115543516.091 7  89867181.625 6                  21614805.240    21614810.640
  21614810.180          46.650          38.200
 15  1 27 10  0 45.0000000  0 22G11G06G08G04G17G03G23G31G09G10G20G32
                                G01R24R17R02R12R10R03R18R11R01
 125087309.735 7  97470602.18246                  23803332.620
  23803331.820          47.100          37.750
 120827226.097 7  94151085.735 7  90228121.124 8  22992657.920    22992659.660
  22992658.860          47.300          45.050
 125873758.608 7  98083469.02746                  23952970.500
  23952970.320          47.250          37.400
 128786032.652 7 100352739.50245                  24507176.080
  24507177.540          45.800          34.200
 113842532.310 8  88708418.969 7                  21663521.180    21663518.780
  21663518.140          49.800          46.900
 109875993.227 8  85617654.298 8  82050254.794 8  20908706.180    20908706.340
  20908705.600          50.100          48.900
 108207382.322 8  84317409.04247                  20591174.780
  20591169.060          50.750          47.750
 128735441.015 7 100313325.692 6                  24497536.720    24497536.980
  24497536.400          44.000          40.100
 113224917.220 8  88227231.914 8  84551106.227 8  21545973.880    21545973.760
  21545973.300          49.550          48.750
 126537519.789 7  98600671.57946                  24079291.360
  24079291.300          43.600          37.000
 109391728.957 8  85240270.14947                  20816556.680
  20816553.220          49.450          46.350
 126552466.416 7  98612317.58446                  24082131.020
  24082130.300          46.150          37.200
 114865849.400 8  89505866.305 7  85776442.834 8  21858246.300    21858247.400
  21858247.180          49.550          47.850
 115386847.943 7  89745331.751 6                  21577929.260    21577933.980
  21577932.040          47.200          40.150
 104205305.262 8  81048569.097 7                  19473258.800    19473261.340
  19473260.060          49.700          47.000
 104978423.587 8  81649901.680 7                  19672913.960    19672917.760
  19672917.120          49.600          46.850
 128957710.92416 100300492.29315                  24141154.040    24141166.200
  24141165.760          37.200          34.100
 127149430.905 7  98894058.694 5                  23852906.220    23852917.880
  23852917.360          42.850          33.100
 118278417.637 7  91994345.835 7                  22095400.360    22095404.020
  22095402.980          46.700          43.300
 117303457.665 8  91236032.545 7                  21974893.540    21974899.480
  21974898.460          48.850          43.100
 122132178.431 7  94991726.640 5                  22855361.480    22855369.000
  22855367.000          46.250          34.700
 115557675.892 7  89878194.786 6                  21617454.140    21617459.480
  21617459.080          47.750          38.500
 15  1 27 10  0 50.0000000  0 22G11G06G08G04G17G03G23G31G09G10G20G32
                                G01R24R17R02R12R10R03R18R11R01
 125105560.408 7  97484823.44446                  23806805.640
  23806804.840          47.300          38.000
 120811826.728 7  94139086.235 7  90216621.612 8  22989727.520    22989729.240
  22989728.440          47.300          44.900
 125868964.705 7  98079733.52446                  23952058.280
  23952058.040          47.550          37.350
 128803106.367 7 100366043.65345                  24510425.140
  24510426.580          45.300          35.100
 113845957.637 8  88711088.043 7                  21664172.980    21664170.620
  21664169.960          49.700          46.750
 109882481.924 8  85622710.415 8  82055100.238 8  20909940.940    20909941.120
  20909940.360          50.050          48.850
 108203728.152 8  84314561.63647                  20590479.420
  20590473.700          50.750          47.850
 128742299.275 7 100318669.762 6                  24498841.900    24498842.100
  24498841.440          44.550          39.650
 113211841.611 8  88217043.126 8  84541341.982 8  21543485.620    21543485.560
  21543485.100          49.400          48.750
 126522513.896 7  98588978.66145                  24076435.840
  24076435.660          44.250          35.250
 109384783.776 8  85234858.31447                  20815235.040
  20815231.600          49.450          46.200
 126566674.576 7  98623388.83946                  24084834.760
  24084833.960          46.250          37.250
 114878158.548 8  89515457.828 7  85785634.712 8  21860588.660    21860589.760
  21860589.540          49.700          47.700
 115407109.260 7  89761090.533 6                  21581718.260    21581722.960
  21581721.060          46.800          39.800
 104206650.324 8  81049615.244 7                  19473510.140    19473512.680
  19473511.400          49.550          47.000
 104979238.989 8  81650535.874 7                  19673066.780    19673070.580
  19673069.960          49.550          46.700
 128939375.360 6 100286231.334 5                  24137721.440    24137733.760
  24137733.200          38.150          34.600
 127155448.919 7  98898739.369 5                  23854035.120    23854046.900
  23854046.280          43.250          33.450
 118265774.091 7  91984511.990 7                  22093038.360    22093042.080
  22093041.040          46.600          43.300
 117286666.444 8  91222972.696 7                  21971747.960    21971753.860
  21971752.880          49.000          43.100
 122123281.964 7  94984807.188 5                  22853696.640    22853704.220
  22853702.160          46.050          34.550
 115571837.796 7  89889209.594 6                  21620103.400    21620108.780
  21620108.340          47.650          38.300
 15  1 27 10  0 55.0000000  0 22G11G06G08G04G17G03G23G31G09G10G20G32
                                G01R24R17R02R12R10R03R18R11R01
 125123813.484 7  97499046.60746                  23810279.160
  23810278.320          47.650          37.000
 120796429.805 7  94127088.639 7  90205123.910 8  22986797.620    22986799.300
  22986798.440          47.150          45.200
 125864182.323 7  98076006.99146                  23951148.240
  23951148.020          47.200          37.750
 128820182.048 7 100379349.32945                  24513674.580
  24513676.000          45.350          34.550
 113849397.515 8  88713768.461 7                  21664827.540    21664825.220
  21664824.560          49.400          46.900
 109888975.174 8  85627770.085 8  82059949.090 8  20911176.580    20911176.760
  20911176.020          50.050          48.950
 108200086.357 8  84311723.87447                  20589786.400
  20589780.680          50.750          47.950
 128749170.486 7 100324023.932 6                  24500149.480    24500149.680
  24500148.960          44.600          39.700
 113198775.457 8  88206861.711 8  84531584.787 8  21540999.180    21540999.140
  21540998.680          49.600          48.900
 126507509.638 7  98577287.01445                  24073580.700
  24073580.480          44.500          34.800
 109377844.281 8  85229450.91747                  20813914.500
  20813911.060          49.200          46.400
 126580881.462 7  98634459.12946                  24087538.260
  24087537.440          46.250          38.200
 114890475.482 8  89525055.428 7  85794832.397 8  21862932.520    21862933.620
  21862933.380          49.550          47.800
 115427379.332 7  89776856.125 6                  21585508.880    21585513.520
  21585511.680          46.150          39.250
 104208017.083 8  81050678.278 7                  19473765.540    19473768.120
  19473766.800          49.550          47.150
 104980063.017 8  81651176.780 7                  19673221.200    19673225.000
  19673224.420          49.300          46.900
 128921039.147 6 100271969.877 5                  24134288.780    24134301.120
  24134300.580          39.950          35.250
 127161485.274 7  98903434.317 5                  23855167.460    23855179.420
  23855178.740          42.150          33.650
 118253136.592 7  91974682.826 7                  22090677.540    22090681.220
  22090680.240          46.300          43.600
 117269886.785 8  91209921.861 7                  21968604.560    21968610.480
  21968609.500          48.300          43.400
 122114401.483 7  94977900.166 5                  22852034.780    22852042.360
  22852040.280          45.900          34.200
 115586000.630 7  89900225.126 6                  21622752.840    21622758.300
  21622757.800          47.500          38.500
 15  1 27 10  1  0.0000000  0 22G11G06G08G04G17G03G23G31G09G10G20G32
                                G01R24R17R02R12R10R03R18R11R01
 125142072.331 7  97513274.27146                  23813753.720
  23813752.820          46.850          37.550
 120781038.734 7  94115095.606 7  90193630.593 8  22983868.840    22983870.480
  22983869.580          47.750          45.200
 125859414.871 7  98072292.08946                  23950241.060
  23950240.820          46.950          38.550
 128837263.031 7 100392659.15345                  24516925.060
  24516926.360          45.750          35.750
 113852855.423 8  88716462.928 7                  21665485.520    21665483.220
  21665482.580          49.300          46.950
 109895476.371 8  85632835.948 8  82064803.877 8  20912413.740    20912413.900
  20912413.180          49.900          49.000
 108196460.354 8  84308898.41547                  20589096.420
  20589090.660          50.750          47.900
 128756057.972 7 100329390.788 6                  24501460.160    24501460.280
  24501459.560          44.900          39.450
 113185722.170 8  88196690.329 8  84521837.222 8  21538515.160    21538515.200
  21538514.720          49.400          48.950
 126492510.355 7  98565599.26246                  24070726.460
  24070726.340          44.400          36.450
 109370913.869 8  85224050.59447                  20812595.660
  20812592.220          48.950          46.950
 126595090.513 7  98645531.09146                  24090242.180
  24090241.420          46.250          38.150
 114902803.545 8  89534661.703 7  85804038.412 8  21865278.500    21865279.600
  21865279.340          49.550          47.800
 115447661.327 7  89792630.990 6                  21589301.760    21589306.320
  21589304.480          46.150          38.700
 104209408.965 8  81051760.853 7                  19474025.640    19474028.220
  19474026.920          49.300          47.250
 104980898.988 8  81651826.981 7                  19673377.860    19673381.660
  19673381.100          49.250          46.850
 128902705.851 6 100257710.724 5                  24130856.720    24130868.980
  24130868.580          39.600          35.950
 127167543.408 6  98908146.190 5                  23856303.880    23856315.940
  23856315.300          41.750          33.950
 118240508.394 7  91964860.909 7                  22088318.460    22088322.180
  22088321.240          46.400          43.700
 117253122.177 7  91196882.734 7                  21965463.940    21965469.900
  21965468.940          47.900          43.400
 122105540.365 7  94971008.181 5                  22850376.520    22850383.960
  22850382.080          45.650          34.600
 115600168.018 8  89911244.185 6                  21625403.120    21625408.540
  21625408.100          48.000          38.750
 15  1 27 10  1  5.0000000  0 22G11G06G08G04G17G03G23G31G09G10G20G32
                                G01R24R17R02R12R10R03R18R11R01
 125160333.587 7  97527503.78346                  23817228.700
  23817227.760          46.950          37.000
 120765650.169 7  94103104.511 7  90182139.139 8  22980940.520    22980942.120
  22980941.200          47.600          45.450
 125854659.003 7  98068586.22046                  23949336.040
  23949335.860          46.950          38.550
 128854346.093 7 100405970.59746                  24520175.920
  24520177.180          45.400          36.000
 113856328.055 8  88719168.872 7                  21666146.300    21666144.040
  21666143.420          49.200          47.100
 109901982.154 8  85637905.384 8  82069662.087 8  20913651.780    20913651.920
  20913651.200          49.900          49.050
 108192846.779 8  84306082.64248                  20588408.780
  20588403.020          50.700          48.150
 128762958.443 7 100334767.762 6                  24502773.340    24502773.420
  24502772.580          44.650          39.200
 113172678.433 8  88186526.388 8  84512096.775 8  21536032.960    21536033.060
  21536032.620          49.350          48.950
 126477512.765 7  98553912.84046                  24067872.580
  24067872.440          44.200          36.250
 109363989.212 8  85218654.76547                  20811277.920
  20811274.500          49.050          46.750
 126609298.353 7  98656602.11245                  24092945.840
  24092945.180          45.750          35.850
 114915139.452 8  89544274.092 7  85813250.283 8  21867626.000    21867627.020
  21867626.780          49.700          47.900
 115467952.093 7  89808412.690 6                  21593096.300    21593100.700
  21593098.940          46.600          38.900
 104210822.697 8  81052860.422 7                  19474289.820    19474292.420
  19474291.080          49.350          47.250
 104981743.712 8  81652483.979 7                  19673536.140    19673539.980
  19673539.400          49.050          46.750
 128884372.095 6 100243451.184 5                  24127424.540    24127436.720
  24127436.420          38.100          35.350
 127173619.903 7  98912872.343 5                  23857443.780    23857455.960
  23857455.300          42.100          33.450
 118227886.368 7  91955043.790 7                  22085960.560    22085964.320
  22085963.340          46.600          43.300
 117236369.177 7  91183852.643 7                  21962325.520    21962331.440
  21962330.560          47.850          43.700
 122096695.339 7  94964128.751 5                  22848721.260    22848728.760
  22848726.880          45.300          34.650
 115614336.591 7  89922264.190 6                  21628053.680    21628059.120
  21628058.660          47.550          39.250
 15  1 27 10  1 10.0000000  0 22G11G06G08G04G17G03G23G31G09G10G20G32
                                G01R24R17R02R12R10R03R18R11R01
 125178598.682 7  97541736.29546                  23820704.420
  23820703.480          46.600          38.750
 120750265.587 7  94091116.525 7  90170650.657 8  22978012.960    22978014.540
  22978013.640          47.650          45.650
 125849916.171 7  98064890.49846                  23948433.480
  23948433.360          46.900          38.350
 128871432.662 7 100419284.76546                  24523427.440
  24523428.720          45.600          36.700
 113859816.831 8  88721887.390 7                  21666810.120    21666807.940
  21666807.320          49.150          47.200
 109908493.992 8  85642979.535 8  82074524.813 8  20914890.940    20914891.100
  20914890.380          49.900          49.100
 108189247.058 8  84303277.66347                  20587723.780
  20587718.000          50.750          47.900
 128769873.302 7 100340155.941 6                  24504089.260    24504089.220
  24504088.340          44.800          39.300
 113159645.675 8  88176371.006 8  84502364.534 8  21533552.840    21533553.000
  21533552.600          49.300          48.900
 126462518.297 7  98542228.81246                  24065019.280
  24065019.060          43.700          36.600
 109357071.720 8  85213264.50647                  20809961.540
  20809958.160          49.000          46.800
 126623506.426 7  98667673.32446                  24095649.540
  24095648.920          45.700          37.500
 114927484.608 8  89553893.682 7  85822469.052 8  21869975.260    21869976.240
  21869975.980          49.650          47.850
 115488252.976 7  89824202.252 6                  21596892.760    21596897.080
  21596895.320          47.250          38.750
 104212259.690 8  81053978.075 7                  19474558.340    19474560.980
  19474559.620          49.450          47.200
 104982598.456 8  81653148.779 7                  19673696.300    19673700.160
  19673699.560          49.350          46.950
 128866039.347 6 100229192.431 6                  24123992.520    24124004.880
  24124004.460          36.800          36.250
 127179716.340 7  98917614.030 5                  23858587.420    23858599.800
  23858598.940          42.650          33.450
 118215271.844 7  91945232.498 7                  22083604.100    22083607.840
  22083606.800          46.850          43.600
 117219629.314 7  91170832.758 7                  21959189.580    21959195.480
  21959194.620          47.950          43.700
 122087867.707 7  94957262.838 5                  22847069.220    22847076.700
  22847074.920          45.000          35.000
 115628507.772 7  89933286.192 6                  21630704.760    21630710.120
  21630709.700          47.700          39.300
 15  1 27 10  1 15.0000000  0 22G11G06G08G04G17G03G23G31G09G10G20G32
                                G01R24R17R02R12R10R03R18R11R01
 125196868.089 7  97555972.15646                  23824180.960
  23824180.000          47.200          37.400
 120734885.475 7  94079132.024 7  90159165.508 8  22975086.240    22975087.820
  22975086.900          47.550          45.900
 125845186.886 7  98061205.32946                  23947533.540
  23947533.420          46.750          39.000
 128888523.114 7 100432601.95245                  24526679.700
  24526681.000          45.800          35.750
 113863322.219 8  88724618.846 7                  21667477.100    21667474.980
  21667474.380          49.150          47.100
 109915012.341 8  85648058.753 8  82079392.401 8  20916131.340    20916131.500
  20916130.780          49.750          49.050
 108185661.697 8  84300483.87948                  20587041.500
  20587035.720          50.850          48.250
 128776803.060 7 100345555.728 6                  24505407.960    24505407.900
  24505406.940          44.950          39.450
 113146624.409 8  88166224.572 8  84492640.872 8  21531074.920    21531075.140
  21531074.760          49.300          48.950
 126447527.420 7  98530547.63645                  24062166.620
  24062166.420          43.800          34.550
 109350161.913 8  85207880.23647                  20808646.640
  20808643.260          49.000          46.950
 126637715.270 7  98678745.11546                  24098353.380
  24098352.780          46.150          36.400
 114939839.496 8  89563520.857 7  85831695.101 8  21872326.340    21872327.300
  21872327.040          49.550          47.900
 115508564.485 7  89840000.071 6                  21600691.180    21600695.460
  21600693.680          47.100          39.100
 104213720.434 8  81055114.197 7                  19474831.340    19474833.960
  19474832.600          49.600          47.250
 104983463.852 8  81653821.864 7                  19673858.480    19673862.340
  19673861.740          49.250          46.950
 128847708.110 6 100214934.873 6                  24120560.780    24120573.220
  24120572.820          37.350          36.350
 127185833.075 7  98922371.501 5                  23859734.920    23859747.280
  23859746.420          42.000          33.550
 118202665.278 7  91935427.393 7                  22081249.040    22081252.820
  22081251.740          46.400          43.750
 117202903.086 7  91157823.462 7                  21956056.140    21956062.120
  21956061.220          47.950          43.650
 122079058.005 7  94950410.869 5                  22845420.580    22845428.040
  22845426.300          45.350          34.300
 115642681.986 7  89944310.565 6                  21633356.380    21633361.600
  21633361.320          47.700          38.850
 15  1 27 10  1 20.0000000  0 22G11G06G08G04G17G03G23G31G09G10G20G32
                                G01R24R17R02R12R10R03R18R11R01
 125215140.457 7  97570210.35246                  23827658.140
  23827657.140          47.450          37.000
 120719508.503 7  94067149.989 7  90147682.710 8  22972160.120    22972161.680
  22972160.840          47.700          45.900
 125840469.803 7  98057529.69646                  23946635.900
  23946635.780          47.100          37.400
 128905616.158 7 100445921.17446                  24529932.460
  24529933.800          45.750          37.300
 113866842.890 8  88727362.229 7                  21668147.020    21668144.940
  21668144.360          49.200          47.150
 109921535.892 8  85653142.036 8  82084263.872 8  20917372.720    20917372.900
  20917372.180          49.900          49.000
 108182089.403 8  84297700.28647                  20586361.720
  20586355.940          50.750          47.950
 128783746.457 7 100350966.151 6                  24506729.300    24506729.220
  24506728.280          45.000          39.850
 113133613.301 8  88156086.056 8  84482924.790 8  21528598.940    21528599.220
  21528598.820          49.250          48.950
 126432538.850 7  98518868.22946                  24059314.420
  24059314.240          43.700          36.300
 109343258.478 8  85202500.93947                  20807332.940
  20807329.580          49.200          46.450
 126651923.504 7  98689816.43946                  24101057.120
  24101056.480          46.300          36.900
 114952202.813 8  89573154.602 7  85840927.428 8  21874679.060    21874679.940
  21874679.700          49.550          47.850
 115528885.282 7  89855805.123 6                  21604491.320    21604495.540
  21604493.800          47.400          38.900
 104215203.616 8  81056267.775 7                  19475108.520    19475111.140
  19475109.800          49.800          47.350
 104984338.465 8  81654502.116 7                  19674022.360    19674026.220
  19674025.640          49.200          46.800
 128829377.116 6 100200677.481 5                  24117129.060    24117141.600
  24117141.180          38.350          35.850
 127191968.758 7  98927143.714 5                  23860885.900    23860898.240
  23860897.460          42.700          33.800
 118190065.419 7  91925627.521 7                  22078895.220    22078899.120
  22078897.960          46.250          43.500
 117186189.166 7  91144823.758 7                  21952925.020    21952931.020
  21952930.160          47.750          43.550
 122070265.043 7  94943571.913 5                  22843775.060    22843782.540
  22843780.800          45.250          35.100
 115656857.955 8  89955336.312 6                  21636008.320    21636013.500
  21636013.220          48.000          38.900
 15  1 27 10  1 25.0000000  0 21G11G06G08G04G17G03G23G31G09G10G20G32
                                G01R24R17R02R10R03R18R11R01
 125233417.176 7  97584451.92946                  23831136.160
  23831135.100          47.650          37.800
 120704136.074 7  94055171.477 7  90136203.304 8  22969234.860    22969236.460
  22969235.620          47.950          45.950
 125835766.347 7  98053864.65346                  23945740.880
  23945740.720          46.900          39.200
 128922713.158 7 100459243.47546                  24533185.960
  24533187.380          45.900          36.300
 113870380.225 8  88730118.588 7                  21668820.080    21668818.100
  21668817.500          49.200          47.100
 109928066.025 8  85658230.443 8  82089140.255 8  20918615.360    20918615.560
  20918614.840          49.800          49.000
 108178531.529 8  84294927.91248                  20585684.680
  20585678.900          50.800          48.000
 128790704.799 7 100356388.225 6                  24508053.460    24508053.360
  24508052.400          44.950          40.050
 113120613.754 8  88145956.543 8  84473217.337 8  21526125.200    21526125.480
  21526125.100          49.300          48.950
 126417553.922 7  98507191.64745                  24056462.960
  24056462.580          44.050          34.500
 109336362.757 8  85197127.64647                  20806020.720
  20806017.380          49.400          46.300
 126666132.531 7  98700888.39445                  24103761.040
  24103760.340          46.600          35.800
 114964575.901 8  89582795.966 7  85850167.069 8  21877033.620    21877034.460
  21877034.240          49.450          47.950
 115549216.608 7  89871618.368 6                  21608293.420    21608297.720
  21608295.860          46.650          38.950
 104216710.597 8  81057439.857 7                  19475390.140    19475392.740
  19475391.440          49.400          47.300
 104985223.659 8  81655190.596 7                  19674188.200    19674192.100
  19674191.540          49.150          46.750
 127198124.663 7  98931931.627 5                  23862040.720    23862053.020
  23862052.360          43.100          33.650
 118177473.504 7  91915833.830 7                  22076542.940    22076546.860
  22076545.680          46.050          43.450
 117169489.013 8  91131834.760 7                  21949796.500    21949802.520
  21949801.700          48.000          43.750
 122061490.166 7  94936747.015 5                  22842132.900    22842140.360
  22842138.720          44.600          35.100
 115671036.951 7  89966364.405 6                  21638660.840    21638665.920
  21638665.720          47.950          38.700
 15  1 27 10  1 30.0000000  0 22G11G06G08G04G17G03G23G31G09G10G20G32
                                G01R24R17R02R12R10R03R18R11R01
 125251697.127 7  97598696.04346                  23834614.780
  23834613.680          47.150          37.800
 120688767.050 7  94043195.612 7  90124726.442 8  22966310.240    22966311.820
  22966311.020          47.850          46.050
 125831075.353 7  98050209.34946                  23944848.280
  23944848.060          47.550          38.100
 128939813.009 7 100472567.97945                  24536440.000
  24536441.480          45.950          35.750
 113873933.165 8  88732887.106 7                  21669496.160    21669494.200
  21669493.640          49.350          47.050
 109934601.573 8  85663323.070 8  82094020.699 8  20919859.040    20919859.240
  20919858.520          50.100          49.000
 108174986.949 8  84292165.89848                  20585010.180
  20585004.380          50.800          48.200
 128797676.844 7 100361820.981 6                  24509380.200    24509380.140
  24509379.180          45.300          40.250
 113107624.615 8  88135835.142 8  84463517.669 8  21523653.420    21523653.720
  21523653.340          49.400          48.900
 126402571.572 7  98495517.08445                  24053611.940
  24053611.420          44.600          34.650
 109329473.666 8  85191759.51847                  20804709.740
  20804706.420          49.450          46.300
 126680341.185 7  98711960.06146                  24106464.880
  24106464.120          46.650          36.850
 114976957.648 8  89592444.070 7  85859413.174 8  21879389.800    21879390.640
  21879390.420          49.450          47.950
 115569557.469 7  89887439.006 6                  21612097.280    21612101.640
  21612099.760          46.400          39.050
 104218240.169 8  81058629.528 7                  19475675.960    19475678.600
  19475677.300          49.250          47.350
 104986118.312 8  81655886.433 7                  19674355.800    19674359.780
  19674359.200          49.150          46.800
 128792715.649 6 100172163.414 5                  24110266.420    24110278.840
  24110278.520          38.300          35.400
 127204299.757 7  98936734.486 5                  23863199.220    23863211.400
  23863210.720          42.700          32.650
 118164888.634 7  91906045.610 7                  22074191.960    22074195.880
  22074194.700          46.350          43.550
 117152801.406 7  91118855.515 7                  21946670.320    21946676.360
  21946675.560          47.950          43.700
 122052732.240 7  94929935.309 5                  22840493.920    22840501.500
  22840499.840          44.650          34.850
 115685217.829 7  89977393.971 6                  21641313.680    21641318.700
  21641318.560          47.500          38.650
 15  1 27 10  1 35.0000000  0 22G11G06G08G04G17G03G23G31G09G10G20G32
                                G01R24R17R02R12R10R03R18R11R01
 125269980.333 7  97612942.65846                  23838093.920
  23838092.800          47.050          37.350
 120673401.505 8  94031222.472 7  90113252.173 8  22963386.300    22963387.880
  22963387.080          48.100          45.950
 125826396.902 7  98046563.79746                  23943958.080
  23943957.780          47.850          37.300
 128956915.751 7 100485894.75645                  24539694.640
  24539696.160          45.900          35.600
 113877501.673 8  88735667.754 7                  21670175.200    21670173.280
  21670172.720          49.400          47.000
 109941142.605 8  85668419.970 8  82098905.220 8  20921103.760    20921103.960
  20921103.240          50.050          48.850
 108171455.676 8  84289414.25248                  20584338.180
  20584332.400          50.850          48.000
 128804662.717 7 100367264.498 6                  24510709.620    24510709.500
  24510708.580          45.300          40.550
 113094645.960 8  88125721.905 8  84453825.816 8  21521183.660    21521183.940
  21521183.560          49.550          48.900
 126387591.785 7  98483844.50945                  24050761.400
  24050760.800          44.100          35.400
 109322591.238 8  85186396.58347                  20803400.060
  20803396.720          49.450          46.150
 126694549.548 7  98723031.49646                  24109168.700
  24109167.840          46.350          37.550
 114989348.091 8  89602098.946 7  85868665.758 8  21881747.640    21881748.480
  21881748.240          49.450          47.950
 115589907.818 7  89903267.037 6                  21615902.920    21615907.320
  21615905.400          46.250          39.550
 104219792.416 8  81059836.825 7                  19475966.040    19475968.700
  19475967.400          49.550          47.400
 104987022.500 8  81656589.684 7                  19674525.220    19674529.220
  19674528.620          49.150          46.750
 128774387.280 6 100157908.066 5                  24106835.340    24106847.640
  24106847.380          37.650          34.900
 127210494.127 7  98941552.321 5                  23864361.280    23864373.620
  23864372.760          43.050          32.950
 118152310.688 7  91896262.768 7                  22071842.300    22071846.240
  22071845.020          46.550          43.450
 117136126.566 7  91105886.195 7                  21943546.540    21943552.580
  21943551.800          47.900          43.800
 122043991.328 7  94923136.835 5                  22838858.140    22838865.660
  22838864.100          44.700          35.000
 115699400.794 7  89988425.162 6                  21643966.900    21643971.920
  21643971.780          47.550          38.650
 15  1 27 10  1 40.0000000  0 22G11G06G08G04G17G03G23G31G09G10G20G32
                                G01R24R17R02R12R10R03R18R11R01
 125288266.651 7  97627191.71446                  23841573.660
  23841572.560          47.150          37.100
 120658039.287 8  94019251.910 7  90101780.392 8  22960462.960    22960464.540
  22960463.760          48.000          45.700
 125821730.830 7  98042927.90546                  23943070.240
  23943069.800          47.800          37.700
 128974021.230 7 100499223.66845                  24542949.800
  24542951.300          46.100          35.850
 113881085.555 8  88738460.387 7                  21670857.160    21670855.280
  21670854.760          49.600          47.000
 109947688.961 8  85673521.024 8  82103793.734 8  20922349.480    20922349.700
  20922348.980          49.950          48.850
 108167937.548 8  84286672.85847                  20583668.700
  20583662.920          50.950          47.850
 128811662.227 7 100372718.654 6                  24512041.640    24512041.520
  24512040.620          45.300          40.850
 113081677.636 8  88115616.727 8  84444141.695 8  21518715.840    21518716.140
  21518715.720          49.750          48.850
 126372614.454 7  98472173.87745                  24047911.280
  24047910.780          44.600          35.550
 109315715.300 8  85181038.70847                  20802091.580
  20802088.280          49.600          45.900
 126708757.440 7  98734102.55446                  24111872.400
  24111871.580          46.350          37.900
 115001747.064 8  89611760.471 7  85877924.725 8  21884107.060    21884107.920
  21884107.700          49.300          47.950
 115610267.441 7  89919102.278 6                  21619710.260    21619714.680
  21619712.760          46.450          39.250
 104221367.246 8  81061061.690 7                  19476260.360    19476262.980
  19476261.720          49.600          47.300
 104987936.075 8  81657300.250 7                  19674696.400    19674700.420
  19674699.840          49.100          46.750
 128756059.326 6 100143653.069 5                  24103404.360    24103416.540
  24103416.300          38.950          35.300
 127216707.689 7  98946385.102 5                  23865526.960    23865539.300
  23865538.440          43.250          32.900
 118139739.535 7  91886485.221 7                  22069493.900    22069497.840
  22069496.600          46.150          43.400
 117119464.177 7  91092926.565 7                  21940425.060    21940431.120
  21940430.360          47.500          43.800
 122035267.225 7  94916351.440 5                  22837225.540    22837233.100
  22837231.600          45.300          35.650
 115713585.577 7  89999457.767 6                  21646620.480    21646625.420
  21646625.340          47.400          38.850
 15  1 27 10  1 45.0000000  0 22G11G06G08G04G17G03G23G31G09G10G20G32
                                G01R24R17R02R12R10R03R18R11R01
 125306557.217 7  97641444.07446                  23845054.260
  23845053.120          47.750          37.050
 120642681.587 7  94007284.874 7  90090311.987 8  22957540.500    22957542.080
  22957541.300          47.900          45.900
 125817078.350 7  98039302.58646                  23942184.960
  23942184.420          47.150          38.500
 128991130.601 7 100512555.60046                  24546205.660
  24546207.220          45.750          36.850
 113884686.000 8  88741265.920 7                  21671542.300    21671540.420
  21671539.900          49.450          47.050
 109954241.819 8  85678627.139 8  82108687.090 8  20923596.440    20923596.680
  20923595.960          49.800          48.800
 108164433.777 8  84283942.65148                  20583001.940
  20582996.180          50.900          48.000
 128818676.593 7 100378184.365 6                  24513376.480    24513376.380
  24513375.500          45.000          40.600
 113068720.836 8  88105520.518 8  84434466.165 8  21516250.220    21516250.540
  21516250.120          49.700          48.900
 126357640.737 7  98460506.04645                  24045061.880
  24045061.260          44.950          35.100
 109308847.071 8  85175686.83547                  20800784.580
  20800781.300          49.300          46.400
 126722966.021 7  98745174.15546                  24114576.240
  24114575.400          46.300          36.950
 115014155.771 8  89621429.573 8  85887190.942 8  21886468.300    21886469.240
  21886469.000          49.150          48.000
 115630637.474 7  89934945.629 6                  21623519.580    21623523.980
  21623522.060          46.200          39.350
 104222965.781 8  81062304.987 7                  19476559.080    19476561.700
  19476560.460          49.550          47.650
 104988860.164 8  81658018.985 7                  19674869.580    19674873.620
  19674873.020          49.000          46.850
 128737732.987 6 100129399.321 5                  24099973.640    24099985.900
  24099985.520          40.150          35.900
 127222941.436 7  98951233.562 5                  23866696.460    23866708.660
  23866707.840          42.850          32.750
 118127176.495 7  91876713.978 7                  22067147.000    22067150.940
  22067149.700          46.250          43.450
 117102815.570 7  91079977.657 7                  21937306.160    21937312.220
  21937311.500          47.300          43.750
 122026561.234 7  94909580.111 5                  22835596.300    22835603.900
  22835602.440          45.450          35.500
 115727773.474 7  90010492.766 6                  21649274.640    21649279.600
  21649279.500          47.150          39.200
 15  1 27 10  1 50.0000000  0 22G11G06G08G04G17G03G23G31G09G10G20G32
                                G01R24R17R02R12R10R03R18R11R01
 125324852.418 7  97655700.06746                  23848535.780
  23848534.660          47.800          37.000
 120627328.812 7  93995321.678 7  90078847.248 8  22954618.940    22954620.560
  22954619.820          47.200          46.150
 125812439.838 7  98035688.16946                  23941302.320
  23941301.700          46.800          39.300
 129008244.249 7 100525890.86446                  24549462.320
  24549463.940          45.750          37.150
 113888303.380 8  88744084.656 7                  21672230.660    21672228.800
  21672228.300          49.300          47.100
 109960801.577 8  85683738.639 8  82113585.607 8  20924844.700    20924844.940
  20924844.240          49.650          48.850
 108160944.759 8  84281223.94248                  20582338.000
  20582332.240          50.700          48.050
 128825706.141 7 100383661.929 6                  24514714.220    24514714.080
  24514713.180          44.550          40.550
 113055775.965 8  88095433.618 8  84424799.547 8  21513786.860    21513787.200
  21513786.760          49.400          48.900
 126342671.054 7  98448841.36045                  24042213.260
  24042212.600          44.850          35.900
 109301986.922 8  85170341.27247                  20799479.120
  20799475.840          49.000          46.850
 126737175.737 7  98756246.65046                  24117280.320
  24117279.520          46.400          36.800
 115026574.563 8  89631106.544 8  85896464.706 8  21888831.460    21888832.460
  21888832.240          48.950          48.050
 115651018.398 7  89950797.450 6                  21627330.920    21627335.300
  21627333.380          46.350          39.600
 104224588.479 8  81063567.077 7                  19476862.320    19476864.940
  19476863.720          49.400          47.450
 104989795.129 8  81658746.175 7                  19675044.780    19675048.860
  19675048.240          49.300          46.950
 128719408.719 6 100115147.177 5                  24096543.360    24096555.300
  24096555.180          40.000          35.550
 127229195.844 7  98956098.095 5                  23867869.840    23867881.880
  23867881.140          43.050          33.050
 118114621.818 7  91866949.236 7                  22064801.660    22064805.580
  22064804.380          46.350          43.900
 117086181.144 7  91067039.779 7                  21934189.920    21934196.000
  21934195.300          47.550          43.750
 122017873.716 7  94902823.159 5                  22833970.520    22833978.180
  22833976.700          45.100          34.900
 115741964.648 7  90021530.338 6                  21651929.400    21651934.420
  21651934.280          47.150          39.350
 15  1 27 10  1 55.0000000  0 22G11G06G08G04G17G03G23G31G09G10G20G32
                                G01R24R17R02R12R10R03R18R11R01
 125343150.422 7  97669958.24046                  23852017.880
  23852016.700          47.800          37.950
 120611979.111 7  93983360.889 7  90067384.815 8  22951697.980    22951699.580
  22951698.880          47.200          46.050
 125807813.465 7  98032083.19346                  23940422.000
  23940421.300          46.950          37.800
 129025360.336 7 100539228.03946                  24552719.460
  24552721.040          45.850          36.350
 113891935.863 8  88746915.158 7                  21672921.880    21672920.040
  21672919.560          49.300          47.150
 109967366.394 8  85688854.072 8  82118487.880 8  20926093.940    20926094.200
  20926093.480          49.400          48.950
 108157468.632 8  84278515.27548                  20581676.500
  20581670.760          50.600          48.100
 128832749.058 7 100389149.904 6                  24516054.480    24516054.340
  24516053.360          44.750          40.200
 113042841.171 8  88085354.563 8  84415140.455 8  21511325.440    21511325.780
  21511325.360          49.400          48.950
 126327703.541 7  98437178.34545                  24039365.040
  24039364.400          44.800          35.700
 109295132.987 8  85165000.54147                  20798174.860
  20798171.600          48.850          46.950
 126751384.719 7  98767318.56946                  24119984.260
  24119983.460          46.000          38.750
 115039001.603 8  89640789.949 8  85905744.626 8  21891196.180    21891197.260
  21891197.060          49.050          48.100
 115671408.412 7  89966656.338 6                  21631143.960    21631148.380
  21631146.420          46.450          39.800
 104226233.487 8  81064846.524 7                  19477169.740    19477172.360
  19477171.160          49.300          47.500
 104990739.144 8  81659480.411 7                  19675221.660    19675225.780
  19675225.160          49.050          47.050
 128701084.554 6 100100895.125 6                  24093112.980    24093124.940
  24093124.840          39.350          36.050
 127235469.127 7  98960977.319 5                  23869046.720    23869058.840
  23869057.960          43.600          31.750
 118102073.651 7  91857189.565 7                  22062457.560    22062461.460
  22062460.300          46.300          44.150
 117069558.969 7  91054111.422 7                  21931075.960    21931082.080
  21931081.420          47.550          43.800
 122009202.855 7  94896079.168 5                  22832347.840    22832355.600
  22832354.060          44.900          35.000
 115756157.272 7  90032569.035 6                  21654584.440    21654589.420
  21654589.360          46.950          39.550
 15  1 27 10  2  0.0000000  0 22G11G06G08G04G17G03G23G31G09G10G20G32
                                G01R24R17R02R12R10R03R18R11R01
 125361452.607 7  97684219.66346                  23855500.700
  23855499.540          46.950          38.300
 120596633.927 7  93971403.598 7  90055925.748 8  22948777.860    22948779.500
  22948778.800          47.050          46.000
 125803200.645 7  98028488.79446                  23939544.240
  23939543.540          47.100          38.400
 129042480.225 7 100552568.17946                  24555977.320
  24555978.800          46.100          36.100
 113895584.836 8  88749758.503 7                  21673616.260    21673614.420
  21673613.940          49.450          47.150
 109973937.655 8  85693974.513 8  82123394.979 8  20927344.420    20927344.680
  20927343.960          49.600          49.050
 108154006.832 8  84275817.76348                  20581017.720
  20581012.000          50.550          48.300
 128839806.755 7 100394649.397 6                  24517397.600    24517397.380
  24517396.420          44.700          40.000
 113029917.891 8  88075284.473 8  84405489.947 8  21508866.200    21508866.560
  21508866.140          49.600          49.050
 126312739.607 7  98425518.13645                  24036517.460
  24036516.920          44.700          34.400
 109288286.718 8  85159665.78147                  20796872.060
  20796868.780          48.800          47.350
 126765594.354 7  98778390.98846                  24122688.280
  24122687.520          45.900          38.400
 115051438.298 8  89650480.864 8  85915031.745 8  21893562.740    21893563.880
  21893563.700          49.000          48.050
 115691808.761 7  89982523.259 6                  21634958.920    21634963.380
  21634961.380          45.850          39.850
 104227902.139 8  81066144.354 7                  19477481.600    19477484.180
  19477483.000          49.100          47.550
 104991693.698 8  81660222.830 7                  19675400.520    19675404.700
  19675404.060          48.600          47.000
 128682762.110 6 100086644.387 6                  24089682.980    24089694.820
  24089694.820          38.750          36.150
 127241762.536 7  98965872.206 5                  23870227.320    23870239.200
  23870238.600          43.300          33.450
 118089533.370 7  91847436.037 7                  22060114.880    22060118.800
  22060117.680          46.150          44.450
 117052950.577 7  91041193.786 7                  21927964.600    21927970.760
  21927970.100          46.900          43.950
 122000550.063 7  94889349.221 5                  22830728.540    22830736.340
  22830734.820          44.700          35.800
 115770352.877 7  90043610.057 6                  21657240.040    21657245.080
  21657245.000          47.000          39.650
 15  1 27 10  2  5.0000000  0 22G11G06G08G04G17G03G23G31G09G10G20G32
                                G01R24R17R02R12R10R03R18R11R01
 125379758.573 7  97698484.00246                  23858984.160
  23858983.140          46.800          38.350
 120581292.791 7  93959449.473 7  90044469.719 8  22945858.520    22945860.180
  22945859.480          46.750          45.900
 125798600.936 7  98024904.61146                  23938668.960
  23938668.280          47.400          38.200
 129059603.493 7 100565910.94246                  24559235.820
  24559237.280          45.800          37.500
 113899249.871 8  88752614.369 7                  21674313.700    21674311.860
  21674311.380          49.700          47.150
 109980514.905 8  85699099.641 8  82128306.557 8  20928596.020    20928596.300
  20928595.600          49.600          49.050
 108150558.906 8  84273131.06248                  20580361.600
  20580355.880          50.700          48.300
 128846878.732 7 100400160.010 6                  24518743.420    24518743.140
  24518742.160          44.800          40.000
 113017005.661 8  88065222.997 8  84395847.706 8  21506409.060    21506409.440
  21506409.020          49.450          49.000
 126297778.802 7  98413860.34245                  24033670.500
  24033669.960          44.900          35.600
 109281447.610 8  85154336.60447                  20795570.600
  20795567.340          49.000          47.050
 126779804.209 7  98789463.57646                  24125392.360
  24125391.660          46.250          37.200
 115063884.211 8  89660178.966 8  85924325.760 8  21895931.060    21895932.300
  21895932.100          49.150          48.100
 115712219.095 7  89998397.949 6                  21638775.700    21638780.240
  21638778.220          45.850          39.700
 104229594.028 8  81067460.270 7                  19477797.780    19477800.360
  19477799.180          49.250          47.600
 104992658.247 8  81660973.030 7                  19675581.260    19675585.440
  19675584.800          48.750          47.050
 128664440.851 6 100072394.572 5                  24086253.200    24086265.040
  24086265.040          39.200          35.700
 127248075.644 7  98970782.401 5                  23871411.620    23871423.460
  23871422.980          43.100          33.000
 118077000.662 7  91837688.399 7                  22057773.660    22057777.560
  22057776.500          46.400          44.350
 117036355.501 7  91028286.519 7                  21924855.760    21924861.980
  21924861.280          46.900          44.050
 121991915.004 7  94882633.063 5                  22829112.560    22829120.580
  22829118.880          44.600          35.650
 115784551.102 7  90054653.100 6                  21659896.100    21659901.240
  21659901.140          47.050          39.600
 15  1 27 10  2 10.0000000  0 22G11G06G08G04G17G03G23G31G09G10G20G32
                                G01R24R17R02R12R10R03R18R11R01
 125398066.195 7  97712749.65146                  23862467.900
  23862467.020          47.250          37.350
 120565953.697 7  93947496.946 7  90033015.209 8  22942939.520    22942941.260
  22942940.540          46.850          45.950
 125794012.299 7  98021329.04646                  23937795.820
  23937795.100          47.450          38.200
 129076728.053 7 100579254.72546                  24562494.560
  24562496.000          46.150          37.200
 113902928.903 8  88755481.145 7                  21675013.800    21675011.960
  21675011.500          49.650          47.100
 109987096.119 8  85704227.862 8  82133221.099 8  20929848.400    20929848.660
  20929847.980          49.650          49.100
 108147122.781 8  84270453.56948                  20579707.700
  20579702.020          50.800          48.100
 128853962.998 7 100405680.207 6                  24520091.540    24520091.180
  24520090.200          44.900          39.600
 113004102.453 8  88055168.563 8  84386212.201 8  21503953.660    21503954.040
  21503953.620          49.600          48.900
 126282819.085 7  98402203.43445                  24030823.780
  24030823.260          45.400          33.900
 109274613.608 8  85149011.41347                  20794270.120
  20794266.860          49.150          46.950
 126794012.216 7  98800534.73746                  24128096.080
  24128095.400          46.300          37.300
 115076337.271 8  89669882.639 8  85933625.109 8  21898300.760    21898302.060
  21898301.880          49.050          48.050
 115732637.184 7  90014278.664 6                  21642593.940    21642598.580
  21642596.500          45.700          39.850
 104231307.109 8  81068792.659 7                  19478117.900    19478120.500
  19478119.320          49.150          47.600
 104993630.656 8  81661729.354 7                  19675763.440    19675767.680
  19675767.060          49.100          47.100
                                                  24082823.220    24082835.060
  24082835.080          39.850          35.350
 127254406.498 7  98975706.377 5                  23872599.280    23872611.060
  23872610.620          43.400          32.650
 118064473.415 7  91827944.985 7                  22055433.440    22055437.360
  22055436.340          46.300          44.250
 117019771.672 7  91015388.000 7                  21921749.020    21921755.280
  21921754.560          46.750          43.750
 121983295.434 7  94875928.988 5                  22827499.440    22827507.560
  22827505.900          44.450          35.200
 115798749.663 7  90065696.411 6                  21662552.220    21662557.460
  21662557.340          47.200          39.050
 15  1 27 10  2 15.0000000  0 22G11G06G08G04G17G03G23G31G09G10G20G32
                                G01R24R17R02R12R10R03R18R11R01
 125416377.915 7  97727018.50546                  23865952.520
  23865951.580          47.750          36.850
 120550619.036 7  93935547.872 7  90021564.019 8  22940021.380    22940023.180
  22940022.440          46.700          45.650
 125789437.195 7  98017764.04046                  23936925.240
  23936924.460          47.100          37.400
 129093856.415 7 100592601.46246                  24565754.020
  24565755.480          46.350          36.000
 113906624.368 8  88758360.713 7                  21675717.060    21675715.220
  21675714.740          49.600          46.850
 109993683.703 8  85709361.036 8  82138140.392 8  20931101.960    20931102.260
  20931101.580          49.750          48.750
 108143700.917 8  84267787.18847                  20579056.560
  20579050.860          50.850          47.700
 128861061.973 7 100411211.850 6                  24521442.480    24521442.060
  24521441.020          45.350          39.100
 112991210.684 8  88045123.036 8  84376585.237 8  21501500.420    21501500.800
  21501500.380          49.400          48.550
 126267862.918 7  98390549.26545                  24027977.740
  24027977.280          45.300          35.000
 109267787.214 8  85143692.14347                  20792971.120
  20792967.860          49.200          46.550
 126808220.850 7  98811606.38746                  24130799.900
  24130799.180          46.000          37.400
 115088799.895 8  89679593.756 7  85942931.602 8  21900672.280    21900673.660
  21900673.480          49.150          47.700
 115753065.673 7  90030167.462 6                  21646414.120    21646418.800
  21646416.760          46.050          40.100
 104233043.849 8  81070143.445 7                  19478442.480    19478445.080
  19478443.880          49.050          47.950
 104994613.451 8  81662493.751 7                  19675947.600    19675951.840
  19675951.260          49.150          47.600
 128627798.444 6 100043892.001 5                  24079393.520    24079405.400
  24079405.380          39.400          35.750
 127260757.453 7  98980646.034 5                  23873790.680    23873802.480
  23873802.000          43.700          34.100
 118051954.053 7  91818207.714 7                  22053094.680    22053098.640
  22053097.640          46.100          44.850
 117003201.661 7  91002500.220 7                  21918644.860    21918651.140
  21918650.440          46.950          44.550
 121974693.891 7  94869238.932 6                  22825889.700    22825897.880
  22825896.220          44.750          36.000
 115812951.156 7  90076742.015 6                  21665208.880    21665214.260
  21665214.060          47.000          39.750
 15  1 27 10  2 20.0000000  0 22G11G06G08G04G17G03G23G31G09G10G20G32
                                G01R24R17R02R12R10R03R18R11R01
 125434694.872 7  97741291.44046                  23869438.180
  23869437.160          47.850          36.450
 120535290.069 7  93923603.220 7  90010117.061 8  22937104.360    22937106.180
  22937105.420          46.800          45.650
 125784876.764 7  98014210.46446                  23936057.460
  23936056.660          47.400          38.300
 129110989.704 7 100605952.03645                  24569014.420
  24569015.880          46.200          34.750
 113910337.434 8  88761253.999 7                  21676423.640    21676421.780
  21676421.320          49.450          46.800
 110000278.846 8  85714500.098 8  82143065.325 8  20932356.980    20932357.280
  20932356.600          49.950          48.750
 108140294.501 8  84265132.83147                  20578408.320
  20578402.640          50.900          47.450
 128868176.855 7 100416755.885 6                  24522796.440    24522795.980
  24522794.940          45.300          39.400
 112978331.567 8  88035087.358 8  84366967.726 8  21499049.600    21499049.980
  21499049.540          49.600          48.450
 126252911.464 7  98378898.78645                  24025132.560
  24025132.100          45.100          35.400
 109260969.599 8  85138379.70847                  20791673.780
  20791670.520          49.300          46.750
 126822431.214 7  98822679.36346                  24133504.000
  24133503.300          46.000          36.850
 115101273.297 8  89689313.274 7  85952246.146 8  21903045.880    21903047.280
  21903047.140          49.150          47.850
 115773505.504 7  90046065.090 6                  21650236.420    21650241.220
  21650239.140          46.300          40.050
 104234805.427 8  81071513.547 7                  19478771.700    19478774.280
  19478773.080          48.950          47.850
 104995607.853 8  81663267.169 7                  19676133.960    19676138.220
  19676137.620          48.850          47.400
 128609480.874 6 100029645.050 5                  24075964.440    24075976.260
  24075976.240          40.200          35.550
 127267129.594 7  98985602.156 5                  23874986.080    23874997.940
  23874997.380          43.400          33.300
 118039443.837 7  91808477.545 7                  22050757.680    22050761.600
  22050760.660          46.050          44.750
 116986646.585 7  90989624.056 7                  21915543.520    21915549.840
  21915549.160          47.300          44.400
 121966111.599 7  94862563.791 5                  22824283.620    22824291.680
  22824290.100          44.600          35.550
 115827156.667 7  90087790.726 6                  21667866.260    21667871.720
  21667871.520          47.200          39.750
 15  1 27 10  2 25.0000000  0 22G11G06G08G04G17G03G23G31G09G10G20G32
                                G01R24R17R02R12R10R03R18R11R01
 125453013.739 7  97755565.86446                  23872924.200
  23872923.160          47.550          36.700
 120519963.408 7  93911660.366 7  89998671.829 8  22934187.780    22934189.660
  22934188.840          46.450          45.800
 125780327.717 7  98010665.74346                  23935191.800
  23935191.060          46.850          38.650
 129128124.520 7 100619303.77546                  24572275.120
  24572276.600          46.000          36.950
 113914064.778 8  88764158.415 7                  21677132.980    21677131.080
  21677130.640          49.400          46.950
 110006878.185 8  85719642.436 8  82147993.397 8  20933612.800    20933613.100
  20933612.440          49.750          48.900
 108136900.144 8  84262487.87647                  20577762.380
  20577756.700          50.650          47.850
 128875304.236 7 100422309.676 6                  24524152.780    24524152.240
  24524151.280          44.900          39.250
 112965461.762 8  88025058.948 8  84357357.165 8  21496600.540    21496600.940
  21496600.500          49.600          48.650
 126237961.369 7  98367249.35745                  24022287.640
  24022287.280          45.050          35.550
 109254157.391 8  85133071.48847                  20790377.480
  20790374.200          49.250          46.350
 126836640.016 7  98833751.14246                  24136207.840
  24136207.220          45.750          38.700
 115113754.085 8  89699038.549 7  85961566.199 8  21905420.900    21905422.340
  21905422.180          49.100          47.900
 115793953.341 7  90061968.944 6                  21654060.220    21654065.080
  21654063.020          46.650          39.950
 104236588.295 8  81072900.226 7                  19479104.880    19479107.420
  19479106.240          49.200          47.750
 104996610.438 8  81664046.957 7                  19676321.840    19676326.080
  19676325.500          48.850          47.200
 128591162.794 6 100015397.710 6                  24072535.240    24072546.960
  24072547.020          39.800          36.650
 127273519.779 7  98990572.279 5                  23876184.800    23876196.800
  23876196.160          43.100          33.500
 118026939.271 7  91798751.799 7                  22048421.720    22048425.680
  22048424.740          46.600          44.750
 116970103.096 7  90976756.894 7                  21912444.360    21912450.680
  21912450.020          46.950          44.150
 121957545.282 7  94855901.110 5                  22822680.540    22822688.560
  22822687.080          44.950          35.850
 115841362.655 7  90098839.824 6                  21670523.780    21670529.240
  21670529.040          47.450          39.250
 15  1 27 10  2 30.0000000  0 22G11G06G08G04G17G03G23G31G09G10G20G32
                                G01R24R17R02R12R10R03R18R11R01
 125471336.253 7  97769843.12746                  23876410.820
  23876409.900          46.700          37.700
 120504640.836 7  93899720.712 7  89987229.657 8  22931271.980    22931273.860
  22931273.060          46.700          45.900
 125775791.812 7  98007131.29046                  23934328.680
  23934327.940          47.100          37.600
 129145262.715 7 100632658.19846                  24575536.440
  24575537.980          45.750          36.450
 113917808.134 8  88767075.318 7                  21677845.340    21677843.400
  21677842.980          49.400          46.900
 110013483.484 8  85724789.422 8  82152925.921 8  20934869.760    20934870.040
  20934869.380          49.700          48.950
 108133519.643 8  84259853.72847                  20577119.080
  20577113.420          50.600          47.900
 128882445.910 7 100427874.597 6                  24525511.860    24525511.260
  24525510.360          45.600          39.050
 112952603.039 8  88015039.173 8  84347754.878 8  21494153.640    21494154.000
  21494153.540          49.600          48.650
 126223014.435 7  98355602.41845                  24019443.320
  24019443.020          44.950          34.700
 109247352.399 8  85127768.89647                  20789082.560
  20789079.280          49.250          46.650
 126850849.035 7  98844823.09546                  24138911.720
  24138911.140          46.100          36.950
 115126244.030 8  89708770.974 7  85970893.098 8  21907797.680    21907799.120
  21907798.980          49.100          47.900
 115814410.968 7  90077880.424 6                  21657885.860    21657890.760
  21657888.700          45.950          39.400
 104238394.487 8  81074305.044 7                  19479442.400    19479444.920
  19479443.780          49.400          47.550
 104997623.002 8  81664834.511 7                  19676511.580    19676515.840
  19676515.220          49.050          46.950
 128572846.012 6 100001151.391 6                  24069106.260    24069117.980
  24069118.120          39.750          36.850
 127279929.568 7  98995557.650 5                  23877387.240    23877399.120
  23877398.600          43.800          32.950
 118014442.154 7  91789031.844 7                  22046087.180    22046091.080
  22046090.180          46.600          44.250
 116953572.984 7  90963900.159 7                  21909347.700    21909354.020
  21909353.380          47.300          44.100
 121948996.769 7  94849252.276 5                  22821080.800    22821088.800
  22821087.320          45.150          35.200
 115855571.213 7  90109890.916 6                  21673181.780    21673187.300
  21673187.040          47.550          39.200
 15  1 27 10  2 35.0000000  0 22G11G06G08G04G17G03G23G31G09G10G20G32
                                G01R24R17R02R12R10R03R18R11R01
 125489663.326 7  97784123.91446                  23879898.300
  23879897.500          46.900          38.050
 120489323.275 7  93887784.950 7  89975791.224 8  22928357.140    22928359.020
  22928358.180          46.900          45.950
 125771269.933 7  98003607.75246                  23933468.220
  23933467.460          47.300          38.550
 129162405.153 7 100646015.89745                  24578798.560
  24578800.140          45.800          35.150
 113921568.385 8  88770005.376 7                  21678560.920    21678558.940
  21678558.540          49.600          46.900
 110020095.659 8  85729941.762 8  82157863.578 8  20936128.040    20936128.320
  20936127.640          49.800          48.900
 108130153.906 8  84257231.07347                  20576478.580
  20576472.940          50.750          47.750
 128889602.769 7 100433451.349 6                  24526873.780    24526873.200
  24526872.360          45.850          39.400
 112939756.299 8  88005028.730 8  84338161.535 8  21491708.980    21491709.340
  21491708.900          49.900          48.850
 126208071.458 7  98343958.54645                  24016599.720
  24016599.560          45.050          35.050
 109240555.494 8  85122472.60347                  20787789.180
  20787785.900          49.350          46.700
 126865059.087 7  98855895.85546                  24141615.820
  24141615.360          45.700          37.550
 115138744.044 8  89718511.234 8  85980227.510 8  21910176.360    21910177.840
  21910177.700          49.450          48.000
 115834879.334 7  90093800.232 6                  21661713.520    21661718.400
  21661716.380          46.100          39.300
 104240224.863 8  81075728.657 7                  19479784.440    19479786.960
  19479785.820          49.300          47.450
 104998646.414 8  81665630.498 7                  19676703.380    19676707.620
  19676706.980          49.200          46.900
 128554531.402 6  99986906.760 6                  24065677.680    24065689.500
  24065689.640          40.150          37.000
 127286359.935 7  99000559.053 5                  23878593.560    23878605.400
  23878604.840          43.750          33.300
 118001953.620 7  91779318.554 7                  22043754.240    22043758.120
  22043757.200          46.850          44.100
 116937057.197 7  90951054.550 7                  21906253.720    21906260.020
  21906259.420          47.300          44.250
 121940466.738 7  94842617.815 5                  22819484.460    22819492.520
  22819491.020          44.650          35.500
 115869783.076 7  90120944.582 6                  21675840.440    21675845.860
  21675845.640          47.200          39.200
 15  1 27 10  2 40.0000000  0 22G11G06G08G04G17G03G23G31G09G10G20G32
                                G01R24R17R02R12R10R03R18R11R01
 125507992.043 7  97798405.99746                  23883386.100
  23883385.420          47.200          37.800
 120474007.821 7  93875850.830 7  89964354.355 8  22925442.700    22925444.580
  22925443.720          46.750          46.100
 125766759.192 7  98000092.88346                  23932609.920
  23932609.100          47.050          38.150
 129179548.878 7 100659374.60345                  24582060.960
  24582062.500          45.850          34.900
 113925342.599 8  88772946.299 7                  21679279.160    21679277.140
  21679276.720          49.650          46.900
 110026711.790 8  85735097.179 8  82162804.179 8  20937387.060    20937387.360
  20937386.680          49.850          48.900
 108126800.006 8  84254617.64548                  20575840.340
  20575834.700          50.750          48.050
 128896771.849 7 100439037.637 6                  24528238.080    24528237.460
  24528236.600          45.850          39.750
 112926918.617 8  87995025.342 8  84328574.962 8  21489266.080    21489266.400
  21489266.000          49.750          48.850
 126193129.616 7  98332315.55845                  24013756.320
  24013756.180          45.100          35.800
 109233763.750 8  85117180.32847                  20786496.780
  20786493.500          49.250          46.750
 126879267.300 7  98866967.14046                  24144319.560
  24144319.120          45.950          37.600
 115151251.175 8  89728257.040 8  85989567.239 8  21912556.400    21912557.900
  21912557.760          49.450          48.150
 115855355.469 7  90109726.104 6                  21665542.660    21665547.500
  21665545.500          45.950          38.900
 104242076.363 8  81077168.702 7                  19480130.420    19480132.940
  19480131.800          49.150          47.550
 104999677.668 8  81666432.582 7                  19676896.660    19676900.880
  19676900.220          49.400          46.850
 128536216.086 6  99972661.585 6                  24062248.940    24062260.880
  24062261.020          40.550          36.300
 127292808.005 7  99005574.206 5                  23879803.240    23879814.980
  23879814.380          44.050          32.550
 117989470.327 7  91769609.337 7                  22041422.260    22041426.120
  22041425.180          46.600          44.000
 116920552.822 7  90938217.817 7                  21903161.880    21903168.200
  21903167.620          47.150          43.750
 121931952.405 7  94835995.558 5                  22817891.120    22817899.060
  22817897.700          45.000          35.150
 115883995.437 7  90131998.619 6                  21678499.180    21678504.520
  21678504.360          46.850          39.100
 15  1 27 10  2 45.0000000  0 22G11G06G08G04G17G03G23G31G09G10G20G32
                                G01R24R17R02R12R10R03R18R11R01
 125526326.468 7  97812692.53746                  23886875.040
  23886874.320          47.400          39.750
 120458698.523 7  93863921.509 8  89952922.099 8  22922529.440    22922531.300
  22922530.460          46.900          48.100
 125762263.661 7  97996589.88446                  23931754.460
  23931753.680          47.100          41.450
 129196697.975 7 100672737.51346                  24585324.360
  24585325.860          45.850          38.950
 113929134.903 8  88775901.339 8                  21680000.860    21679998.800
  21679998.360          49.750          48.900
 110033335.925 8  85740258.836 8  82167750.773 8  20938647.620    20938647.900
  20938647.220          50.000          50.600
 108123462.002 8  84252016.60548                  20575205.140
  20575199.500          50.750          50.000
 128903957.267 7 100444636.649 7                  24529605.460    24529604.800
  24529603.980          45.750          42.550
 112914094.118 8  87985032.234 8  84318998.232 8  21486825.680    21486826.000
  21486825.600          49.950          50.550
 126178193.002 7  98320676.65546                  24010913.960
  24010913.820          45.050          37.600
 109226981.280 8  85111895.28348                  20785206.140
  20785202.840          49.200          49.150
 126893477.736 7  98878040.19546                  24147023.720
  24147023.280          46.550          39.450
 115163769.555 8  89738011.608 8  85998915.367 8  21914938.600    21914940.080
  21914939.960          49.600          50.000
 115875843.430 7  90125661.171 6                  21669374.020    21669378.920
  21669376.860          45.950          39.900
 104243953.187 8  81078628.446 7                  19480481.140    19480483.680
  19480482.540          49.050          47.950
 105000721.035 8  81667244.092 7                  19677092.220    19677096.400
  19677095.740          49.250          47.550
 128517904.293 6  99958419.121 5                  24058820.940    24058832.960
  24058832.920          40.400          35.850
 127299277.810 7  99010606.285 5                  23881017.020    23881028.660
  23881028.020          43.800          33.900
 117976996.694 7  91759907.639 7                  22039092.040    22039095.960
  22039095.000          46.550          44.650
 116904063.966 7  90925393.167 7                  21900072.920    21900079.260
  21900078.720          46.850          44.700
 121923458.027 7  94829388.840 5                  22816301.540    22816309.500
  22816308.060          45.300          35.850
 115898212.165 7  90143056.066 6                  21681158.740    21681164.160
  21681163.920          46.850          40.250
 15  1 27 10  2 50.0000000  0 22G11G06G08G04G17G03G23G31G09G10G20G32
                                G01R24R17R02R12R10R03R18R11R01
 125544663.205 7  97826980.86646                  23890364.420
  23890363.680          47.700          39.300
 120443392.061 7  93851994.395 7  89941491.954 8  22919616.700    22919618.560
  22919617.720          46.900          47.350
 125757779.983 7  97993096.12246                  23930901.240
  23930900.480          47.100          41.000
 129213849.099 7 100686101.96646                  24588588.140
  24588589.580          45.800          36.050
 113932941.909 8  88778867.824 8                  21680725.320    21680723.240
  21680722.800          49.700          48.400
 110039964.737 8  85745424.134 8  82172700.844 8  20939909.060    20939909.320
  20939908.660          49.900          50.250
 108120136.573 8  84249425.35848                  20574572.320
  20574566.700          50.800          49.600
 128911155.651 7 100450245.758 6                  24530975.280    24530974.620
  24530973.780          45.850          41.800
 112901279.423 8  87975046.759 8  84309428.821 8  21484387.140    21484387.460
  21484387.060          49.900          50.200
 126163258.192 7  98309039.13246                  24008071.960
  24008071.920          45.100          36.900
 109220204.710 8  85106614.83248                  20783916.600
  20783913.300          49.350          48.450
 126907687.044 7  98889112.36546                  24149727.660
  24149727.260          46.150          38.500
 115176295.757 8  89747772.268 8  86008269.331 8  21917322.280    21917323.760
  21917323.640          49.750          49.400
 115896339.815 7  90141602.779 6                  21673206.960    21673211.880
  21673209.760          46.050          40.200
 104245851.890 8  81080105.209 8                  19480835.960    19480838.500
  19480837.340          49.000          48.000
 105001772.972 8  81668062.254 7                  19677289.360    19677293.540
  19677292.840          49.200          47.350
 128499592.527 6  99944176.643 6                  24055392.960    24055404.820
  24055404.780          40.150          36.450
 127305765.926 7  99015652.584 5                  23882234.220    23882245.920
  23882245.100          44.150          34.150
 117964529.380 7  91750210.841 7                  22036763.020    22036767.020
  22036765.960          46.650          44.350
 116887587.301 7  90912577.992 7                  21896986.280    21896992.660
  21896992.100          47.250          44.600
 121914980.025 7  94822794.845 5                  22814715.000    22814723.060
  22814721.420          45.100          34.900
 115912430.117 7  90154114.453 6                  21683818.520    21683823.940
  21683823.720          46.650          40.050
 15  1 27 10  2 55.0000000  0 22G11G06G08G04G17G03G23G31G09G10G20G32
                                G01R24R17R02R12R10R03R18R11R01
 125563003.675 7  97841272.14046                  23893854.500
  23893853.780          47.200          37.250
 120428089.899 7  93840070.629 7  89930065.009 8  22916704.760    22916706.640
  22916705.780          46.950          46.300
 125753309.619 7  97989612.73146                  23930050.560
  23930049.820          47.100          38.700
 129231003.621 7 100699469.08545                  24591852.600
  24591854.000          45.900          35.350
 113936765.055 8  88781846.889 7                  21681452.880    21681450.760
  21681450.280          49.450          47.150
 110046599.638 8  85750594.176 8  82177655.473 8  20941171.680    20941171.900
  20941171.240          49.700          49.200
 108116825.131 8  84246845.00748                  20573942.160
  20573936.540          50.800          48.250
 128918368.445 7 100455866.100 6                  24532347.800    24532347.160
  24532346.340          45.300          40.900
 112888475.970 8  87965070.047 8  84299867.805 8  21481950.760    21481951.040
  21481950.660          50.000          49.250
 126148326.710 7  98297404.22646                  24005230.600
  24005230.520          44.950          37.200
 109213435.436 8  85101340.06947                  20782628.460
  20782625.140          49.450          47.150
 126921896.700 7  98900184.80346                  24152431.700
  24152431.280          46.000          38.700
 115188831.264 8  89757540.185 8  86017630.247 8  21919707.740    21919709.200
  21919709.080          49.600          48.300
 115916846.027 7  90157552.038 6                  21677041.740    21677046.620
  21677044.540          45.950          39.750
 104247773.918 8  81081600.107 7                  19481195.100    19481197.680
  19481196.500          48.550          47.600
 105002834.922 8  81668888.203 7                  19677488.400    19677492.500
  19677491.840          48.800          47.100
 128481282.198 6  99929935.332 6                  24051965.200    24051976.980
  24051976.920          39.350          36.400
 127312273.879 7  99020714.309 5                  23883455.100    23883466.900
  23883465.960          44.000          33.650
 117952069.606 7  91740519.901 7                  22034435.400    22034439.400
  22034438.320          46.150          44.200
 116871124.246 7  90899773.391 7                  21893902.140    21893908.580
  21893908.000          46.850          44.050
 121906519.895 7  94816214.723 5                  22813131.860    22813139.860
  22813138.180          45.000          35.150
 115926650.427 7  90165174.658 6                  21686478.740    21686484.140
  21686483.960          47.200          39.950
 15  1 27 10  3  0.0000000  0 22G11G06G08G04G17G03G23G31G09G10G20G32
                                G01R24R17R02R12R10R03R18R11R01
 125581347.746 7  97855566.19046                  23897345.240
  23897344.640          46.550          38.050
 120412791.826 7  93828150.048 7  89918641.128 8  22913793.580    22913795.460
  22913794.680          46.650          46.450
 125748852.388 7  97986139.56446                  23929202.360
  23929201.700          47.250          39.350
 129248161.393 7 100712838.74945                  24595117.600
  24595119.000          45.800          35.350
 113940604.129 8  88784838.371 7                  21682183.460    21682181.320
  21682180.800          49.450          46.950
 110053240.418 8  85755768.806 8  82182614.492 8  20942435.400    20942435.620
  20942434.940          49.850          49.100
 108113527.441 8  84244275.37748                  20573314.640
  20573309.020          50.950          48.050
 128925595.395 7 100461497.472 6                  24533723.040    24533722.400
  24533721.580          45.500          40.800
 112875683.580 8  87955101.946 8  84290315.049 8  21479516.500    21479516.720
  21479516.340          50.000          49.150
 126133398.279 7  98285771.67445                  24002389.780
  24002389.720          44.900          35.150
 109206673.285 8  85096070.85547                  20781341.700
  20781338.340          49.650          46.600
 126936106.460 7  98911257.31946                  24155135.720
  24155135.300          46.700          37.100
 115201375.824 8  89767315.153 8  86026997.929 8  21922094.920    21922096.380
  21922096.240          49.700          48.250
 115937361.811 7  90173508.738 6                  21680878.320    21680883.140
  21680881.100          46.100          40.000
 104249719.222 8  81083113.111 7                  19481558.620    19481561.240
  19481560.000          48.700          47.700
 105003906.816 8  81669721.894 7                  19677689.300    19677693.360
  19677692.680          49.100          47.000
 128462973.292 6  99915695.132 6                  24048537.780    24048549.440
  24048549.440          39.750          37.350
 127318801.412 7  99025791.279 5                  23884679.760    23884691.480
  23884690.500          44.100          34.150
 117939617.235 7  91730834.737 7                  22032109.180    22032113.180
  22032112.100          46.250          44.200
 116854674.648 7  90886979.266 7                  21890820.560    21890827.000
  21890826.380          46.950          44.050
 121898077.546 7  94809648.453 5                  22811551.960    22811559.920
  22811558.260          44.400          35.300
 115940873.147 7  90176236.759 6                  21689139.380    21689144.840
  21689144.640          47.550          40.000
 15  1 27 10  3  5.0000000  0 22G11G06G08G04G17G03G23G31G09G10G20G32
                                G01R24R17R02R12R10R03R18R11R01
 125599695.182 7  97869862.85446                  23900836.580
  23900836.080          46.500          38.300
 120397497.671 7  93816232.543 7  89907220.179 8  22910883.140    22910885.060
  22910884.320          46.950          46.450
 125744408.117 7  97982676.49846                  23928356.640
  23928356.000          47.250          38.800
 129265322.214 7 100726210.78245                  24598383.220
  24598384.540          45.200          34.700
 113944458.984 8  88787842.150 7                  21682917.020    21682914.860
  21682914.340          49.550          47.000
 110059886.950 8  85760947.920 8  82187577.803 8  20943700.180    20943700.400
  20943699.720          49.800          49.050
 108110243.380 8  84241716.37448                  20572689.700
  20572684.080          50.950          48.000
 128932836.372 7 100467139.793 6                  24535100.940    24535100.240
  24535099.520          45.650          40.750
 112862902.106 8  87945142.362 8  84280770.437 8  21477084.280    21477084.460
  21477084.080          50.000          49.100
 126118472.777 7  98274141.42345                  23999549.560
  23999549.480          44.600          35.250
 109199918.110 8  85090807.08647                  20780056.260
  20780052.860          49.700          46.850
 126950316.142 7  98922329.80946                  24157839.780
  24157839.280          46.550          37.400
 115213929.308 8  89777097.078 8  86036372.272 8  21924483.800    21924485.240
  21924485.100          49.600          48.150
 115957887.105 7  90189472.839 6                  21684716.700    21684721.460
  21684719.420          46.050          39.850
 104251687.434 8  81084643.941 7                  19481926.440    19481929.040
  19481927.780          48.800          47.600
 105004988.302 8  81670563.061 7                  19677892.020    19677896.060
  19677895.340          49.350          46.900
 128444665.527 6  99901455.809 6                  24045110.460    24045122.040
  24045122.140          40.150          36.300
 127325348.358 7  99030883.349 5                  23885907.920    23885919.620
  23885918.680          43.500          34.200
 117927172.107 7  91721155.226 7                  22029784.320    22029788.300
  22029787.200          46.550          43.900
 116838238.323 7  90874195.462 7                  21887741.500    21887747.920
  21887747.240          47.000          43.850
 121889652.695 7  94803095.806 5                  22809975.400    22809983.280
  22809981.580          44.400          34.650
 115955097.985 7  90187300.522 6                  21691800.440    21691805.940
  21691805.740          47.750          39.950
 15  1 27 10  3 10.0000000  0 22G11G06G08G04G17G03G23G31G09G10G20G32
                                G01R24R17R02R12R10R03R18R11R01
 125618046.073 7  97884162.21946                  23904328.600
  23904328.240          46.850          38.600
 120382207.551 7  93804318.166 7  89895802.237 8  22907973.520    22907975.440
  22907974.680          46.800          46.300
 125739976.869 7  97979223.60446                  23927513.380
  23927512.820          47.350          38.200
 129282486.142 7 100739585.21646                  24601649.420
  24601650.780          45.450          36.250
 113948329.669 8  88790858.263 7                  21683653.600    21683651.400
  21683650.880          49.650          46.950
 110066539.278 8  85766131.544 8  82192545.436 8  20944966.100    20944966.300
  20944965.620          49.700          49.000
 108106972.996 8  84239168.02748                  20572067.380
  20572061.760          50.850          48.050
 128940091.424 7 100472793.070 6                  24536481.560    24536480.860
  24536480.180          45.600          40.800
 112850131.603 8  87935191.321 8  84271234.028 8  21474654.160    21474654.300
  21474653.940          50.000          49.050
 126103550.250 7  98262513.49845                  23996709.860
  23996709.840          44.850          35.900
 109193169.985 8  85085548.80747                  20778772.140
  20778768.700          49.750          46.650
 126964525.831 7  98933402.26346                  24160543.840
  24160543.220          46.750          36.250
 115226491.767 8  89786885.997 7  86045753.313 8  21926874.380    21926875.760
  21926875.680          49.650          47.950
 115978421.904 7  90205444.335 6                  21688556.840    21688561.580
  21688559.540          46.100          39.750
 104253678.633 8  81086192.648 7                  19482298.540    19482301.160
  19482299.860          48.900          47.650
 105006079.620 8  81671411.855 7                  19678096.560    19678100.580
  19678099.840          49.400          47.000
 128426359.068 6  99887217.510 6                  24041683.380    24041694.940
  24041695.040          40.100          36.650
 127331914.785 7  99035990.553 5                  23887139.820    23887151.440
  23887150.580          43.700          34.200
 117914734.307 7  91711481.396 7                  22027460.820    22027464.780
  22027463.700          46.700          43.950
 116821815.394 7  90861422.083 7                  21884664.940    21884671.360
  21884670.620          47.300          43.900
 121881245.571 7  94796556.943 5                  22808402.120    22808410.080
  22808408.240          44.250          34.800
 115969325.043 7  90198366.005 6                  21694461.860    21694467.460
  21694467.260          47.550          39.650
 15  1 27 10  3 15.0000000  0 22G11G06G08G04G17G03G23G31G09G10G20G32
                                G01R24R17R02R12R10R03R18R11R01
 125636400.036 7  97898463.97646                  23907821.280
  23907820.940          47.300          37.400
 120366921.110 7  93792406.654 7  89884387.039 8  22905064.580    22905066.540
  22905065.760          46.950          46.350
 125735558.304 7  97975780.57046                  23926672.540
  23926671.980          47.350          38.200
 129299652.903 7 100752961.87445                  24604916.200
  24604917.520          45.850          34.300
 113952215.834 8  88793886.424 7                  21684393.120    21684390.920
  21684390.380          49.750          46.900
 110073197.041 8  85771319.400 8  82197517.137 8  20946233.040    20946233.240
  20946232.560          49.800          48.950
 108103715.949 8  84236630.06648                  20571447.580
  20571441.960          50.950          48.000
 128947360.168 7 100478457.016 6                  24537864.780    24537864.020
  24537863.460          45.300          40.900
 112837371.744 8  87925248.579 8  84261705.569 8  21472226.040    21472226.200
  21472225.800          50.100          49.000
 126088630.387 7  98250887.63346                  23993870.680
  23993870.720          44.600          36.050
 109186428.568 8  85080295.74947                  20777489.320
  20777485.860          49.800          46.700
 126978735.229 7  98944474.50546                  24163247.860
  24163247.160          46.600          37.900
 115239062.881 8  89796681.660 7  86055140.818 8  21929266.600    21929267.980
  21929267.880          49.650          47.850
 115998965.933 7  90221423.010 6                  21692398.720    21692403.420
  21692401.340          46.200          39.850
 104255692.600 8  81087759.063 7                  19482674.880    19482677.540
  19482676.240          48.800          47.750
 105007180.311 8  81672267.956 7                  19678302.880    19678306.860
  19678306.100          49.000          47.000
 128408053.619 6  99872979.986 6                  24038256.580    24038268.180
  24038268.160          40.800          36.550
 127338500.405 7  99041112.687 5                  23888375.280    23888386.940
  23888386.060          44.000          33.850
 117902303.514 7  91701813.023 7                  22025138.640    22025142.620
  22025141.500          46.400          44.100
 116805405.498 7  90848658.837 7                  21881590.840    21881597.220
  21881596.440          47.550          44.050
 121872855.775 7  94790031.556 5                  22806832.040    22806840.040
  22806838.200          44.300          35.300
 115983554.039 7  90209432.992 6                  21697123.700    21697129.300
  21697129.140          47.550          39.900
 15  1 27 10  3 20.0000000  0 22G11G06G08G04G17G03G23G31G09G10G20G32
                                G01R24R17R02R12R10R03R18R11R01
 125654757.761 7  97912768.66646                  23911314.720
  23911314.380          47.450          36.400
 120351639.107 7  93780498.603 7  89872975.160 8  22902156.460    22902158.480
  22902157.700          46.600          46.650
 125731153.176 7  97972348.01146                  23925834.260
  23925833.720          47.300          39.000
 129316823.148 7 100766341.25545                  24608183.600
  24608185.060          45.350          34.100
 113956118.202 8  88796927.217 7                  21685135.700    21685133.540
  21685132.980          49.650          46.900
 110079860.990 8  85776512.083 8  82202493.454 8  20947501.140    20947501.340
  20947500.680          49.600          49.100
 108100473.016 8  84234103.10348                  20570830.480
  20570824.840          50.900          48.100
 128954643.361 7 100484132.231 6                  24539250.740    24539250.000
  24539249.480          45.650          41.100
 112824623.275 8  87915314.710 8  84252185.620 8  21469800.100    21469800.220
  21469799.840          50.100          49.100
 126073713.930 7  98239264.44446                  23991032.160
  23991032.240          44.550          36.700
 109179694.608 8  85075048.49947                  20776207.920
  20776204.400          49.750          46.750
 126992945.034 7  98955547.05446                  24165951.980
  24165951.280          46.800          38.250
 115251643.331 8  89806484.600 7  86064535.302 8  21931660.600    21931661.960
  21931661.860          49.650          47.950
 116019519.711 7  90237409.262 6                  21696242.400    21696247.040
  21696245.000          46.450          39.650
 104257730.054 8  81089343.740 7                  19483055.640    19483058.300
  19483057.020          49.000          47.700
 105008291.076 8  81673131.877 7                  19678511.060    19678515.020
  19678514.240          48.800          46.900
 128389749.919 6  99858743.829 6                  24034830.040    24034841.800
  24034841.600          40.800          36.200
 127345105.817 7  99046250.247 5                  23889614.520    23889626.280
  23889625.200          43.900          33.650
 117889880.545 7  91692150.730 7                  22022817.920    22022821.880
  22022820.780          46.300          44.100
 116789009.436 7  90835906.329 7                  21878519.320    21878525.640
  21878524.860          47.450          43.800
 121864484.078 7  94783520.236 5                  22805265.360    22805273.400
  22805271.520          44.850          35.000
 115997785.609 7  90220501.974 6                  21699785.960    21699791.680
  21699791.500          47.100          39.850
 15  1 27 10  3 25.0000000  0 22G11G06G08G04G17G03G23G31G09G10G20G32
                                G01R24R17R02R12R10R03R18R11R01
 125673118.887 7  97927076.02946                  23914808.800
  23914808.400          47.200          37.550
 120336361.127 7  93768593.710 7  89861566.292 8  22899249.160    22899251.180
  22899250.420          46.750          46.850
 125726761.107 7  97968925.63646                  23924998.480
  23924998.000          47.350          39.650
 129333996.510 7 100779723.05445                  24611451.600
  24611453.120          45.350          35.750
 113960036.367 8  88799980.332 7                  21685881.300    21685879.160
  21685878.560          49.450          47.300
 110086530.723 8  85781709.275 8  82207474.094 8  20948770.340    20948770.560
  20948769.900          49.650          49.450
 108097243.776 8  84231586.81648                  20570215.980
  20570210.340          50.850          48.650
 128961940.600 7 100489818.394 6                  24540639.380    24540638.700
  24540638.100          45.400          41.150
 112811885.812 8  87905389.428 8  84242673.879 8  21467376.260    21467376.360
  21467375.980          50.050          49.300
 126058800.449 7  98227643.56046                  23988194.220
  23988194.280          44.950          36.700
 109172967.692 8  85069806.74847                  20774927.840
  20774924.320          49.650          47.150
 127007154.810 7  98966619.58846                  24168656.060
  24168655.320          46.800          38.700
 115264232.746 8  89816294.527 8  86073936.476 8  21934056.320    21934057.660
  21934057.560          49.600          48.300
 116040083.036 7  90253402.947 6                  21700087.860    21700092.540
  21700090.420          46.250          37.950
 104259790.602 8  81090946.392 7                  19483440.700    19483443.380
  19483442.080          49.150          46.400
 105009411.596 8  81674003.395 7                  19678721.080    19678724.980
  19678724.220          48.750          45.750
 128371447.501 6  99844508.659 5                  24031403.800    24031415.440
  24031415.240          40.700          35.100
 127351730.640 7  99051402.868 5                  23890857.340    23890868.960
  23890868.000          44.100          32.400
 117877464.805 7  91682494.066 7                  22020498.540    22020502.500
  22020501.380          46.000          42.450
 116772626.836 7  90823164.320 7                  21875450.300    21875456.640
  21875455.840          46.950          42.850
 121856130.060 7  94777022.658 5                  22803702.040    22803709.980
  22803708.020          44.300          33.150
 116012019.400 7  90231572.701 6                  21702448.720    21702454.360
  21702454.220          47.000          38.000
 15  1 27 10  3 30.0000000  0 22G11G06G08G04G17G03G23G31G09G10G20G32
                                G01R24R17R02R12R10R03R18R11R01
 125691483.352 7  97941385.97346                  23918303.500
  23918303.060          47.000          37.950
 120321087.111 7  93756691.886 7  89850160.385 8  22896342.580    22896344.620
  22896343.880          47.000          47.000
 125722382.030 7  97965513.36546                  23924165.160
  23924164.680          47.400          38.400
 129351172.882 7 100793107.17945                  24614720.180
  24614721.720          45.100          35.150
 113963970.263 8  88803045.699 7                  21686629.880    21686627.760
  21686627.140          49.300          47.250
 110093206.156 8  85786910.900 8  82212458.983 8  20950040.620    20950040.880
  20950040.220          49.550          49.400
 108094028.133 8  84229081.11448                  20569604.080
  20569598.400          50.850          48.550
 128969251.855 7 100495515.463 6                  24542030.680    24542030.040
  24542029.400          45.050          41.300
 112799159.280 8  87895472.650 8  84233170.306 8  21464954.500    21464954.580
  21464954.200          50.050          49.350
 126043889.898 7  98216024.93345                  23985356.860
  23985356.900          44.750          35.250
 109166247.740 8  85064570.41547                  20773649.100
  20773645.560          49.450          47.200
 127021364.479 7  98977692.03946                  24171360.100
  24171359.320          46.650          37.400
 115276831.037 8  89826111.363 8  86083344.281 8  21936453.720    21936455.040
  21936454.920          49.800          48.250
 116060655.746 7  90269403.919 6                  21703935.060    21703939.680
  21703937.620          46.050          38.200
 104261874.028 8  81092566.830 7                  19483830.060    19483832.740
  19483831.440          49.000          46.750
 105010541.722 8  81674882.373 7                  19678932.920    19678936.760
  19678936.000          48.950          46.000
 128353146.422 6  99830274.521 5                  24027977.680    24027989.440
  24027989.140          39.450          35.300
 127358374.800 7  99056570.544 5                  23892103.800    23892115.340
  23892114.420          44.550          32.500
 117865056.461 7  91672843.140 7                  22018180.540    22018184.420
  22018183.360          46.000          42.600
 116756257.624 7  90810432.717 7                  21872383.760    21872390.100
  21872389.320          46.700          43.200
 121847793.653 7  94770538.800 5                  22802141.920    22802149.820
  22802147.880          44.200          33.600
 116026255.186 7  90242644.959 6                  21705111.800    21705117.420
  21705117.320          47.050          38.800
 15  1 27 10  3 35.0000000  0 22G11G06G08G04G17G03G23G31G09G10G20G32
                                G01R24R17R02R12R10R03R18R11R01
 125709851.695 7  97955698.93746                  23921798.920
  23921798.400          46.850          36.850
 120305817.678 7  93744793.629 7  89838757.883 8  22893436.900    22893438.960
  22893438.200          47.100          45.950
 125718016.504 7  97962111.67246                  23923334.460
  23923333.980          47.400          37.650
 129368352.894 7 100806494.18145                  24617989.460
  24617991.020          45.400          34.250
 113967920.457 8  88806123.767 7                  21687381.540    21687379.480
  21687378.840          49.400          46.200
 110099887.854 8  85792117.409 8  82217448.556 8  20951312.120    20951312.360
  20951311.720          49.700          48.600
 108090826.668 8  84226586.46647                  20568994.880
  20568989.180          50.900          47.650
 128976577.603 7 100501223.824 6                  24543424.700    24543424.060
  24543423.460          45.050          40.250
 112786444.249 8  87885564.838 8  84223675.317 8  21462534.920    21462535.000
  21462534.600          49.900          48.650
 126028982.834 7  98204409.06745                  23982520.160
  23982520.180          45.000          34.950
 109159535.323 8  85059339.96047                  20772371.780
  20772368.240          49.550          46.050
 127035574.633 7  98988764.86845                  24174064.220
  24174063.420          46.450          35.700
 115289438.763 8  89835935.557 7  86092759.130 8  21938852.920    21938854.220
  21938854.120          49.850          47.300
 116081238.303 7  90285412.554 6                  21707784.120    21707788.700
  21707786.620          46.000          38.500
 104263981.115 8  81094205.671 7                  19484223.860    19484226.480
  19484225.220          48.950          47.000
 105011682.122 8  81675769.346 7                  19679146.660    19679150.480
  19679149.720          49.200          46.250
 128334847.196 6  99816041.844 5                  24024551.920    24024563.680
  24024563.420          39.950          35.300
 127365038.905 7  99061753.714 5                  23893354.020    23893365.500
  23893364.640          44.700          32.450
 117852655.817 7  91663198.205 7                  22015863.940    22015867.840
  22015866.780          46.000          42.850
 116739902.387 7  90797711.989 7                  21869319.900    21869326.220
  21869325.460          46.700          43.550
 121839475.566 7  94764069.192 5                  22800585.280    22800593.060
  22800591.260          44.250          34.150
 116040493.691 7  90253719.332 6                  21707775.440    21707781.000
  21707780.920          46.650          38.500
 15  1 27 10  3 40.0000000  0 22G11G06G08G04G17G03G23G31G09G10G20G32
                                G01R24R17R02R12R10R03R18R11R01
 125728222.598 7  97970013.89546                  23925294.800
  23925294.240          47.150          37.250
 120290551.474 7  93732897.887 7  89827357.801 8  22890531.820    22890533.920
  22890533.160          47.350          46.150
 125713663.238 7  97958719.51146                  23922506.060
  23922505.600          47.650          37.750
 129385535.175 7 100819882.93145                  24621259.160
  24621260.720          45.550          34.800
 113971885.618 8  88809213.488 7                  21688136.080    21688134.040
  21688133.380          49.400          46.350
 110106574.498 8  85797327.776 8  82222441.829 8  20952584.540    20952584.800
  20952584.160          49.700          48.750
 108087638.065 8  84224101.83747                  20568388.100
  20568382.420          50.850          47.800
 128983916.607 7 100506942.532 6                  24544821.280    24544820.720
  24544820.100          45.250          40.100
 112773739.426 8  87875664.976 8  84214187.953 8  21460117.300    21460117.340
  21460116.940          49.800          48.650
 126014077.943 7  98192794.86045                  23979683.860
  23979683.920          44.950          35.500
 109152829.117 8  85054114.34247                  20771095.640
  20771092.100          49.350          46.450
 127049784.013 7  98999837.08346                  24176768.220
  24176767.400          46.450          37.850
 115302054.634 8  89845766.092 7  86102180.053 8  21941253.680    21941254.960
  21941254.840          49.600          47.350
 116101829.491 7  90301427.908 6                  21711634.780    21711639.340
  21711637.240          46.000          38.750
 104266110.379 8  81095861.757 7                  19484621.780    19484624.420
  19484623.140          49.000          47.100
 105012831.386 8  81676663.224 7                  19679362.040    19679365.900
  19679365.100          48.900          46.400
 128316548.562 6  99801809.619 5                  24021126.400    24021138.080
  24021137.760          39.850          35.400
 127371721.597 7  99066951.359 5                  23894607.720    23894619.120
  23894618.200          43.900          32.150
 117840261.770 7  91653558.400 7                  22013548.660    22013552.500
  22013551.420          46.150          42.750
 116723559.823 7  90785001.116 7                  21866258.400    21866264.760
  21866263.980          47.250          43.950
 121831174.331 7  94757612.657 5                  22799031.780    22799039.600
  22799037.760          44.600          34.300
 116054733.638 7  90264794.831 6                  21710439.340    21710444.920
  21710444.800          46.700          38.900
 15  1 27 10  3 45.0000000  0 22G11G06G08G04G17G03G23G31G09G10G20G32
                                G01R24R17R02R12R10R03R18R11R01
 125746597.307 7  97984331.83046                  23928791.440
  23928790.900          47.300          38.200
 120275289.769 7  93721005.656 7  89815961.081 8  22887627.620    22887629.720
  22887628.960          47.200          46.300
 125709323.454 7  97955337.87546                  23921680.180
  23921679.820          47.400          38.800
 129402720.881 7 100833274.36145                  24624529.500
  24624531.080          45.550          35.900
 113975866.964 8  88812315.830 7                  21688893.680    21688891.680
  21688891.020          49.400          46.500
 110113267.330 8  85802542.962 8  82227439.709 8  20953858.140    20953858.420
  20953857.800          49.850          48.850
 108084463.561 8  84221628.20147                  20567784.040
  20567778.320          50.900          47.750
 128991270.070 7 100512672.483 6                  24546220.600    24546220.060
  24546219.460          45.600          40.300
 112761046.024 8  87865774.017 8  84204709.112 8  21457701.840    21457701.880
  21457701.460          49.800          48.850
 125999176.472 7  98181183.33745                  23976848.160
  23976848.260          44.650          35.850
 109146130.387 8  85048894.55047                  20769820.940
  20769817.360          49.300          46.600
 127063993.757 7  99010909.59746                  24179472.320
  24179471.480          46.350          36.050
 115314679.833 8  89855603.901 7  86111607.953 8  21943656.200    21943657.460
  21943657.360          49.650          47.550
 116122430.318 7  90317450.765 6                  21715487.220    21715491.800
  21715489.680          45.800          39.000
 104268263.063 8  81097536.061 7                  19485024.080    19485026.720
  19485025.460          49.000          47.200
 105013990.753 8  81677564.957 7                  19679579.320    19679583.160
  19679582.380          49.100          46.550
 128298251.777 6  99787578.816 5                  24017701.140    24017712.820
  24017712.480          40.050          35.550
 127378424.182 7  99072164.475 5                  23895865.180    23895876.640
  23895875.520          44.250          32.200
 117827875.408 7  91643924.581 7                  22011234.760    22011238.560
  22011237.460          46.700          42.850
 116707231.122 7  90772301.021 7                  21863199.500    21863205.840
  21863205.120          47.200          44.100
 121822891.280 7  94751170.280 5                  22797481.680    22797489.480
  22797487.700          44.850          34.400
 116068976.164 7  90275872.333 6                  21713103.740    21713109.300
  21713109.180          47.300          39.300
 15  1 27 10  3 50.0000000  0 22G11G06G08G04G17G03G23G31G09G10G20G32
                                G01R24R17R02R12R10R03R18R11R01
 125764974.663 7  97998651.82346                  23932288.640
  23932288.040          47.800          36.900
 120260031.450 7  93709116.069 7  89804566.886 8  22884724.060    22884726.160
  22884725.420          47.300          46.250
 125704996.071 7  97951965.90146                  23920856.720
  23920856.400          47.300          37.800
 129419909.017 7 100846667.66945                  24627800.320
  24627801.860          45.150          34.700
 113979863.416 8  88815429.934 7                  21689654.180    21689652.160
  21689651.520          49.400          46.750
 110119965.232 8  85807762.102 8  82232441.387 8  20955132.720    20955133.000
  20955132.380          49.950          48.900
 108081302.098 8  84219164.72748                  20567182.440
  20567176.720          50.800          48.100
 128998636.854 7 100518412.821 6                  24547622.460    24547621.920
  24547621.380          45.800          40.250
 112748362.962 8  87855891.118 8  84195238.010 8  21455288.360    21455288.360
  21455287.960          50.000          48.950
 125984277.349 7  98169573.65946                  23974012.900
  23974013.080          43.900          36.600
 109139437.996 8  85043679.69447                  20768547.440
  20768543.820          49.300          46.650
 127078202.764 7  99021981.53346                  24182176.240
  24182175.340          46.600          36.800
 115327313.296 8  89865448.145 7  86121042.019 8  21946060.300    21946061.540
  21946061.420          49.650          47.600
 116143039.950 7  90333480.453 6                  21719341.320    21719345.960
  21719343.760          45.800          38.650
 104270438.175 8  81099227.808 7                  19485430.540    19485433.200
  19485431.960          49.000          47.250
 105015159.126 8  81678473.678 7                  19679798.300    19679802.120
  19679801.340          49.100          46.700
 128279955.722 6  99773348.571 5                  24014275.940    24014287.700
  24014287.280          38.700          35.300
 127385145.526 7  99077392.189 5                  23897126.120    23897137.480
  23897136.420          44.250          32.950
 117815495.673 7  91634295.911 7                  22008922.120    22008925.880
  22008924.780          46.300          43.050
 116690915.301 7  90759610.957 7                  21860143.060    21860149.320
  21860148.660          47.300          44.000
 121814625.286 7  94744741.195 5                  22795934.800    22795942.680
  22795940.880          44.900          34.750
 116083220.069 7  90286950.917 6                  21715768.380    21715773.940
  21715773.820          47.300          39.000
 15  1 27 10  3 55.0000000  0 22G11G06G08G04G17G03G23G31G09G10G20G32
                                G01R24R17R02R12R10R03R18R11R01
 125783357.681 7  98012976.23246                  23935786.920
  23935786.340          47.200          38.300
 120244779.506 7  93697231.437 7  89793177.447 8  22881821.740    22881823.820
  22881823.120          47.300          46.300
 125700684.076 7  97948605.91946                  23920036.180
  23920035.860          47.400          37.900
 129437102.473 7 100860065.13645                  24631072.140
  24631073.760          45.450          35.650
 113983877.903 8  88818558.093 7                  21690418.120    21690416.100
  21690415.500          49.200          46.850
 110126671.170 8  85812987.508 8  82237449.064 8  20956408.820    20956409.120
  20956408.480          49.900          48.950
 108078156.625 8  84216713.70648                  20566583.900
  20566578.140          50.750          48.000
 129006019.943 7 100524165.874 6                  24549027.460    24549026.880
  24549026.380          45.700          40.050
 112735693.211 8  87846018.589 8  84185776.828 8  21452877.440    21452877.400
  21452876.980          50.200          48.950
 125969383.477 7  98157968.06146                  23971178.640
  23971178.920          44.700          36.000
 109132754.913 8  85038472.09047                  20767275.740
  20767272.060          49.300          46.850
 127092414.080 7  99033055.28246                  24184880.580
  24184879.700          46.300          36.400
 115339957.944 8  89875301.109 7  86130484.435 8  21948466.540    21948467.760
  21948467.640          49.650          47.750
 116163661.046 7  90349519.071 6                  21723197.600    21723202.200
  21723200.020          45.750          38.650
 104272638.562 8  81100939.214 7                  19485841.740    19485844.380
  19485843.140          49.000          47.150
 105016339.419 8  81679391.676 7                  19680019.520    19680023.300
  19680022.580          49.200          46.800
 128261663.525 6  99759121.342 5                  24010851.600    24010863.200
  24010862.900          39.950          35.700
 127391888.480 7  99082636.702 5                  23898391.120    23898402.420
  23898401.420          44.150          32.850
 117803125.563 7  91624674.729 7                  22006611.280    22006614.980
  22006613.900          46.050          43.250
 116674615.396 7  90746933.264 7                  21857089.580    21857095.760
  21857095.160          47.400          43.900
 121806379.265 7  94738327.625 5                  22794391.700    22794399.640
  22794397.820          44.200          34.700
 116097468.384 7  90298032.921 6                  21718433.840    21718439.460
  21718439.300          47.500          38.950
 15  1 27 10  4  0.0000000  0 22G11G06G08G04G17G03G23G31G09G10G20G32
                                G01R24R17R02R12R10R03R18R11R01
 125801742.612 7  98027302.12146                  23939285.540
  23939284.940          47.200          38.300
 120229530.210 7  93685348.879 7  89781789.992 8  22878919.900    22878921.980
  22878921.280          47.400          46.350
 125696383.728 7  97945255.01246                  23919217.840
  23919217.520          47.300          38.250
 129454297.540 7 100873463.83746                  24634344.220
  24634345.900          45.500          36.300
 113987906.663 8  88821697.372 7                  21691184.760    21691182.760
  21691182.180          49.250          47.100
 110133381.406 8  85818216.256 8  82242459.943 8  20957685.720    20957686.020
  20957685.400          49.950          49.000
 108075023.337 8  84214272.18248                  20565987.680
  20565981.880          50.800          48.150
 129013415.562 7 100529928.682 6                  24550434.820    24550434.240
  24550433.780          45.850          40.000
 112723033.042 8  87836153.530 8  84176322.822 8  21450468.340    21450468.260
  21450467.840          50.350          49.150
 125954491.161 7  98146363.65346                  23968344.740
  23968345.000          44.550          37.100
 109126077.418 8  85033268.84447                  20766005.100
  20766001.360          49.400          46.750
 127106623.858 7  99044127.79846                  24187584.620
  24187583.800          46.450          36.850
 115352610.059 8  89885159.888 7  86139932.433 8  21950874.160    21950875.400
  21950875.260          49.750          47.900
 116184290.081 7  90365563.864 6                  21727055.360    21727059.980
  21727057.760          45.650          39.400
 104274860.534 8  81102667.414 7                  19486256.960    19486259.620
  19486258.380          49.100          47.250
 105017527.907 8  81680316.051 7                  19680242.240    19680246.060
  19680245.340          49.300          46.900
 128243371.236 6  99744894.068 5                  24007427.320    24007438.920
  24007438.540          40.000          35.600
 127398649.379 7  99087895.150 5                  23899659.480    23899670.820
  23899669.780          43.800          32.550
 117790761.304 7  91615058.101 7                  22004301.480    22004305.200
  22004304.120          46.350          43.350
 116658327.536 7  90734264.916 7                  21854038.320    21854044.440
  21854043.860          47.600          43.600
 121798149.715 7  94731926.860 5                  22792851.640    22792859.520
  22792857.780          44.050          33.800
 116111717.479 7  90309115.543 6                  21721099.480    21721105.040
  21721104.920          47.500          39.050
 15  1 27 10  4  5.0000000  0 22G11G06G08G04G17G03G23G31G09G10G20G32
                                G01R24R17R02R12R10R03R18R11R01
 125820129.765 7  98041629.74745                  23942784.520
  23942783.860          46.750          35.900
 120214283.957 7  93673468.686 7  89770404.816 8  22876018.660    22876020.720
  22876020.020          47.550          46.150
 125692095.445 7  97941913.51446                  23918401.820
  23918401.460          47.200          38.500
 129471494.576 7 100886864.10045                  24637616.740
  24637618.340          46.100          34.550
 113991950.097 8  88824848.094 7                  21691954.180    21691952.220
  21691951.660          49.450          46.950
 110140096.327 8  85823448.658 8  82247474.342 8  20958963.540    20958963.840
  20958963.220          49.900          48.850
 108071902.623 8  84211840.45548                  20565393.840
  20565388.040          50.800          48.250
 129020824.153 7 100535701.590 6                  24551844.660    24551844.100
  24551843.620          46.150          39.900
 112710382.858 8  87826296.250 8  84166876.271 8  21448061.160    21448061.000
  21448060.600          50.350          49.050
 125939600.761 7  98134760.75846                  23965511.180
  23965511.480          44.300          36.850
 109119405.901 8  85028070.24947                  20764735.580
  20764731.800          49.450          46.800
 127120832.589 7  99055199.51846                  24190288.460
  24190287.660          46.050          37.000
 115365270.031 8  89895024.791 7  86149386.304 8  21953283.300    21953284.520
  21953284.380          49.700          47.750
 116204927.214 7  90381614.930 6                  21730914.640    21730919.240
  21730917.020          46.100          39.400
 104277104.410 8  81104412.639 7                  19486676.280    19486678.980
  19486677.680          49.050          47.350
 105018724.988 8  81681247.123 7                  19680466.580    19680470.380
  19680469.700          49.150          46.800
 128225079.395 6  99730667.110 5                  24004003.040    24004014.520
  24004014.180          39.700          35.150
 127405428.562 7  99093167.830 5                  23900931.260    23900942.600
  23900941.540          44.150          32.700
 117778403.289 7  91605446.314 7                  22001992.880    22001996.560
  22001995.520          46.200          43.600
 116642052.183 7  90721606.315 7                  21850989.400    21850995.480
  21850994.880          47.400          43.850
 121789936.940 7  94725539.149 5                  22791314.700    22791322.660
  22791320.860          44.050          34.550
 116125967.591 7  90320198.944 6                  21723765.320    21723770.920
  21723770.740          47.750          38.750
 15  1 27 10  4 10.0000000  0 22G11G06G08G04G17G03G23G31G09G10G20G32
                                G01R24R17R02R12R10R03R18R11R01
 125838520.892 7  98055960.46646                  23946284.240
  23946283.540          47.000          37.100
 120199042.447 7  93661592.184 7  89759023.163 8  22873118.280    22873120.400
  22873119.660          47.550          46.050
 125687820.889 7  97938582.69346                  23917588.380
  23917588.000          47.000          39.100
 129488695.258 7 100900267.18645                  24640889.960
  24640891.600          46.200          35.200
 113996009.909 8  88828011.572 7                  21692726.760    21692724.800
  21692724.240          49.600          46.800
 110146817.652 8  85828686.041 8  82252493.481 8  20960242.540    20960242.860
  20960242.240          49.800          48.800
 108068796.209 8  84209419.86747                  20564802.720
  20564796.920          50.850          47.900
 129028247.353 7 100541485.885 6                  24553257.280    24553256.720
  24553256.240          46.150          39.600
 112697744.361 8  87816448.071 8  84157438.427 8  21445656.180    21445655.980
  21445655.580          50.200          49.000
 125924714.015 7  98123160.70046                  23962678.280
  23962678.580          44.000          36.400
 109112742.035 8  85022877.60847                  20763467.540
  20763463.680          49.600          46.600
 127135041.897 7  99066271.68145                  24192992.360
  24192991.600          46.700          35.900
 115377939.548 8  89904897.126 7  86158847.286 8  21955694.240    21955695.460
  21955695.320          49.600          47.600
 116225574.369 7  90397673.820 6                  21734775.760    21734780.440
  21734778.160          46.200          39.000
 104279372.030 8  81106176.331 7                  19487100.060    19487102.740
  19487101.420          49.150          47.350
 105019932.365 8  81682186.192 7                  19680692.860    19680696.640
  19680695.980          49.150          46.850
 128206789.725 6  99716441.832 5                  24000579.100    24000590.620
  24000590.240          39.600          34.600
 127412227.732 7  99098456.096 5                  23902206.780    23902218.220
  23902216.980          43.950          32.950
 117766053.259 7  91595840.756 7                  21999685.780    21999689.420
  21999688.440          46.150          43.800
 116625790.974 7  90708958.705 7                  21847943.080    21847949.240
  21847948.540          47.250          43.800
 121781742.581 7  94719165.768 5                  22789781.240    22789789.180
  22789787.440          44.700          34.950
 116140220.417 7  90331284.468 6                  21726431.640    21726437.220
  21726437.020          47.550          38.800
 15  1 27 10  4 15.0000000  0 22G11G06G08G04G17G03G23G31G09G10G20G32
                                G01R24R17R02R12R10R03R18R11R01
 125856916.075 7  98070294.35946                  23949784.780
  23949783.940          47.200          36.050
 120183805.834 7  93649719.497 7  89747645.175 8  22870218.860    22870220.940
  22870220.220          47.350          45.950
 125683560.225 7  97935262.70746                  23916777.580
  23916777.200          47.250          38.300
 129505899.813 7 100913673.28146                  24644163.940
  24644165.560          46.400          36.250
 114000086.277 8  88831187.954 7                  21693502.480    21693500.520
  21693500.000          49.650          46.800
 110153545.461 8  85833928.477 8  82257517.493 8  20961522.800    20961523.120
  20961522.500          49.650          48.850
 108065704.246 8  84207010.54948                  20564214.360
  20564208.540          50.800          48.050
 129035685.322 7 100547281.701 6                  24554672.700    24554672.160
  24554671.580          46.050          39.650
 112685117.688 8  87806609.102 8  84148009.418 8  21443253.460    21443253.220
  21443252.820          50.200          49.100
 125909831.058 7  98111563.61445                  23959846.100
  23959846.340          44.500          35.100
 109106085.984 8  85017691.06447                  20762200.980
  20762197.080          49.700          46.600
 127149251.965 7  99077344.45146                  24195696.460
  24195695.640          46.300          36.200
 115390618.740 8  89914777.001 7  86168315.498 8  21958107.020    21958108.260
  21958108.100          49.650          47.600
 116246231.520 7  90413740.477 6                  21738638.820    21738643.440
  21738641.160          46.000          39.550
 104281663.514 8  81107958.590 7                  19487528.260    19487530.940
  19487529.660          49.000          47.550
 105021150.185 8  81683133.381 7                  19680921.100    19680924.840
  19680924.200          48.900          46.900
 128188502.384 6  99702218.376 5                  23997155.680    23997167.180
  23997166.660          39.000          34.350
 127419047.124 7  99103760.050 5                  23903486.060    23903497.460
  23903496.280          43.400          33.700
 117753711.268 7  91586241.442 7                  21997380.140    21997383.820
  21997382.820          45.800          44.000
 116609544.241 7  90696322.360 7                  21844899.480    21844905.680
  21844904.920          46.650          44.050
 121773566.869 7  94712806.887 5                  22788251.260    22788259.280
  22788257.540          44.550          35.300
 116154476.165 7  90342372.268 6                  21729098.520    21729104.140
  21729103.820          47.150          38.700
 15  1 27 10  4 20.0000000  0 22G11G06G08G04G17G03G23G31G09G10G20G32
                                G01R24R17R02R12R10R03R18R11R01
 125875314.422 7  98084630.71946                  23953285.980
  23953285.000          47.350          37.250
 120168573.231 7  93637849.948 7  89736270.189 8  22867320.180    22867322.280
  22867321.540          47.400          45.950
 125679312.561 7  97931952.85246                  23915969.260
  23915968.840          47.200          37.900
 129523107.224 7 100927081.63545                  24647438.420
  24647440.060          46.300          34.800
 114004178.287 8  88834376.531 7                  21694281.180    21694279.220
  21694278.720          49.800          46.900
 110160278.922 8  85839175.324 8  82262545.711 8  20962804.140    20962804.460
  20962803.800          49.650          48.750
 108062625.820 8  84204611.77147                  20563628.580
  20563622.720          50.800          47.900
 129043137.146 7 100553088.309 6                  24556090.720    24556090.240
  24556089.640          46.000          39.900
 112672501.966 8  87796778.682 8  84138588.592 8  21440852.800    21440852.520
  21440852.160          50.250          49.050
 125894950.984 7  98099968.75045                  23957014.480
  23957014.680          44.700          33.600
 109099436.858 8  85012509.92147                  20760935.740
  20760931.800          49.750          46.650
 127163461.867 7  99088417.08646                  24198400.500
  24198399.680          46.400          36.750
 115403306.708 8  89924663.723 7  86177790.266 8  21960521.480    21960522.720
  21960522.520          49.650          47.700
 116266897.816 7  90429814.239 6                  21742503.560    21742508.220
  21742505.880          46.050          39.450
 104283977.829 8  81109758.619 7                  19487960.760    19487963.420
  19487962.140          49.050          47.600
 105022377.523 8  81684087.981 7                  19681151.060    19681154.840
  19681154.220          48.750          46.900
 128170216.497 6  99687996.050 5                  23993732.480    23993743.940
  23993743.440          39.900          34.500
 127425885.679 7  99109078.897 5                  23904769.020    23904780.420
  23904779.160          43.950          33.200
 117741376.478 7  91576647.729 7                  21995075.860    21995079.600
  21995078.580          45.400          43.750
 116593310.969 7  90683696.495 7                  21841858.400    21841864.620
  21841863.860          46.900          44.200
 121765408.872 7  94706461.778 5                  22786724.580    22786732.560
  22786730.900          43.550          35.150
 116168733.979 7  90353461.674 6                  21731765.760    21731771.380
  21731770.980          47.250          38.350
 15  1 27 10  4 25.0000000  0 22G11G06G08G04G17G03G23G31G09G10G20G32
                                G01R24R17R02R12R10R03R18R11R01
 125893716.282 7  98098969.80846                  23956787.820
  23956786.740          47.450          36.450
 120153345.000 7  93625983.796 7  89724898.466 8  22864422.360    22864424.440
  22864423.680          47.750          45.850
 125675078.258 7  97928653.40146                  23915163.480
  23915163.040          47.250          37.350
 129540317.886 7 100940492.48345                  24650713.540
  24650715.120          46.350          34.100
 114008286.221 8  88837577.515 7                  21695062.900    21695060.940
  21695060.480          49.700          46.800
 110167018.326 8  85844426.799 8  82267578.381 8  20964086.600    20964086.940
  20964086.260          49.700          48.700
 108059561.320 8  84202223.84547                  20563045.440
  20563039.560          50.850          47.850
 129050603.191 7 100558905.990 6                  24557511.440    24557510.960
  24557510.320          46.100          39.900
 112659897.527 8  87786957.048 8  84129176.200 8  21438454.300    21438453.980
  21438453.620          50.300          49.000
 125880074.155 7  98088376.44045                  23954183.500
  23954183.520          44.300          34.600
 109092794.987 8  85007334.43347                  20759671.900
  20759667.900          49.800          46.350
 127177671.948 7  99099489.86246                  24201104.580
  24201103.780          46.700          36.250
 115416003.798 8  89934557.550 7  86187271.851 8  21962937.660    21962938.880
  21962938.680          49.550          47.550
 116287573.529 7  90445895.339 6                  21746370.080    21746374.660
  21746372.380          45.850          39.750
 104286315.450 8  81111576.773 7                  19488397.600    19488400.320
  19488398.980          49.150          47.600
 105023614.724 8  81685050.238 7                  19681382.900    19681386.680
  19681386.080          49.100          47.000
 128151932.324 6  99673775.060 5                  23990309.620    23990321.140
  23990320.560          39.050          35.500
 127432743.821 7  99114413.006 5                  23906055.680    23906066.740
  23906065.680          44.200          32.950
 117729049.342 7  91567059.986 7                  21992773.020    21992776.760
  21992775.720          45.450          43.600
 116577091.623 7  90671081.457 7                  21838820.000    21838826.220
  21838825.400          47.100          44.450
 121757269.061 7  94700130.810 5                  22785201.280    22785209.240
  22785207.620          43.900          34.500
 116182994.049 7  90364552.836 6                  21734433.420    21734439.040
  21734438.600          47.100          38.700
 15  1 27 10  4 30.0000000  0 22G11G06G08G04G17G03G23G31G09G10G20G32
                                G01R24R17R02R12R10R03R18R11R01
 125912121.255 7  98113311.32346                  23960290.240
  23960289.140          47.250          36.850
 120138120.713 7  93614120.714 7  89713529.684 8  22861525.280    22861527.340
  22861526.620          47.600          46.100
 125670856.904 7  97925364.04746                  23914360.160
  23914359.680          47.300          38.200
 129557531.328 7 100953905.51445                  24653989.140
  24653990.800          46.250          35.500
 114012409.666 8  88840790.577 7                  21695847.560    21695845.640
  21695845.140          49.600          46.900
 110173763.256 8  85849682.581 8  82272615.169 8  20965370.100    20965370.460
  20965369.780          49.900          48.750
 108056510.272 8  84199846.40348                  20562464.860
  20562458.960          50.800          48.050
 129058082.995 7 100564734.395 6                  24558934.780    24558934.320
  24558933.660          45.850          39.750
 112647303.961 8  87777143.883 8  84119771.924 8  21436057.840    21436057.520
  21436057.140          50.300          49.050
 125865200.134 7  98076786.30945                  23951353.060
  23951353.080          44.300          32.750
 109086159.974 8  85002164.28547                  20758409.340
  20758405.340          49.750          46.650
 127191881.774 7  99110562.44046                  24203808.640
  24203807.820          46.200          37.100
 115428709.557 8  89944458.135 7  86196759.906 8  21965355.500    21965356.700
  21965356.520          49.600          47.650
 116308258.297 7  90461983.469 6                  21750238.260    21750242.880
  21750240.580          45.600          39.650
 104288675.941 8  81113412.695 7                  19488838.720    19488841.440
  19488840.100          49.150          47.350
 105024861.317 8  81686019.809 7                  19681616.500    19681620.320
  19681619.720          48.850          46.950
 128133649.545 6  99659555.165 5                  23986887.040    23986898.440
  23986897.980          38.300          34.650
 127439621.105 7  99119762.009 5                  23907345.840    23907356.760
  23907355.760          43.550          32.650
 117716729.286 7  91557477.720 7                  21990471.500    21990475.280
  21990474.180          45.750          43.800
 116560885.729 7  90658476.879 7                  21835784.100    21835790.360
  21835789.500          47.150          44.600
 121749146.909 7  94693813.577 5                  22783681.280    22783689.340
  22783687.640          44.500          34.700
 116197256.079 7  90375645.513 6                  21737101.420    21737107.020
  21737106.600          47.050          38.800
 15  1 27 10  4 35.0000000  0 22G11G06G08G04G17G03G23G31G09G10G20G32
                                G01R24R17R02R12R10R03R18R11R01
 125930529.161 7  98127655.10946                  23963793.180
  23963792.220          47.100          36.350
 120122900.270 7  93602260.634 7  89702163.769 8  22858628.920    22858630.980
  22858630.240          47.750          46.000
 125666648.356 7  97922084.67346                  23913559.260
  23913558.780          47.150          37.600
 129574747.494 7 100967320.65745                  24657265.300
  24657267.100          46.250          33.700
 114016548.517 8  88844015.650 7                  21696635.180    21696633.240
  21696632.780          49.600          46.850
 110180513.609 8  85854942.590 8  82277656.002 8  20966654.640    20966655.020
  20966654.320          49.850          48.850
 108053472.544 8  84197479.34048                  20561886.820
  20561880.900          50.800          48.100
 129065576.421 7 100570573.411 6                  24560360.720    24560360.280
  24560359.620          45.550          39.850
 112634721.170 8  87767339.119 8  84110375.684 8  21433663.440    21433663.080
  21433662.720          50.300          49.000
 125850328.812 7  98065198.27045                  23948523.100
  23948523.240          43.950          35.050
 109079531.664 8  84996999.36147                  20757148.020
  20757144.040          49.700          46.400
 127206091.214 7  99121634.70445                  24206512.580
  24206511.820          46.000          35.550
 115441423.900 8  89954365.403 7  86206254.361 8  21967774.940    21967776.140
  21967775.940          49.450          47.500
 116328951.828 7  90478078.422 6                  21754108.100    21754112.780
  21754110.420          45.400          39.450
 104291058.986 8  81115266.163 7                  19489284.040    19489286.800
  19489285.440          49.050          47.350
 105026117.115 8  81686996.543 7                  19681851.840    19681855.680
  19681855.100          48.950          46.900
 128115368.100 6  99645336.294 5                  23983464.700    23983476.060
  23983475.560          38.700          34.250
 127446517.414 7  99125125.784 5                  23908639.600    23908650.440
  23908649.400          43.800          32.750
 117704416.277 7  91547900.948 7                  21988171.360    21988175.120
  21988173.960          46.100          43.550
 116544693.197 7  90645882.687 7                  21832750.720    21832756.980
  21832756.100          47.250          44.600
 121741042.181 7  94687509.901 5                  22782164.580    22782172.680
  22782170.960          43.950          34.850
 116211519.746 7  90386739.460 6                  21739769.740    21739775.280
  21739774.900          47.600          39.300
 15  1 27 10  4 40.0000000  0 22G11G06G08G04G17G03G23G31G09G10G20G32
                                G01R24R17R02R12R10R03R18R11R01
 125948940.236 7  98142001.36246                  23967296.680
  23967295.740          46.950          36.700
 120107683.899 7  93590403.728 7  89690800.901 8  22855733.360    22855735.420
  22855734.640          47.700          46.050
 125662452.846 7  97918815.45546                  23912760.840
  23912760.380          47.100          37.800
 129591966.553 7 100980738.06245                  24660542.020
  24660543.860          46.200          32.850
 114020702.958 8  88847252.872 7                  21697425.740    21697423.820
  21697423.360          49.400          46.900
 110187269.588 8  85860206.983 8  82282701.049 8  20967940.240    20967940.660
  20967939.940          49.800          48.900
 108050448.387 8  84195122.85447                  20561311.360
  20561305.420          50.900          47.800
 129073083.707 7 100576423.240 6                  24561789.280    24561788.840
  24561788.160          45.600          39.800
 112622149.364 8  87757542.913 8  84100987.657 8  21431271.100    21431270.740
  21431270.360          50.000          49.000
 125835460.427 7  98053612.53846                  23945693.720
  23945693.920          43.600          37.400
 109072910.270 8  84991839.82747                  20755888.040
  20755884.060          49.600          46.650
 127220300.528 7  99132706.87446                  24209216.520
  24209215.760          46.000          37.000
 115454147.013 8  89964279.505 7  86215755.382 8  21970196.080    21970197.280
  21970197.060          49.400          47.400
 116349654.422 7  90494180.421 6                  21757979.640    21757984.280
  21757981.920          45.200          39.100
 104293464.985 8  81117137.494 7                  19489733.680    19489736.420
  19489735.060          49.000          47.250
 105027382.460 8  81687980.697 7                  19682088.940    19682092.820
  19682092.220          48.750          46.750
 128097088.104 6  99631118.526 5                  23980042.560    23980053.960
  23980053.380          39.700          34.100
 127453432.956 7  99130504.514 5                  23909936.960    23909947.800
  23909946.700          43.900          33.250
 117692110.460 7  91538329.769 7                  21985872.540    21985876.280
  21985875.080          46.350          43.050
 116528514.223 7  90633299.051 7                  21829719.860    21829726.120
  21829725.260          47.150          44.700
 121732955.383 7  94681220.169 5                  22780651.240    22780659.340
  22780657.660          44.400          35.350
 116225785.437 7  90397834.987 6                  21742438.420    21742443.940
  21742443.620          47.700          39.800
 15  1 27 10  4 45.0000000  0 22G11G06G08G04G17G03G23G31G09G10G20G32
                                G01R24R17R02R12R10R03R18R11R01
 125967354.395 7  98156350.03146                  23970800.820
  23970799.820          46.750          37.350
 120092471.549 7  93578549.963 7  89679441.042 8  22852838.580    22852840.580
  22852839.800          47.800          46.000
 125658270.351 7  97915556.37746                  23911964.880
  23911964.480          46.800          38.300
 129609188.497 7 100994157.72045                  24663819.280
  24663821.160          46.100          35.450
 114024872.966 8  88850502.222 7                  21698219.280    21698217.360
  21698216.920          49.300          46.950
 110194031.119 8  85865475.704 8  82287750.240 8  20969226.920    20969227.340
  20969226.620          49.800          48.900
 108047437.769 8  84192776.91648                  20560738.460
  20560732.520          50.800          48.000
 129080604.798 7 100582283.831 6                  24563220.500    24563220.060
  24563219.420          45.100          39.300
 112609588.508 8  87747755.235 8  84091607.803 8  21428880.840    21428880.480
  21428880.100          49.800          48.950
 125820594.894 7  98042029.02646                  23942864.860
  23942865.100          43.550          36.350
 109066295.780 8  84986685.67747                  20754629.340
  20754625.400          49.400          46.650
 127234509.603 7  99143778.87046                  24211920.420
  24211919.620          46.000          36.800
 115466878.858 8  89974200.407 7  86225262.913 8  21972618.860    21972620.060
  21972619.860          49.550          47.600
 116370366.029 7  90510289.441 6                  21761852.840    21761857.460
  21761855.140          45.250          39.050
 104295893.928 8  81119026.663 7                  19490187.600    19490190.320
  19490189.000          49.250          47.550
 105028657.238 8  81688972.190 7                  19682327.840    19682331.740
  19682331.120          49.150          46.850
 128078809.722 6  99616902.048 5                  23976620.720    23976632.000
  23976631.440          40.000          34.050
 127460367.573 7  99135898.078 5                  23911237.920    23911248.820
  23911247.620          44.600          34.400
 117679811.830 7  91528764.184 7                  21983575.080    21983578.760
  21983577.520          47.050          43.250
 116512348.848 7  90620725.992 7                  21826691.560    21826697.780
  21826696.960          47.400          44.800
 121724886.328 7  94674944.242 5                  22779141.240    22779149.440
  22779147.680          45.000          35.100
 116240053.076 7  90408932.016 6                  21745107.480    21745113.020
  21745112.740          47.700          39.950
 15  1 27 10  4 50.0000000  0 22G11G06G08G04G17G03G23G31G09G10G20G32
                                G01R24R17R02R12R10R03R18R11R01
 125985772.995 7  98170702.17446                  23974305.820
  23974304.660          47.150          36.650
 120077264.633 7  93566700.420 7  89668085.228 8  22849944.800    22849946.800
  22849946.000          47.900          46.200
 125654102.248 7  97912308.53446                  23911171.680
  23911171.320          47.050          38.700
 129626414.666 7 101007580.68545                  24667097.340
  24667099.180          45.850          33.550
 114029059.907 8  88853764.770 7                  21699016.040    21699014.140
  21699013.700          49.550          47.150
 110200799.625 8  85870749.865 8  82292804.628 8  20970514.920    20970515.340
  20970514.640          49.800          49.000
 108044442.044 8  84190442.58548                  20560168.420
  20560162.460          50.850          48.250
 129088141.070 7 100588156.251 6                  24564654.620    24564654.240
  24564653.540          45.250          39.700
 112597039.983 8  87737977.169 8  84082237.156 8  21426492.920    21426492.560
  21426492.180          49.600          49.000
 125805733.643 7  98030448.83746                  23940036.860
  23940037.260          43.800          37.050
 109059689.562 8  84981537.97547                  20753372.200
  20753368.300          49.350          47.000
 127248719.904 7  99154851.82446                  24214624.500
  24214623.760          45.050          37.350
 115479620.824 8  89984129.201 7  86234777.995 8  21975043.580    21975044.780
  21975044.580          49.400          47.450
 116391087.925 7  90526406.455 6                  21765727.980    21765732.620
  21765730.240          45.650          39.400
 104298347.187 8  81120934.749 7                  19490646.080    19490648.800
  19490647.480          49.150          47.750
 105029942.911 8  81689972.149 7                  19682568.780    19682572.660
  19682572.060          49.100          46.850
 128060534.299 6  99602687.850 5                  23973199.520    23973210.720
  23973210.200          39.300          34.900
 127467322.734 7  99141307.647 5                  23912542.680    23912553.780
  23912552.360          43.850          33.700
 117667521.740 7  91519205.234 7                  21981279.200    21981282.880
  21981281.600          46.400          43.750
 116496198.459 7  90608164.591 7                  21823666.000    21823672.260
  21823671.440          47.350          44.700
 121716836.423 7  94668683.202 5                  22777634.820    22777642.980
  22777641.260          44.250          35.050
 116254324.051 7  90420031.655 6                  21747777.160    21747782.680
  21747782.500          46.900          40.050
 15  1 27 10  4 55.0000000  0 22G11G06G08G04G17G03G23G31G09G10G20G32
                                G01R24R17R02R12R10R03R18R11R01
 126004193.071 7  98185055.46246                  23977811.100
  23977809.820          47.250          36.050
 120062060.178 7  93554852.793 7  89656731.250 8  22847051.520    22847053.500
  22847052.640          47.900          45.950
 125649945.586 7  97909069.58146                  23910380.660
  23910380.340          47.100          37.400
 129643642.054 7 101021004.59145                  24670375.620
  24670377.460          45.600          35.000
 114033260.814 8  88857038.187 7                  21699815.480    21699813.560
  21699813.140          49.550          47.000
 110207572.107 8  85876027.112 8  82297861.992 8  20971803.680    20971804.120
  20971803.400          49.750          48.950
 108041458.269 8  84188117.56448                  20559600.640
  20559594.660          50.800          48.000
 129095689.545 7 100594038.171 6                  24566091.040    24566090.680
  24566089.960          45.000          39.600
 112584500.835 8  87728206.403 8  84072873.501 8  21424106.780    21424106.420
  21424106.040          49.650          48.900
 125790873.653 7  98018869.63245                  23937209.080
  23937209.620          43.550          34.950
 109053088.667 8  84976394.41247                  20752116.060
  20752112.220          49.200          46.800
 127262928.422 7  99165923.33546                  24217328.220
  24217327.580          45.700          37.200
 115492369.882 8  89994063.515 7  86244298.380 8  21977469.660    21977470.860
  21977470.640          49.450          47.600
 116411817.232 7  90542529.237 6                  21769604.480    21769609.060
  21769606.740          45.350          39.000
 104300821.644 8  81122859.316 7                  19491108.540    19491111.240
  19491109.900          49.250          47.500
 105031236.385 8  81690978.176 7                  19682811.140    19682815.080
  19682814.440          48.750          46.950
 128042258.798 6  99588473.597 5                  23969778.260    23969789.280
  23969788.960          38.350          34.850
 127474295.557 7  99146730.946 5                  23913850.820    23913861.860
  23913860.440          43.250          33.050
 117655237.303 7  91509650.685 7                  21978984.360    21978988.020
  21978986.780          46.200          43.900
 116480060.054 7  90595612.499 7                  21820642.700    21820649.020
  21820648.180          47.100          44.100
 121708802.744 7  94662434.800 5                  22776131.440    22776139.540
  22776137.840          44.250          33.900
 116268595.165 7  90431131.386 6                  21750446.880    21750452.400
  21750452.300          46.600          40.000
 15  1 27 10  5  0.0000000  0 22G11G06G08G04G17G03G23G31G09G10G20G32
                                G01R24R17R02R12R10R03R18R11R01
 126022616.726 7  98199411.54346                  23981317.060
  23981315.720          46.850          37.550
 120046860.285 8  93543008.725 7  89645380.698 8  22844159.100    22844161.020
  22844160.180          48.100          45.950
 125645802.437 7  97905841.17646                  23909592.180
  23909591.940          47.050          37.900
 129660872.640 7 101034430.98145                  24673654.540
  24673656.400          45.700          35.050
 114037477.794 8  88860324.141 7                  21700617.980    21700616.040
  21700615.640          49.450          47.000
 110214350.664 8  85881309.100 8  82302923.905 8  20973093.580    20973094.040
  20973093.340          49.750          48.950
 108038488.475 8  84185803.43848                  20559035.500
  20559029.520          50.700          48.000
 129103252.266 7 100599931.190 6                  24567530.180    24567529.820
  24567529.120          44.800          39.450
 112571973.153 8  87718444.577 8  84063518.430 8  21421722.820    21421722.460
  21421722.100          49.700          48.800
 125776017.016 7  98007293.06145                  23934381.960
  23934382.480          43.750          35.550
 109046495.172 8  84971256.62447                  20750861.340
  20750857.520          49.200          46.850
 127277137.216 7  99176995.12446                  24220032.040
  24220031.420          45.800          36.050
 115505128.175 8  90004005.034 7  86253825.675 8  21979897.460    21979898.680
  21979898.480          49.250          47.700
 116432555.887 7  90558659.295 6                  21773482.720    21773487.260
  21773485.000          45.900          39.050
 104303319.411 8  81124802.024 7                  19491575.340    19491578.040
  19491576.680          49.300          47.500
 105032539.801 8  81691991.946 7                  19683055.360    19683059.340
  19683058.700          48.750          46.900
 128023985.314 6  99574260.917 5                  23966357.380    23966368.280
  23966368.100          38.550          35.100
 127481287.955 7  99152169.453 5                  23915162.600    23915173.720
  23915172.180          43.400          32.950
 117642960.387 7  91500101.987 7                  21976690.880    21976694.640
  21976693.400          46.050          44.050
 116463935.798 7  90583071.411 7                  21817622.060    21817628.340
  21817627.540          47.300          44.350
 121700787.429 7  94656200.655 5                  22774631.460    22774639.400
  22774637.820          44.250          34.850
 116282868.834 7  90442233.097 6                  21753117.080    21753122.620
  21753122.580          46.950          39.700
 15  1 27 10  5  5.0000000  0 22G11G06G08G04G17G03G23G31G09G10G20G32
                                G01R24R17R02R12R10R03R18R11R01
 126041045.749 7  98213771.79046                  23984823.960
  23984822.680          46.250          37.500
 120031666.758 8  93531169.619 7  89634034.887 8  22841267.920    22841269.780
  22841268.940          48.400          45.950
 125641674.625 7  97902624.70946                  23908806.640
  23908806.440          47.000          38.350
 129678108.450 7 101047861.43945                  24676934.420
  24676936.380          45.350          35.550
 114041712.580 8  88863623.960 7                  21701423.860    21701421.900
  21701421.500          49.650          46.900
 110221137.093 8  85886597.218 8  82307991.675 8  20974385.000    20974385.460
  20974384.780          49.850          49.050
 108035534.491 8  84183501.63247                  20558473.380
  20558467.400          50.900          47.950
 129110831.102 7 100605836.777 6                  24568972.360    24568972.000
  24568971.360          45.350          39.600
 112559458.736 8  87708693.093 8  84054173.252 8  21419341.400    21419341.020
  21419340.660          50.000          48.750
 125761165.543 7  97995720.49845                  23931555.800
  23931556.240          44.250          35.500
 109039910.883 8  84966126.00747                  20749608.360
  20749604.540          49.200          46.400
 127291348.085 7  99188068.50046                  24222736.260
  24222735.640          45.600          37.100
 115517897.473 8  90013955.124 7  86263361.176 8  21982327.380    21982328.600
  21982328.400          49.400          47.800
 116453305.975 7  90574798.250 6                  21777363.100    21777367.660
  21777365.400          45.400          39.250
 104305842.439 8  81126764.370 7                  19492046.860    19492049.520
  19492048.160          49.200          47.300
 105033854.961 8  81693014.845 7                  19683301.780    19683305.800
  19683305.160          49.000          46.800
 128005708.69716  99560041.22915                  23962937.260    23962948.160
  23962948.000          38.300          35.600
 127488301.864 7  99157624.714 5                  23916478.360    23916489.460
  23916487.940          43.050          33.250
 117630693.064 7  91490560.734 7                  21974399.240    21974403.040
  21974401.820          45.850          44.350
 116447827.506 7  90570542.745 7                  21814604.380    21814610.760
  21814609.940          47.400          44.400
 121692792.205 7  94649982.163 5                  22773135.240    22773143.320
  22773141.580          44.400          34.500
 116297146.670 7  90453338.064 6                  21755788.080    21755793.600
  21755793.600          47.250          39.400
 15  1 27 10  5 10.0000000  0 22G11G06G08G04G17G03G23G31G09G10G20G32
                                G01R24R17R02R12R10R03R18R11R01
 126059476.946 7  98228133.70146                  23988331.240
  23988330.120          46.600          37.500
 120016476.400 8  93519332.974 7  89622691.446 8  22838377.320    22838379.120
  22838378.300          48.550          46.150
 125637558.929 7  97899417.67946                  23908023.420
  23908023.260          46.950          38.750
 129695346.199 7 101061293.39345                  24680214.660
  24680216.640          45.400          35.100
 114045961.983 8  88866935.173 7                  21702232.540    21702230.520
  21702230.140          49.650          47.050
 110227928.178 8  85891888.956 8  82313062.926 8  20975677.300    20975677.760
  20975677.080          49.800          49.200
 108032593.148 8  84181209.67548                  20557913.660
  20557907.680          50.950          48.350
 129118422.787 7 100611752.356 6                  24570417.000    24570416.560
  24570415.900          45.550          40.050
 112546954.408 8  87698949.467 8  84044835.610 8  21416961.900    21416961.520
  21416961.140          50.050          48.900
 125746316.053 7  97984149.48346                  23928730.040
  23928730.420          44.650          36.350
 109033332.585 8  84961000.05047                  20748356.540
  20748352.720          49.300          47.050
 127305557.850 7  99199141.02846                  24225440.260
  24225439.620          46.200          36.050
 115530674.555 8  90023911.280 8  86272902.488 8  21984758.760    21984760.020
  21984759.840          49.300          48.050
 116474063.934 7  90590943.309 6                  21781244.960    21781249.500
  21781247.280          45.500          39.250
 104308387.444 8  81128743.812 7                  19492522.500    19492525.140
  19492523.780          49.200          47.300
 105035178.665 8  81694044.390 7                  19683549.820    19683553.880
  19683553.260          48.800          46.700
 127987439.671 6  99545831.989 5                  23959517.220    23959528.280
  23959528.040          38.250          35.900
 127495333.951 7  99163094.093 5                  23917797.540    23917808.660
  23917807.160          43.100          33.350
 117618431.916 7  91481024.298 7                  21972108.800    21972112.600
  21972111.400          45.900          44.250
 116431731.985 7  90558024.017 7                  21811589.140    21811595.520
  21811594.740          47.200          44.600
 121684813.949 7  94643776.833 5                  22771642.260    22771650.260
  22771648.480          44.100          34.300
 116311425.458 7  90464443.775 6                  21758459.240    21758464.720
  21758464.740          47.600          38.550
 15  1 27 10  5 15.0000000  0 22G11G06G08G04G17G03G23G31G09G10G20G32
                                G01R24R17R02R12R10R03R18R11R01
 126077911.274 7  98242498.08446                  23991839.180
  23991838.140          46.900          37.150
 120001290.233 8  93507499.602 7  89611351.122 8  22835487.560    22835489.260
  22835488.480          48.450          46.350
 125633456.373 7  97896220.90446                  23907242.720
  23907242.580          47.000          38.800
 129712586.830 7 101074727.62045                  24683495.400
  24683497.380          45.100          33.600
 114050227.006 8  88870258.558 7                  21703044.160    21703042.120
  21703041.740          49.600          46.900
 110234724.902 8  85897185.095 8  82318138.388 8  20976970.700    20976971.160
  20976970.480          49.700          49.250
 108029665.383 8  84178928.30048                  20557356.540
  20557350.560          50.850          48.200
 129126028.331 7 100617678.755 6                  24571864.280    24571863.860
  24571863.200          45.300          39.700
 112534461.155 8  87689214.473 8  84035506.235 8  21414584.500    21414584.120
  21414583.740          49.900          49.000
 125731469.526 7  97972580.79045                  23925904.820
  23925905.220          44.600          34.950
 109026761.281 8  84955879.55047                  20747106.040
  20747102.240          49.200          46.950
 127319767.485 7  99210213.46446                  24228144.240
  24228143.640          45.750          37.700
 115543460.440 8  90033874.293 8  86282450.361 8  21987191.820    21987193.100
  21987192.920          49.300          48.000
 116494830.882 7  90607095.356 6                  21785128.460    21785133.040
  21785130.840          45.600          39.450
 104310955.352 8  81130741.070 7                  19493002.400    19493005.020
  19493003.640          49.300          47.400
 105036511.811 8  81695081.279 7                  19683799.640    19683803.720
  19683803.080          48.700          46.800
 127969172.574 6  99531624.275 5                  23956097.540    23956108.740
  23956108.380          38.100          34.650
 127502385.243 7  99168578.413 5                  23919120.400    23919131.500
  23919130.020          43.400          33.300
 117606178.142 7  91471493.595 7                  21969819.680    21969823.540
  21969822.320          46.100          44.150
 116415650.212 7  90545515.981 7                  21808576.480    21808582.860
  21808582.120          47.800          44.850
 121676853.671 7  94637585.512 5                  22770152.680    22770160.680
  22770158.740          44.000          34.650
 116325706.223 7  90475551.039 6                  21761130.780    21761136.240
  21761136.220          47.600          38.200
 15  1 27 10  5 20.0000000  0 22G11G06G08G04G17G03G23G31G09G10G20G32
                                G01R24R17R02R12R10R03R18R11R01
 126096348.363 7  98256864.61546                  23995347.720
  23995346.640          47.750          36.900
 119986107.897 8  93495669.212 7  89600013.669 8  22832598.480    22832600.120
  22832599.380          48.600          46.700
 125629366.615 7  97893034.08846                  23906464.460
  23906464.320          47.200          38.100
 129729829.965 7 101088163.78045                  24686776.700
  24686778.720          45.450          35.600
 114054507.272 8  88873593.824 7                  21703858.720    21703856.640
  21703856.220          49.900          46.850
 110241526.920 8  85902485.364 8  82323217.811 8  20978265.120    20978265.560
  20978264.880          49.650          49.200
 108026750.794 8  84176657.18548                  20556801.920
  20556795.920          50.850          48.350
 129133647.373 7 100623615.667 6                  24573314.140    24573313.700
  24573313.040          45.600          39.950
 112521978.617 8  87679487.828 8  84026184.871 8  21412209.140    21412208.740
  21412208.380          49.900          48.950
 125716625.591 7  97961014.09945                  23923080.060
  23923080.480          44.800          35.950
 109020196.570 8  84950764.18847                  20745856.780
  20745853.000          49.300          46.950
 127333976.607 7  99221285.47346                  24230848.120
  24230847.580          46.350          38.100
 115556254.738 8  90043843.866 8  86292004.543 8  21989626.500    21989627.820
  21989627.640          49.450          48.000
 116515606.503 7  90623254.150 6                  21789013.580    21789018.300
  21789016.060          45.400          39.800
 104313545.887 8  81132755.933 7                  19493486.500    19493489.120
  19493487.760          49.200          47.400
 105037854.082 8  81696125.268 7                  19684051.140    19684055.280
  19684054.620          48.650          46.750
 127950906.793 6  99517417.567 5                  23952678.180    23952689.160
  23952688.920          37.950          34.050
 127509455.352 7  99174077.379 5                  23920446.740    23920457.900
  23920456.360          43.000          33.250
 117593931.233 7  91461968.242 7                  21967531.860    21967535.660
  21967534.480          46.200          43.750
 116399581.893 7  90533018.403 7                  21805566.340    21805572.740
  21805572.000          47.700          44.900
 121668910.971 7  94631407.878 5                  22768666.280    22768674.260
  22768672.320          43.950          34.500
 116339988.467 7  90486659.453 6                  21763802.580    21763808.060
  21763808.020          47.600          38.250
 15  1 27 10  5 25.0000000  0 22G11G06G08G04G17G03G23G31G09G10G20G32
                                G01R24R17R02R12R10R03R18R11R01
 126114787.941 7  98271233.11945                  23998856.720
  23998855.600          47.300          35.750
 119970929.108 8  93483841.590 7  89588678.863 8  22829710.080    22829711.700
  22829710.980          48.250          46.650
 125625289.362 7  97889857.01846                  23905688.600
  23905688.420          47.400          39.100
 129747075.362 7 101101601.72045                  24690058.420
  24690060.460          45.450          34.900
 114058802.478 8  88876940.731 7                  21704676.100    21704674.000
  21704673.560          49.900          46.900
 110248333.946 8  85907789.528 8  82328300.970 8  20979560.460    20979560.900
  20979560.240          49.800          49.150
 108023849.228 8  84174396.22348                  20556249.760
  20556243.780          50.900          48.350
 129141279.619 7 100629562.850 6                  24574766.500    24574766.120
  24574765.420          45.450          39.950
 112509506.544 8  87669769.330 8  84016871.312 8  21409835.760    21409835.400
  21409835.000          49.850          49.000
 125701783.989 7  97949449.23746                  23920255.780
  23920256.220          44.500          36.250
 109013638.231 8  84945653.79247                  20744608.780
  20744604.980          49.350          46.950
 127348184.967 7  99232356.92246                  24233551.900
  24233551.360          46.050          36.100
 115569057.185 8  90053819.787 8  86301564.796 8  21992062.720    21992064.060
  21992063.900          49.550          48.050
 116536390.178 7  90639419.204 6                  21792900.240    21792904.940
  21792902.780          45.400          39.650
 104316158.668 8  81134788.096 7                  19493974.760    19493977.380
  19493976.020          49.300          47.450
 105039205.211 8  81697176.146 7                  19684304.320    19684308.480
  19684307.800          48.900          46.800
 127932642.125 6  99503211.733 5                  23949259.060    23949269.900
  23949269.620          39.100          34.550
 127516543.948 7  99179590.731 5                  23921776.620    23921787.700
  23921786.240          43.900          33.550
 117581690.959 7  91452448.041 7                  21965245.200    21965249.040
  21965247.860          46.200          43.550
 116383526.736 7  90520531.058 7                  21802558.700    21802565.060
  21802564.340          47.400          44.950
 121660985.467 7  94625243.582 5                  22767183.140    22767191.060
  22767189.120          43.900          34.700
 116354272.132 7  90497768.966 6                  21766474.620    21766480.220
  21766480.060          47.600          38.400
 15  1 27 10  5 30.0000000  0 22G11G06G08G04G17G03G23G31G09G10G20G32
                                G01R24R17R02R12R10R03R18R11R01
 126133231.655 7  98285604.80546                  24002366.500
  24002365.260          47.000          36.950
 119955755.543 8  93472018.039 7  89577347.962 8  22826822.620    22826824.280
  22826823.520          48.350          46.400
 125621226.310 7  97886691.00846                  23904915.420
  23904915.220          47.300          38.200
 129764324.701 7 101115042.70945                  24693340.900
  24693342.960          45.250          33.950
 114063114.298 8  88880300.585 7                  21705496.680    21705494.500
  21705494.040          49.900          46.850
 110255147.628 8  85913098.880 8  82333389.099 8  20980857.080    20980857.520
  20980856.840          49.800          49.050
 108020962.283 8  84172146.65147                  20555700.400
  20555694.440          51.050          47.900
 129148926.733 7 100635521.631 6                  24576221.700    24576221.300
  24576220.600          45.400          40.100
 112497046.584 8  87660060.271 8  84007566.797 8  21407464.700    21407464.340
  21407463.940          49.700          49.000
 125686946.333 7  97937887.44645                  23917432.200
  23917432.760          43.900          35.650
 109007087.923 8  84940549.64847                  20743362.280
  20743358.500          49.550          46.850
 127362394.238 7  99243429.04146                  24236255.860
  24236255.280          46.000          36.100
 115581869.416 8  90063803.326 7  86311132.357 8  21994500.840    21994502.180
  21994501.980          49.600          47.900
 116557184.000 7  90655592.156 6                  21796788.760    21796793.560
  21796791.400          45.600          39.600
 104318795.502 8  81136838.955 7                  19494467.480    19494470.140
  19494468.780          49.150          47.600
 105040566.802 8  81698235.161 7                  19684559.500    19684563.660
  19684562.960          48.950          46.950
 127914380.220 6  99489008.029 5                  23945840.380    23945851.160
  23945850.900          39.900          35.200
 127523652.784 7  99185119.792 5                  23923110.240    23923121.300
  23923119.940          42.850          34.550
 117569458.961 7  91442934.267 7                  21962960.120    21962963.980
  21962962.760          46.100          43.600
 116367486.386 7  90508055.239 7                  21799553.800    21799560.140
  21799559.460          46.900          44.950
 121653079.058 7  94619094.183 5                  22765703.500    22765711.380
  22765709.540          44.500          34.250
 116368558.769 7  90508880.777 6                  21769147.240    21769152.880
  21769152.680          47.400          38.350
 15  1 27 10  5 35.0000000  0 22G11G06G08G04G17G03G23G31G09G10G20G32
                                G01R24R17R02R12R10R03R18R11R01
 126151678.035 7  98299978.59246                  24005876.680
  24005875.500          46.250          36.300
 119940585.761 8  93460197.430 7  89566019.880 8  22823935.900    22823937.580
  22823936.820          48.150          46.450
 125617175.989 7  97883534.92646                  23904144.660
  23904144.380          46.850          38.850
 129781576.470 7 101128485.60345                  24696623.820
  24696625.900          45.300          34.200
 114067441.307 8  88883672.270 7                  21706320.120    21706317.900
  21706317.420          49.800          46.950
 110261966.533 8  85918412.300 8  82338481.125 8  20982154.700    20982155.120
  20982154.440          50.050          49.100
 108018088.490 8  84169907.33247                  20555153.540
  20555147.580          51.250          47.950
 129156587.182 7 100641490.812 6                  24577679.480    24577678.980
  24577678.420          45.700          40.100
 112484597.303 8  87650359.528 8  83998270.255 8  21405095.680    21405095.320
  21405094.880          49.750          49.000
 125672111.276 7  97926327.68046                  23914609.160
  23914609.740          43.850          36.350
 109000544.206 8  84935450.63547                  20742117.060
  20742113.260          49.600          47.000
 127376602.924 7  99254500.73445                  24238959.720
  24238959.140          46.200          35.950
 115594689.994 8  90073793.367 7  86320706.150 8  21996940.560    21996941.880
  21996941.680          49.850          47.800
 116577986.255 7  90671771.672 6                  21800678.920    21800683.720
  21800681.580          45.450          39.300
 104321454.830 8  81138907.308 7                  19494964.460    19494967.080
  19494965.760          48.950          47.450
 105041937.389 8  81699301.175 7                  19684816.340    19684820.500
  19684819.800          48.900          46.850
 127896119.663 6  99474805.384 5                  23942421.960    23942432.760
  23942432.440          39.000          35.200
 127530780.452 7  99190663.505 5                  23924447.400    23924458.440
  23924457.140          43.150          33.950
 117557233.809 7  91433425.822 7                  21960676.320    21960680.140
  21960678.980          46.100          43.550
 116351459.435 7  90495589.841 7                  21796551.400    21796557.740
  21796557.080          47.100          44.900
 121645190.244 7  94612958.422 5                  22764227.220    22764235.040
  22764233.260          44.600          35.200
 116382846.864 7  90519993.726 6                  21771820.160    21771825.740
  21771825.560          46.900          39.200
 15  1 27 10  5 40.0000000  0 22G11G06G08G04G17G03G23G31G09G10G20G32
                                G01R24R17R02R12R10R03R18R11R01
 126170128.959 7  98314355.89046                  24009387.700
  24009386.600          46.300          36.950
 119925421.646 8  93448381.241 7  89554696.034 8  22821050.280    22821051.920
  22821051.200          48.100          46.450
 125613140.258 7  97880390.21546                  23903376.660
  23903376.360          46.950          38.500
 129798832.511 7 101141931.82845                  24699907.540
  24699909.700          45.000          35.100
 114071785.332 8  88887057.216 7                  21707146.820    21707144.520
  21707144.040          49.850          46.950
 110268792.482 8  85923731.222 8  82343578.423 8  20983453.660    20983454.060
  20983453.400          50.000          49.050
 108015229.730 8  84167679.73148                  20554609.540
  20554603.560          51.050          48.050
 129164262.871 7 100647471.858 6                  24579140.140    24579139.700
  24579139.080          44.900          40.150
 112472160.565 8  87640668.569 8  83988983.097 8  21402729.020    21402728.680
  21402728.260          49.800          49.150
 125657280.625 7  97914771.33446                  23911786.980
  23911787.540          44.000          36.350
 108994008.918 8  84930358.19747                  20740873.460
  20740869.640          49.600          46.850
 127390812.889 7  99265573.41846                  24241663.780
  24241663.300          46.000          37.550
 115607520.770 8  90083791.368 7  86330287.560 8  21999382.260    21999383.520
  21999383.280          49.950          47.800
 116598798.808 7  90687959.189 6                  21804571.000    21804575.860
  21804573.700          45.100          39.350
 104324138.538 8  81140994.635 7                  19495465.960    19495468.580
  19495467.280          49.100          47.550
 105043318.967 8  81700375.723 7                  19685075.240    19685079.420
  19685078.700          48.650          46.750
 127877862.405 6  99460605.328 5                  23939004.080    23939014.960
  23939014.620          39.750          34.950
 127537928.686 7  99196223.201 5                  23925788.380    23925799.360
  23925798.220          42.800          33.650
 117545017.386 7  91423924.170 7                  21958394.160    21958397.960
  21958396.840          45.900          43.600
 116335447.823 7  90483136.371 7                  21793551.900    21793558.220
  21793557.520          47.150          44.400
 121637320.825 7  94606837.771 5                  22762754.540    22762762.420
  22762760.700          44.250          35.300
 116397138.483 7  90531109.403 6                  21774493.720    21774499.240
  21774499.120          46.550          38.800
 15  1 27 10  5 45.0000000  0 22G11G06G08G04G17G03G23G31G09G10G20G32
                                G01R24R17R02R12R10R03R18R11R01
 126188582.896 7  98328735.55246                  24012899.360
  24012898.340          47.050          37.050
 119910261.734 7  93436568.332 7  89543375.326 8  22818165.420    22818167.080
  22818166.360          47.950          46.450
 125609117.655 7  97877255.73746                  23902611.140
  23902610.840          46.850          38.950
 129816091.388 7 101155380.27345                  24703191.760
  24703193.960          44.300          34.200
 114076144.896 8  88890454.271 7                  21707976.460    21707974.120
  21707973.620          49.850          46.750
 110275624.047 8  85929054.511 8  82348679.904 8  20984753.700    20984754.100
  20984753.400          50.200          49.000
 108012384.572 8  84165462.72548                  20554068.140
  20554062.160          50.900          48.000
 129171952.378 7 100653463.675 6                  24580603.420    24580603.000
  24580602.380          45.200          40.550
 112459734.902 8  87630986.249 8  83979704.189 8  21400364.460    21400364.140
  21400363.740          49.900          49.100
 125642452.922 7  97903217.28246                  23908965.340
  23908965.920          43.950          36.100
 108987480.569 8  84925271.17247                  20739631.160
  20739627.340          49.550          46.750
 127405022.708 7  99276645.97746                  24244367.840
  24244367.420          45.950          38.400
 115620360.264 8  90093796.162 7  86339875.480 8  22001825.620    22001826.780
  22001826.560          49.950          47.800
 116619620.159 7  90704153.558 6                  21808464.720    21808469.560
  21808467.440          45.150          39.300
 104326845.125 8  81143099.760 7                  19495971.740    19495974.340
  19495973.080          49.150          47.600
 105044709.954 8  81701457.604 7                  19685335.900    19685340.100
  19685339.360          48.850          46.900
 127859606.974 6  99446406.682 5                  23935586.560    23935597.520
  23935597.220          39.900          35.200
 127545095.982 7  99201797.755 5                  23927132.960    23927144.020
  23927142.780          43.450          33.200
 117532808.232 7  91414428.172 7                  21956113.420    21956117.180
  21956116.080          46.300          43.950
 116319450.069 7  90470693.671 7                  21790554.940    21790561.280
  21790560.560          47.450          44.550
 121629469.478 7  94600731.199 5                  22761285.200    22761293.140
  22761291.440          44.300          35.200
 116411431.869 7  90542226.475 6                  21777167.660    21777173.100
  21777173.000          46.650          38.950
 15  1 27 10  5 50.0000000  0 22G11G06G08G04G17G03G23G31G09G10G20G32
                                G01R24R17R02R12R10R03R18R11R01
 126207041.135 7  98343118.57546                  24016411.860
  24016410.920          46.750          37.150
 119895107.312 7  93424759.700 7  89532058.717 8  22815281.600    22815283.280
  22815282.560          47.800          46.250
 125605109.495 7  97874132.50646                  23901848.380
  23901848.060          47.200          38.350
 129833354.334 7 101168831.87546                  24706476.740
  24706479.120          44.550          36.000
 114080521.271 8  88893864.419 7                  21708809.280    21708806.920
  21708806.400          49.750          46.750
 110282462.485 8  85934383.160 8  82353786.526 8  20986055.060    20986055.420
  20986054.740          50.050          49.100
 108009554.271 8  84163257.29748                  20553529.540
  20553523.560          50.800          48.100
 129179656.938 7 100659467.222 6                  24582069.560    24582069.100
  24582068.560          45.800          39.800
 112447321.615 8  87621313.564 8  83970434.546 8  21398002.260    21398001.960
  21398001.560          49.800          49.100
 125627629.484 7  97891666.57046                  23906144.520
  23906145.100          44.550          36.400
 108980960.462 8  84920190.56147                  20738390.460
  20738386.640          49.550          46.700
 127419233.627 7  99287719.40246                  24247072.120
  24247071.720          45.650          37.950
 115633209.762 8  90103808.749 7  86349470.880 8  22004270.860    22004271.960
  22004271.720          49.900          47.700
 116640451.664 7  90720355.823 6                  21812360.320    21812365.140
  21812363.100          44.700          39.650
 104329575.983 8  81145223.752 7                  19496482.060    19496484.680
  19496483.420          49.150          47.650
 105046111.697 8  81702547.847 7                  19685598.560    19685602.800
  19685602.020          48.950          46.800
 127841354.489 6  99432209.328 5                  23932169.620    23932180.680
  23932180.340          39.050          34.550
 127552283.673 7  99207388.187 5                  23928481.340    23928492.360
  23928491.140          43.200          33.100
 117520607.486 7  91404938.704 7                  21953834.200    21953837.980
  21953836.860          46.600          43.950
 116303467.477 7  90458262.775 7                  21787560.820    21787567.200
  21787566.440          47.200          44.400
 121621637.492 7  94594639.675 5                  22759819.500    22759827.480
  22759825.760          43.950          34.100
 116425728.439 7  90553346.017 6                  21779842.160    21779847.620
  21779847.500          47.050          38.900
 15  1 27 10  5 55.0000000  0 22G11G06G08G04G17G03G23G31G09G10G20G32
                                G01R24R17R02R12R10R03R18R11R01
 126225499.612 7  98357501.77546                  24019924.440
  24019923.500          47.000          37.450
 119879954.320 7  93412952.178 7  89520743.194 8  22812398.020    22812399.720
  22812399.000          47.800          46.200
 125601111.706 7  97871017.35446                  23901087.600
  23901087.280          47.150          38.200
 129850617.341 7 101182283.52146                  24709761.780
  24709764.220          44.700          36.250
 114084910.374 8  88897284.493 7                  21709644.540    21709642.140
  21709641.600          49.800          46.700
 110289303.740 8  85939714.000 8  82358895.253 8  20987356.940    20987357.280
  20987356.620          50.050          49.150
 108006734.760 8  84161060.27247                  20552993.020
  20552987.040          50.850          47.950
 129187372.467 7 100665479.313 6                  24583537.780    24583537.360
  24583536.780          45.750          39.650
 112434916.636 8  87611647.355 8  83961171.102 8  21395641.640    21395641.380
  21395640.980          49.750          49.100
 125612806.209 7  97880115.97846                  23903323.740
  23903324.340          44.550          36.300
 108974444.510 8  84915113.19847                  20737150.500
  20737146.700          49.600          46.900
 127433441.551 7  99298790.49546                  24249775.840
  24249775.380          46.250          36.800
 115646065.171 8  90113825.949 7  86359070.697 8  22006717.280    22006718.280
  22006718.020          50.000          47.650
 116661289.041 7  90736562.653 6                  21816256.980    21816261.900
  21816259.840          44.100          39.650
 104332326.733 8  81147363.223 7                  19496996.120    19496998.720
  19496997.480          49.150          47.700
 105047520.076 8  81703643.254 7                  19685862.500    19685866.720
  19685865.940          49.000          46.850
 127823101.216 6  99418012.332 5                  23928752.560    23928763.580
  23928763.280          39.450          35.750
 127559487.694 7  99212991.302 5                  23929832.780    23929843.760
  23929842.540          42.900          32.950
 117508411.190 7  91395452.707 7                  21951555.840    21951559.580
  21951558.460          46.200          44.100
 116287495.884 7  90445840.435 7                  21784568.820    21784575.160
  21784574.420          47.400          44.400
 121613820.641 7  94588559.894 5                  22758356.680    22758364.700
  22758362.900          44.150          34.750
 116440024.126 7  90564464.868 6                  21782516.500    21782521.900
  21782521.840          47.200          39.350
 15  1 27 10  6  0.0000000  0 22G11G06G08G04G17G03G23G31G09G10G20G32
                                G01R24R17R02R12R10R03R18R11R01
 126243961.592 7  98371887.72446                  24023437.660
  24023436.740          46.250          38.150
 119864806.047 7  93401148.329 7  89509431.164 8  22809515.380    22809517.080
  22809516.360          47.750          46.150
 125597127.564 7  97867912.84646                  23900329.420
  23900329.060          47.300          38.200
 129867883.672 7 101195737.76445                  24713047.500
  24713050.000          44.800          35.100
 114089315.497 8  88900717.048 7                  21710482.840    21710480.420
  21710479.860          49.900          46.700
 110296151.046 8  85945049.557 8  82364008.488 8  20988659.980    20988660.300
  20988659.640          50.000          49.000
 108003929.310 8  84158874.19647                  20552459.160
  20552453.180          51.050          47.900
 129195102.280 7 100671502.527 6                  24585008.720    24585008.320
  24585007.680          45.800          39.600
 112422523.260 8  87601990.185 8  83951916.300 8  21393283.220    21393282.980
  21393282.600          49.750          49.050
 125597986.384 7  97868568.08746                  23900503.640
  23900504.080          45.050          36.650
 108967936.046 8  84910041.65947                  20735911.960
  20735908.200          49.550          46.750
 127447649.805 7  99309861.86846                  24252479.620
  24252479.100          45.500          36.000
 115658929.813 8  90123850.337 7  86368677.392 8  22009165.420    22009166.320
  22009166.060          49.850          47.550
 116682135.815 7  90752776.789 6                  21820155.400    21820160.380
  21820158.360          44.000          39.400
 104335100.968 8  81149520.950 7                  19497514.560    19497517.180
  19497515.940          49.350          47.600
 105048938.329 8  81704746.338 7                  19686128.300    19686132.500
  19686131.680          48.750          46.750
 127804850.306 6  99403817.184 5                  23925335.900    23925347.120
  23925346.760          39.000          35.650
 127566711.422 7  99218609.737 5                  23931187.940    23931198.800
  23931197.740          43.150          32.950
 117496222.616 7  91385972.705 7                  21949278.940    21949282.600
  21949281.500          46.250          43.850
 116271538.715 7  90433429.304 7                  21781579.540    21781585.840
  21781585.120          47.400          44.350
 121606022.387 7  94582494.582 5                  22756897.360    22756905.300
  22756903.540          43.900          34.500
 116454322.094 7  90575585.493 6                  21785191.240    21785196.720
  21785196.600          47.350          39.200
 15  1 27 10  6  5.0000000  0 22G11G06G08G04G17G03G23G31G09G10G20G32
                                G01R24R17R02R12R10R03R18R11R01
 126262427.981 7  98386277.08146                  24026951.620
  24026950.800          45.800          36.800
 119849663.408 7  93389348.880 7  89498123.363 8  22806633.800    22806635.540
  22806634.800          47.800          46.150
 125593157.973 7  97864819.67146                  23899574.020
  23899573.660          47.600          37.350
 129885154.107 7 101209195.20145                  24716333.940
  24716336.520          44.900          35.950
 114093737.541 8  88904162.793 7                  21711324.360    21711321.900
  21711321.320          49.900          46.750
 110303005.367 8  85950390.586 8  82369126.971 8  20989964.340    20989964.660
  20989964.000          50.000          49.150
 108001138.862 8  84156699.82847                  20551928.160
  20551922.180          51.150          47.900
 129202847.233 7 100677537.551 6                  24586482.560    24586482.200
  24586481.480          46.300          39.450
 112410142.397 8  87592342.757 8  83942670.848 8  21390927.220    21390926.980
  21390926.580          49.650          48.950
 125583170.894 7  97857023.56145                  23897684.380
  23897684.660          44.900          35.750
 108961435.925 8  84904976.62547                  20734675.040
  20734671.300          49.400          46.950
 127461859.272 7  99320934.15745                  24255183.600
  24255183.080          45.850          35.750
 115671804.539 8  90133882.581 7  86378291.622 8  22011615.500    22011616.300
  22011616.020          50.050          47.450
 116702992.547 7  90768998.691 6                  21824055.680    21824060.740
  21824058.720          44.300          39.800
 104337899.598 8  81151697.665 7                  19498037.540    19498040.200
  19498038.960          49.200          47.650
 105050367.353 8  81705857.803 7                  19686396.100    19686400.300
  19686399.480          48.750          46.900
 127786602.661 6  99389624.577 5                  23921919.900    23921931.220
  23921930.840          39.650          35.250
 127573955.731 7  99224244.181 5                  23932546.820    23932557.920
  23932556.740          42.100          33.150
 117484042.744 7  91376499.490 7                  21947003.640    21947007.340
  21947006.160          45.900          43.650
 116255596.880 7  90421030.094 7                  21778593.120    21778599.400
  21778598.700          47.250          44.550
 121598243.506 7  94576444.377 5                  22755441.640    22755449.500
  22755447.820          44.350          34.650
 116468623.274 7  90586708.637 6                  21787866.560    21787872.060
  21787871.920          47.250          39.400
 15  1 27 10  6 10.0000000  0 22G11G06G08G04G17G03G23G31G09G10G20G32
                                G01R24R17R02R12R10R03R18R11R01
 126280896.562 7  98400668.14446                  24030465.940
  24030465.300          45.800          37.050
 119834524.250 7  93377552.133 7  89486818.151 8  22803752.920    22803754.640
  22803753.880          47.750          46.200
 125589200.779 7  97861736.15146                  23898821.020
  23898820.640          47.450          38.550
 129902426.597 7 101222654.23945                  24719620.800
  24719623.380          44.800          33.800
 114098174.318 8  88907620.007 7                  21712168.700    21712166.200
  21712165.600          49.800          46.700
 110309864.476 8  85955735.332 8  82374249.022 8  20991269.620    20991269.920
  20991269.280          49.850          49.200
 107998361.150 8  84154535.37548                  20551399.600
  20551393.580          50.950          48.000
 129210605.126 7 100683582.636 6                  24587958.840    24587958.480
  24587957.740          46.100          38.750
 112397771.852 8  87582703.371 8  83933433.101 8  21388573.140    21388572.940
  21388572.540          49.650          48.950
 125568357.569 7  97845480.72546                  23894865.520
  23894865.780          44.700          36.050
 108954941.980 8  84899916.40147                  20733439.280
  20733435.560          49.350          47.100
 127476067.734 7  99332005.65345                  24257887.360
  24257886.840          45.950          35.550
 115684687.196 8  90143921.003 7  86387911.774 8  22014067.060    22014067.780
  22014067.500          49.950          47.600
 116723857.455 7  90785226.918 6                  21827957.520    21827962.660
  21827960.640          44.600          39.900
 104340720.313 8  81153891.540 7                  19498564.660    19498567.340
  19498566.080          49.100          47.750
 105051804.880 8  81706975.872 7                  19686665.520    19686669.680
  19686668.860          49.050          47.000
 127768356.078 6  99375432.783 5                  23918504.040    23918515.340
  23918515.060          39.900          35.100
 127581218.135 6  99229892.713 5                  23933909.140    23933920.300
  23933919.120          41.850          32.700
 117471869.244 7  91367031.214 7                  21944729.520    21944733.180
  21944732.040          46.250          43.900
 116239668.171 7  90408641.098 7                  21775609.160    21775615.420
  21775614.740          47.250          44.600
 121590481.861 7  94570407.528 5                  22753989.180    22753997.100
  22753995.360          44.650          35.100
 116482925.660 7  90597832.696 6                  21790542.100    21790547.600
  21790547.480          46.750          39.650
 15  1 27 10  6 15.0000000  0 22G11G06G08G04G17G03G23G31G09G10G20G32
                                G01R24R17R02R12R10R03R18R11R01
 126299368.490 7  98415061.82546                  24033980.940
  24033980.380          46.100          37.600
 119819389.705 8  93365758.982 7  89475516.395 8  22800872.920    22800874.600
  22800873.860          48.050          46.400
 125585257.135 7  97858663.18846                  23898070.620
  23898070.180          47.550          38.700
 129919702.284 7 101236115.76245                  24722908.300
  24722910.800          45.050          35.950
 114102626.972 8  88911089.596 7                  21713016.040    21713013.520
  21713012.900          49.950          46.400
 110316729.523 8  85961084.709 8  82379375.513 8  20992576.020    20992576.300
  20992575.660          49.750          49.050
 107995597.375 8  84152381.78747                  20550873.660
  20550867.640          50.850          47.850
 129218377.135 7 100689638.726 6                  24589437.820    24589437.440
  24589436.680          46.000          38.650
 112385412.789 8  87573072.928 8  83924203.939 8  21386221.260    21386221.080
  21386220.660          49.800          48.900
 125553547.565 7  97833940.48146                  23892047.260
  23892047.600          44.000          37.550
 108948455.385 8  84894861.91147                  20732204.920
  20732201.200          49.350          46.900
 127490276.375 7  99343077.30145                  24260591.180
  24260590.680          45.950          35.800
 115697578.901 8  90153966.479 7  86397538.689 8  22016520.340    22016520.980
  22016520.720          49.800          47.550
 116744731.350 7  90801462.142 6                  21831861.020    21831866.240
  21831864.200          44.600          39.600
 104343564.308 8  81156103.528 7                  19499096.160    19499098.800
  19499097.560          49.100          47.650
 105053252.194 8  81708101.554 7                  19686936.740    19686940.920
  19686940.100          48.900          46.900
 127750111.715 6  99361242.700 5                  23915088.580    23915099.940
  23915099.680          39.100          35.750
 127588499.943 7  99235556.314 5                  23935275.120    23935286.320
  23935285.140          42.150          33.350
 117459703.333 7  91357568.851 7                  21942456.840    21942460.460
  21942459.320          46.400          43.700
 116223753.818 7  90396263.272 7                  21772627.880    21772634.140
  21772633.500          47.450          45.000
 121582738.759 7  94564385.115 5                  22752540.200    22752548.080
  22752546.400          44.250          35.500
 116497230.154 7  90608958.400 6                  21793218.060    21793223.480
  21793223.460          46.650          39.350
 15  1 27 10  6 20.0000000  0 22G11G06G08G04G17G03G23G31G09G10G20G32
                                G01R24R17R02R12R10R03R18R11R01
 126317844.905 7  98429459.01046                  24037496.920
  24037496.340          46.950          36.850
 119804260.955 7  93353970.357 7  89464218.953 8  22797994.000    22797995.740
  22797994.960          47.950          46.400
 125581328.213 7  97855601.71946                  23897323.020
  23897322.520          47.600          38.400
 129936982.217 7 101249580.62345                  24726196.580
  24726199.180          44.750          34.400
 114107096.645 8  88914572.456 7                  21713866.600    21713864.060
  21713863.440          49.800          46.350
 110323601.682 8  85966439.639 8  82384507.306 8  20993883.760    20993884.020
  20993883.420          49.750          49.100
 107992848.663 8  84150239.93648                  20550350.600
  20550344.580          50.800          48.300
 129226164.401 7 100695706.724 6                  24590919.720    24590919.340
  24590918.540          46.050          38.600
 112373066.382 8  87563452.366 8  83914984.214 8  21383871.800    21383871.620
  21383871.200          50.000          48.850
 125538742.065 7  97822403.75246                  23889229.860
  23889230.200          44.150          37.350
 108941977.296 8  84889814.05547                  20730972.160
  20730968.480          49.450          47.000
 127504486.367 7  99354150.00645                  24263295.240
  24263294.860          46.000          35.950
 115710480.809 8  90164019.914 7  86407173.219 8  22018975.540    22018976.120
  22018975.860          49.750          47.450
 116765615.474 7  90817705.337 6                  21835766.480    21835771.820
  21835769.700          44.850          39.950
 104346432.708 8  81158334.509 7                  19499632.180    19499634.840
  19499633.600          49.200          47.550
 105054710.399 8  81709235.718 7                  19687210.040    19687214.180
  19687213.380          49.100          46.850
 127731870.945 6  99347055.467 5                  23911673.780    23911685.180
  23911684.960          40.000          35.650
 127595802.398 7  99241235.987 5                  23936645.020    23936656.280
  23936655.060          43.000          33.900
 117447546.248 7  91348113.358 7                  21940185.820    21940189.380
  21940188.260          46.050          43.550
 116207854.989 7  90383897.524 7                  21769649.480    21769655.780
  21769655.180          47.300          45.050
 121575015.356 7  94558378.041 6                  22751094.800    22751102.700
  22751101.140          44.250          36.100
 116511538.080 7  90620086.770 6                  21795894.660    21795900.120
  21795900.080          47.250          39.100
 15  1 27 10  6 25.0000000  0 22G11G06G08G04G17G03G23G31G09G10G20G32
                                G01R24R17R02R12R10R03R18R11R01
 126336322.109 7  98443856.80846                  24041013.080
  24041012.500          47.000          37.300
 119789134.293 8  93342183.359 7  89452923.085 8  22795115.500    22795117.200
  22795116.460          48.150          46.700
 125577410.300 7  97852548.80446                  23896577.480
  23896576.920          47.400          37.850
 129954262.761 7 101263045.95845                  24729485.000
  24729487.480          45.900          35.550
 114111579.629 8  88918065.680 7                  21714719.680    21714717.180
  21714716.520          49.850          46.350
 110330477.255 8  85971797.220 8  82389641.657 8  20995192.140    20995192.420
  20995191.800          49.750          49.150
 107990111.325 8  84148106.94048                  20549829.700
  20549823.680          50.950          48.250
 129233963.223 7 100701783.726 6                  24592403.800    24592403.400
  24592402.540          45.850          38.800
 112360728.915 8  87553838.757 8  83905771.195 8  21381524.040    21381523.880
  21381523.440          50.050          48.950
 125523937.377 7  97810867.65246                  23886412.600
  23886412.940          44.350          36.800
 108935504.009 8  84884769.92547                  20729740.320
  20729736.660          49.550          46.900
 127518693.959 7  99365220.85146                  24265998.840
  24265998.480          46.000          36.650
 115723389.234 8  90174078.421 7  86416812.631 8  22021431.940    22021432.520
  22021432.280          49.650          47.650
 116786505.996 7  90833953.496 6                  21839673.120    21839678.400
  21839676.400          44.750          39.900
 104349321.843 8  81160581.619 7                  19500172.120    19500174.740
  19500173.520          49.300          47.700
 105056175.837 8  81710375.499 7                  19687484.660    19687488.800
  19687488.020          49.200          47.000
 127713629.891 6  99332867.989 5                  23908259.120    23908270.420
  23908270.080          40.200          35.650
 127603121.801 7  99246928.842 5                  23938018.140    23938029.500
  23938028.180          43.000          33.850
 117435394.156 7  91338661.755 7                  21937915.700    21937919.220
  21937918.100          46.350          43.600
 116191967.860 7  90371540.896 7                  21766673.280    21766679.580
  21766679.040          47.250          45.050
 121567307.825 7  94552383.321 5                  22749652.420    22749660.420
  22749658.840          44.450          35.850
 116525845.595 7  90631214.826 6                  21798571.200    21798576.680
  21798576.620          47.400          38.900
 15  1 27 10  6 30.0000000  0 22G11G06G08G04G17G03G23G31G09G10G20G32
                                G01R24R17R02R12R10R03R18R11R01
 126354803.286 7  98458257.71546                  24044529.980
  24044529.480          46.600          38.150
 119774012.897 8  93330400.455 7  89441631.132 8  22792237.980    22792239.720
  22792238.960          48.100          46.850
 125573506.552 7  97849506.93746                  23895834.640
  23895834.000          47.350          38.350
 129971547.090 7 101276514.22645                  24732774.120
  24732776.580          45.600          33.850
 114116079.091 8  88921571.741 7                  21715575.900    21715573.400
  21715572.720          49.950          46.550
 110337359.357 8  85977159.876 8  82394780.873 8  20996501.780    20996502.040
  20996501.420          50.000          49.100
 107987388.521 8  84145985.26547                  20549311.560
  20549305.540          51.150          47.850
 129241776.746 7 100707872.167 6                  24593890.660    24593890.320
  24593889.460          45.250          38.700
 112348403.576 8  87544234.595 8  83896567.197 8  21379178.600    21379178.440
  21379178.000          50.000          49.050
 125509136.611 7  97799334.58246                  23883596.140
  23883596.480          44.450          37.750
 108929038.652 8  84879731.97747                  20728510.020
  20728506.380          49.600          47.100
 127532902.325 7  99376292.26146                  24268702.580
  24268702.300          45.950          36.450
 115736307.322 8  90184144.445 7  86426459.228 8  22023890.140    22023890.780
  22023890.540          49.600          47.650
 116807406.194 7  90850209.183 6                  21843581.500    21843586.780
  21843584.840          45.350          39.750
 104352234.845 8  81162847.276 7                  19500716.500    19500719.120
  19500717.900          49.550          47.650
 105057651.649 8  81711523.346 7                  19687761.240    19687765.340
  19687764.600          49.350          47.000
 127695391.709 6  99318682.742 5                  23904844.920    23904856.160
  23904855.780          40.200          35.750
 127610461.117 7  99252637.196 5                  23939394.940    23939406.460
  23939405.020          43.450          33.750
 117423250.221 7  91329216.475 7                  21935647.100    21935650.580
  21935649.460          46.550          43.400
 116176095.761 7  90359195.949 7                  21763699.880    21763706.240
  21763705.700          47.600          44.750
 121559619.290 7  94546403.359 5                  22748213.540    22748221.620
  22748220.060          44.100          35.650
 116540155.913 7  90642345.057 6                  21801248.300    21801253.820
  21801253.680          47.650          38.700
 15  1 27 10  6 35.0000000  0 22G11G06G08G04G17G03G23G31G09G10G20G32
                                G01R24R17R02R12R10R03R18R11R01
 126373287.671 7  98472661.08746                  24048047.420
  24048047.040          46.400          37.750
 119758896.091 8  93318621.138 7  89430342.616 8  22789361.360    22789363.100
  22789362.360          48.400          46.750
 125569616.320 7  97846475.60646                  23895094.340
  23895093.720          47.400          38.250
 129988834.464 7 101289984.84845                  24736063.780
  24736066.260          45.500          34.350
 114120594.288 8  88925090.059 7                  21716435.080    21716432.600
  21716431.920          50.000          46.750
 110344247.335 8  85982527.127 8  82399924.479 8  20997812.520    20997812.760
  20997812.160          49.900          49.100
 107984679.558 8  84143874.38947                  20548796.060
  20548790.020          51.300          47.950
 129249604.216 7 100713971.488 6                  24595380.180    24595379.800
  24595378.960          45.500          38.950
 112336089.685 8  87534639.351 8  83887371.761 8  21376835.340    21376835.180
  21376834.740          49.850          49.100
 125494339.072 7  97787804.04046                  23880780.220
  23880780.600          44.000          36.650
 108922580.529 8  84874699.66747                  20727281.100
  20727277.460          49.650          46.950
 127547110.808 7  99387363.78446                  24271406.380
  24271406.120          46.000          36.850
 115749234.381 8  90194217.464 7  86436112.543 8  22026350.040    22026350.720
  22026350.520          49.400          47.800
 116828315.227 7  90866471.749 6                  21847491.560    21847496.860
  21847494.960          45.450          40.050
 104355171.012 8  81165130.945 7                  19501265.200    19501267.800
  19501266.600          49.350          47.650
 105059137.023 8  81712678.639 7                  19688039.620    19688043.700
  19688042.960          49.250          46.650
 127677155.978 6  99304499.400 5                  23901431.100    23901442.400
  23901441.960          39.850          35.150
 127617819.722 7  99258360.539 5                  23940775.400    23940786.920
  23940785.500          43.800          33.150
 117411113.909 7  91319777.121 7                  21933379.960    21933383.400
  21933382.240          46.450          43.450
 116160237.987 7  90346862.124 7                  21760729.200    21760735.540
  21760735.000          47.700          44.200
 121551949.252 7  94540437.789 6                  22746778.180    22746786.180
  22746784.800          44.400          36.200
 116554468.436 7  90653477.018 6                  21803925.740    21803931.280
  21803931.160          47.600          38.400
 15  1 27 10  6 40.0000000  0 22G11G06G08G04G17G03G23G31G09G10G20G32
                                G01R24R17R02R12R10R03R18R11R01
 126391775.135 7  98487066.85246                  24051565.400
  24051565.100          46.450          36.650
 119743783.697 8  93306845.248 7  89419057.410 8  22786485.560    22786487.360
  22786486.600          48.150          46.900
 125565739.444 7  97843454.68246                  23894356.580
  23894355.900          47.700          37.850
 130006124.669 7 101303457.68745                  24739354.020
  24739356.400          45.950          34.050
 114125125.075 8  88928620.533 7                  21717297.260    21717294.780
  21717294.100          49.950          46.850
 110351140.993 8  85987898.796 8  82405072.339 8  20999124.340    20999124.600
  20999123.960          50.050          49.000
 107981984.266 8  84141774.16848                  20548283.180
  20548277.120          51.150          48.150
 129257445.520 7 100720081.583 6                  24596872.320    24596871.940
  24596871.200          45.250          39.000
 112323787.072 8  87525052.901 8  83878184.754 8  21374494.200    21374494.060
  21374493.640          49.700          49.100
 125479544.637 7  97776275.93346                  23877964.940
  23877965.260          45.050          37.100
 108916129.492 8  84869672.88547                  20726053.520
  20726049.900          49.600          47.000
 127561319.189 7  99398435.23646                  24274110.120
  24274109.940          45.800          36.400
 115762170.232 8  90204297.335 7  86445772.420 8  22028811.560    22028812.340
  22028812.160          49.200          47.800
 116849233.144 7  90882741.207 6                  21851403.280    21851408.600
  21851406.740          45.400          40.050
 104358130.176 8  81167432.506 7                  19501818.220    19501820.820
  19501819.600          49.450          47.750
 105060631.877 8  81713841.306 7                  19688319.800    19688323.840
  19688323.100          49.200          46.900
 127658922.264 6  99290317.644 5                  23898017.640    23898029.060
  23898028.500          39.150          35.050
 127625197.623 7  99264098.896 5                  23942159.480    23942171.140
  23942169.560          43.000          34.200
 117398984.891 7  91310343.447 7                  21931114.140    21931117.580
  21931116.400          46.150          43.800
 116144394.361 7  90334539.300 7                  21757761.160    21757767.520
  21757766.940          47.700          44.200
 121544297.447 7  94534486.412 5                  22745346.220    22745354.280
  22745352.940          44.850          35.500
 116568782.882 7  90664610.467 6                  21806603.560    21806609.080
  21806609.000          47.600          38.700
 15  1 27 10  6 45.0000000  0 22G11G06G08G04G17G03G23G31G09G10G20G32
                                G01R24R17R02R12R10R03R18R11R01
 126410266.772 7  98501475.90346                  24055084.220
  24055083.960          46.950          36.300
 119728676.913 8  93295073.738 7  89407776.366 8  22783610.840    22783612.620
  22783611.900          48.300          46.950
 125561877.038 7  97840445.02046                  23893621.560
  23893620.860          47.550          37.550
 130023418.849 7 101316933.63945                  24742645.020
  24742647.420          45.950          33.500
 114129672.601 8  88932164.052 7                  21718162.620    21718160.140
  21718159.480          49.850          47.050
 110358041.488 8  85993275.803 8  82410225.298 8  21000437.460    21000437.720
  21000437.060          50.050          49.050
 107979303.811 8  84139685.50248                  20547773.100
  20547767.060          51.050          48.250
 129265301.806 7 100726203.356 6                  24598367.300    24598366.960
  24598366.300          45.250          39.100
 112311496.892 8  87515476.142 8  83869007.024 8  21372155.440    21372155.280
  21372154.880          49.450          49.100
 125464754.424 7  97764751.09245                  23875150.540
  23875150.780          45.150          34.650
 108909686.716 8  84864652.53847                  20724827.540
  20724823.900          49.850          46.850
 127575528.632 7  99409507.51446                  24276814.060
  24276813.940          45.900          36.650
 115775116.025 8  90214384.952 7  86455439.715 8  22031275.000    22031275.880
  22031275.700          49.100          47.850
 116870160.893 7  90899018.326 6                  21855316.880    21855322.260
  21855320.360          45.750          40.400
 104361113.575 8  81169752.926 7                  19502375.760    19502378.360
  19502377.120          49.250          47.900
 105062137.401 8  81715012.265 7                  19688601.960    19688605.960
  19688605.240          49.250          47.050
 127640691.931 6  99276138.508 5                  23894604.900    23894616.160
  23894615.660          39.800          35.650
 127632595.762 7  99269852.973 5                  23943547.360    23943558.960
  23943557.440          43.300          34.050
 117386864.328 7  91300916.357 7                  21928849.920    21928853.340
  21928852.180          46.200          44.500
 116128566.133 7  90322228.456 7                  21754796.020    21754802.400
  21754801.720          47.800          44.550
 121536665.101 7  94528550.153 5                  22743917.920    22743926.020
  22743924.640          44.650          35.700
 116583100.336 7  90675746.246 6                  21809281.920    21809287.380
  21809287.380          47.150          38.800
 15  1 27 10  6 50.0000000  0 22G11G06G08G04G17G03G23G31G09G10G20G32
                                G01R24R17R02R12R10R03R18R11R01
 126428759.786 7  98515886.01145                  24058603.360
  24058603.000          47.250          35.600
 119713572.905 8  93283304.384 7  89396497.401 8  22780736.640    22780738.420
  22780737.720          48.000          46.900
 125558026.327 7  97837444.47446                  23892888.760
  23892888.020          47.550          38.400
 130040714.266 7 101330410.54745                  24745936.280
  24745938.680          45.850          33.850
 114134234.058 8  88935718.429 7                  21719030.640    21719028.160
  21719027.540          49.700          47.100
 110364946.002 8  85998655.937 8  82415381.255 8  21001751.380    21001751.600
  21001750.940          50.100          49.050
 107976635.362 8  84137606.18548                  20547265.320
  20547259.240          50.950          48.250
 129273170.228 7 100732334.574 6                  24599864.620    24599864.300
  24599863.640          45.000          38.700
 112299216.344 8  87505906.888 8  83859836.483 8  21369818.480    21369818.360
  21369817.940          49.400          49.100
 125449965.640 7  97753227.38746                  23872336.360
  23872336.520          44.950          36.050
 108903249.371 8  84859636.42347                  20723602.580
  20723598.900          49.850          46.800
 127589736.316 7  99420578.42546                  24279517.720
  24279517.640          45.800          36.300
 115788068.941 8  90224478.113 7  86465112.332 8  22033739.740    22033740.760
  22033740.580          48.950          47.950
 116891095.673 7  90915300.912 6                  21859231.820    21859237.220
  21859235.300          45.700          40.400
 104364118.158 8  81172089.823 7                  19502937.260    19502939.840
  19502938.620          49.000          47.850
 105063650.649 8  81716189.223 7                  19688885.560    19688889.560
  19688888.820          49.200          47.050
 127622462.045 6  99261959.743 6                  23891192.200    23891203.500
  23891203.020          40.400          36.700
 127640011.252 7  99275620.570 5                  23944938.440    23944949.980
  23944948.580          42.750          33.900
 117374749.514 7  91291493.734 7                  21926586.780    21926590.180
  21926589.020          46.600          44.400
 116112750.393 7  90309927.327 7                  21751833.240    21751839.600
  21751838.860          47.800          44.750
 121529049.464 7  94522626.889 5                  22742492.740    22742500.820
  22742499.420          43.800          35.400
 116597418.104 7  90686882.279 6                  21811960.340    21811965.860
  21811965.820          46.400          38.900
 15  1 27 10  6 55.0000000  0 22G11G06G08G04G17G03G23G31G09G10G20G32
                                G01R24R17R02R12R10R03R18R11R01
 126447256.250 7  98530298.82245                  24062123.220
  24062122.720          47.400          35.200
 119698473.741 7  93271538.811 7  89385222.051 8  22777863.340    22777865.160
  22777864.460          47.850          46.750
 125554189.347 7  97834454.64446                  23892158.620
  23892157.860          47.650          38.200
 130058012.926 7 101343889.98545                  24749228.200
  24749230.620          45.900          35.550
 114138811.494 8  88939285.255 7                  21719901.680    21719899.240
  21719898.640          49.650          46.950
 110371856.597 8  86004040.820 8  82420541.758 8  21003066.420    21003066.660
  21003065.980          50.050          48.950
 107973981.007 8  84135537.85448                  20546760.200
  20546754.120          51.050          48.250
 129281052.889 7 100738476.903 6                  24601364.640    24601364.340
  24601363.640          45.100          38.850
 112286947.471 8  87496346.735 8  83850674.668 8  21367483.740    21367483.660
  21367483.260          49.300          48.950
 125435180.332 7  97741706.37045                  23869522.820
  23869522.960          44.800          35.650
 108896819.533 8  84854626.15847                  20722379.040
  20722375.340          49.850          46.700
 127603944.300 7  99431649.56346                  24282221.420
  24282221.360          46.050          36.250
 115801031.032 8  90234578.435 7  86474791.788 8  22036206.240    22036207.380
  22036207.220          48.800          47.950
 116912039.478 7  90931590.523 6                  21863148.480    21863153.860
  21863151.920          45.950          40.150
 104367146.223 8  81174444.982 7                  19503503.140    19503505.720
  19503504.480          49.150          47.700
 105065173.782 8  81717373.884 7                  19689171.000    19689174.980
  19689174.260          49.400          47.150
 127604234.842 6  99247783.045 6                  23887780.020    23887791.180
  23887790.960          39.850          36.300
 127647446.353 7  99281403.414 5                  23946333.200    23946344.680
  23946343.380          43.800          33.400
 117362642.508 7  91282077.192 7                  21924325.080    21924328.520
  21924327.320          46.850          44.500
 116096949.309 7  90297637.606 7                  21748873.180    21748879.460
  21748878.740          47.900          44.350
 121521452.520 7  94516718.180 5                  22741071.060    22741079.140
  22741077.660          44.700          35.050
 116611738.266 7  90698020.171 6                  21814639.220    21814644.720
  21814644.700          46.650          39.300
 15  1 27 10  7  0.0000000  0 22G11G06G08G04G17G03G23G31G09G10G20G32
                                G01R24R17R02R12R10R03R18R11R01
 126465755.801 7  98544714.03646                  24065643.680
  24065643.060          47.550          36.100
 119683379.111 7  93259776.764 7  89373950.107 8  22774990.880    22774992.760
  22774992.040          47.850          46.900
 125550365.822 7  97831475.27946                  23891431.040
  23891430.220          47.650          38.050
 130075314.568 7 101357371.74545                  24752520.660
  24752523.160          46.050          34.400
 114143404.605 8  88942864.289 7                  21720775.740    21720773.320
  21720772.720          49.700          46.950
 110378772.939 8  86009430.162 8  82425706.555 8  21004382.540    21004382.820
  21004382.100          49.950          49.100
 107971340.391 8  84133480.22748                  20546257.720
  20546251.620          51.100          48.350
 129288949.421 7 100744630.018 6                  24602867.320    24602866.980
  24602866.360          45.600          39.050
 112274689.964 8  87486795.431 8  83841521.349 8  21365151.160    21365151.140
  21365150.700          49.300          49.000
 125420398.172 7  97730187.82245                  23866709.860
  23866709.940          44.700          35.800
 108890396.873 8  84849621.47547                  20721156.860
  20721153.140          49.750          47.000
 127618152.269 7  99442720.69346                  24284925.060
  24284925.060          45.250          37.800
 115814001.952 8  90244685.625 7  86484477.867 8  22038674.400    22038675.680
  22038675.540          48.950          47.850
 116932992.108 7  90947887.003 6                  21867066.740    21867072.120
  21867070.200          45.450          40.550
 104370197.377 8  81176818.087 7                  19504073.340    19504075.920
  19504074.660          49.050          47.850
 105066706.387 8  81718565.902 7                  19689458.280    19689462.200
  19689461.480          49.200          47.250
 127586009.913 6  99233608.079 6                  23884368.200    23884379.420
  23884379.300          39.550          36.400
 127654900.683 7  99287201.191 5                  23947731.660    23947743.000
  23947741.840          44.100          33.800
 117350542.760 7  91272666.284 7                  21922064.740    21922068.180
  21922067.000          46.700          44.750
 116081162.499 7  90285358.969 7                  21745915.760    21745922.080
  21745921.300          47.600          44.250
 121513873.865 7  94510823.657 5                  22739652.780    22739660.900
  22739659.320          44.200          35.000
 116626060.361 7  90709159.555 6                  21817318.480    21817323.940
  21817323.940          46.600          39.450
 15  1 27 10  7  5.0000000  0 22G11G06G08G04G17G03G23G31G09G10G20G32
                                G01R24R17R02R12R10R03R18R11R01
 126484258.930 7  98559132.04246                  24069164.740
  24069164.160          47.050          36.450
 119668289.516 7  93248018.648 7  89362681.899 8  22772119.420    22772121.320
  22772120.600          47.750          46.750
 125546556.200 7  97828506.76146                  23890706.120
  23890705.220          47.550          38.550
 130092619.562 7 101370856.10945                  24755813.720
  24755816.240          45.700          35.100
 114148013.839 8  88946455.887 7                  21721652.820    21721650.440
  21721649.860          49.750          46.900
 110385695.510 8  86014824.378 8  82430875.995 8  21005699.880    21005700.160
  21005699.420          49.800          49.000
 107968713.966 8  84131433.67148                  20545757.940
  20545751.840          51.000          48.100
 129296860.270 7 100750794.299 6                  24604372.700    24604372.380
  24604371.740          45.150          38.700
 112262444.323 8  87477253.377 8  83832376.877 8  21362820.840    21362820.860
  21362820.420          49.250          48.950
 125405619.678 7  97718672.12046                  23863897.560
  23863897.700          44.250          36.950
 108883981.860 8  84844622.76847                  20719936.140
  20719932.380          49.700          46.800
 127632360.689 7  99453792.16146                  24287628.780
  24287628.900          45.200          36.950
 115826982.205 8  90254800.100 7  86494170.879 8  22041144.360    22041145.760
  22041145.620          48.850          47.650
 116953953.770 7  90964190.506 6                  21870986.740    21870992.040
  21870990.140          45.400          40.650
 104373272.103 8  81179209.542 7                  19504647.960    19504650.500
  19504649.260          49.100          47.950
 105068248.893 8  81719765.635 7                  19689747.360    19689751.260
  19689750.580          49.050          47.350
 127567787.740 6  99219435.296 6                  23880956.920    23880968.180
  23880968.160          38.900          36.900
 127662374.633 7  99293014.268 5                  23949133.820    23949145.080
  23949143.980          43.650          34.600
 117338450.981 7  91263261.585 7                  21919805.900    21919809.380
  21919808.200          46.700          44.650
 116065390.524 7  90273091.879 7                  21742961.100    21742967.440
  21742966.640          47.200          44.500
 121506314.153 7  94504943.892 5                  22738238.060    22738246.060
  22738244.500          44.100          34.800
 116640384.850 7  90720300.810 6                  21819998.180    21820003.660
  21820003.660          46.650          39.400
 15  1 27 10  7 10.0000000  0 22G11G06G08G04G17G03G23G31G09G10G20G32
                                G01R24R17R02R12R10R03R18R11R01
 126502765.016 7  98573552.33646                  24072686.320
  24072685.820          46.650          37.600
 119653204.322 7  93236263.951 7  89351416.987 8  22769248.780    22769250.720
  22769249.980          47.600          46.850
 125542759.873 7  97825548.58646                  23889983.720
  23889982.760          47.600          38.250
 130109927.332 7 101384342.65645                  24759107.260
  24759109.800          45.600          35.500
 114152638.564 8  88950059.555 7                  21722532.880    21722530.500
  21722529.940          49.850          46.900
 110392623.665 8  86020222.932 8  82436049.613 8  21007018.280    21007018.560
  21007017.820          49.700          49.000
 107966101.152 8  84129397.71048                  20545260.740
  20545254.620          50.950          48.050
 129304784.847 7 100756969.274 6                  24605880.700    24605880.460
  24605879.720          45.350          39.300
 112250209.943 8  87467720.088 8  83823240.810 8  21360492.680    21360492.720
  21360492.280          49.300          49.000
 125390844.199 7  97707158.76745                  23861085.880
  23861086.080          44.350          34.100
 108877573.838 8  84839629.49847                  20718716.740
  20718712.960          49.700          46.750
 127646568.949 7  99464863.51845                  24290332.500
  24290332.660          45.600          35.100
 115839971.137 8  90264921.329 7  86503870.393 8  22043616.000    22043617.480
  22043617.340          48.950          47.800
 116974924.073 7  90980500.725 6                  21874908.320    21874913.620
  21874911.740          44.750          40.000
 104376369.751 8  81181618.813 7                  19505226.860    19505229.360
  19505228.140          49.300          47.900
 105069800.906 8  81720972.754 7                  19690038.200    19690042.120
  19690041.440          49.150          47.400
 127549567.712 6  99205264.167 6                  23877546.040    23877557.340
  23877557.460          39.450          37.900
 127669867.566 7  99298842.071 5                  23950539.500    23950550.620
  23950549.680          44.050          33.550
 117326366.575 7  91253862.599 7                  21917548.400    21917551.880
  21917550.800          46.300          44.900
 116049632.702 7  90260835.802 7                  21740009.080    21740015.440
  21740014.680          47.550          44.600
 121498772.776 7  94499078.403 5                  22736826.760    22736834.720
  22736833.200          43.950          35.350
 116654711.080 7  90731443.421 6                  21822678.240    21822683.600
  21822683.680          47.050          39.400
 15  1 27 10  7 15.0000000  0 22G11G06G08G04G17G03G23G31G09G10G20G32
                                G01R24R17R02R12R10R03R18R11R01
 126521273.697 7  98587974.64046                  24076208.400
  24076207.920          47.050          36.750
 119638123.224 7  93224512.459 7  89340155.142 8  22766378.920    22766380.860
  22766380.160          47.550          46.600
 125538976.571 7  97822600.57046                  23889263.820
  23889262.840          47.800          37.700
 130127237.511 7 101397831.05245                  24762401.280
  24762403.860          45.600          35.600
 114157278.471 8  88953675.057 7                  21723415.800    21723413.440
  21723412.920          49.900          46.700
 110399557.124 8  86025625.621 8  82441227.185 8  21008337.680    21008337.980
  21008337.220          49.750          48.800
 107963501.623 8  84127372.10047                  20544766.060
  20544759.940          50.950          47.900
 129312722.841 7 100763154.714 6                  24607391.280    24607390.960
  24607390.180          45.600          38.700
 112237986.479 8  87458195.317 8  83814112.904 8  21358166.580    21358166.700
  21358166.220          49.350          48.750
 125376071.428 7  97695647.52645                  23858274.700
  23858274.800          44.250          34.250
 108871172.551 8  84834641.47747                  20717498.580
  20717494.820          49.600          46.200
 127660776.718 7  99475934.48846                  24293036.160
  24293036.360          45.300          37.700
 115852968.445 8  90275049.085 7  86513576.161 8  22046089.260    22046090.780
  22046090.620          49.050          47.250
 116995902.623 7  90996817.362 6                  21878831.420    21878836.780
  21878834.840          44.600          39.850
 104379490.050 8  81184045.704 7                  19505810.020    19505812.500
  19505811.280          49.150          47.600
 105071361.867 8  81722186.827 7                  19690330.740    19690334.640
  19690334.000          49.100          47.050
 127531349.649 6  99191094.584 6                  23874135.600    23874146.880
  23874147.100          39.100          37.650
 127677379.261 7  99304684.488 5                  23951948.680    23951959.900
  23951958.900          44.500          33.600
 117314289.003 7  91244468.946 7                  21915292.220    21915295.700
  21915294.680          46.300          44.300
 116033888.791 8  90248590.546 7                  21737059.740    21737066.080
  21737065.320          48.000          44.250
 121491249.393 7  94493226.906 5                  22735418.860    22735426.860
  22735425.340          43.850          35.000
 116669038.846 7  90742587.226 6                  21825358.540    21825363.980
  21825363.980          47.600          38.950
 15  1 27 10  7 20.0000000  0 22G11G06G08G04G17G03G23G31G09G10G20G32
                                G01R24R17R02R12R10R03R18R11R01
 126539785.469 7  98602399.36745                  24079731.120
  24079730.640          47.450          35.750
 119623046.756 7  93212764.564 7  89328896.742 8  22763509.940    22763511.920
  22763511.200          47.100          46.650
 125535206.763 7  97819663.06246                  23888546.460
  23888545.520          47.800          38.550
 130144550.582 7 101411321.71645                  24765695.880
  24765698.520          46.100          34.200
 114161934.018 8  88957302.743 7                  21724301.720    21724299.400
  21724298.860          49.850          46.750
 110406496.359 8  86031032.807 8  82446409.073 8  21009658.180    21009658.460
  21009657.720          49.750          48.850
 107960915.891 8  84125357.24047                  20544274.020
  20544267.880          51.000          47.800
 129320674.671 7 100769350.943 6                  24608904.480    24608904.120
  24608903.300          45.650          39.150
 112225774.457 8  87448679.459 8  83804993.535 8  21355842.680    21355842.840
  21355842.380          49.500          48.900
 125361301.885 7  97684138.81046                  23855464.140
  23855464.160          44.250          36.650
 108864778.468 8  84829659.07347                  20716281.820
  20716278.060          49.500          46.550
 127674984.547 7  99487005.49146                  24295739.860
  24295740.060          45.800          37.700
 115865974.621 8  90285183.764 7  86523288.549 8  22048564.220    22048565.780
  22048565.600          49.000          47.250
 117016889.899 7  91013140.772 6                  21882756.120    21882761.500
  21882759.560          44.750          39.800
 104382633.370 8  81186490.507 7                  19506397.440    19506399.880
  19506398.680          49.250          47.600
 105072932.415 8  81723408.351 7                  19690625.060    19690628.960
  19690628.340          48.900          47.100
 127513134.028 6  99176926.899 6                  23870725.580    23870736.900
  23870737.200          39.450          37.600
 127684910.070 7  99310541.792 5                  23953361.520    23953372.720
  23953371.740          44.050          33.200
 117302218.893 7  91235081.097 7                  21913037.420    21913040.920
  21913039.920          46.250          44.250
 116018159.325 8  90236356.515 7                  21734113.120    21734119.440
  21734118.700          48.000          44.600
 121483744.366 7  94487389.677 5                  22734014.380    22734022.500
  22734020.900          43.150          35.550
 116683368.587 7  90753732.570 6                  21828039.240    21828044.640
  21828044.620          47.500          38.650
 15  1 27 10  7 25.0000000  0 22G11G06G08G04G17G03G23G31G09G10G20G32
                                G01R24R17R02R12R10R03R18R11R01
 126558299.568 7  98616825.93446                  24083254.340
  24083253.860          47.550          36.400
 119607974.129 7  93201019.680 7  89317641.217 8  22760641.680    22760643.700
  22760642.980          47.300          46.600
 125531449.649 7  97816735.45146                  23887831.520
  23887830.620          47.550          37.300
 130161865.858 7 101424814.09645                  24768990.940
  24768993.560          45.900          33.200
 114166604.431 8  88960942.017 7                  21725190.460    21725188.160
  21725187.640          49.750          46.900
 110413440.576 8  86036443.875 8  82451594.686 8  21010979.600    21010979.880
  21010979.160          49.750          48.900
 107958343.136 8  84123352.49847                  20543784.460
  20543778.300          51.100          47.800
 129328639.621 7 100775557.401 6                  24610420.180    24610419.760
  24610418.960          45.200          39.700
 112213573.087 8  87439171.903 8  83795882.132 8  21353520.800    21353520.980
  21353520.540          49.850          48.950
 125346534.781 7  97672632.00045                  23852654.060
  23852654.000          44.150          35.200
 108858390.814 8  84824681.67747                  20715066.260
  20715062.520          49.350          46.600
 127689191.580 7  99498075.90545                  24298443.400
  24298443.660          45.650          35.800
 115878988.871 8  90295324.724 7  86533006.975 8  22051040.740    22051042.300
  22051042.080          49.100          47.300
 117037885.023 7  91029470.296 6                  21886682.280    21886687.680
  21886685.760          44.500          39.750
 104385799.021 8  81188952.673 7                  19506989.060    19506991.460
  19506990.260          49.200          47.750
 105074511.693 8  81724636.677 7                  19690920.980    19690924.880
  19690924.320          48.900          47.100
 127494919.929 6  99162760.388 6                  23867315.900    23867327.140
  23867327.480          39.050          36.350
 127692459.226 7  99316413.329 5                  23954777.720    23954788.940
  23954787.960          43.100          33.200
 117290155.404 7  91225698.390 7                  21910783.820    21910787.320
  21910786.360          46.150          44.350
 116002443.458 7  90224133.078 7                  21731169.020    21731175.320
  21731174.660          47.900          44.900
 121476257.101 7  94481566.291 6                  22732613.160    22732621.340
  22732619.840          44.050          36.050
 116697699.577 7  90764878.906 6                  21830720.140    21830725.460
  21830725.520          47.500          39.250
 15  1 27 10  7 30.0000000  0 22G11G06G08G04G17G03G23G31G09G10G20G32
                                G01R24R17R02R12R10R03R18R11R01
 126576817.357 7  98631255.35545                  24086778.240
  24086777.720          47.050          35.500
 119592906.744 7  93189278.863 7  89306389.609 8  22757774.420    22757776.480
  22757775.780          47.400          46.400
 125527706.656 7  97813818.85146                  23887119.260
  23887118.400          47.550          38.550
 130179184.721 7 101438309.25745                  24772286.660
  24772289.260          45.700          34.500
 114171291.110 8  88964593.963 7                  21726082.300    21726080.020
  21726079.520          49.700          46.750
 110420391.196 8  86041859.928 8  82456785.074 8  21012302.280    21012302.560
  21012301.840          49.800          48.800
 107955784.761 8  84121358.96547                  20543297.600
  20543291.440          51.050          47.700
 129336619.056 7 100781775.114 6                  24611938.600    24611938.260
  24611937.400          45.200          39.400
 112201383.790 8  87429673.752 8  83786779.738 8  21351201.240    21351201.440
  21351201.020          50.000          48.900
 125331771.505 7  97661128.15145                  23849844.660
  23849844.540          43.850          35.600
 108852011.002 8  84819710.38847                  20713852.200
  20713848.480          49.150          46.600
 127703399.231 7  99509146.76845                  24301147.020
  24301147.220          45.650          34.900
 115892012.607 8  90305473.079 7  86542732.467 8  22053519.060    22053520.640
  22053520.420          49.100          47.150
 117058889.387 7  91045807.005 6                  21890610.240    21890615.660
  21890613.660          45.400          39.550
 104388988.399 8  81191433.298 7                  19507585.120    19507587.480
  19507586.280          49.400          47.850
 105076101.041 8  81725872.836 7                  19691218.860    19691222.700
  19691222.160          48.900          47.150
 127476708.974 6  99148596.310 6                  23863906.740    23863917.980
  23863918.300          39.000          36.600
 127700028.236 7  99322300.312 5                  23956197.660    23956208.880
  23956207.920          43.200          33.400
 117278100.063 7  91216322.032 7                  21908531.800    21908535.300
  21908534.340          46.150          44.400
 115986742.679 8  90211921.361 7                  21728227.780    21728234.060
  21728233.420          48.150          44.750
 121468788.959 7  94475757.759 5                  22731215.580    22731223.840
  22731222.380          44.750          35.600
 116712033.109 7  90776027.198 6                  21833401.500    21833406.940
  21833406.920          47.400          39.000
 15  1 27 10  7 35.0000000  0 22G11G06G08G04G17G03G23G31G09G10G20G32
                                G01R24R17R02R12R10R03R18R11R01
 126595338.322 7  98645687.25745                  24090302.700
  24090302.100          46.550          35.650
 119577844.131 7  93177541.780 7  89295141.567 8  22754908.120    22754910.160
  22754909.440          47.500          46.350
 125523977.302 7  97810912.88346                  23886409.580
  23886408.800          47.550          38.800
 130196506.635 7 101451806.81345                  24775582.960
  24775585.500          45.950          34.750
 114175993.552 8  88968258.200 7                  21726977.160    21726974.880
  21726974.380          49.600          46.800
 110427347.720 8  86047280.596 8  82461979.873 8  21013626.060    21013626.340
  21013625.640          49.700          48.800
 107953240.323 8  84119376.29247                  20542813.420
  20542807.240          50.950          47.800
 129344612.519 7 100788003.775 6                  24613459.700    24613459.380
  24613458.600          45.100          39.950
 112189206.094 8  87420184.648 8  83777686.009 8  21348883.900    21348884.100
  21348883.680          49.850          48.850
 125317011.584 7  97649626.93245                  23847035.880
  23847035.820          43.900          35.350
 108845638.520 8  84814744.82447                  20712639.520
  20712635.820          49.100          46.650
 127717607.016 7  99520217.77146                  24303850.640
  24303850.880          45.100          36.600
 115905045.305 8  90315628.418 7  86552464.680 8  22055999.120    22056000.680
  22056000.440          49.200          47.200
 117079902.567 7  91062150.581 6                  21894539.820    21894545.220
  21894543.220          45.600          39.650
 104392200.995 8  81193931.987 7                  19508185.500    19508187.860
  19508186.640          49.700          47.800
 105077699.940 8  81727116.430 7                  19691518.480    19691522.340
  19691521.780          49.050          47.000
 127458500.612 6  99134434.274 6                  23860498.160    23860509.320
  23860509.660          39.100          37.100
 127707616.590 7  99328202.336 5                  23957621.240    23957632.440
  23957631.480          43.200          33.150
 117266052.353 7  91206951.606 7                  21906281.160    21906284.660
  21906283.700          45.900          44.200
 115971056.516 8  90199721.018 7                  21725289.280    21725295.480
  21725294.900          48.050          44.550
 121461339.458 7  94469963.738 5                  22729821.520    22729829.780
  22729828.320          44.350          34.950
 116726368.728 7  90787177.120 6                  21836083.240    21836088.760
  21836088.700          47.100          38.700
 15  1 27 10  7 40.0000000  0 22G11G06G08G04G17G03G23G31G09G10G20G32
                                G01R24R17R02R12R10R03R18R11R01
 126613860.817 7  98660120.34346                  24093827.440
  24093826.740          46.400          36.100
 119562784.639 7  93165807.113 7  89283895.848 8  22752042.400    22752044.400
  22752043.680          47.600          46.150
 125520259.947 7  97808016.25846                  23885702.220
  23885701.460          47.700          38.200
 130213829.911 7 101465305.43545                  24778879.500
  24778882.140          46.050          33.250
 114180710.065 8  88971933.396 7                  21727874.680    21727872.400
  21727871.940          49.750          46.700
 110434308.458 8  86052704.542 8  82467177.821 8  21014950.640    21014950.900
  21014950.260          49.900          48.750
 107950708.084 8  84117403.11547                  20542331.560
  20542325.360          50.850          47.950
 129352618.272 7 100794242.019 6                  24614983.120    24614982.900
  24614982.140          45.400          40.200
 112177038.309 8  87410703.259 8  83768599.680 8  21346568.460    21346568.640
  21346568.220          49.900          48.850
 125302253.343 7  97638127.02845                  23844227.400
  23844227.460          44.600          35.650
 108839271.708 8  84809783.67447                  20711427.920
  20711424.240          49.050          46.750
 127731813.279 7  99531287.56645                  24306553.960
  24306554.260          45.450          35.550
 115918085.305 8  90325789.451 7  86562202.325 8  22058480.580    22058482.100
  22058481.860          49.300          47.100
 117100922.770 7  91078499.607 6                  21898470.680    21898476.060
  21898474.080          46.150          38.750
 104395435.200 8  81196447.478 7                  19508789.900    19508792.240
  19508791.060          49.700          47.600
 105079306.819 8  81728366.227 7                  19691819.600    19691823.460
  19691822.900          48.950          46.950
 127440293.233 6  99120273.014 6                  23857089.700    23857100.900
  23857101.240          39.250          37.400
 127715222.586 7  99334118.126 5                  23959048.160    23959059.360
  23959058.360          43.000          33.050
 117254010.509 7  91197585.734 7                  21904031.620    21904035.140
  21904034.160          45.850          44.100
 115955383.279 8  90187530.722 7                  21722353.160    21722359.360
  21722358.800          48.050          44.250
 121453906.956 7  94464182.936 5                  22728430.620    22728438.920
  22728437.360          44.350          34.200
 116740704.825 7  90798327.405 6                  21838765.060    21838770.640
  21838770.540          46.350          38.600
 15  1 27 10  7 45.0000000  0 22G11G06G08G04G17G03G23G31G09G10G20G32
                                G01R24R17R02R12R10R03R18R11R01
 126632389.055 7  98674557.90546                  24097353.260
  24097352.600          46.450          36.550
 119547732.544 7  93154078.212 7  89272655.653 8  22749178.080    22749180.080
  22749179.320          47.700          46.200
 125516558.889 7  97805132.31646                  23884997.940
  23884997.200          47.700          38.100
 130231158.748 7 101478808.38045                  24782177.120
  24782179.680          46.250          33.650
 114185445.023 8  88975622.966 7                  21728775.720    21728773.480
  21728773.000          49.700          46.700
 110441277.713 8  86058135.120 8  82472382.125 8  21016276.860    21016277.100
  21016276.480          49.700          48.750
 107948192.365 8  84115442.81048                  20541852.820
  20541846.620          50.800          48.050
 129360640.638 7 100800493.193 6                  24616509.700    24616509.540
  24616508.820          45.450          40.050
 112164884.739 8  87401232.939 8  83759523.962 8  21344255.700    21344255.880
  21344255.460          49.900          48.950
 125287501.063 7  97626631.74146                  23841420.120
  23841420.200          45.050          36.000
 108832914.870 8  84804830.28647                  20710218.220
  20710214.560          49.100          46.450
 127746022.253 7  99542359.47446                  24309257.860
  24309258.180          45.650          36.800
 115931136.903 8  90335959.513 7  86571948.630 8  22060964.280    22060965.720
  22060965.460          49.450          47.200
 117121954.500 7  91094857.607 6                  21902403.740    21902409.140
  21902407.120          46.050          38.950
 104398695.214 8  81198983.040 7                  19509399.160    19509401.480
  19509400.280          49.550          47.750
 105080926.049 8  81729625.624 7                  19692123.080    19692126.900
  19692126.340          49.100          46.850
 127422091.060 6  99106115.800 6                  23853682.180    23853693.520
  23853693.760          39.900          37.350
 127722850.430 7  99340050.878 5                  23960479.140    23960490.300
  23960489.340          43.350          33.150
 117241978.883 7  91188227.802 7                  21901784.000    21901787.480
  21901786.540          46.050          44.200
 115939727.334 8  90175353.882 7                  21719420.260    21719426.440
  21719425.920          48.250          44.150
 121446495.860 7  94458418.754 5                  22727043.740    22727051.960
  22727050.420          45.200          35.550
 116755045.747 7  90809481.439 6                  21841447.780    21841453.380
  21841453.260          45.950          38.550
 15  1 27 10  7 50.0000000  0 22G11G06G08G04G17G03G23G31G09G10G20G32
                                G01R24R17R02R12R10R03R18R11R01
 126650917.023 7  98688995.24946                  24100879.020
  24100878.260          46.300          36.200
 119532681.747 7  93142350.318 7  89261416.422 8  22746313.980    22746316.000
  22746315.220          47.900          46.200
 125512867.975 7  97802256.29246                  23884295.600
  23884294.840          47.600          38.300
 130248487.131 7 101492310.98345                  24785474.660
  24785477.220          45.600          35.250
 114190192.264 8  88979322.106 7                  21729679.120    21729676.840
  21729676.380          49.650          46.800
 110448249.340 8  86063567.554 8  82477588.212 8  21017603.500    21017603.780
  21017603.140          49.850          48.750
 107945687.016 8  84113490.58848                  20541376.080
  20541369.880          50.800          48.000
 129368673.461 7 100806752.516 6                  24618038.320    24618038.200
  24618037.440          45.700          40.000
 112152739.272 8  87391768.940 8  83750454.302 8  21341944.520    21341944.660
  21341944.240          49.850          48.950
 125272748.631 7  97615136.36246                  23838612.800
  23838612.900          45.400          36.800
 108826561.874 8  84799879.89947                  20709009.240
  20709005.620          48.950          46.650
 127760227.828 7  99553428.73746                  24311961.120
  24311961.440          45.800          37.450
 115944193.948 8  90346133.823 7  86581699.015 8  22063449.020    22063450.420
  22063450.120          49.650          47.250
 117142991.136 7  91111219.412 6                  21906337.740    21906343.140
  21906341.100          46.100          39.600
 104401974.845 8  81201533.860 7                  19510012.080    19510014.340
  19510013.160          49.250          47.700
 105082551.232 8  81730889.655 7                  19692427.620    19692431.460
  19692430.880          49.050          46.950
 127403888.056 6  99091957.931 6                  23850274.640    23850286.000
  23850286.140          39.650          37.100
 127730493.950 7  99345995.824 5                  23961913.040    23961924.260
  23961923.260          43.000          33.050
 117229951.303 7  91178873.032 7                  21899537.140    21899540.680
  21899539.700          45.700          44.000
 115924082.490 8  90163185.672 7                  21716489.440    21716495.600
  21716495.080          48.350          44.250
 121439099.922 7  94452666.379 5                  22725659.720    22725667.840
  22725666.300          44.800          34.900
 116769385.177 7  90820634.304 6                  21844130.240    21844135.900
  21844135.700          45.800          38.550
 15  1 27 10  7 55.0000000  0 22G11G06G08G04G17G03G23G31G09G10G20G32
                                G01R24R17R02R12R10R03R18R11R01
 126669449.817 7  98703436.35945                  24104405.700
  24104404.980          46.700          35.550
 119517637.381 7  93130627.440 7  89250181.999 8  22743451.160    22743453.160
  22743452.320          47.900          46.550
 125509192.391 7  97799392.20646                  23883596.180
  23883595.360          47.550          38.650
 130265820.124 7 101505817.17045                  24788773.020
  24788775.520          45.150          34.100
 114194956.879 8  88983034.781 7                  21730585.800    21730583.500
  21730583.080          49.850          46.800
 110455228.479 8  86069005.846 8  82482799.899 8  21018931.580    21018931.860
  21018931.240          49.650          49.000
 107943197.209 8  84111550.47748                  20540902.280
  20540896.060          50.900          48.150
 129376721.911 7 100813024.025 6                  24619569.900    24619569.800
  24619569.140          45.450          40.050
 112140607.045 8  87382315.255 8  83741394.518 8  21339635.840    21339635.960
  21339635.560          49.600          49.050
 125258001.183 7  97603644.82446                  23835806.460
  23835806.540          44.850          36.700
 108820217.861 8  84794936.51247                  20707801.980
  20707798.400          48.900          46.700
 127774435.140 7  99564499.34746                  24314664.760
  24314665.040          45.900          38.050
 115957261.566 8  90356316.374 7  86591457.287 8  22065935.760    22065937.100
  22065936.800          49.600          47.450
 117164038.381 7  91127589.465 6                  21910273.680    21910278.980
  21910277.060          46.000          39.950
 104405279.419 8  81204104.079 7                  19510629.620    19510631.900
  19510630.700          49.450          47.900
 105084187.711 8  81732162.466 7                  19692734.320    19692738.120
  19692737.540          49.250          46.950
 127385689.352 6  99077803.412 6                  23846867.740    23846879.040
  23846879.280          39.550          37.000
 127738158.465 7  99351957.095 5                  23963350.880    23963362.040
  23963361.100          43.950          33.250
 117217932.866 7  91169525.346 7                  21897291.960    21897295.580
  21897294.520          46.200          44.150
 115908454.031 8  90151030.215 7                  21713561.700    21713567.880
  21713567.280          48.550          44.300
 121431724.362 7  94446929.861 5                  22724279.580    22724287.460
  22724285.920          44.650          34.700
 116783728.301 7  90831790.040 6                  21846813.420    21846819.080
  21846818.860          46.150          38.600
 15  1 27 10  8  0.0000000  0 22G11G06G08G04G17G03G23G31G09G10G20G32
                                G01R24R17R02R12R10R03R18R11R01
 126687986.069 7  98717880.17845                  24107933.100
  24107932.400          47.050          35.950
 119502598.190 8  93118908.594 7  89238951.446 8  22740589.300    22740591.300
  22740590.460          48.000          46.450
 125505530.816 7  97796539.04646                  23882899.400
  23882898.520          47.550          37.550
 130283156.473 7 101519325.95445                  24792072.020
  24792074.520          45.700          33.050
 114199737.574 8  88986759.987 7                  21731495.560    21731493.240
  21731492.820          50.000          46.650
 110462213.871 8  86074449.003 8  82488016.250 8  21020260.880    21020261.140
  21020260.540          49.900          48.900
 107940721.635 8  84109621.46547                  20540431.180
  20540424.980          51.050          47.850
 129384784.617 7 100819306.653 6                  24621104.200    24621104.140
  24621103.500          45.450          40.000
 112128486.782 8  87372870.898 8  83732343.672 8  21337329.440    21337329.560
  21337329.140          49.750          48.900
 125243257.437 7  97592156.20846                  23833000.820
  23833000.940          44.800          36.200
 108813881.528 8  84789999.10647                  20706596.200
  20706592.660          49.000          46.750
 127788642.935 7  99575570.34245                  24317368.460
  24317368.720          45.950          35.850
 115970338.496 8  90366506.183 7  86601222.508 8  22068424.300    22068425.580
  22068425.260          49.800          47.500
 117185094.474 7  91143966.405 6                  21914211.260    21914216.660
  21914214.660          45.900          39.250
 104408607.414 8  81206692.520 7                  19511251.520    19511253.800
  19511252.620          49.450          47.900
 105085834.163 8  81733443.042 7                  19693042.880    19693046.680
  19693046.080          49.150          46.800
 127367493.744 6  99063651.279 6                  23843461.480    23843472.780
  23843473.020          39.200          37.750
 127745842.517 7  99357933.559 5                  23964792.360    23964803.640
  23964802.620          43.650          32.850
 117205922.506 7  91160183.968 7                  21895048.300    21895052.000
  21895050.860          46.600          43.900
 115892840.591 8  90138886.415 7                  21710636.820    21710642.880
  21710642.280          48.400          44.100
 121424367.799 7  94441208.117 5                  22722902.940    22722910.660
  22722909.100          44.850          34.250
 116798073.887 7  90842947.712 6                  21849497.080    21849502.760
  21849502.460          46.200          38.900
 15  1 27 10  8  5.0000000  0 22G11G06G08G04G17G03G23G31G09G10G20G32
                                G01R24R17R02R12R10R03R18R11R01
 126706524.326 7  98732325.55045                  24111460.900
  24111460.100          46.650          34.550
 119487562.711 8  93107192.638 7  89227723.645 8  22737728.140    22737730.140
  22737729.280          48.100          46.400
 125501881.819 7  97793695.68046                  23882205.020
  23882204.080          47.700          37.700
 130300494.714 7 101532836.24545                  24795371.400
  24795373.980          45.750          34.500
 114204532.846 8  88990496.553 7                  21732408.080    21732405.760
  21732405.320          50.100          46.450
 110469204.009 8  86079895.860 8  82493236.154 8  21021591.060    21021591.320
  21021590.740          49.950          48.950
 107938258.860 8  84107702.41947                  20539962.520
  20539956.320          51.100          47.700
 129392860.201 7 100825599.299 6                  24622640.940    24622640.800
  24622640.240          45.200          39.850
 112116377.020 8  87363434.718 8  83723300.666 8  21335025.040    21335025.160
  21335024.740          49.950          48.800
 125228515.909 7  97580669.29645                  23830195.580
  23830195.660          45.050          35.350
 108807551.410 8  84785066.54247                  20705391.600
  20705388.060          49.300          46.750
 127802849.705 7  99586640.53645                  24320071.960
  24320072.260          46.050          35.500
 115983423.255 8  90376702.086 7  86610993.583 8  22070914.320    22070915.540
  22070915.200          49.950          47.500
 117206158.229 7  91160349.305 6                  21918150.280    21918155.760
  21918153.680          45.450          38.750
 104411957.483 8  81209298.123 7                  19511877.560    19511879.860
  19511878.640          49.350          47.800
 105087489.071 8  81734730.191 7                  19693353.020    19693356.800
  19693356.160          49.000          46.700
 127349299.712 6  99049500.390 6                  23840055.520    23840066.840
  23840067.100          39.400          37.050
 127753544.610 7  99363924.079 5                  23966237.220    23966248.480
  23966247.540          43.700          32.500
 117193918.472 7  91150847.505 7                  21892805.900    21892809.580
  21892808.380          46.450          43.700
 115877240.709 8  90126753.174 7                  21707714.460    21707720.480
  21707719.820          48.400          44.250
 121417028.832 7  94435500.055 5                  22721529.560    22721537.220
  22721535.680          44.300          35.050
 116812420.264 7  90854105.986 6                  21852180.860    21852186.600
  21852186.220          46.950          38.650
 15  1 27 10  8 10.0000000  0 22G11G06G08G04G17G03G23G31G09G10G20G32
                                G01R24R17R02R12R10R03R18R11R01
 126725064.950 7  98746772.76545                  24114989.080
  24114988.220          46.200          35.950
 119472531.247 7  93095479.825 7  89216498.878 8  22734867.720    22734869.720
  22734868.880          47.950          46.400
 125498245.705 7  97790862.36046                  23881513.060
  23881512.040          47.550          37.600
 130317835.196 7 101546348.26245                  24798671.140
  24798673.860          44.950          34.800
 114209343.045 8  88994244.756 7                  21733323.440    21733321.120
  21733320.660          50.050          46.600
 110476199.229 8  86085346.674 8  82498459.859 8  21022922.200    21022922.500
  21022921.920          49.950          49.050
 107935809.186 8  84105793.58947                  20539496.360
  20539490.140          51.000          47.700
 129400948.896 7 100831902.162 6                  24624180.180    24624180.060
  24624179.500          44.900          39.750
 112104278.073 8  87354006.976 8  83714265.756 8  21332722.700    21332722.820
  21332722.380          49.750          48.850
 125213776.975 7  97569184.41245                  23827390.840
  23827390.940          45.200          34.900
 108801227.876 8  84780139.11547                  20704188.260
  20704184.740          49.200          46.800
 127817055.824 7  99597710.20846                  24322775.340
  24322775.680          46.150          36.900
 115996516.150 8  90386904.335 7  86620770.748 8  22073405.900    22073407.040
  22073406.720          50.100          47.550
 117227229.677 7  91176738.192 6                  21922090.760    21922096.160
  21922094.140          45.600          39.000
 104415330.113 8  81211921.280 7                  19512507.800    19512510.120
  19512508.900          49.100          47.650
 105089152.613 8  81736024.052 7                  19693664.800    19693668.580
  19693667.880          49.000          46.850
 127331107.552 6  99035350.953 5                  23836649.900    23836661.200
  23836661.420          38.850          35.950
 127761265.285 7  99369929.045 5                  23967685.620    23967696.920
  23967695.900          43.400          32.900
 117181921.297 7  91141516.376 7                  21890564.740    21890568.380
  21890567.160          46.350          43.450
 115861654.685 8  90114630.713 7                  21704794.720    21704800.680
  21704799.980          48.600          44.000
 121409707.877 7  94429806.016 5                  22720159.480    22720167.120
  22720165.640          43.700          34.800
 116826767.969 7  90865265.313 6                  21854864.900    21854870.600
  21854870.260          47.100          38.800
 15  1 27 10  8 15.0000000  0 22G11G06G08G04G17G03G23G31G09G10G20G32
                                G01R24R17R02R12R10R03R18R11R01
 126743610.175 7  98761223.54945                  24118518.020
  24118517.220          45.700          34.950
 119457506.113 7  93083771.933 7  89205278.810 8  22732008.480    22732010.520
  22732009.660          47.700          46.450
 125494624.749 7  97788040.84246                  23880823.980
  23880822.920          47.550          37.950
 130335180.081 7 101559863.72845                  24801971.760
  24801974.520          44.950          35.650
 114214170.450 8  88998006.366 7                  21734242.100    21734239.780
  21734239.300          50.050          46.700
 110483201.776 8  86090803.201 8  82503689.024 8  21024254.760    21024255.020
  21024254.460          49.950          49.100
 107933374.888 8  84103896.73548                  20539033.120
  20539026.920          50.850          48.050
 129409053.075 7 100838217.066 6                  24625722.280    24625722.280
  24625721.660          44.600          39.950
 112092192.238 8  87344589.450 8  83705240.619 8  21330422.840    21330422.920
  21330422.480          49.700          48.900
 125199042.862 7  97557703.30246                  23824587.020
  23824587.180          44.700          36.550
 108794913.144 8  84775218.54547                  20702986.580
  20702983.080          49.150          46.650
 127831263.506 7  99608781.11546                  24325478.980
  24325479.380          45.800          36.700
 116009619.455 8  90397114.694 7  86630555.664 8  22075899.460    22075900.500
  22075900.220          50.050          47.650
 117248311.221 7  91193134.926 6                  21926033.100    21926038.580
  21926036.460          45.700          38.200
 104418727.294 8  81214563.526 7                  19513142.620    19513144.960
  19513143.720          49.050          47.600
 105090827.353 8  81737326.632 7                  19693978.680    19693982.440
  19693981.700          49.200          46.600
 127312919.799 6  99021204.925 5                  23833245.200    23833256.360
  23833256.520          38.350          35.500
 127769006.592 7  99375950.059 5                  23969137.920    23969149.200
  23969148.140          43.900          32.000
 117169933.164 7  91132192.276 7                  21888325.280    21888328.880
  21888327.640          46.800          43.650
 115846084.905 8  90102520.884 7                  21701878.020    21701883.920
  21701883.180          48.600          43.900
 121402407.107 7  94424127.650 5                  22718793.240    22718800.860
  22718799.400          44.250          35.200
 116841119.157 7  90876427.342 6                  21857549.580    21857555.300
  21857554.920          47.250          38.850
 15  1 27 10  8 20.0000000  0 22G11G06G08G04G17G03G23G31G09G10G20G32
                                G01R24R17R02R12R10R03R18R11R01
 126762157.602 7  98775676.04946                  24122047.440
  24122046.640          46.100          36.250
 119442484.959 8  93072067.148 7  89194061.713 8  22729150.020    22729152.080
  22729151.200          48.000          46.400
 125491016.610 7  97785229.32246                  23880137.380
  23880136.260          47.300          38.050
 130352527.069 7 101573380.79846                  24805272.800
  24805275.740          45.250          36.000
 114219012.686 8  89001779.525 7                  21735163.580    21735161.260
  21735160.740          49.950          46.850
 110490209.342 8  86096263.629 8  82508921.929 8  21025588.260    21025588.520
  21025587.960          49.950          49.100
 107930953.591 8  84102010.00448                  20538572.340
  20538566.140          50.800          48.150
 129417170.276 7 100844542.139 6                  24627266.880    24627266.920
  24627266.340          44.650          39.700
 112080117.178 8  87335180.310 8  83696223.523 8  21328125.040    21328125.120
  21328124.640          49.850          48.900
 125184311.237 7  97546224.12446                  23821783.660
  23821783.800          45.050          36.100
 108788604.895 8  84770303.02447                  20701786.160
  20701782.660          49.150          46.850
 127845470.429 7  99619851.43246                  24328182.420
  24328182.800          45.450          37.100
 116022730.816 8  90407331.327 7  86640346.599 8  22078394.540    22078395.520
  22078395.240          49.950          47.600
 117269400.532 7  91209537.709 6                  21929976.940    21929982.420
  21929980.240          45.650          38.600
 104422146.881 8  81217223.202 7                  19513781.640    19513784.020
  19513782.760          49.000          47.650
 105092510.724 8  81738635.927 7                  19694294.200    19694297.900
  19694297.140          49.450          46.600
 127294733.875 6  99007060.332 6                  23829840.760    23829851.860
  23829852.020          38.400          36.700
 127776766.095 7  99381985.214 5                  23970593.620    23970604.960
  23970603.840          43.900          32.650
 117157951.821 7  91122873.460 7                  21886087.060    21886090.640
  21886089.380          46.650          44.150
 115830529.049 8  90090421.879 7                  21698963.900    21698969.740
  21698969.000          48.250          44.100
 121395124.311 7  94418463.286 5                  22717430.360    22717437.980
  22717436.600          43.900          35.700
 116855471.364 7  90887590.160 6                  21860234.460    21860240.240
  21860239.820          47.300          38.900
 15  1 27 10  8 25.0000000  0 22G11G06G08G04G17G03G23G31G09G10G20G32
                                G01R24R17R02R12R10R03R18R11R01
 126780707.213 7  98790130.26845                  24125577.300
  24125576.560          46.600          35.550
 119427467.718 8  93060365.407 7  89182847.557 8  22726292.300    22726294.380
  22726293.500          48.050          46.700
 125487421.257 7  97782427.76046                  23879453.180
  23879452.020          47.650          38.550
 130369876.153 7 101586899.53945                  24808574.260
  24808577.180          45.350          34.250
 114223869.677 8  89005564.185 7                  21736087.860    21736085.520
  21736085.020          50.000          47.200
 110497221.835 8  86101727.905 8  82514158.527 8  21026922.700    21026922.960
  21026922.380          49.900          49.300
 107928545.250 8  84100133.37748                  20538114.020
  20538107.840          50.850          48.350
 129425300.502 7 100850877.355 6                  24628813.960    24628814.080
  24628813.460          45.000          39.950
 112068052.820 8  87325779.512 8  83687214.428 8  21325829.280    21325829.320
  21325828.840          49.900          49.150
 125169582.048 7  97534746.83146                  23818980.760
  23818980.860          45.400          36.100
 108782303.061 8  84765392.50647                  20700586.960
  20700583.440          49.000          47.250
 127859676.521 7  99630921.08845                  24330885.720
  24330886.020          45.350          35.250
 116035850.180 8  90417554.198 7  86650143.514 8  22080891.140    22080892.060
  22080891.800          49.850          47.800
 117290497.490 7  91225946.441 6                  21933922.200    21933927.640
  21933925.500          45.800          37.550
 104425588.632 8  81219900.107 7                  19514424.740    19514427.220
  19514425.920          49.100          46.700
 105094202.750 8  81739951.941 7                  19694611.320    19694614.940
  19694614.180          49.300          45.800
 127276549.726 6  98992917.169 5                  23826436.660    23826447.860
  23826447.860          39.100          35.100
 127784543.961 7  99388034.657 5                  23972052.700    23972063.960
  23972062.920          43.350          30.650
 117145976.916 7  91113559.651 7                  21883850.060    21883853.640
  21883852.360          46.700          43.300
 115814987.019 8  90078333.645 7                  21696052.380    21696058.140
  21696057.420          48.250          43.050
 121387859.363 7  94412812.818 5                  22716070.820    22716078.420
  22716077.120          44.650          34.150
 116869824.815 7  90898753.948 6                  21862919.560    21862925.360
  21862924.940          47.250          38.100
 15  1 27 10  8 30.0000000  0 22G11G06G08G04G17G03G23G31G09G10G20G32
                                G01R24R17R02R12R10R03R18R11R01
 126799259.574 7  98804586.65245                  24129107.760
  24129106.920          46.850          35.350
 119412455.069 8  93048667.244 7  89171636.821 8  22723435.500    22723437.560
  22723436.640          48.150          46.550
 125483839.307 7  97779636.63846                  23878771.560
  23878770.380          47.600          38.550
 130387227.897 7 101600420.33945                  24811876.200
  24811879.100          44.650          32.550
 114228742.059 8  89009360.832 7                  21737015.060    21737012.700
  21737012.220          49.900          47.050
 110504239.880 8  86107196.495 8  82519399.267 8  21028258.160    21028258.460
  21028257.860          49.850          49.150
 107926150.494 8  84098267.32748                  20537658.300
  20537652.120          50.950          48.250
 129433444.306 7 100857223.151 6                  24630363.620    24630363.800
  24630363.280          45.100          40.050
 112055999.800 8  87316387.550 8  83678213.808 8  21323535.660    21323535.700
  21323535.200          49.950          49.100
 125154855.912 7  97523271.93046                  23816178.440
  23816178.500          45.300          36.350
 108776008.280 8  84760487.47647                  20699389.080
  20699385.580          49.050          46.800
 127873882.364 7  99641990.55346                  24333589.020
  24333589.240          45.900          37.050
 116048978.144 8  90427783.768 7  86659946.855 8  22083389.340    22083390.240
  22083389.980          49.750          47.750
 117311602.608 7  91242361.506 6                  21937868.980    21937874.360
  21937872.260          45.950          37.400
 104429053.330 8  81222594.857 7                  19515072.160    19515074.680
  19515073.400          49.100          46.950
 105095903.920 8  81741275.058 7                  19694930.160    19694933.760
  19694932.960          49.250          45.850
 127258368.169 6  98978776.023 5                  23823033.020    23823044.260
  23823044.180          39.200          34.850
 127792340.709 7  99394098.759 5                  23973515.340    23973526.740
  23973525.580          43.650          31.050
 117134009.445 7  91104251.618 7                  21881614.420    21881618.060
  21881616.720          46.350          43.550
 115799459.497 8  90066256.693 7                  21693143.560    21693149.360
  21693148.600          48.200          43.700
 121380612.778 7  94407176.609 5                  22714714.720    22714722.380
  22714721.060          44.450          34.600
 116884179.889 7  90909918.985 6                  21865604.940    21865610.740
  21865610.380          46.400          38.600
 15  1 27 10  8 35.0000000  0 22G11G06G08G04G17G03G23G31G09G10G20G32
                                G01R24R17R02R12R10R03R18R11R01
 126817815.451 7  98819045.75246                  24132638.900
  24132638.000          46.100          36.700
 119397447.715 7  93036973.208 7  89160430.042 8  22720579.680    22720581.720
  22720580.840          47.850          46.350
 125480271.532 7  97776856.56046                  23878092.640
  23878091.420          47.700          38.200
 130404583.027 7 101613943.78445                  24815178.760
  24815181.680          44.750          35.950
 114233630.571 8  89013170.058 7                  21737945.340    21737942.940
  21737942.480          49.850          47.100
 110511264.228 8  86112670.013 8  82524644.714 8  21029594.860    21029595.180
  21029594.540          49.950          49.000
 107923770.063 8  84096412.44948                  20537205.300
  20537199.140          50.900          48.300
 129441602.447 7 100863580.110 6                  24631916.020    24631916.280
  24631915.820          45.150          40.200
 112043958.898 8  87307005.031 8  83669222.223 8  21321244.360    21321244.380
  21321243.880          50.100          49.150
 125140133.596 7  97511800.00946                  23813376.920
  23813377.000          45.700          36.950
 108769721.279 8  84755588.52047                  20698192.700
  20698189.220          49.050          47.250
 127888088.764 7  99653060.48146                  24336292.440
  24336292.680          45.700          37.450
 116062115.467 8  90438020.637 7  86669757.183 8  22085889.340    22085890.220
  22085889.940          49.600          47.700
 117332716.777 7  91258783.623 6                  21941817.460    21941822.840
  21941820.740          45.950          37.350
 104432541.690 8  81225308.026 7                  19515724.020    19515726.560
  19515725.280          49.000          47.200
 105097615.108 8  81742605.989 7                  19695250.860    19695254.420
  19695253.600          49.300          46.150
 127240189.818 6  98964637.338 5                  23819630.020    23819641.200
  23819641.060          39.550          34.900
 127800157.046 7  99400178.143 5                  23974981.700    23974993.080
  23974991.940          43.550          31.700
 117122050.007 7  91094949.840 7                  21879380.320    21879383.920
  21879382.580          46.250          43.700
 115783947.232 8  90054191.599 7                  21690237.600    21690243.400
  21690242.660          48.000          43.900
 121373385.551 7  94401555.468 5                  22713362.260    22713369.860
  22713368.600          44.000          34.100
 116898537.564 7  90921086.061 6                  21868290.860    21868296.640
  21868296.300          46.050          38.600
 15  1 27 10  8 40.0000000  0 22G11G06G08G04G17G03G23G31G09G10G20G32
                                G01R24R17R02R12R10R03R18R11R01
 126836373.165 7  98833506.25746                  24136170.320
  24136169.500          46.250          37.150
 119382444.058 8  93025282.051 7  89149226.001 8  22717724.560    22717726.580
  22717725.700          48.100          46.250
 125476716.237 7  97774086.20746                  23877416.120
  23877414.880          47.650          38.200
 130421939.889 7 101627468.54645                  24818481.660
  24818484.540          45.250          35.350
 114238533.485 8  89016990.490 7                  21738878.340    21738875.960
  21738875.460          49.800          46.900
 110518293.208 8  86118147.129 8  82529893.608 8  21030932.420    21030932.700
  21030932.100          49.950          49.000
 107921402.262 8  84094567.41048                  20536754.700
  20536748.560          50.800          48.150
 129449773.199 7 100869946.906 6                  24633470.840    24633471.140
  24633470.720          45.400          39.750
 112031928.408 8  87297630.621 8  83660238.412 8  21318955.040    21318955.040
  21318954.540          50.100          49.000
 125125413.414 7  97500329.73146                  23810575.800
  23810575.800          45.700          37.000
 108763440.369 8  84750694.30047                  20696997.460
  20696994.000          49.050          47.100
 127902294.039 7  99664129.48846                  24338995.640
  24338995.860          45.950          37.500
 116075260.455 8  90448263.472 7  86679573.229 8  22088390.780    22088391.640
  22088391.360          49.450          47.700
 117353838.213 7  91275211.385 6                  21945767.300    21945772.760
  21945770.560          45.800          38.050
 104436051.862 8  81228038.156 7                  19516379.980    19516382.520
  19516381.240          49.000          47.300
 105099334.568 8  81743943.338 7                  19695573.100    19695576.640
  19695575.820          49.400          46.350
 127222013.087 6  98950499.894 5                  23816227.340    23816238.400
  23816238.240          39.600          34.200
 127807991.300 7  99406271.428 5                  23976451.380    23976462.820
  23976461.680          43.700          32.100
 117110096.872 7  91085652.959 7                  21877147.440    21877151.000
  21877149.640          46.250          44.000
 115768448.517 7  90042137.046 7                  21687334.180    21687339.960
  21687339.260          47.900          44.350
 121366175.809 7  94395947.903 5                  22712013.100    22712020.640
  22712019.380          44.050          34.500
 116912895.897 7  90932253.636 6                  21870976.900    21870982.700
  21870982.320          46.750          38.250
 15  1 27 10  8 45.0000000  0 22G11G06G08G04G17G03G23G31G09G10G20G32
                                G01R24R17R02R12R10R03R18R11R01
 126854934.852 7  98847969.88046                  24139702.480
  24139701.780          46.000          37.550
 119367446.205 7  93013595.414 7  89138026.311 8  22714870.580    22714872.520
  22714871.660          47.900          46.250
 125473175.597 7  97771327.27446                  23876742.380
  23876741.100          47.750          37.500
 130439300.611 7 101640996.35745                  24821785.360
  24821788.180          45.450          34.350
 114243453.005 8  89020823.870 7                  21739814.500    21739812.080
  21739811.620          49.700          46.900
 110525328.960 8  86123629.526 8  82535147.578 8  21032271.280    21032271.580
  21032270.940          49.850          48.850
 107919049.246 8  84092733.89148                  20536306.940
  20536300.800          50.800          48.000
 129457958.818 7 100876325.290 6                  24635028.480    24635028.840
  24635028.420          45.300          39.450
 112019910.531 8  87288266.048 8  83651264.029 8  21316668.120    21316668.100
  21316667.600          50.150          48.900
 125110697.526 7  97488862.80746                  23807775.460
  23807775.500          45.650          36.550
 108757167.722 8  84745806.52647                  20695803.800
  20695800.380          49.150          46.950
 127916500.326 7  99675199.30346                  24341699.040
  24341699.280          46.200          36.750
 116088415.291 8  90458513.979 7  86689396.634 8  22090894.060    22090894.940
  22090894.640          49.550          47.450
 117374969.121 7  91291646.510 6                  21949718.900    21949724.400
  21949722.220          45.700          38.300
 104439586.183 8  81230787.075 7                  19517040.400    19517043.020
  19517041.720          49.000          47.400
 105101064.476 8  81745288.824 7                  19695897.280    19695900.840
  19695900.000          49.150          46.600
 127203840.246 6  98936365.484 5                  23812825.400    23812836.320
  23812836.140          39.050          35.400
 127815845.753 7  99412380.444 5                  23977924.920    23977936.220
  23977935.160          42.750          32.300
 117098152.217 7  91076362.678 7                  21874916.140    21874919.680
  21874918.320          45.900          44.050
 115752965.628 7  90030094.809 7                  21684433.720    21684439.480
  21684438.800          47.950          44.600
 121358985.929 7  94390355.797 5                  22710667.580    22710675.080
  22710673.860          44.550          34.100
 116927257.166 7  90943423.494 6                  21873663.480    21873669.340
  21873668.900          46.800          38.000
