     2.11           OBSERVATION DATA    M (MIXED)           RINEX VERSION / TYPE
teqc  2011Oct11     IGN-E (SPG)         20150127 20:00:50UTCPGM / RUN BY / DATE
Linux 2.4.21-27.ELsmp|Opteron|gcc -static|Linux x86_64|=+   COMMENT
BIT 2 OF LLI FLAGS DATA COLLECTED UNDER A/S CONDITION       COMMENT
VALE                                                        MARKER NAME
13439M001                                                   MARKER NUMBER
Programas GeodesicosInstituto Geografico Nacional           OBSERVER / AGENCY
1700071             LEICA GR10          3.03/6.214          REC # / TYPE / VERS
10190012            LEIAR25.R3      LEIT                    ANT # / TYPE
  4929534.0457   -29050.6755  4033709.9250                  APPROX POSITION XYZ
        3.0390        0.0000        0.0000                  ANTENNA: DELTA H/E/N
     1     1                                                WAVELENGTH FACT L1/2
     8    L1    L2    L5    C1    C2    P2    S1    S2      # / TYPES OF OBSERV
     5.0000                                                 INTERVAL
Forced Modulo Decimation to 5 seconds                       COMMENT
DefaultJobName                                              COMMENT
DefaultUserDiscription                                      COMMENT
Project creator:                                            COMMENT
 SNR is mapped to RINEX snr flag value [0-9]                COMMENT
  L1 & L2: min(max(int(snr_dBHz/6), 0), 9)                  COMMENT
  2015     1    27    19     0    0.0000000     GPS         TIME OF FIRST OBS
    15                                                      LEAP SECONDS
                                                            END OF HEADER
 15  1 27 19  0  0.0000000  0 22G22G18G13G17G15G28G24G12G25R18R05R16
                                R17R08R06R09R07R19R10R15E19E20
 127759965.447 7  99553230.53146                  24311908.280
  24311902.340          46.950          36.800
 120801419.209 7  94130992.07346                  22987732.120
  22987727.900          47.850          38.150
 119122193.629 8  92822554.49846                  22668175.060
  22668171.300          49.650          39.400
 122662461.401 8  95581203.925 7                  23341859.960    23341855.960
  23341855.420          48.750          44.250
 108738213.169 8  84731106.750 8                  20692173.700    20692170.340
  20692169.660          50.100          48.700
 136210084.215 6 106137864.50644                  25919846.340
  25919841.820          41.350          27.550
 108672956.541 8  84680312.740 8  81151983.760 8  20679743.360    20679741.620
  20679741.040          50.200          49.950
 110437657.403 8  86055425.630 7                  21015523.080    21015519.380
  21015518.620          49.900          47.200
 127404565.903 7  99276380.115 6  95139890.150 8  24244248.720    24244250.760
  24244249.820          45.100          41.650
 116411498.727 8  90542351.301 7                  21807779.220    21807783.240
  21807782.520          48.450          43.650
 129951463.216 7 101073331.398 6                  24310141.200    24310151.760
  24310152.020          42.400          39.050
 107499672.551 7  83610916.548 7                  20124146.860    20124149.880
  20124148.880          46.800          46.100
 121393139.719 7  94416903.514 6                  22685205.160    22685206.500
  22685205.400          45.300          40.950
 128396620.271 7  99864057.547 6                  23977163.860    23977165.940
  23977164.820          42.700          37.900
 110394622.901 8  85862541.920 7                  20687891.020    20687893.100
  20687893.260          48.950          43.650
 110579505.412 7  86006225.783 6                  20707955.040    20707958.780
  20707956.660          47.000          36.250
 110776013.548 8  86159137.630 7                  20693887.400    20693888.900
  20693887.880          48.100          46.100
 128830321.870 7 100201340.029 6                  24083431.100    24083438.460
  24083436.860          43.550          36.650
 130557430.056 6 101544687.428 5                  24492240.380    24492250.800
  24492249.840          41.600          31.950
 127000159.404 6  98777924.971 6                  23766348.520    23766353.980
  23766352.180          41.000          36.400
 132673439.717 8                  99074358.807 7  25246903.620
                        49.350
 119440126.047 8                                  22728698.000
                        48.850
 15  1 27 19  0  5.0000000  0 22G22G18G13G17G15G28G24G12G25R18R05R16
                                R17R08R06R09R07R19R10R15E19E20
 127754110.042 7  99548667.88046                  24310794.000
  24310788.120          47.100          37.850
 120803730.153 7  94132792.81546                  22988171.940
  22988167.700          47.900          38.500
 119138213.190 8  92835037.27646                  22671223.540
  22671219.680          49.350          39.750
 122667138.233 8  95584848.208 7                  23342749.940    23342745.940
  23342745.440          48.700          44.700
 108745437.148 8  84736735.818 8                  20693548.380    20693545.040
  20693544.340          49.950          49.000
 136225824.003 6 106150129.28645                  25922841.540
  25922836.960          41.700          31.650
 108668670.321 8  84676972.830 8  81148783.005 8  20678927.760    20678925.960
  20678925.420          50.200          50.200
 110426733.482 8  86046913.501 7                  21013444.280    21013440.640
  21013439.880          49.900          47.600
 127387330.730 7  99262950.143 7  95127019.761 8  24240968.940    24240970.980
  24240970.020          44.700          42.000
 116400247.500 8  90533600.336 7                  21805671.500    21805675.480
  21805674.800          48.250          44.150
 129974013.565 6 101090870.157 6                  24314360.000    24314370.660
  24314370.900          41.300          38.300
 107505378.534 7  83615354.543 7                  20125215.080    20125218.060
  20125217.080          47.000          46.550
 121398675.529 7  94421209.155 6                  22686239.660    22686241.000
  22686239.860          45.300          41.550
 128378079.621 6  99849637.046 6                  23973701.560    23973703.560
  23973702.440          41.800          38.500
 110409913.214 8  85874434.373 7                  20690756.420    20690758.540
  20690758.640          48.800          44.150
 110572101.371 7  86000467.103 6                  20706568.520    20706572.320
  20706570.120          46.950          37.250
 110771594.499 7  86155700.586 7                  20693061.860    20693063.360
  20693062.380          47.800          46.300
 128809678.504 7 100185284.157 6                  24079572.060    24079579.340
  24079577.700          43.550          36.200
 130543455.463 6 101533818.296 5                  24489618.760    24489629.820
  24489628.580          40.100          31.650
 127014588.807 6  98789147.855 6                  23769048.720    23769054.180
  23769052.340          40.550          36.600
 132669992.009 8                  99071784.204 8  25246247.520
                        49.200
 119448814.499 8                                  22730351.340
                        48.750
 15  1 27 19  0 10.0000000  0 22G22G18G13G17G15G28G24G12G25R18R05R16
                                R17R08R06R09R07R19R10R15E19E20
 127748266.821 7  99544114.72646                  24309682.060
  24309676.240          46.750          36.350
 120806053.322 7  94134603.07146                  22988614.060
  22988609.740          47.800          38.550
 119154239.393 8  92847525.21446                  22674273.280
  22674269.360          49.300          39.200
 122671828.428 8  95588502.906 7                  23343642.460    23343638.460
  23343637.980          48.700          44.250
 108752673.272 8  84742374.354 8                  20694925.400    20694922.020
  20694921.320          50.050          49.000
 136241561.168 6 106162391.98045                  25925836.220
  25925831.400          41.700          32.800
 108664389.637 8  84673637.231 8  81145586.395 8  20678113.180    20678111.380
  20678110.840          50.200          50.150
 110415820.537 8  86038409.915 7                  21011367.600    21011363.980
  21011363.220          50.000          47.750
 127370099.001 7  99249522.864 6  95114151.962 8  24237689.800    24237691.840
  24237690.880          44.250          41.950
 116389011.838 8  90524861.504 7                  21803566.660    21803570.620
  21803570.000          48.350          44.150
 129996560.307 6 101108406.123 6                  24318578.140    24318588.900
  24318589.080          39.850          37.800
 107511089.427 7  83619796.346 7                  20126284.240    20126287.140
  20126286.180          46.950          46.400
 121404230.714 7  94425529.854 6                  22687277.760    22687279.100
  22687277.940          45.500          41.350
 128359547.508 7  99835223.224 6                  23970240.840    23970242.780
  23970241.620          42.150          37.800
 110425218.297 8  85886338.326 7                  20693624.620    20693626.740
  20693626.800          48.950          44.450
 110564703.164 7  85994712.944 6                  20705183.080    20705186.820
  20705184.660          46.700          37.050
 110767196.469 7  86152279.887 7                  20692240.240    20692241.780
  20692240.780          47.850          46.550
 128789031.893 7 100169225.753 6                  24075712.300    24075719.380
  24075717.860          42.950          36.800
 130529481.718 6 101522949.828 5                  24486997.400    24487008.540
  24487007.380          38.800          32.700
 127029015.685 6  98800368.774 6                  23771748.500    23771753.960
  23771752.080          40.750          38.050
 132666554.740 8                  99069217.426 7  25245593.440
                        49.300
 119457511.441 8                                  22732006.300
                        48.750
 15  1 27 19  0 15.0000000  0 22G22G18G13G17G15G28G24G12G25R18R05R16
                                R17R08R06R09R07R19R10R15E19E20
 127742437.652 7  99539572.53346                  24308572.760
  24308567.020          46.200          37.500
 120808390.597 7  94136424.31746                  22989058.860
  22989054.520          47.800          39.350
 119170274.119 8  92860019.80646                  22677324.620
  22677320.700          49.300          39.450
 122676533.847 8  95592169.468 7                  23344537.860    23344533.840
  23344533.420          48.350          44.200
 108759923.410 8  84748023.816 8                  20696305.080    20696301.680
  20696300.980          50.100          49.000
 136257297.467 6 106174654.07145                  25928830.720
  25928825.960          41.150          32.950
 108660116.374 8  84670307.417 8  81142395.325 8  20677300.000    20677298.200
  20677297.680          49.950          50.200
 110404920.403 8  86029916.308 7                  21009293.340    21009289.740
  21009289.000          49.900          47.850
 127352872.676 7  99236099.800 6  95101288.190 8  24234411.680    24234413.760
  24234412.820          44.100          41.650
 116377793.707 8  90516136.304 7                  21801465.120    21801469.080
  21801468.440          48.250          43.850
 130019105.575 6 101125940.918 6                  24322796.020    24322806.760
  24322807.020          41.400          38.400
 107516807.199 7  83624243.511 7                  20127354.660    20127357.500
  20127356.580          47.350          46.450
 121409807.348 7  94429867.249 6                  22688319.820    22688321.240
  22688320.020          45.450          41.500
 128341025.968 7  99820817.588 6                  23966782.040    23966783.940
  23966782.740          42.650          37.750
 110440539.680 8  85898254.955 7                  20696495.860    20696498.000
  20696498.000          48.950          44.600
 110557312.532 7  85988964.679 6                  20703799.060    20703802.760
  20703800.640          46.950          37.100
 110762821.671 8  86148877.281 7                  20691422.960    20691424.540
  20691423.560          48.100          46.600
 128768384.092 7 100153166.467 6                  24071852.380    24071859.340
  24071857.880          43.250          36.900
 130515510.823 6 101512083.567 5                  24484376.480    24484387.400
  24484386.440          41.200          31.250
 127043442.159 6  98811589.328 6                  23774448.280    23774453.760
  23774451.880          40.550          37.900
 132663129.800 8                  99066659.845 7  25244941.680
                        49.100
 119466218.717 8                                  22733663.240
                        48.550
 15  1 27 19  0 20.0000000  0 22G22G18G13G17G15G28G24G12G25R18R05R16
                                R17R08R06R09R07R19R10R15E19E20
 127736620.735 7  99535039.88346                  24307465.800
  24307460.160          46.400          36.250
 120810740.210 7  94138255.18846                  22989505.980
  22989501.660          47.650          38.900
 119186315.588 8  92872519.64846                  22680377.240
  22680373.280          49.150          39.400
 122681252.704 8  95595846.509 7                  23345435.840    23345431.800
  23345431.360          48.300          44.050
 108767185.775 8  84753682.808 8                  20697687.060    20697683.660
  20697682.960          49.950          48.900
 136273031.130 6 106186914.10743                  25931824.720
  25931820.000          41.250          23.650
 108655848.576 8  84666981.864 8  81139208.333 8  20676487.880    20676486.080
  20676485.540          50.000          50.150
 110394031.394 8  86021431.374 7                  21007221.200    21007217.620
  21007216.900          49.850          47.850
 127335649.876 7  99222679.470 6  95088427.057 8  24231134.240    24231136.360
  24231135.480          44.150          41.500
 116366591.350 7  90507423.361 7                  21799366.520    21799370.460
  21799369.820          47.800          43.450
 130041647.480 6 101143473.080 6                  24327013.240    24327024.000
  24327024.360          41.750          38.400
 107522529.969 7  83628694.558 7                  20128426.020    20128428.800
  20128427.900          47.650          46.150
 121415403.478 7  94434219.805 6                  22689365.600    22689367.080
  22689365.720          46.200          40.950
 128322513.078 7  99806418.661 6                  23963324.880    23963326.860
  23963325.500          42.650          36.800
 110455875.556 8  85910182.863 7                  20699369.820    20699371.940
  20699371.960          49.200          44.400
 110549927.701 7  85983220.932 6                  20702416.120    20702419.920
  20702417.700          47.200          37.550
 110758467.980 8  86145491.079 7                  20690609.640    20690611.240
  20690610.280          48.050          46.300
 128747733.184 7 100137104.755 6                  24067991.840    24067998.800
  24067997.340          43.450          37.150
 130501540.852 7 101501218.119 5                  24481755.740    24481766.760
  24481765.300          42.950          31.600
 127057866.430 6  98822808.186 6                  23777147.540    23777153.160
  23777151.240          41.000          37.750
 132659715.388 8                  99064110.114 7  25244291.920
                        49.050
 119474934.601 8                                  22735321.800
                        48.450
 15  1 27 19  0 25.0000000  0 22G22G18G13G17G15G28G24G12G25R18R05R16
                                R17R08R06R09R07R19R10R15E19E20
 127730817.457 7  99530517.86146                  24306361.420
  24306355.860          46.450          36.400
 120813103.496 7  94140096.69846                  22989955.720
  22989951.400          47.400          38.750
 119202365.144 8  92885025.79646                  22683431.400
  22683427.420          49.150          39.200
 122685986.285 8  95599535.016 7                  23346336.580    23346332.540
  23346332.140          48.100          44.050
 108774461.765 8  84759352.413 8                  20699071.660    20699068.220
  20699067.540          49.850          49.000
 136288763.450 6 106199173.04845                  25934818.500
  25934813.740          41.100          30.700
 108651587.759 8  84663661.753 8  81136026.558 8  20675677.080    20675675.280
  20675674.740          50.100          50.150
 110383154.784 8  86012956.096 7                  21005151.380    21005147.860
  21005147.160          49.750          47.850
 127318432.017 7  99209262.998 6  95075569.610 8  24227857.720    24227859.920
  24227858.980          44.200          40.900
 116355406.082 8  90498723.732 7                  21797271.140    21797275.120
  21797274.380          48.250          43.600
 130064187.209 6 101161003.565 6                  24331230.020    24331240.980
  24331241.240          41.700          39.550
 107528259.167 7  83633150.599 7                  20129498.600    20129501.320
  20129500.420          47.700          46.300
 121421020.452 7  94438588.557 6                  22690415.240    22690416.680
  22690415.360          45.650          41.200
 128304010.465 7  99792027.771 6                  23959869.640    23959871.580
  23959870.220          42.550          37.800
 110471227.261 8  85922123.074 7                  20702246.760    20702248.900
  20702248.880          49.200          44.450
 110542550.112 7  85977482.805 6                  20701034.560    20701038.440
  20701036.160          47.050          37.550
 110754137.115 8  86142122.629 7                  20689800.580    20689802.200
  20689801.240          48.250          46.550
 128727080.630 7 100121041.757 6                  24064130.980    24064137.940
  24064136.460          42.900          37.300
 130487573.144 6 101490354.427 5                  24479135.500    24479146.180
  24479144.740          40.650          31.400
 127072289.799 6  98834026.352 6                  23779846.660    23779852.340
  23779850.380          40.950          36.750
 132656312.884 8                  99061569.283 7  25243644.420
                        49.150
 119483660.432 8                                  22736982.260
                        48.450
 15  1 27 19  0 30.0000000  0 22G22G18G13G17G15G28G24G12G25R18R05R16
                                R17R08R06R09R07R19R10R15E19E20
 127725027.838 7  99526006.46546                  24305259.640
  24305254.140          46.350          37.450
 120815480.496 7  94141948.89446                  22990408.060
  22990403.760          47.450          38.850
 119218422.754 8  92897538.21046                  22686487.100
  22686483.080          48.950          39.400
 122690734.666 8  95603235.058 7                  23347240.140    23347236.080
  23347235.720          48.250          43.900
 108781751.424 8  84765032.665 8                  20700458.820    20700455.380
  20700454.720          49.850          48.850
 136304494.506 6 106211431.09045                  25937812.000
  25937807.300          39.800          30.700
 108647333.821 8  84660346.996 8  81132849.918 8  20674867.600    20674865.780
  20674865.240          50.050          49.950
 110372290.571 8  86004490.480 7                  21003083.940    21003080.480
  21003079.800          49.750          47.650
 127301219.109 7  99195850.367 6  95062715.862 8  24224582.160    24224584.340
  24224583.360          44.550          40.700
 116344237.974 8  90490037.425 7                  21795178.940    21795182.980
  21795182.160          48.000          43.300
 130086725.003 6 101178532.532 6                  24335446.500    24335457.500
  24335457.760          41.650          39.950
 107533994.742 7  83637611.597 7                  20130572.340    20130575.060
  20130574.120          47.400          45.750
 121426658.532 7  94442973.736 6                  22691468.860    22691470.320
  22691468.980          45.800          41.050
 128285517.951 7  99777644.736 6                  23956416.300    23956418.240
  23956416.880          43.200          37.200
 110486594.727 8  85934075.542 7                  20705126.640    20705128.760
  20705128.760          48.900          43.950
 110535179.763 7  85971750.316 6                  20699654.360    20699658.180
  20699655.960          46.800          36.700
 110749828.759 8  86138771.685 7                  20688995.720    20688997.320
  20688996.400          48.300          46.200
 128706426.330 7 100104977.393 6                  24060269.780    24060276.740
  24060275.260          42.700          37.400
 130473607.866 6 101479492.574 5                  24476515.600    24476526.140
  24476524.860          39.900          32.850
 127086712.303 6  98845243.878 6                  23782545.560    23782551.200
  23782549.260          40.750          36.500
 132652922.293 8                  99059037.360 7  25242999.220
                        49.300
 119492396.180 8                                  22738644.640
                        48.350
 15  1 27 19  0 35.0000000  0 22G22G18G13G17G15G28G24G12G25R18R05R16
                                R17R08R06R09R07R19R10R15E19E20
 127719252.604 7  99521506.30146                  24304160.660
  24304155.160          46.850          37.500
 120817871.892 7  94143812.32146                  22990863.120
  22990858.820          47.550          38.900
 119234489.173 8  92910057.49446                  22689544.440
  22689540.360          48.950          38.800
 122695498.611 8  95606947.220 7                  23348146.660    23348142.620
  23348142.260          48.250          44.100
 108789055.414 8  84770724.079 8                  20701848.720    20701845.280
  20701844.620          49.900          49.000
 136320225.008 6 106223688.56445                  25940805.420
  25940800.980          39.050          35.900
 108643087.602 8  84657038.261 8  81129679.037 8  20674059.560    20674057.760
  20674057.200          50.000          49.950
 110361439.506 8  85996035.110 7                  21001019.020    21001015.580
  21001014.920          49.750          47.650
 127284011.921 7  99182442.208 6  95049866.382 8  24221307.700    24221309.860
  24221308.880          44.650          40.200
 116333087.813 8  90481365.080 7                  21793090.120    21793094.160
  21793093.300          48.150          43.800
 130109261.383 6 101196060.404 6                  24339662.680    24339673.760
  24339674.040          40.300          40.350
 107539737.415 7  83642078.121 7                  20131647.380    20131650.080
  20131649.160          47.550          46.000
 121432318.180 7  94447375.678 6                  22692526.480    22692527.960
  22692526.600          45.350          41.300
 128267036.426 7  99763270.225 6                  23952965.060    23952966.900
  23952965.580          43.650          37.900
 110501978.792 8  85946040.913 7                  20708009.640    20708011.680
  20708011.740          48.850          44.200
 110527817.329 7  85966023.984 6                  20698275.640    20698279.320
  20698277.240          47.000          36.950
 110745543.890 8  86135439.012 7                  20688195.260    20688196.880
  20688195.980          48.050          46.400
 128685771.291 7 100088912.492 6                  24056408.460    24056415.400
  24056413.960          42.600          37.300
 130459645.816 6 101468633.195 5                  24473896.320    24473906.820
  24473905.840          41.350          34.300
 127101134.733 6  98856461.334 6                  23785244.560    23785250.240
  23785248.260          41.900          38.050
 132649544.374 8                  99056514.880 7  25242356.420
                        49.300
 119501142.592 8                                  22740309.020
                        48.400
 15  1 27 19  0 40.0000000  0 22G22G18G13G17G15G28G24G12G25R18R05R16
                                R17R08R06R09R07R19R10R15E19E20
 127713489.511 7  99517015.58846                  24303063.980
  24303058.440          46.700          37.000
 120820275.458 7  94145685.22246                  22991320.520
  22991316.220          47.900          37.550
 119250562.148 8  92922581.88546                  22692603.040
  22692598.960          48.850          39.000
 122700275.803 8  95610669.720 7                  23349055.720    23349051.680
  23349051.280          48.050          43.750
 108796371.488 8  84776424.907 8                  20703240.920    20703237.460
  20703236.820          50.000          48.700
 136335952.693 6 106235943.93045                  25943798.340
  25943793.820          37.700          33.050
 108638846.739 8  84653733.687 8  81126512.156 8  20673252.540    20673250.760
  20673250.180          50.000          49.750
 110350599.364 8  85987588.252 7                  20998956.160    20998952.780
  20998952.120          49.800          47.400
 127266808.165 7  99169036.714 6  95037019.464 8  24218033.860    24218035.980
  24218035.080          44.150          40.100
 116321953.281 8  90472704.903 7                  21791004.260    21791008.280
  21791007.400          48.450          43.600
 130131794.155 6 101213585.475 6                  24343878.160    24343889.360
  24343889.660          38.800          39.600
 107545485.021 7  83646548.480 7                  20132723.380    20132726.040
  20132725.120          47.600          45.900
 121437997.200 7  94451792.683 6                  22693587.760    22693589.200
  22693587.860          45.100          41.150
 128248563.528 7  99748902.427 6                  23949515.400    23949517.240
  23949515.960          43.250          37.850
 110517377.208 8  85958017.463 7                  20710895.300    20710897.340
  20710897.440          48.750          43.850
 110520460.546 7  85960302.038 6                  20696897.940    20696901.680
  20696899.580          47.100          36.850
 110741280.212 8  86132122.819 7                  20687398.700    20687400.440
  20687399.540          48.350          46.400
 128665113.035 7 100072845.051 6                  24052546.520    24052553.440
  24052551.960          43.200          36.450
 130445684.473 7 101457774.427 5                  24471277.160    24471287.860
  24471286.880          42.100          33.350
 127115554.779 6  98867676.915 6                  23787943.120    23787948.760
  23787946.800          41.750          37.300
 132646176.861 8                  99054000.191 7  25241715.620
                        49.250
 119509897.437 8                                  22741975.020
                        48.350
 15  1 27 19  0 45.0000000  0 22G22G18G13G17G15G28G24G12G25R18R05R16
                                R17R08R06R09R07R19R10R15E19E20
 127707740.636 7  99512535.94546                  24301970.020
  24301964.440          46.450          38.350
 120822693.232 7  94147569.19546                  22991780.640
  22991776.260          47.850          38.300
 119266643.708 8  92935112.96246                  22695663.240
  22695659.180          48.750          39.800
 122705068.338 7  95614404.171 7                  23349967.700    23349963.660
  23349963.240          47.800          44.400
 108803701.729 8  84782136.777 8                  20704635.800    20704632.380
  20704631.720          50.000          49.100
 136351679.703 6 106248198.73745                  25946791.140
  25946786.680          36.850          32.650
 108634613.453 8  84650435.021 8  81123350.938 8  20672446.960    20672445.180
  20672444.600          49.900          50.100
 110339772.186 8  85979151.490 7                  20996895.760    20996892.440
  20996891.780          49.700          47.800
 127249609.908 7  99155635.507 6  95024176.657 8  24214761.040    24214763.200
  24214762.220          43.900          40.400
 116310836.488 8  90464058.504 7                  21788921.740    21788925.740
  21788924.860          48.850          44.150
 130154325.393 6 101231109.331 6                  24348093.380    24348104.680
  24348104.960          38.900          39.350
 107551239.503 7  83651024.175 7                  20133800.680    20133803.300
  20133802.360          47.650          45.950
 121443697.760 7  94456226.463 6                  22694653.020    22694654.500
  22694653.160          45.250          41.000
 128230101.326 7  99734542.956 6                  23946067.680    23946069.540
  23946068.320          43.000          37.800
 110532791.995 8  85970006.723 7                  20713784.080    20713786.060
  20713786.180          48.800          44.600
 110513111.627 7  85954586.216 6                  20695521.720    20695525.440
  20695523.380          46.900          37.050
 110737039.704 8  86128824.651 7                  20686606.540    20686608.280
  20686607.440          48.050          46.700
 128644453.798 7 100056776.837 5                  24048684.420    24048691.340
  24048689.780          42.750          35.850
 130431726.037 6 101446917.942 5                  24468658.620    24468669.360
  24468668.380          40.350          33.400
 127129974.517 6  98878892.298 6                  23790641.600    23790647.180
  23790645.300          40.600          37.800
 132642821.812 8                  99051494.789 8  25241077.180
                        49.150
 119518662.741 8                                  22743642.980
                        48.300
 15  1 27 19  0 50.0000000  0 22G22G18G13G17G15G28G24G12G25R18R05R16
                                R17R08R06R09R07R19R10R15E19E20
 127702004.453 7  99508066.19746                  24300878.480
  24300872.860          46.350          38.900
 120825123.694 7  94149463.05946                  22992243.140
  22992238.780          47.900          38.300
 119282732.348 8  92947649.55946                  22698724.800
  22698720.700          48.650          40.250
 122709874.696 8  95618149.395 7                  23350882.340    23350878.280
  23350877.820          48.150          44.200
 108811044.626 8  84787858.516 8                  20706033.100    20706029.700
  20706029.000          49.950          48.900
 136367404.401 6 106260451.74445                  25949783.400
  25949778.740          37.150          33.100
 108630386.232 8  84647141.091 8  81120194.253 8  20671642.520    20671640.760
  20671640.180          49.750          49.950
 110328956.490 8  85970723.683 7                  20994837.540    20994834.300
  20994833.640          49.550          47.600
 127232415.679 7  99142237.440 6  95011336.856 8  24211489.020    24211491.200
  24211490.180          44.100          40.350
 116299735.933 8  90455424.737 7                  21786842.260    21786846.180
  21786845.360          48.600          43.800
 130176853.525 6 101248630.799 6                  24352307.980    24352319.540
  24352319.700          38.350          38.750
 107556999.345 7  83655504.058 7                  20134878.940    20134881.580
  20134880.600          47.300          45.700
 121449418.077 7  94460675.609 6                  22695721.960    22695723.460
  22695722.120          45.400          40.800
 128211648.457 7  99720190.756 6                  23942621.700    23942623.660
  23942622.400          42.600          37.500
 110548221.561 8  85982007.484 7                  20716675.560    20716677.600
  20716677.720          48.950          44.100
 110505768.848 7  85948875.180 6                  20694146.660    20694150.340
  20694148.300          46.850          36.900
 110732821.120 8  86125543.532 7                  20685818.480    20685820.220
  20685819.400          48.000          46.150
 128623792.009 7 100040706.641 5                  24044821.880    24044828.640
  24044827.060          43.550          35.250
 130417769.246 6 101436062.681 5                  24466040.380    24466051.020
  24466050.080          40.550          32.850
 127144392.453 6  98890106.252 6                  23793339.600    23793345.240
  23793343.400          39.950          37.800
 132639477.736 8                  99048997.592 7  25240440.820
                        49.050
 119527437.000 8                                  22745312.640
                        48.250
 15  1 27 19  0 55.0000000  0 22G22G18G13G17G15G28G24G12G25R18R05R16
                                R17R08R06R09R07R19R10R15E19E20
 127696282.809 7  99503607.78446                  24299789.720
  24299784.080          46.650          37.850
 120827568.767 7  94151368.31146                  22992708.420
  22992704.060          47.700          37.850
 119298829.925 8  92960193.11746                  22701788.040
  22701783.960          48.700          39.950
 122714696.745 8  95621906.832 7                  23351799.960    23351795.880
  23351795.420          48.450          44.250
 108818402.036 8  84793591.556 8                  20707433.160    20707429.760
  20707429.060          49.650          49.000
 136383128.718 6 106272704.43245                  25952775.640
  25952770.940          37.550          32.000
 108626166.793 8  84643853.218 8  81117043.373 8  20670839.580    20670837.820
  20670837.220          49.600          50.050
 110318154.110 8  85962306.253 7                  20992781.840    20992778.680
  20992778.000          49.450          47.700
 127215227.335 7  99128843.948 6  94998501.438 8  24208218.080    24208220.280
  24208219.280          44.150          41.000
 116288653.514 8  90446805.088 7                  21784766.180    21784770.120
  21784769.280          48.100          44.250
 130199380.449 6 101266151.285 6                  24356522.360    24356534.080
  24356534.240          40.200          40.100
 107562766.473 7  83659989.600 7                  20135958.560    20135961.200
  20135960.200          47.250          46.250
 121455160.327 7  94465141.809 6                  22696795.020    22696796.540
  22696795.180          45.600          41.750
 128193206.794 7  99705847.251 6                  23939177.800    23939179.740
  23939178.560          42.650          38.200
 110563667.830 8  85994021.253 7                  20719570.180    20719572.280
  20719572.360          49.000          44.950
 110498434.147 7  85943170.412 6                  20692773.120    20692776.820
  20692774.760          46.700          37.250
 110728625.952 8  86122280.617 7                  20685034.740    20685036.540
  20685035.720          48.050          46.750
 128603129.569 7 100024635.928 5                  24040959.240    24040965.820
  24040964.220          43.400          35.900
 130403815.552 7 101425209.837 5                  24463422.620    24463433.260
  24463432.380          42.800          34.000
 127158810.358 6  98901320.145 6                  23796037.580    23796043.340
  23796041.540          40.900          39.050
 132636146.477 8                  99046509.965 7  25239806.900
                        49.150
 119536222.048 8                                  22746984.360
                        48.300
 15  1 27 19  1  0.0000000  0 22G22G18G13G17G15G28G24G12G25R18R05R16
                                R17R08R06R09R07R19R10R15E19E20
 127690573.008 7  99499158.59746                  24298703.220
  24298697.640          46.600          37.700
 120830025.675 7  94153282.77746                  22993175.980
  22993171.600          47.650          38.350
 119314933.698 8  92972741.51346                  22704852.480
  22704848.380          48.650          38.950
 122719531.751 8  95625674.371 7                  23352720.060    23352715.920
  23352715.480          48.300          43.700
 108825771.220 8  84799333.775 8                  20708835.480    20708832.100
  20708831.360          49.600          48.800
 136398849.837 6 106284954.67745                  25955767.320
  25955762.580          37.850          31.500
 108621952.543 8  84640569.394 8  81113896.381 8  20670037.620    20670035.880
  20670035.280          49.600          49.900
 110307362.364 8  85953897.114 7                  20990728.160    20990725.080
  20990724.400          49.350          47.350
 127198042.176 7  99115452.946 6  94985668.406 8  24204947.800    24204950.040
  24204949.000          43.950          41.200
 116277586.501 7  90438197.409 7                  21782692.940    21782696.960
  21782696.080          47.850          43.800
 130221903.369 6 101283668.656 6                  24360736.040    24360747.860
  24360748.040          40.850          39.050
 107568538.147 7  83664478.680 7                  20137039.060    20137041.680
  20137040.640          47.100          45.900
 121460921.503 7  94469622.732 6                  22697871.620    22697873.100
  22697871.800          45.600          41.250
 128174773.530 7  99691510.301 6                  23935735.500    23935737.480
  23935736.300          42.000          37.600
 110579128.009 8  86006045.831 7                  20722467.380    20722469.480
  20722469.620          48.850          44.500
 110491104.849 7  85937469.854 6                  20691400.580    20691404.240
  20691402.180          46.450          36.750
 110724451.831 7  86119034.080 7                  20684254.980    20684256.800
  20684255.980          47.950          46.350
 128582463.717 7 100008562.573 6                  24037095.940    24037102.500
  24037100.760          42.050          36.800
 130389862.220 7 101414357.283 5                  24460805.000    24460815.560
  24460814.740          43.050          33.700
 127173225.499 6  98912531.913 6                  23798735.280    23798740.980
  23798739.220          40.050          38.700
 132632825.332 8                  99044029.893 7  25239174.940
                        49.200
 119545015.183 8                                  22748657.620
                        48.300
 15  1 27 19  1  5.0000000  0 22G22G18G13G17G15G28G24G12G25R18R05R16
                                R17R08R06R09R07R19R10R15E19E20
 127684876.387 7  99494719.67746                  24297619.200
  24297613.580          46.250          38.550
 120832495.736 7  94155207.50246                  22993646.000
  22993641.640          47.600          37.850
 119331045.003 8  92985295.76546                  22707918.340
  22707914.240          48.400          40.000
 122724381.003 8  95629453.013 7                  23353642.860    23353638.700
  23353638.240          48.100          44.150
 108833153.470 8  84805086.180 8                  20710240.280    20710236.880
  20710236.160          49.700          49.100
 136414569.188 6 106297203.53045                  25958758.660
  25958753.960          38.600          32.650
 108617744.713 8  84637290.571 8  81110754.174 8  20669236.880    20669235.160
  20669234.540          49.700          50.150
 110296582.563 8  85945497.277 7                  20988676.800    20988673.720
  20988673.060          49.400          47.750
 127180861.503 7  99102065.440 6  94972838.714 8  24201678.400    24201680.600
  24201679.620          44.250          41.500
 116266536.217 7  90429602.761 7                  21780622.820    21780626.880
  21780626.000          47.700          43.900
 130244423.611 7 101301183.970 6                  24364949.200    24364961.100
  24364961.320          42.150          38.100
 107574315.596 7  83668972.262 7                  20138120.640    20138123.200
  20138122.180          47.200          46.100
 121466703.118 7  94474119.542 6                  22698952.040    22698953.520
  22698952.260          45.750          41.700
 128156350.055 7  99677180.959 6                  23932295.120    23932297.000
  23932295.840          42.500          37.250
 110594603.250 8  86018082.127 7                  20725367.460    20725369.600
  20725369.680          48.650          44.550
 110483782.151 7  85931774.431 6                  20690029.300    20690032.920
  20690030.820          46.850          36.750
 110720299.761 7  86115804.691 7                  20683479.340    20683481.160
  20683480.360          47.650          46.550
 128561795.883 7  99992487.718 6                  24033232.300    24033238.900
  24033237.000          42.250          37.800
 130375910.813 7 101403506.234 5                  24458187.780    24458198.380
  24458197.460          42.400          33.750
 127187639.338 6  98923742.669 6                  23801432.600    23801438.300
  23801436.620          40.400          38.950
 132629515.605 8                  99041558.342 7  25238545.140
                        49.300
 119553817.725 8                                  22750332.660
                        48.300
 15  1 27 19  1 10.0000000  0 22G22G18G13G17G15G28G24G12G25R18R05R16
                                R17R08R06R09R07R19R10R15E19E20
 127679195.707 7  99490293.16746                  24296538.220
  24296532.540          46.450          37.250
 120834981.691 7  94157144.60146                  22994119.060
  22994114.680          47.550          38.200
 119347166.587 8  92997858.02846                  22710986.180
  22710982.060          48.600          38.800
 122729247.263 7  95633244.904 7                  23354568.900    23354564.680
  23354564.220          47.900          43.850
 108840551.559 8  84810850.920 8                  20711648.100    20711644.720
  20711643.960          49.950          48.800
 136430289.482 6 106309453.08344                  25961750.160
  25961745.340          38.850          29.350
 108613546.089 8  84634018.908 8  81107618.842 8  20668437.880    20668436.180
  20668435.560          50.000          49.900
 110285817.457 8  85937108.875 7                  20986628.220    20986625.200
  20986624.520          49.400          47.350
 127163688.084 7  99088683.586 6  94960014.458 8  24198410.380    24198412.600
  24198411.640          44.500          41.200
 116255505.540 7  90421023.345 7                  21778556.360    21778560.480
  21778559.560          47.700          43.450
 130266943.936 6 101318699.360 6                  24369162.360    24369174.360
  24369174.580          41.150          36.950
 107580101.765 7  83673472.607 7                  20139203.840    20139206.340
  20139205.340          47.250          45.950
 121472507.936 7  94478634.385 6                  22700036.800    22700038.320
  22700037.060          45.800          41.500
 128137939.106 7  99662861.352 6                  23928856.960    23928858.940
  23928857.660          42.600          36.850
 110610096.648 8  86030132.548 7                  20728270.880    20728273.060
  20728273.160          48.400          44.050
 110476468.962 7  85926086.396 6                  20688659.780    20688663.440
  20688661.240          46.850          36.350
 110716172.768 7  86112594.805 7                  20682708.380    20682710.220
  20682709.420          47.900          46.350
 128541128.865 7  99976413.470 6                  24029368.740    24029375.320
  24029373.400          42.150          37.850
 130361964.163 7 101392658.831 5                  24455571.440    24455582.040
  24455581.140          42.200          32.650
 127202054.690 6  98934954.577 6                  23804130.240    23804135.820
  23804134.180          41.250          37.600
 132626220.088 8                  99039097.404 7  25237918.040
                        49.350
 119562632.369 8                                  22752009.980
                        48.250
 15  1 27 19  1 15.0000000  0 22G22G18G13G17G15G28G24G12G25R18R05R16
                                R17R08R06R09R07R19R10R15E19E20
 127673525.910 7  99485875.14746                  24295459.300
  24295453.560          46.300          38.500
 120837478.508 7  94159090.16946                  22994594.180
  22994589.820          47.700          38.600
 119363293.387 8  93010424.36546                  22714055.000
  22714050.880          48.600          39.700
 122734125.536 8  95637046.160 7                  23355497.220    23355492.980
  23355492.500          48.100          44.050
 108847960.444 8  84816624.076 8                  20713057.980    20713054.580
  20713053.820          50.100          49.000
 136446005.567 6 106321699.38145                  25964740.840
  25964735.920          40.100          33.400
 108609351.586 8  84630750.455 8  81104486.571 8  20667639.700    20667637.980
  20667637.360          50.100          50.100
 110275062.010 8  85928728.005 7                  20984581.480    20984578.500
  20984577.800          49.300          47.650
 127146516.887 7  99075303.478 6  94947191.857 8  24195142.740    24195145.040
  24195144.140          44.850          41.100
 116244489.316 7  90412455.175 7                  21776492.620    21776496.760
  21776495.820          47.900          43.950
 130289459.287 7 101336210.851 6                  24373374.580    24373386.680
  24373386.920          42.400          38.500
 107585891.433 7  83677975.678 7                  20140287.680    20140290.180
  20140289.180          47.500          46.250
 121478330.734 7  94483163.233 6                  22701124.940    22701126.520
  22701125.240          46.100          41.550
 128119535.685 7  99648547.580 6                  23925420.240    23925422.180
  23925420.860          42.800          36.800
 110625602.876 8  86042192.931 7                  20731176.720    20731178.900
  20731179.020          49.100          44.300
 110469160.231 7  85920401.828 6                  20687291.100    20687294.760
  20687292.500          47.150          36.750
 110712065.632 8  86109400.364 7                  20681941.120    20681943.000
  20681942.220          48.050          46.650
 128520457.573 7  99960335.900 6                  24025504.360    24025511.000
  24025509.040          43.000          37.850
 130348017.082 7 101381811.124 5                  24452955.000    24452965.660
  24452964.780          43.350          34.300
 127216466.258 6  98946163.608 6                  23806827.220    23806832.740
  23806831.040          40.900          38.200
 132622933.729 8                  99036643.298 7  25237292.700
                        49.450
 119571454.105 8                                  22753688.660
                        48.300
 15  1 27 19  1 20.0000000  0 22G22G18G13G17G15G28G24G12G25R18R05R16
                                R17R08R06R09R07R19R10R15E19E20
 127667870.935 7  99481468.68246                  24294383.140
  24294377.380          45.800          38.500
 120839990.116 7  94161047.26346                  22995072.080
  22995067.760          47.700          37.950
 119379429.313 8  93022997.81446                  22717125.560
  22717121.400          48.750          39.400
 122739019.677 8  95640859.788 7                  23356428.560    23356424.320
  23356423.800          48.300          43.950
 108855384.038 8  84822408.703 8                  20714470.640    20714467.260
  20714466.500          49.950          48.950
 136461721.470 6 106333945.56644                  25967731.480
  25967726.600          39.400          26.600
 108605165.269 8  84627488.397 8  81101360.435 8  20666843.060    20666841.340
  20666840.720          50.000          50.000
 110264320.190 8  85920357.764 7                  20982537.340    20982534.380
  20982533.700          49.100          47.500
 127129351.850 7  99061928.165 6  94934373.856 8  24191876.300    24191878.600
  24191877.720          44.450          40.950
 116233491.634 7  90403901.435 7                  21774432.340    21774436.520
  21774435.540          47.950          43.550
 130311973.451 7 101353721.431 6                  24377586.660    24377598.760
  24377599.040          43.550          38.850
 107591688.628 7  83682484.622 7                  20141372.940    20141375.420
  20141374.440          47.550          46.050
 121484175.539 7  94487709.213 6                  22702217.200    22702218.780
  22702217.500          45.850          41.150
 128101143.855 7  99634242.863 6                  23921985.680    23921987.620
  23921986.300          42.450          36.950
 110641125.906 8  86054266.392 7                  20734085.700    20734087.920
  20734088.040          49.250          43.900
 110461859.862 7  85914723.780 6                  20685924.020    20685927.760
  20685925.320          47.050          36.350
 110707982.480 8  86106224.584 7                  20681178.340    20681180.240
  20681179.480          48.000          46.300
 128499785.992 7  99944258.096 6                  24021640.000    24021646.580
  24021644.620          43.600          36.900
 130334073.420 7 101370966.072 5                  24450339.280    24450349.980
  24450348.920          44.100          32.600
 127230878.029 6  98957372.776 6                  23809524.140    23809529.780
  23809528.040          40.700          39.050
 132619660.451 8                  99034198.977 7  25236669.840
                        49.300
 119580286.887 8                                  22755369.480
                        48.050
 15  1 27 19  1 25.0000000  0 22G22G18G13G17G15G28G24G12G25R18R05R16
                                R17R08R06R09R07R19R10R15E19E20
 127662228.826 7  99477072.23146                  24293309.400
  24293303.680          45.700          38.050
 120842514.514 7  94163014.32346                  22995552.420
  22995548.120          47.850          37.600
 119395572.435 8  93035576.86446                  22720197.500
  22720193.360          48.850          40.100
 122743927.751 8  95644684.258 7                  23357362.540    23357358.300
  23357357.780          48.500          44.050
 108862820.386 8  84828203.256 8                  20715885.760    20715882.320
  20715881.580          49.850          48.950
 136477435.233 6 106346190.04844                  25970721.720
  25970716.640          39.650          29.300
 108600985.088 8  84624231.107 8  81098238.862 8  20666047.580    20666045.880
  20666045.260          49.950          50.000
 110253590.014 8  85911996.596 7                  20980495.420    20980492.460
  20980491.800          49.400          47.450
 127112191.030 7  99048556.130 6  94921558.990 8  24188610.660    24188613.000
  24188612.040          44.350          40.950
 116222510.457 8  90395360.531 7                  21772375.200    21772379.380
  21772378.360          48.050          43.800
 130334484.589 7 101371229.643 6                  24381798.180    24381810.320
  24381810.620          43.050          39.450
 107597491.338 7  83686997.841 7                  20142459.260    20142461.660
  20142460.740          47.600          46.250
 121490040.363 7  94492270.747 6                  22703313.140    22703314.720
  22703313.480          45.700          41.750
 128082761.538 7  99619945.533 6                  23918552.900    23918554.660
  23918553.500          42.200          37.250
 110656663.799 8  86066351.408 7                  20736997.460    20736999.720
  20736999.820          49.150          43.850
 110454565.803 7  85909050.618 6                  20684558.100    20684561.720
  20684559.320          47.000          36.800
 110703921.140 8  86103065.759 7                  20680419.660    20680421.600
  20680420.820          48.050          46.550
 128479112.161 7  99928178.510 6                  24017775.260    24017781.700
  24017779.700          42.750          37.000
 130320131.267 7 101360122.227 5                  24447723.800    24447734.500
  24447733.240          42.050          32.300
 127245288.002 6  98968580.527 6                  23812220.760    23812226.600
  23812224.820          41.650          40.250
 132616398.301 8                  99031762.943 7  25236049.100
                        49.400
 119589128.715 8                                  22757052.000
                        48.100
 15  1 27 19  1 30.0000000  0 22G22G18G13G17G15G28G24G12G25R18R05R16
                                R17R08R06R09R07R19R10R15E19E20
 127656599.638 7  99472685.86146                  24292238.160
  24292232.500          45.950          37.550
 120845051.774 7  94164991.40246                  22996035.220
  22996030.920          47.850          38.100
 119411722.793 8  93048161.54646                  22723270.820
  22723266.720          48.850          39.350
 122748849.828 8  95648519.640 7                  23358299.180    23358294.940
  23358294.400          48.450          44.000
 108870269.546 8  84834007.790 8                  20717303.300    20717299.860
  20717299.100          49.900          49.000
 136493146.885 6 106358432.91045                  25973711.540
  25973706.360          39.950          31.050
 108596811.053 8  84620978.612 8  81095121.885 8  20665253.280    20665251.580
  20665250.960          49.950          49.950
 110242871.565 8  85903644.564 7                  20978455.740    20978452.780
  20978452.120          49.650          47.350
 127095034.464 7  99035187.408 6  94908747.307 8  24185345.840    24185348.160
  24185347.200          44.100          41.400
 116211545.790 8  90386832.464 7                  21770321.160    21770325.280
  21770324.280          48.050          43.950
 130356992.705 7 101388735.502 6                  24386009.120    24386021.380
  24386021.620          42.350          39.100
 107603299.598 7  83691515.377 7                  20143546.580    20143548.960
  20143548.040          47.500          46.300
 121495925.229 7  94496847.878 6                  22704412.880    22704414.380
  22704413.180          45.150          40.700
 128064388.756 7  99605655.606 6                  23915121.920    23915123.600
  23915122.480          42.600          37.550
 110672216.565 8  86078447.980 7                  20739912.060    20739914.260
  20739914.400          49.150          44.050
 110447278.093 7  85903382.397 6                  20683193.380    20683196.940
  20683194.520          47.000          37.050
 110699881.862 7  86099924.093 7                  20679665.080    20679667.040
  20679666.240          47.850          46.600
 128458436.038 6  99912097.158 6                  24013909.960    24013916.340
  24013914.320          41.500          37.100
 130306190.779 6 101349279.667 5                  24445108.540    24445119.160
  24445117.940          39.250          31.700
 127259696.426 6  98979787.080 6                  23814917.200    23814923.040
  23814921.320          41.300          39.750
 132613147.329 8                  99029335.270 7  25235430.480
                        49.400
 119597979.603 8                                  22758736.260
                        48.250
 15  1 27 19  1 35.0000000  0 22G22G18G13G17G15G28G24G12G25R18R05R16
                                R17R08R06R09R07R19R10R15E19E20
 127650985.058 7  99468310.88246                  24291169.660
  24291164.140          46.100          38.000
 120847603.553 7  94166979.80046                  22996520.820
  22996516.480          47.700          38.650
 119427882.025 8  93060753.15546                  22726345.860
  22726341.760          49.050          39.650
 122753787.548 8  95652367.208 7                  23359238.800    23359234.600
  23359234.060          48.650          44.200
 108877733.189 8  84839823.615 8                  20718723.620    20718720.140
  20718719.400          50.000          49.050
 136508858.077 6 106370675.37945                  25976701.240
  25976696.240          40.750          33.400
 108592644.916 8  84617732.280 8  81092010.823 8  20664460.480    20664458.780
  20664458.180          49.850          50.050
 110232166.491 8  85895302.956 7                  20976418.620    20976415.660
  20976415.000          49.750          47.600
 127077883.851 7  99021823.342 6  94895940.075 8  24182082.140    24182084.520
  24182083.500          43.750          41.800
 116200599.439 8  90378318.633 7                  21768270.580    21768274.600
  21768273.680          48.050          44.000
 130379499.444 7 101406240.292 6                  24390219.860    24390232.120
  24390232.380          42.350          39.700
 107609115.073 7  83696038.522 7                  20144635.260    20144637.620
  20144636.700          47.550          46.400
 121501831.953 7  94501442.002 6                  22705516.680    22705518.080
  22705516.920          44.850          40.800
 128046027.318 7  99591374.514 6                  23911693.040    23911694.600
  23911693.620          42.300          37.700
 110687785.851 8  86090557.415 7                  20742829.720    20742831.940
  20742832.060          49.000          44.300
 110439998.603 7  85897720.576 6                  20681830.160    20681833.920
  20681831.300          47.200          37.150
 110695866.269 8  86096800.870 7                  20678914.940    20678916.900
  20678916.100          48.000          46.650
 128437759.466 6  99896015.471 6                  24010044.580    24010051.020
  24010048.940          41.150          38.100
 130292253.586 6 101338439.597 5                  24442493.820    24442504.600
  24442503.340          40.850          33.500
 127274104.897 6  98990993.651 6                  23817613.560    23817619.460
  23817617.760          40.350          38.300
 132609909.220 8                  99026917.220 7  25234814.320
                        49.450
 119606841.254 8                                  22760422.580
                        48.250
 15  1 27 19  1 40.0000000  0 22G22G18G13G17G15G28G24G12G25R18R05R16
                                R17R08R06R09R07R19R10R15E19E20
 127645381.924 7  99463944.81246                  24290103.400
  24290097.840          46.150          38.350
 120850166.699 7  94168977.06746                  22997008.560
  22997004.220          47.250          39.250
 119444047.002 8  93073349.24446                  22729421.960
  22729417.880          49.100          40.000
 122758737.705 8  95656224.486 7                  23360180.780    23360176.600
  23360176.040          48.600          44.100
 108885208.149 8  84845648.259 8                  20720146.060    20720142.560
  20720141.860          50.100          49.200
 136524565.628 6 106382915.07644                  25979690.260
  25979685.200          40.600          29.150
 108588483.601 8  84614489.706 8  81088903.347 8  20663668.580    20663666.900
  20663666.300          50.000          50.100
 110221471.671 8  85886969.336 7                  20974383.460    20974380.480
  20974379.820          49.800          47.650
 127060736.037 7  99008461.458 7  94883134.932 8  24178819.000    24178821.400
  24178820.440          43.750          42.050
 116189668.231 8  90369816.599 7                  21766222.880    21766226.820
  21766225.900          48.350          43.950
 130402001.690 7 101423741.584 6                  24394429.720    24394442.000
  24394442.320          42.450          39.900
 107614934.652 7  83700564.863 7                  20145724.740    20145727.020
  20145726.140          47.600          46.150
 121507757.235 7  94506050.552 6                  22706623.960    22706625.320
  22706624.160          45.200          40.250
 128027674.063 7  99577099.769 6                  23908265.680    23908267.200
  23908266.300          42.200          37.350
 110703368.419 8  86102677.196 7                  20745749.900    20745752.100
  20745752.240          48.750          44.350
 110432723.933 7  85892062.504 6                  20680467.900    20680471.620
  20680468.940          47.100          36.550
 110691871.096 7  86093693.511 7                  20678168.640    20678170.600
  20678169.760          47.950          46.400
 128417079.206 7  99879930.939 6                  24006178.540    24006184.920
  24006182.860          42.650          37.650
 130278316.387 7 101327599.572 5                  24439879.200    24439890.000
  24439888.900          42.700          33.200
 127288510.200 6  99002197.754 6                  23820309.220    23820315.220
  23820313.420          40.100          37.150
 132606680.834 8                  99024506.414 7  25234200.000
                        49.550
 119615710.521 8                                  22762110.340
                        48.250
 15  1 27 19  1 45.0000000  0 22G22G18G13G17G15G28G24G12G25R18R05R16
                                R17R08R06R09R07R19R10R15E19E20
 127639794.683 7  99459591.11446                  24289040.140
  24289034.560          46.300          36.400
 120852745.629 7  94170986.61846                  22997499.300
  22997494.980          47.200          39.350
 119460222.141 8  93085953.23646                  22732500.020
  22732495.880          49.050          39.900
 122763704.799 8  95660094.950 7                  23361125.980    23361121.860
  23361121.300          48.800          44.450
 108892698.873 8  84851485.187 8                  20721571.520    20721568.020
  20721567.300          50.000          49.300
 136540274.061 6 106395155.43544                  25982679.520
  25982674.640          40.700          26.500
 108584331.324 8  84611254.164 8  81085802.629 8  20662878.420    20662876.740
  20662876.140          50.050          50.100
 110210791.523 8  85878647.152 7                  20972351.120    20972348.120
  20972347.440          49.700          47.700
 127043595.475 7  98995105.207 7  94870335.182 8  24175557.200    24175559.620
  24175558.700          43.700          42.450
 116178756.617 8  90361329.778 7                  21764178.800    21764182.720
  21764181.760          48.400          43.750
 130424503.853 6 101441242.792 6                  24398639.620    24398651.860
  24398652.260          41.850          40.700
 107620762.835 7  83705097.894 7                  20146815.820    20146818.040
  20146817.200          47.450          46.300
 121513705.577 7  94510677.041 6                  22707735.520    22707736.980
  22707735.700          45.000          40.700
 128009333.467 6  99562834.894 6                  23904840.640    23904842.160
  23904841.300          41.950          37.950
 110718968.647 8  86114810.713 7                  20748673.360    20748675.620
  20748675.720          48.550          44.500
 110425458.683 7  85886411.758 6                  20679107.360    20679111.080
  20679108.400          47.050          36.900
 110687900.921 8  86090605.599 7                  20677427.000    20677428.960
  20677428.100          48.050          46.650
 128396399.777 7  99863847.016 6                  24002312.720    24002318.960
  24002316.920          43.100          37.750
 130264383.698 7 101316763.117 5                  24437265.400    24437276.380
  24437275.220          42.350          32.250
 127302916.841 6  99013402.961 6                  23823005.140    23823011.060
  23823009.340          40.300          38.600
 132603466.576 8                  99022106.156 7  25233588.360
                        49.600
 119624591.823 8                                  22763800.400
                        48.250
 15  1 27 19  1 50.0000000  0 22G22G18G13G17G15G28G24G12G25R18R05R16
                                R17R08R06R09R07R19R10R15E19E20
 127634219.183 7  99455246.57046                  24287979.160
  24287973.440          45.900          38.300
 120855336.183 7  94173005.22646                  22997992.240
  22997987.880          47.200          39.100
 119476403.233 8  93098561.86946                  22735579.200
  22735575.020          48.850          40.000
 122768684.686 8  95663975.386 7                  23362073.620    23362069.480
  23362068.980          48.400          44.550
 108900201.175 8  84857331.130 8                  20722999.160    20722995.660
  20722994.960          49.850          49.200
 136555979.176 6 106407393.15844                  25985668.080
  25985663.100          40.200          29.300
 108580184.071 8  84608022.542 8  81082705.660 8  20662089.200    20662087.540
  20662086.960          49.950          50.000
 110200121.886 8  85870333.150 7                  20970320.760    20970317.720
  20970317.060          49.450          47.650
 127026457.977 7  98981751.345 7  94857537.756 8  24172296.040    24172298.460
  24172297.540          43.950          42.800
 116167860.417 8  90352854.949 7                  21762137.600    21762141.520
  21762140.520          48.550          43.750
 130447001.644 6 101458740.602 6                  24402848.600    24402860.980
  24402861.380          41.850          40.250
 107626595.277 7  83709634.243 7                  20147907.680    20147909.860
  20147909.060          47.450          46.100
 121519672.660 7  94515318.112 6                  22708850.580    22708852.060
  22708850.760          44.800          40.900
 127991001.264 6  99548576.541 6                  23901417.200    23901418.820
  23901417.880          41.950          38.350
 110734582.504 8  86126954.826 7                  20751599.400    20751601.660
  20751601.740          48.950          44.600
 110418198.631 7  85880765.053 6                  20677747.780    20677751.400
  20677748.800          47.200          37.000
 110683951.449 8  86087533.784 7                  20676689.180    20676691.180
  20676690.320          48.300          46.550
 128375717.115 7  99847760.592 6                  23998446.340    23998452.400
  23998450.460          43.800          37.200
 130250451.459 6 101305926.969 5                  24434651.740    24434662.840
  24434661.460          41.200          31.100
 127317320.712 6  99024605.945 6                  23825700.540    23825706.640
  23825704.920          38.950          39.550
 132600262.289 8                  99019713.355 7  25232978.620
                        49.300
 119633480.957 8                                  22765491.960
                        48.000
 15  1 27 19  1 55.0000000  0 22G22G18G13G17G15G28G24G12G25R18R05R16
                                R17R08R06R09R07R19R10R15E19E20
 127628658.002 7  99450913.18446                  24286920.920
  24286915.140          45.600          37.850
 120857940.912 7  94175034.88346                  22998487.860
  22998483.600          47.200          37.950
 119492592.849 8  93111177.14446                  22738660.000
  22738655.820          48.950          39.850
 122773679.905 8  95667867.758 7                  23363024.160    23363020.080
  23363019.580          48.600          44.700
 108907717.625 8  84863188.097 8                  20724429.520    20724426.000
  20724425.320          49.950          49.100
 136571683.550 6 106419630.36545                  25988656.520
  25988651.700          40.000          30.950
 108576044.511 8  84604796.909 8  81079614.424 8  20661301.440    20661299.820
  20661299.240          50.000          50.000
 110189465.323 8  85862029.331 7                  20968292.900    20968289.820
  20968289.160          49.600          47.600
 127009326.138 7  98968401.884 7  94844744.531 8  24169035.940    24169038.400
  24169037.480          44.350          42.700
 116156982.275 8  90344394.183 7                  21760099.780    21760103.660
  21760102.680          48.400          44.100
 130469497.775 6 101476237.125 6                  24407057.380    24407069.780
  24407070.200          41.100          40.300
 107632434.579 7  83714175.924 7                  20149000.800    20149003.000
  20149002.200          47.250          46.300
 121525661.233 7  94519975.880 6                  22709969.660    22709971.160
  22709969.860          45.000          41.500
 127972680.120 7  99534326.770 6                  23897995.800    23897997.460
  23897996.560          42.000          37.900
 110750212.550 8  86139111.525 7                  20754528.440    20754530.700
  20754530.840          48.600          44.400
 110410946.364 7  85875124.403 6                  20676389.680    20676393.340
  20676390.660          47.200          37.350
 110680025.427 7  86084480.200 7                  20675955.740    20675957.740
  20675956.920          47.950          46.750
 128355033.642 7  99831673.509 6                  23994579.720    23994585.620
  23994583.800          42.300          37.150
 130236522.131 6 101295093.074 5                  24432038.560    24432049.880
  24432048.100          40.300          31.750
 127331724.275 6  99035808.668 6                  23828395.920    23828402.180
  23828400.380          38.800          38.650
 132597070.578 8                  99017329.924 7  25232371.300
                        49.400
 119642380.554 7                                  22767185.500
                        47.950
 15  1 27 19  2  0.0000000  0 22G22G18G13G17G15G28G24G12G25R18R05R16
                                R17R08R06R09R07R19R10R15E19E20
 127623109.622 7  99446589.78646                  24285865.080
  24285859.260          45.450          36.550
 120860558.330 7  94177074.41546                  22998985.880
  22998981.680          46.950          38.650
 119508789.531 8  93123797.93546                  22741742.140
  22741738.000          48.650          40.200
 122778688.975 8  95671770.932 7                  23363977.340    23363973.300
  23363972.820          48.000          44.400
 108915246.709 8  84869054.909 8                  20725862.260    20725858.740
  20725858.060          49.800          48.950
 136587385.630 6 106431865.74845                  25991644.480
  25991639.760          41.050          31.900
 108571911.040 8  84601576.020 8  81076527.739 8  20660514.840    20660513.240
  20660512.660          49.800          49.900
 110178820.350 8  85853734.551 7                  20966267.260    20966264.160
  20966263.460          49.600          47.450
 126992198.493 7  98955055.692 7  94831954.448 8  24165776.620    24165779.080
  24165778.180          44.350          42.800
 116146120.708 8  90335946.314 7                  21758065.060    21758068.880
  21758067.940          48.550          44.050
 130491990.639 6 101493731.078 6                  24411265.500    24411277.980
  24411278.400          40.700          40.100
 107638279.319 7  83718721.826 7                  20150094.940    20150097.140
  20150096.380          47.150          46.400
 121531669.672 7  94524649.109 6                  22711092.480    22711093.920
  22711092.680          44.650          41.250
 127954368.593 6  99520084.499 6                  23894576.240    23894577.940
  23894577.000          41.300          38.050
 110765857.128 8  86151279.525 7                  20757460.240    20757462.480
  20757462.640          48.650          44.500
 110403700.346 7  85869488.607 6                  20675032.760    20675036.400
  20675033.700          47.100          36.950
 110676121.328 8  86081443.685 7                  20675226.420    20675228.440
  20675227.620          48.050          46.650
 128334347.998 7  99815584.780 6                  23990712.700    23990718.540
  23990716.780          42.300          37.300
 130222594.248 6 101284260.294 5                  24429425.620    24429436.960
  24429435.180          40.850          32.850
 127346126.057 6  99047010.050 6                  23831090.960    23831097.240
  23831095.300          38.550          36.900
 132593889.923 8                  99014954.762 7  25231766.080
                        49.300
 119651289.066 7                                  22768880.740
                        47.850
 15  1 27 19  2  5.0000000  0 22G22G18G13G17G15G28G24G12G25R18R05R16
                                R17R08R06R09R07R19R10R15E19E20
 127617575.531 7  99442277.51445                  24284811.940
  24284806.140          46.550          35.950
 120863189.894 7  94179124.97846                  22999486.640
  22999482.460          47.950          38.800
 119524994.668 8  93136425.30646                  22744825.880
  22744821.800          49.300          39.450
 122783713.354 8  95675686.032 7                  23364933.420    23364929.420
  23364928.980          48.400          44.500
 108922789.910 8  84874932.728 8                  20727297.680    20727294.180
  20727293.520          50.300          49.000
 136603086.846 7 106444100.44345                  25994632.340
  25994627.740          42.700          32.100
 108567785.107 8  84598361.007 8  81073446.693 8  20659729.700    20659728.100
  20659727.520          50.250          50.000
 110168188.425 8  85845449.932 7                  20964244.100    20964240.960
  20964240.260          50.250          47.600
 126975076.479 7  98941713.891 7  94819168.556 8  24162518.380    24162520.840
  24162519.940          45.400          43.200
 116135277.131 7  90327512.422 7                  21756033.700    21756037.520
  21756036.560          47.500          44.050
 130514481.700 6 101511223.610 6                  24415473.260    24415485.800
  24415486.220          41.100          39.450
 107644131.000 7  83723273.138 7                  20151190.360    20151192.620
  20151191.840          46.550          46.450
 121537699.573 7  94529339.046 6                  22712219.280    22712220.780
  22712219.540          43.700          41.850
 127936068.143 6  99505850.817 6                  23891158.740    23891160.460
  23891159.480          40.750          37.950
 110781517.892 7  86163460.109 7                  20760395.100    20760397.340
  20760397.480          47.850          44.200
 110396462.046 7  85863858.833 6                  20673677.300    20673681.020
  20673678.200          46.850          37.050
 110672240.477 7  86078425.244 7                  20674501.420    20674503.480
  20674502.620          47.500          46.300
 128313661.585 6  99799495.411 6                  23986845.580    23986851.400
  23986849.600          40.600          37.650
 130208669.307 6 101273429.820 5                  24426813.320    24426824.800
  24426823.040          40.550          34.050
 127360527.472 6  99058211.173 6                  23833785.880    23833792.140
  23833790.140          38.150          37.900
 132590721.790 8                  99012588.954 7  25231163.200
                        49.950
 119660207.962 8                                  22770577.960
                        48.550
 15  1 27 19  2 10.0000000  0 22G22G18G13G17G15G28G24G12G25R18R05R16
                                R17R08R06R09R07R19R10R15E19E20
 127612053.966 7  99437974.99946                  24283761.200
  24283755.400          45.850          38.050
 120865833.815 7  94181185.17246                  22999989.740
  22999985.580          47.150          38.750
 119541206.489 8  93149057.89446                  22747910.880
  22747906.820          48.400          39.950
 122788751.262 7  95679611.673 7                  23365892.060    23365888.120
  23365887.700          47.550          44.550
 108930345.451 8  84880820.166 8                  20728735.460    20728731.960
  20728731.300          49.750          49.100
 136618785.458 6 106456333.13445                  25997619.680
  25997615.060          40.200          30.400
 108563665.019 8  84595150.556 8  81070370.010 8  20658945.680    20658944.080
  20658943.500          49.450          50.050
 110157567.807 8  85837174.130 7                  20962223.060    20962219.900
  20962219.220          49.800          47.550
 126957958.314 7  98928375.094 7  94806385.551 8  24159260.900    24159263.360
  24159262.400          44.500          43.250
 116124449.810 8  90319091.181 7                  21754005.400    21754009.220
  21754008.260          48.800          44.100
 130536969.152 7 101528713.381 6                  24419680.420    24419693.040
  24419693.380          43.850          39.200
 107649987.697 7  83727828.347 7                  20152286.760    20152289.020
  20152288.220          47.650          46.150
 121543748.935 7  94534044.103 7                  22713349.680    22713351.260
  22713350.060          45.350          42.100
 127917776.973 7  99491624.377 6                  23887742.940    23887744.720
  23887743.740          43.000          37.950
 110797192.822 8  86175651.723 7                  20763332.580    20763334.820
  20763334.980          48.850          44.250
 110389229.724 8  85858233.700 6                  20672322.980    20672326.620
  20672323.820          48.250          37.000
 110668381.298 8  86075423.668 7                  20673780.460    20673782.580
  20673781.660          48.750          46.250
 128292972.643 7  99783404.109 6                  23982977.920    23982983.760
  23982982.000          43.000          38.600
 130194745.416 7 101262600.133 5                  24424201.220    24424212.780
  24424211.160          42.850          34.800
 127374926.781 6  99069410.643 6                  23836480.480    23836486.740
  23836484.760          40.750          38.500
 132587564.421 8                  99010231.184 7  25230562.400
                        49.250
 119669135.409 7                                  22772276.780
                        47.750
 15  1 27 19  2 15.0000000  0 22G22G18G13G17G15G28G24G12G25R18R05R16
                                R17R08R06R09R07R19R10R15E19E20
 127606546.875 7  99433683.77446                  24282713.200
  24282707.420          45.600          37.850
 120868492.117 7  94183256.58246                  23000495.580
  23000491.460          47.350          39.400
 119557427.012 8  93161697.25946                  22750997.540
  22750993.500          48.700          40.050
 122793804.659 7  95683549.391 7                  23366853.640    23366849.720
  23366849.360          47.350          45.450
 108937915.295 8  84886718.747 8                  20730175.980    20730172.460
  20730171.800          49.850          49.700
 136634483.449 6 106468565.32745                  26000606.880
  26000602.140          39.700          31.500
 108559552.657 8  84591946.122 8  81067299.095 8  20658163.120    20658161.500
  20658160.940          49.650          50.700
 110146960.494 8  85828908.699 8                  20960204.580    20960201.380
  20960200.700          49.850          48.350
 126940846.034 7  98915040.885 7  94793606.941 8  24156004.540    24156006.960
  24156006.020          44.600          43.950
 116113640.855 8  90310684.223 7                  21751980.560    21751984.260
  21751983.360          48.650          43.850
 130559455.073 7 101546201.954 6                  24423887.280    24423899.920
  24423900.240          44.950          38.650
 107655851.499 7  83732389.079 7                  20153384.480    20153386.760
  20153385.940          47.650          46.200
 121549819.820 7  94538765.897 7                  22714484.160    22714485.720
  22714484.580          45.300          42.650
 127899497.150 7  99477406.743 6                  23884329.260    23884331.120
  23884330.080          42.400          38.000
 110812883.944 8  86187855.917 7                  20766273.060    20766275.340
  20766275.540          48.600          44.300
 110382005.319 8  85852614.730 6                  20670970.140    20670973.800
  20670970.960          48.300          37.200
 110664545.652 8  86072440.382 7                  20673063.940    20673066.040
  20673065.080          48.650          46.600
 128272283.388 7  99767312.562 6                  23979110.220    23979116.060
  23979114.340          42.500          38.900
 130180824.651 7 101251772.901 5                  24421589.700    24421601.180
  24421599.800          42.200          32.850
 127389326.035 6  99080610.041 6                  23839175.240    23839181.500
  23839179.480          41.550          38.800
 132584419.792 8                  99007882.916 7  25229964.020
                        49.400
 119678073.465 8                                  22773977.620
                        48.050
 15  1 27 19  2 20.0000000  0 22G22G18G13G17G15G28G24G12G25R18R05R16
                                R17R08R06R09R07R19R10R15E19E20
 127601051.558 7  99429401.72146                  24281667.480
  24281661.720          45.700          36.750
 120871162.037 7  94185337.04046                  23001003.660
  23000999.540          47.300          39.050
 119573653.508 8  93174341.27546                  22754085.340
  22754081.300          48.600          40.350
 122798870.829 7  95687497.068 7                  23367817.640    23367813.800
  23367813.460          47.500          45.250
 108945496.716 8  84892626.345 8                  20731618.680    20731615.180
  20731614.520          49.800          49.650
 136650178.086 6 106480794.91245                  26003593.400
  26003588.800          39.850          31.150
 108555445.266 8  84588745.562 8  81064231.887 8  20657381.520    20657379.900
  20657379.340          49.700          50.600
 110136363.744 8  85820651.508 8                  20958188.100    20958184.880
  20958184.200          49.800          48.100
 126923736.918 7  98901709.137 7  94780830.692 8  24152748.780    24152751.180
  24152750.220          44.200          43.100
 116102847.426 8  90302289.337 7                  21749958.580    21749962.280
  21749961.400          48.700          43.950
 130581936.581 7 101563687.097 6                  24428093.280    24428106.080
  24428106.260          45.700          37.300
 107661719.633 7  83736953.184 7                  20154483.000    20154485.300
  20154484.460          47.750          46.050
 121555909.552 7  94543502.357 7                  22715622.200    22715623.760
  22715622.640          45.600          42.250
 127881225.830 6  99463195.719 6                  23880917.220    23880919.000
  23880918.040          41.900          38.350
 110828588.614 8  86200070.648 7                  20769216.080    20769218.440
  20769218.600          48.950          44.250
 110374786.155 8  85846999.835 6                  20669618.280    20669621.880
  20669619.100          48.150          37.050
 110660730.748 8  86069473.232 7                  20672351.300    20672353.400
  20672352.420          48.400          46.400
 128251590.875 7  99751218.470 6                  23975241.960    23975247.820
  23975246.020          43.850          38.500
 130166904.361 7 101240946.062 5                  24418978.300    24418989.680
  24418988.140          42.050          31.700
 127403722.382 6  99091807.204 6                  23841869.420    23841875.660
  23841873.580          40.800          38.850
 132581285.189 8                  99005542.144 7  25229367.540
                        49.250
 119687019.366 7                                  22775679.960
                        47.850
 15  1 27 19  2 25.0000000  0 22G22G18G13G17G15G28G24G12G25R18R05R16
                                R17R08R06R09R07R19R10R15E19E20
 127595572.585 7  99425132.40546                  24280624.800
  24280619.200          46.000          36.950
 120873848.086 7  94187430.06146                  23001514.800
  23001510.720          47.300          38.650
 119589890.512 8  93186993.47946                  22757175.120
  22757171.100          48.550          40.050
 122803954.253 7  95691458.174 7                  23368784.960    23368781.140
  23368780.820          47.450          44.200
 108953094.289 8  84898546.528 8                  20733064.460    20733060.960
  20733060.320          49.800          48.900
 136665873.868 6 106493025.46745                  26006580.180
  26006575.680          38.950          33.200
 108551347.521 8  84585552.508 8  81061171.875 8  20656601.740    20656600.120
  20656599.560          49.800          50.000
 110125782.134 8  85812406.106 7                  20956174.520    20956171.240
  20956170.560          49.800          47.400
 126906635.480 7  98888383.380 7  94768060.179 8  24149494.440    24149496.860
  24149495.920          44.000          42.100
 116092074.169 8  90293910.138 7                  21747940.400    21747944.080
  21747943.200          48.650          43.850
 130604418.244 7 101581172.388 6                  24432299.340    24432312.240
  24432312.340          44.800          36.950
 107667596.720 7  83741524.262 7                  20155583.220    20155585.480
  20155584.660          47.600          46.000
 121562022.792 7  94548257.099 7                  22716764.620    22716766.220
  22716765.100          45.800          42.450
 127862967.826 6  99448995.078 6                  23877507.720    23877509.420
  23877508.520          41.500          38.400
 110844311.314 8  86212299.416 7                  20772162.480    20772164.940
  20772165.080          48.800          44.600
 110367576.801 8  85841392.560 6                  20668268.240    20668271.840
  20668269.040          48.050          36.600
 110656941.385 8  86066525.954 7                  20671643.400    20671645.540
  20671644.520          48.450          46.300
 128230899.857 7  99735125.527 6                  23971373.960    23971379.800
  23971378.020          43.600          38.550
 130152989.074 6 101230123.100 5                  24416367.760    24416379.120
  24416377.440          41.800          31.250
 127418120.663 6  99103005.855 6                  23844563.860    23844570.080
  23844568.020          39.400          38.700
 132578165.193 8                  99003212.269 7  25228773.800
                        49.100
 119695977.652 7                                  22777384.640
                        47.800
 15  1 27 19  2 30.0000000  0 22G22G18G13G17G15G28G24G12G25R18R05R16
                                R17R08R06R09R07R19R10R15E19E20
 127590104.529 7  99420871.57446                  24279584.260
  24279578.760          45.100          38.600
 120876544.875 7  94189531.45346                  23002028.000
  23002023.880          46.800          39.300
 119606132.599 7  93199649.64146                  22760265.860
  22760261.900          47.950          39.750
 122809049.583 7  95695428.560 7                  23369754.560    23369750.760
  23369750.460          47.250          44.000
 108960702.571 8  84904475.053 8                  20734512.300    20734508.760
  20734508.140          49.450          49.000
 136681565.511 6 106505252.67045                  26009566.220
  26009561.440          37.800          34.100
 108547253.869 8  84582362.645 8  81058114.923 8  20655822.760    20655821.140
  20655820.560          49.300          50.050
 110115210.216 8  85804168.248 7                  20954162.760    20954159.440
  20954158.780          49.200          47.550
 126889536.359 7  98875059.427 6  94755291.398 8  24146240.600    24146242.960
  24146242.020          43.500          41.850
 116081315.662 8  90285542.408 7                  21745925.000    21745928.600
  21745927.740          49.350          43.700
 130626894.647 7 101598653.559 6                  24436504.380    24436517.360
  24436517.420          44.650          36.200
 107673477.175 8  83746097.947 7                  20156684.060    20156686.340
  20156685.480          48.500          45.950
 121568153.755 7  94553025.643 7                  22717910.340    22717911.940
  22717910.840          46.350          42.350
 127844717.549 7  99434800.429 6                  23874099.560    23874101.380
  23874100.440          42.550          38.000
 110860046.435 8  86224537.832 7                  20775111.180    20775113.740
  20775113.860          49.200          44.300
 110360371.713 8  85835788.600 6                  20666918.980    20666922.560
  20666919.780          48.600          36.550
 110653171.980 8  86063594.194 7                  20670939.220    20670941.380
  20670940.380          48.950          46.400
 128210204.736 7  99719029.399 6                  23967505.200    23967510.980
  23967509.220          43.750          37.350
 130139073.171 7 101219299.647 5                  24413757.180    24413768.260
  24413766.760          43.650          32.350
 127432515.182 7  99114201.588 6                  23847257.540    23847263.720
  23847261.680          42.000          38.600
 132575054.344 8                  99000889.238 7  25228181.820
                        48.650
 119704942.881 7                                  22779090.640
                        47.300
 15  1 27 19  2 35.0000000  0 22G22G18G13G17G15G28G24G12G25R18R05R16
                                R17R08R06R09R07R19R10R15E19E20
 127584650.033 7  99416621.32046                  24278546.280
  24278540.900          45.900          36.900
 120879255.060 7  94191643.28146                  23002543.760
  23002539.660          47.600          38.550
 119622382.435 8  93212311.84546                  22763358.080
  22763354.140          48.900          39.400
 122814159.453 8  95699410.280 7                  23370726.920    23370723.160
  23370722.840          48.400          44.250
 108968324.233 8  84910414.013 8                  20735962.680    20735959.120
  20735958.500          50.300          49.050
 136697255.597 6 106517478.69345                  26012551.920
  26012547.360          38.300          30.650
 108543167.136 8  84579178.177 8  81055063.144 8  20655045.100    20655043.480
  20655042.900          50.050          50.050
 110104650.672 8  85795940.029 7                  20952153.360    20952150.000
  20952149.360          49.850          47.600
 126872442.220 7  98861739.351 6  94742526.319 8  24142987.720    24142989.940
  24142989.040          44.650          41.800
 116070574.535 8  90277188.196 7                  21743912.860    21743916.360
  21743915.540          48.050          43.750
 130649368.513 7 101616132.761 6                  24440708.960    24440721.980
  24440722.100          43.800          36.200
 107679363.703 7  83750676.362 7                  20157786.040    20157788.300
  20157787.460          47.450          46.050
 121574305.436 7  94557810.293 7                  22719060.000    22719061.520
  22719060.440          45.400          42.250
 127826477.696 6  99420613.913 6                  23870693.380    23870695.180
  23870694.300          41.650          38.200
 110875797.021 8  86236788.290 7                  20778062.820    20778065.420
  20778065.540          48.150          44.200
 110353173.607 7  85830190.075 6                  20665571.040    20665574.580
  20665571.800          47.850          36.700
 110649425.192 7  86060680.038 7                  20670239.280    20670241.460
  20670240.440          47.900          46.300
 128189508.237 7  99702932.174 6                  23963636.240    23963641.900
  23963640.120          43.050          37.800
 130125159.461 7 101208477.900 5                  24411147.060    24411157.980
  24411156.720          42.300          33.300
 127446908.520 6  99125396.415 6                  23849951.160    23849957.220
  23849955.240          40.250          39.000
 132571955.315 8                  98998575.026 7  25227592.100
                        49.500
 119713917.759 8                                  22780798.480
                        48.100
 15  1 27 19  2 40.0000000  0 22G22G18G13G17G15G28G24G12G25R18R05R16
                                R17R08R06R09R07R19R10R15E19E20
 127579210.041 7  99412382.36545                  24277511.040
  24277505.820          46.050          35.250
 120881979.599 7  94193766.28246                  23003062.260
  23003058.140          47.850          39.400
 119638640.932 8  93224980.79746                  22766451.960
  22766448.040          49.050          38.800
 122819284.789 8  95703404.050 7                  23371702.260    23371698.480
  23371698.140          48.750          44.150
 108975960.160 8  84916364.079 8                  20737415.760    20737412.200
  20737411.580          50.500          49.000
 136712945.076 6 106529704.26745                  26015537.480
  26015533.120          38.600          31.150
 108539088.136 8  84575999.735 8  81052017.133 8  20654268.920    20654267.280
  20654266.700          50.150          50.000
 110094104.417 8  85787722.171 7                  20950146.500    20950143.120
  20950142.460          50.100          47.550
 126855353.975 7  98848423.860 6  94729765.650 8  24139735.920    24139738.100
  24139737.260          45.000          41.500
 116059851.779 8  90268848.289 7                  21741904.100    21741907.660
  21741906.780          48.750          43.650
 130671840.685 7 101633610.651 5                  24444913.240    24444926.340
  24444926.400          45.000          34.850
 107685257.366 8  83755260.322 7                  20158889.340    20158891.620
  20158890.800          48.100          46.050
 121580478.671 7  94562611.705 7                  22720213.600    22720215.180
  22720214.060          46.550          42.200
 127808249.374 7  99406436.332 6                  23867289.340    23867291.120
  23867290.300          42.600          38.400
 110891563.656 8  86249051.225 7                  20781017.440    20781020.100
  20781020.200          48.900          43.850
 110345983.481 8  85824597.760 6                  20664224.580    20664228.080
  20664225.280          48.700          36.650
 110645702.005 8  86057784.218 7                  20669543.740    20669545.940
  20669544.880          48.500          46.250
 128168811.530 7  99686834.823 6                  23959767.160    23959772.800
  23959771.040          44.550          37.800
 130111248.910 7 101197658.584 5                  24408537.560    24408548.240
  24408547.320          43.200          32.950
 127461301.621 6  99136591.052 6                  23852644.640    23852650.660
  23852648.800          41.250          39.750
 132568869.062 8                  98996270.347 7  25227004.780
                        49.600
 119722903.189 8                                  22782508.320
                        48.300
 15  1 27 19  2 45.0000000  0 22G22G18G13G17G15G28G24G12G25R18R05R16
                                R17R08R06R09R07R19R10R15E19E20
 127573782.368 7  99408153.02845                  24276478.140
  24276473.060          46.000          35.600
 120884716.235 7  94195898.73246                  23003583.080
  23003578.920          47.950          38.950
 119654905.837 8  93237654.74746                  22769547.060
  22769543.160          49.050          38.700
 122824423.399 8  95707408.170 7                  23372680.120    23372676.280
  23372675.980          48.600          44.000
 108983608.136 8  84922323.543 8                  20738871.140    20738867.580
  20738866.960          50.300          49.000
 136728631.632 6 106541927.65244                  26018522.560
  26018518.160          40.400          25.950
 108535014.640 8  84572825.591 8  81048975.252 8  20653493.760    20653492.120
  20653491.540          50.250          50.000
 110083569.235 8  85779512.950 7                  20948141.740    20948138.340
  20948137.700          50.250          47.450
 126838269.397 7  98835111.239 6  94717007.731 8  24136484.820    24136486.880
  24136486.160          44.300          41.150
 116049145.192 8  90260520.952 7                  21739898.340    21739901.960
  21739901.040          48.050          43.750
 130694308.866 7 101651085.477 5                  24449116.740    24449129.980
  24449129.920          44.500          34.850
 107691155.836 7  83759848.021 7                  20159993.520    20159995.840
  20159995.040          47.600          46.200
 121586671.154 7  94567428.091 7                  22721370.820    22721372.500
  22721371.320          45.500          42.050
 127790030.118 7  99392265.843 6                  23863886.980    23863888.920
  23863887.980          42.050          38.800
 110907344.196 8  86261324.977 7                  20783974.700    20783977.400
  20783977.460          48.700          44.150
 110338799.022 8  85819009.859 6                  20662879.200    20662882.620
  20662879.820          48.050          36.650
 110642000.178 8  86054905.025 7                  20668852.200    20668854.400
  20668853.320          48.350          46.250
 128148112.093 7  99670735.325 6                  23955897.600    23955903.200
  23955901.440          43.650          38.800
 130097339.334 6 101186840.044 5                  24405928.200    24405938.960
  24405937.960          41.800          31.550
 127475692.493 6  99147783.953 6                  23855337.640    23855343.800
  23855342.000          39.750          40.150
 132565793.342 8                  98993973.555 7  25226419.460
                        49.450
 119731896.899 8                                  22784219.720
                        48.250
 15  1 27 19  2 50.0000000  0 22G22G18G13G17G15G28G24G12G25R18R05R16
                                R17R08R06R09R07R19R10R15E19E20
 127568368.793 7  99403934.66446                  24275447.920
  24275442.960          46.050          36.850
 120887466.815 8  94198042.03746                  23004106.560
  23004102.340          48.000          38.800
 119671178.971 8  93250335.10746                  22772643.740
  22772639.840          49.150          38.550
 122829577.120 8  95711424.054 7                  23373660.860    23373657.020
  23373656.700          48.700          44.050
 108991270.012 8  84928293.836 8                  20740329.180    20740325.580
  20740324.960          50.150          49.200
 136744317.156 6 106554150.09944                  26021507.420
  26021502.840          40.950          29.000
 108530948.656 8  84569657.300 8  81045938.969 8  20652720.040    20652718.400
  20652717.820          50.300          50.050
 110073046.996 8  85771313.807 7                  20946139.460    20946136.020
  20946135.360          50.250          47.400
 126821190.335 7  98821802.916 6  94704253.935 8  24133234.720    24133236.820
  24133236.060          44.500          41.550
 116038456.581 8  90252207.592 7                  21737895.960    21737899.560
  21737898.680          48.100          44.050
 130716774.982 7 101668558.671 5                  24453319.880    24453333.160
  24453333.100          44.500          34.750
 107697061.059 7  83764440.965 7                  20161098.980    20161101.320
  20161100.520          47.350          46.450
 121592884.801 7  94572260.923 6                  22722532.000    22722533.760
  22722532.520          45.700          41.650
 127771821.987 7  99378103.978 6                  23860486.700    23860488.580
  23860487.740          42.450          38.950
 110923140.439 8  86273610.946 7                  20786934.920    20786937.640
  20786937.660          48.750          44.000
 110331622.089 8  85813427.794 6                  20661535.200    20661538.640
  20661535.760          48.200          36.550
 110638321.620 8  86052043.925 7                  20668165.000    20668167.160
  20668166.100          48.500          46.450
 128127411.933 7  99654635.292 6                  23952027.860    23952033.480
  23952031.760          43.700          39.700
 130083432.522 6 101176023.668 5                  24403319.340    24403330.120
  24403328.880          40.600          31.500
 127490082.951 6  99158976.490 6                  23858030.600    23858036.840
  23858035.060          40.400          39.750
 132562729.998 8                  98991686.008 7  25225836.500
                        49.400
 119740900.751 8                                  22785933.080
                        48.100
 15  1 27 19  2 55.0000000  0 22G22G18G13G17G15G28G24G12G25R18R05R16
                                R17R08R06R09R07R19R10R15E19E20
 127562969.328 7  99399727.28746                  24274420.380
  24274415.500          45.700          36.900
 120890231.300 7  94200196.18746                  23004632.660
  23004628.460          47.800          38.800
 119687460.353 8  93263021.89546                  22775741.960
  22775738.040          48.950          39.250
 122834745.805 8  95715451.597 7                  23374644.460    23374640.580
  23374640.240          48.550          44.000
 108998945.800 8  84934274.960 8                  20741789.860    20741786.240
  20741785.640          50.150          49.150
 136760001.569 6 106566371.72444                  26024492.080
  26024487.460          39.000          29.000
 108526890.037 8  84566494.744 8  81042908.185 8  20651947.720    20651946.060
  20651945.480          50.250          50.000
 110062537.650 8  85763124.708 7                  20944139.620    20944136.140
  20944135.480          50.250          47.300
 126804116.793 7  98808498.898 6  94691504.256 8  24129985.740    24129987.780
  24129987.120          44.400          41.700
 116027786.048 7  90243908.301 7                  21735896.920    21735900.600
  21735899.700          47.750          43.750
 130739238.897 7 101686030.157 5                  24457522.600    24457535.880
  24457535.840          44.250          33.950
 107702972.867 7  83769039.031 7                  20162205.660    20162208.020
  20162207.220          47.250          46.450
 121599119.615 7  94577110.215 6                  22723697.160    22723698.980
  22723697.680          45.450          41.750
 127753624.936 7  99363950.729 6                  23857088.500    23857090.380
  23857089.560          42.600          38.800
 110938952.383 8  86285909.120 7                  20789898.040    20789900.760
  20789900.800          48.900          43.950
 110324452.784 8  85807851.668 6                  20660192.640    20660196.040
  20660193.120          48.100          36.700
 110634666.152 8  86049200.784 7                  20667482.100    20667484.260
  20667483.200          48.350          46.450
 128106711.018 7  99638534.687 6                  23948157.900    23948163.600
  23948161.940          44.000          39.550
 130069528.285 6 101165209.305 5                  24400710.900    24400721.740
  24400720.320          41.000          31.900
 127504472.842 6  99170168.634 6                  23860723.540    23860729.720
  23860727.940          40.700          38.650
 132559679.024 8                  98989407.672 7  25225255.880
                        49.350
 119749914.758 7                                  22787648.360
                        47.900
 15  1 27 19  3  0.0000000  0 22G22G18G13G17G15G28G24G12G25R18R05R16
                                R17R08R06R09R07R19R10R15E19E20
 127557582.128 7  99395529.47346                  24273395.220
  24273390.340          45.450          37.150
 120893007.793 7  94202359.67646                  23005161.060
  23005156.860          47.400          38.400
 119703748.018 8  93275713.57746                  22778841.440
  22778837.440          48.950          39.600
 122839927.685 8  95719489.423 7                  23375630.560    23375626.680
  23375626.280          48.700          43.650
 109006633.557 8  84940265.414 8                  20743252.820    20743249.180
  20743248.580          50.100          49.100
 136775682.944 6 106578590.93845                  26027476.160
  26027471.660          36.600          32.200
 108522836.812 8  84563336.387 8  81039881.414 8  20651176.420    20651174.760
  20651174.160          50.250          50.000
 110052039.330 8  85754944.203 7                  20942141.900    20942138.360
  20942137.700          50.150          47.200
 126787046.893 7  98795197.716 6  94678757.274 8  24126737.440    24126739.440
  24126738.760          44.550          41.900
 116017131.577 8  90235621.494 7                  21733900.920    21733904.640
  21733903.680          48.350          43.600
 130761698.726 7 101703498.474 5                  24461724.580    24461737.980
  24461737.840          43.800          34.050
 107708889.358 7  83773640.742 7                  20163313.200    20163315.620
  20163314.800          47.350          46.200
 121605373.618 7  94581974.431 6                  22724865.940    22724867.720
  22724866.440          45.750          40.950
 127735437.034 7  99349804.591 6                  23853691.960    23853693.880
  23853693.060          42.850          38.700
 110954778.049 8  86298217.964 7                  20792863.740    20792866.460
  20792866.520          49.200          43.950
 110317289.038 8  85802279.865 6                  20658851.160    20658854.480
  20658851.580          48.400          36.900
 110631032.116 8  86046374.313 7                  20666803.180    20666805.420
  20666804.320          48.800          46.400
 128086007.483 7  99622432.008 6                  23944287.440    23944293.260
  23944291.600          44.200          39.050
 130055624.962 6 101154395.678 5                  24398102.660    24398113.480
  24398112.060          41.200          32.600
 127518860.276 6  99181358.868 6                  23863416.080    23863421.960
  23863420.180          41.700          36.300
 132556638.521 8                  98987137.162 7  25224677.240
                        49.300
 119758936.978 7                                  22789365.200
                        47.950
 15  1 27 19  3  5.0000000  0 22G22G18G13G17G15G28G24G12G25R18R05R16
                                R17R08R06R09R07R19R10R15E19E20
 127552209.656 7  99391343.13546                  24272372.840
  24272367.880          45.650          36.800
 120895798.789 7  94204534.47246                  23005692.200
  23005687.960          47.900          40.250
 119720044.479 8  93288412.12146                  22781942.580
  22781938.480          49.200          40.250
 122845125.299 8  95723539.518 7                  23376619.660    23376615.760
  23376615.340          48.850          44.850
 109014335.800 8  84946267.161 8                  20744718.520    20744714.880
  20744714.280          50.100          50.000
 136791363.865 6 106590809.83344                  26030460.120
  26030455.920          38.300          29.350
 108518791.499 8  84560184.195 8  81036860.569 8  20650406.640    20650404.960
  20650404.360          50.200          50.700
 110041554.551 8  85746774.250 8                  20940146.740    20940143.180
  20940142.500          50.150          48.300
 126769983.123 7  98781901.300 7  94666014.897 8  24123490.280    24123492.260
  24123491.600          44.300          42.950
 116006495.855 8  90227349.270 7                  21731908.440    21731912.180
  21731911.160          48.350          44.300
 130784157.080 7 101720965.619 5                  24465926.260    24465939.720
  24465939.560          43.050          32.550
 107714813.095 7  83778248.097 7                  20164422.140    20164424.540
  20164423.700          47.600          47.100
 121611649.315 7  94586855.535 7                  22726038.740    22726040.480
  22726039.200          45.750          42.150
 127717260.885 7  99335667.595 6                  23850297.640    23850299.580
  23850298.740          42.950          38.600
 110970619.847 8  86310539.339 7                  20795832.480    20795835.200
  20795835.260          49.300          44.600
 110310133.510 8  85796714.453 6                  20657511.160    20657514.420
  20657511.580          48.350          37.700
 110627421.925 8  86043566.370 7                  20666128.820    20666130.980
  20666129.900          48.650          47.150
 128065303.870 7  99606329.271 6                  23940417.040    23940422.920
  23940421.240          43.600          39.800
 130041724.886 6 101143584.542 5                  24395495.040    24395505.860
  24395504.520          40.250          34.700
 127533247.829 6  99192549.242 6                  23866108.560    23866114.260
  23866112.380          41.300          36.850
 132553610.998 8                  98984876.352 7  25224101.080
                        49.350
 119767969.903 8                                  22791084.080
                        48.050
 15  1 27 19  3 10.0000000  0 22G22G18G13G17G15G28G24G12G25R18R05R16
                                R17R08R06R09R07R19R10R15E19E20
 127546849.670 7  99387166.53046                  24271352.840
  24271347.840          45.750          36.800
 120898602.025 7  94206718.79946                  23006225.700
  23006221.420          47.850          39.600
 119736347.512 8  93301115.77646                  22785044.960
  22785040.800          49.000          39.800
 122850336.300 8  95727600.040 7                  23377611.280    23377607.360
  23377606.940          48.900          44.700
 109022050.263 8  84952278.437 8                  20746186.560    20746182.880
  20746182.280          50.100          49.700
 136807042.059 6 106603026.59345                  26033443.580
  26033439.900          37.500          33.550
 108514752.040 8  84557036.565 8  81033844.096 8  20649637.960    20649636.260
  20649635.680          49.950          50.600
 110031081.040 8  85738613.076 8                  20938153.760    20938150.140
  20938149.440          50.100          48.100
 126752923.246 7  98768607.919 7  94653275.420 8  24120243.900    24120245.800
  24120245.120          44.050          42.700
 115995876.503 8  90219089.785 7                  21729919.040    21729922.780
  21729921.720          48.300          44.150
 130806611.689 7 101738429.874 5                  24470127.160    24470141.060
  24470140.560          42.450          32.650
 107720741.854 7  83782859.358 7                  20165532.020    20165534.460
  20165533.560          47.350          46.950
 121617944.475 7  94591751.774 6                  22727215.140    22727216.880
  22727215.620          45.200          41.850
 127699094.255 7  99321538.017 6                  23846905.020    23846907.120
  23846906.220          42.200          39.000
 110986475.793 8  86322871.750 7                  20798803.900    20798806.560
  20798806.660          48.950          44.450
 110302983.776 7  85791153.548 6                  20656172.300    20656175.440
  20656172.660          47.900          37.700
 110623833.302 8  86040775.221 7                  20665458.460    20665460.580
  20665459.520          48.700          46.900
 128044597.949 7  99590224.738 6                  23936546.280    23936552.120
  23936550.400          44.000          40.200
 130027825.977 6 101132774.286 5                  24392887.680    24392898.520
  24392897.220          39.300          34.800
 127547633.243 6  99203737.878 6                  23868800.580    23868806.400
  23868804.300          40.850          38.800
 132550594.185 8                  98982623.544 7  25223526.940
                        49.250
 119777011.300 8                                  22792804.560
                        48.000
 15  1 27 19  3 15.0000000  0 22G22G18G13G17G15G28G24G12G25R18R05R16
                                R17R08R06R09R07R19R10R15E19E20
 127541503.246 7  99383000.49246                  24270335.400
  24270330.340          46.000          36.300
 120901418.574 7  94208913.51346                  23006761.720
  23006757.380          47.650          39.950
 119752658.167 8  93313825.38246                  22788148.800
  22788144.580          49.100          39.750
 122855561.812 8  95731671.871 7                  23378605.660    23378601.760
  23378601.280          48.650          44.650
 109029778.039 8  84958300.087 8                  20747657.120    20747653.440
  20747652.840          49.850          49.600
 136822718.560 6 106615242.12044                  26036426.720
  26036422.980          36.050          27.700
 108510719.365 8  84553894.221 8  81030832.685 8  20648870.560    20648868.860
  20648868.260          49.650          50.550
 110020619.896 8  85730461.541 8                  20936163.100    20936159.440
  20936158.740          50.050          48.000
 126735868.373 7  98755318.432 7  94640539.677 8  24116998.420    24117000.300
  24116999.580          43.750          42.550
 115985274.660 7  90210843.911 7                  21727932.900    21727936.700
  21727935.600          47.800          44.100
 130829063.462 7 101755891.932 5                  24474327.600    24474341.640
  24474341.040          44.550          33.650
 107726676.640 7  83787475.311 7                  20166643.000    20166645.460
  20166644.540          47.100          46.700
 121624260.084 7  94596663.911 7                  22728395.360    22728397.100
  22728395.860          45.350          42.050
 127680938.110 7  99307416.589 6                  23843514.380    23843516.540
  23843515.620          42.650          39.100
 111002346.638 8  86335215.740 7                  20801778.120    20801780.740
  20801780.820          48.700          44.200
 110295840.989 7  85785598.064 6                  20654834.700    20654837.780
  20654835.040          47.850          37.550
 110620267.252 8  86038001.631 7                  20664792.300    20664794.420
  20664793.340          48.700          46.700
 128023890.776 7  99574119.236 6                  23932675.200    23932681.020
  23932679.380          44.000          39.450
 130013929.232 6 101121965.659 5                  24390280.520    24390291.560
  24390290.180          40.150          33.050
 127562017.489 6  99214925.577 6                  23871492.340    23871498.360
  23871496.140          40.800          38.650
 132547589.198 8                  98980379.555 7  25222955.080
                        49.000
 119786062.234 7                                  22794526.860
                        47.750
 15  1 27 19  3 20.0000000  0 22G22G18G13G17G15G28G24G12G25R18R05R16
                                R17R08R06R09R07R19R10R15E19E20
 127536170.339 7  99378844.98646                  24269320.580
  24269315.500          45.600          36.900
 120904248.295 7  94211118.48446                  23007300.260
  23007295.880          47.750          40.450
 119768976.363 8  93326540.85646                  22791254.080
  22791249.820          49.100          39.800
 122860801.740 8  95735754.931 7                  23379602.800    23379598.880
  23379598.380          48.600          44.350
 109037519.067 8  84964332.057 8                  20749130.220    20749126.520
  20749125.920          49.700          49.400
 136838393.379 6 106627013.34655                  26039409.580
  26039405.780          37.000          31.800
 108506693.427 8  84550757.128 8  81027826.301 8  20648104.440    20648102.740
  20648102.140          49.350          50.450
 110010171.030 8  85722319.572 7                  20934174.780    20934171.060
  20934170.380          50.150          47.950
 126718818.382 7  98742032.744 7  94627807.574 8  24113753.920    24113755.760
  24113754.940          43.800          42.750
 115974690.224 8  90202611.580 7                  21725950.040    21725953.880
  21725952.760          48.000          44.250
 130851512.440 7 101773351.786 5                  24478527.460    24478541.720
  24478541.080          44.350          32.300
 107732617.386 7  83792095.889 7                  20167755.120    20167757.580
  20167756.640          47.250          46.500
 121630596.268 7  94601592.064 7                  22729579.480    22729581.180
  22729579.960          45.050          42.000
 127662792.533 6  99293303.380 6                  23840125.800    23840127.980
  23840127.060          41.800          38.300
 111018232.571 8  86347571.458 7                  20804755.160    20804757.740
  20804757.800          48.800          43.950
 110288705.104 7  85780047.933 6                  20653498.400    20653501.480
  20653498.740          47.900          37.400
 110616723.788 8  86035245.607 7                  20664130.360    20664132.440
  20664131.340          48.800          46.350
 128003182.386 7  99558012.777 6                  23928803.920    23928809.760
  23928808.060          44.350          39.450
 130000034.384 6 101111158.593 5                  24387673.780    24387684.840
  24387683.440          39.900          32.700
 127576400.615 6  99226112.469 6                  23874184.000    23874189.980
  23874187.760          41.600          38.200
 132544595.935 8                  98978144.334 7  25222385.440
                        48.950
 119795122.595 7                                  22796250.940
                        47.600
 15  1 27 19  3 25.0000000  0 22G22G18G13G17G15G28G24G12G25R18R05R16
                                R17R08R06R09R07R19R10R15E19E20
 127530850.449 7  99374699.62145                  24268308.260
  24268303.000          45.100          35.250
 120907090.746 7  94213333.37746                  23007841.200
  23007836.780          47.750          39.900
 119785301.601 8  93339261.80646                  22794360.700
  22794356.380          48.900          40.300
 122866055.574 8  95739848.834 7                  23380602.560    23380598.660
  23380598.140          48.400          44.150
 109045272.821 8  84970373.935 8                  20750605.700    20750602.020
  20750601.400          49.650          49.300
 136854065.981 6 106639225.66745                  26042392.060
  26042388.220          37.550          30.100
 108502673.693 8  84547624.866 8  81024824.549 8  20647339.500    20647337.800
  20647337.200          49.300          50.300
 109999733.973 8  85714186.800 7                  20932188.720    20932184.940
  20932184.260          50.250          47.900
 126701772.833 7  98728750.517 7  94615078.779 8  24110510.260    24110512.100
  24110511.280          43.800          42.400
 115964122.795 7  90194392.469 7                  21723970.340    21723974.260
  21723973.080          47.950          43.550
 130873958.036 7 101790809.030 5                  24482726.700    24482741.340
  24482740.460          43.150          32.100
 107738563.601 7  83796720.727 7                  20168868.220    20168870.720
  20168869.780          47.150          46.450
 121636952.284 7  94606535.626 7                  22730767.260    22730768.940
  22730767.760          45.350          42.600
 127644657.013 6  99279197.973 6                  23836739.120    23836741.240
  23836740.340          41.900          38.050
 111034132.971 8  86359938.431 7                  20807734.900    20807737.480
  20807737.500          49.250          43.700
 110281575.560 7  85774502.729 6                  20652163.280    20652166.340
  20652163.600          47.700          37.700
 110613202.458 8  86032506.786 7                  20663472.600    20663474.600
  20663473.460          48.850          46.300
 127982472.180 7  99541904.885 6                  23924932.300    23924938.060
  23924936.380          43.900          39.300
 129986141.069 6 101100352.733 5                  24385067.360    24385078.420
  24385076.960          39.200          32.950
 127590781.981 6  99237297.986 6                  23876875.400    23876881.260
  23876879.060          40.900          38.800
 132541613.936 8                  98975917.518 7  25221817.920
                        48.850
 119804191.922 7                                  22797976.760
                        47.650
 15  1 27 19  3 30.0000000  0 22G22G18G13G17G15G28G24G12G25R18R05R16
                                R17R08R06R09R07R19R10R15E19E20
 127525544.542 7  99370565.15246                  24267298.600
  24267293.240          44.950          36.750
 120909946.924 7  94215558.97046                  23008384.760
  23008380.300          47.900          38.800
 119801634.888 8  93351989.04046                  22797468.840
  22797464.480          48.750          38.900
 122871324.307 8  95743954.342 7                  23381605.160    23381601.240
  23381600.700          48.600          43.950
 109053040.292 8  84976426.506 8                  20752083.780    20752080.120
  20752079.520          49.800          49.250
 136869737.328 5 106651437.11745                  26045374.320
  26045370.560          35.050          33.150
 108498661.216 8  84544498.260 8  81021828.225 8  20646575.940    20646574.240
  20646573.620          49.450          50.200
 109989309.730 8  85706064.011 7                  20930205.100    20930201.280
  20930200.580          50.150          47.800
 126684732.724 7  98715472.541 7  94602354.065 8  24107267.640    24107269.440
  24107268.700          44.050          42.700
 115953573.391 7  90186187.383 7                  21721994.060    21721997.980
  21721996.760          47.850          43.250
 130896401.270 7 101808264.441 5                  24486925.500    24486940.180
  24486939.380          44.700          33.450
 107744516.355 7  83801350.647 7                  20169982.580    20169985.080
  20169984.100          47.550          46.200
 121643329.228 7  94611495.461 7                  22731959.020    22731960.700
  22731959.480          45.800          42.450
 127626532.417 7  99265101.081 6                  23833354.460    23833356.500
  23833355.700          42.400          38.850
 111050048.672 8  86372317.310 7                  20810717.480    20810720.080
  20810720.080          49.300          44.000
 110274453.426 7  85768963.303 6                  20650829.520    20650832.640
  20650829.900          47.800          37.600
 110609704.173 8  86029785.888 7                  20662819.140    20662821.080
  20662819.920          48.550          46.150
 127961761.292 7  99525796.500 6                  23921060.520    23921066.320
  23921064.680          44.100          38.400
 129972250.540 6 101089549.000 5                  24382461.440    24382472.640
  24382471.080          37.800          33.350
 127605162.809 6  99248483.057 6                  23879566.500    23879572.420
  23879570.260          40.150          38.850
 132538644.179 8                  98973699.847 7  25221252.760
                        48.850
 119813271.184 7                                  22799704.460
                        47.600
 15  1 27 19  3 35.0000000  0 22G22G18G13G17G15G28G24G12G25R18R05R16
                                R17R08R06R09R07R19R10R15E19E20
 127520252.671 7  99366441.63145                  24266291.560
  24266286.120          46.650          35.450
 120912816.835 8  94217795.26946                  23008930.920
  23008926.460          49.250          37.150
 119817976.206 8  93364722.52246                  22800578.480
  22800574.120          49.950          37.600
 122876607.933 8  95748071.451 7                  23382610.600    23382606.600
  23382606.100          49.650          42.850
 109060821.470 8  84982489.764 8                  20753564.480    20753560.840
  20753560.240          50.800          48.850
 136885407.478 6                                  26048356.300
                        38.050
 108494656.041 8  84541377.351 8  81018837.351 8  20645813.740    20645812.080
  20645811.460          50.600          49.750
 109978898.343 8  85697951.251 7                  20928223.920    20928220.060
  20928219.340          50.950          47.050
 126667698.046 7  98702198.802 6  94589633.407 8  24104026.080    24104027.820
  24104027.100          46.050          41.900
 115943042.002 7  90177996.307 7                  21720021.160    21720025.120
  21720023.840          47.950          43.450
 130918842.117 7 101825718.016 5                  24491123.920    24491138.600
  24491137.840          44.600          33.350
 107750475.575 7  83805985.606 7                  20171098.160    20171100.640
  20171099.680          47.850          46.100
 121649727.176 7  94616471.635 7                  22733154.720    22733156.380
  22733155.160          46.000          42.350
 127608418.978 7  99251012.874 6                  23829971.920    23829973.820
  23829973.120          42.950          38.950
 111065979.635 8  86384708.046 7                  20813702.960    20813705.480
  20813705.540          49.550          43.900
 110267338.617 7  85763429.570 6                  20649497.120    20649500.240
  20649497.580          47.850          37.200
 110606229.128 8  86027083.082 7                  20662170.020    20662171.920
  20662170.740          48.750          46.100
 127941049.727 7  99509687.580 6                  23917188.640    23917194.420
  23917192.780          44.000          37.700
 129958362.588 6 101078747.257 5                  24379856.040    24379867.300
  24379865.800          39.350          32.600
 127619543.074 6  99259667.701 6                  23882257.500    23882263.560
  23882261.380          40.550          38.900
 132535686.684 8                  98971491.332 7  25220689.940
                        50.100
 119822360.414 8                                  22801434.120
                        49.000
 15  1 27 19  3 40.0000000  0 22G22G18G13G17G15G28G24G12G25R18R05R16
                                R17R08R06R09R07R19R10R15E19E20
 127514973.778 7  99362328.20445                  24265286.980
  24265281.500          46.150          34.000
 120915699.267 8  94220041.31146                  23009479.440
  23009475.020          48.850          38.500
 119834324.519 8  93377461.47446                  22803689.480
  22803685.120          49.550          38.250
 122881905.329 8  95752199.290 7                  23383618.640    23383614.640
  23383614.080          49.000          43.250
 109068615.316 8  84988562.888 8                  20755047.600    20755043.960
  20755043.380          50.350          48.950
 136901075.382 6 106675905.38055                  26051337.780
  26051345.640          37.750          33.200
 108490657.074 8  84538261.273 8  81015851.108 8  20645052.760    20645051.100
  20645050.460          50.350          49.850
 109968498.712 8  85689847.644 7                  20926244.960    20926241.060
  20926240.360          50.600          47.200
 126650667.771 7  98688928.491 7  94576916.022 8  24100785.380    24100787.000
  24100786.340          45.950          42.000
 115932527.607 7  90169818.458 7                  21718051.440    21718055.460
  21718054.180          47.900          43.800
 130941279.558 7 101843168.948 5                  24495321.620    24495336.420
  24495335.660          43.950          34.350
 107756440.228 7  83810624.778 7                  20172214.760    20172217.260
  20172216.260          47.900          46.050
 121656145.052 7  94621463.324 7                  22734354.120    22734355.680
  22734354.560          45.750          42.350
 127590315.633 7  99236932.511 6                  23826591.260    23826593.160
  23826592.480          42.900          39.100
 111081925.200 8  86397110.152 7                  20816691.140    20816693.700
  20816693.760          49.400          44.200
 110260230.182 7  85757900.793 6                  20648165.900    20648169.080
  20648166.420          47.800          37.650
 110602775.989 8  86024397.302 7                  20661524.980    20661526.800
  20661525.660          48.500          46.000
 127920336.333 7  99493577.229 6                  23913316.460    23913322.140
  23913320.520          44.200          36.750
 129944476.090 6 101067946.682 5                  24377251.020    24377262.200
  24377260.800          40.000          33.400
 127633921.602 6  99270851.005 6                  23884948.340    23884954.400
  23884952.140          40.750          38.900
 132532740.414 8                  98969291.183 7  25220129.280
                        49.850
 119831458.528 8                                  22803165.440
                        48.750
 15  1 27 19  3 45.0000000  0 22G22G18G13G17G15G28G24G12G25R18R05R16
                                R17R08R06R09R07R19R10R15E19E20
 127509708.603 7  99358225.45645                  24264285.020
  24264279.580          45.950          34.600
 120918595.144 8  94222297.83246                  23010030.520
  23010026.100          48.750          37.800
 119850680.530 8  93390206.40946                  22806801.920
  22806797.540          49.150          38.600
 122887217.321 8  95756338.499 7                  23384629.420    23384625.460
  23384624.900          48.450          43.350
 109076422.546 8  84994646.444 8                  20756533.240    20756529.640
  20756529.060          50.100          49.000
 136916741.702 6 106688112.89745                  26054319.000
  26054320.400          37.250          30.250
 108486665.068 8  84535150.619 8  81012870.067 8  20644293.080    20644291.440
  20644290.800          50.250          49.850
 109958111.603 8  85681753.796 7                  20924268.380    20924264.440
  20924263.720          50.550          47.150
 126633642.654 7  98675662.201 7  94564202.492 8  24097545.600    24097547.240
  24097546.560          45.400          42.000
 115922030.971 8  90161654.431 7                  21716085.000    21716089.040
  21716087.820          48.050          43.550
 130963714.274 7 101860617.747 5                  24499518.820    24499533.680
  24499532.960          43.450          34.950
 107762411.010 8  83815268.720 7                  20173332.480    20173334.960
  20173334.000          48.050          46.250
 121662583.482 7  94626471.000 7                  22735557.360    22735558.880
  22735557.800          45.350          42.600
 127572223.078 7  99222860.534 6                  23823212.600    23823214.500
  23823213.860          42.800          38.550
 111097885.666 8  86409523.840 7                  20819682.120    20819684.760
  20819684.780          49.300          44.300
 110253128.834 7  85752377.528 6                  20646836.040    20646839.220
  20646836.580          47.950          37.400
 110599345.798 8  86021729.380 7                  20660884.220    20660885.980
  20660884.860          48.800          46.100
 127899622.059 7  99477466.166 6                  23909444.100    23909449.720
  23909448.100          44.700          37.700
 129930591.862 6 101057147.852 5                  24374646.360    24374657.680
  24374656.140          41.700          32.700
 127648299.184 6  99282033.550 6                  23887638.900    23887645.040
  23887642.680          41.600          37.650
 132529806.087 8                  98967099.967 7  25219570.880
                        49.800
 119840566.242 8                                  22804898.620
                        48.600
 15  1 27 19  3 50.0000000  0 22G22G18G13G17G15G28G24G12G25R18R05R16
                                R17R08R06R09R07R19R10R15E19E20
 127504457.086 7  99354133.38145                  24263285.620
  24263280.280          45.600          35.350
 120921504.389 8  94224564.77346                  23010584.160
  23010579.740          48.450          38.050
 119867044.214 8  93402957.32646                  22809915.820
  22809911.460          48.950          38.600
 122892543.875 7  95760489.070 7                  23385642.980    23385639.020
  23385638.480          47.800          43.350
 109084243.137 8  85000740.409 8                  20758021.440    20758017.900
  20758017.280          50.050          48.900
 136932406.413 6                                  26057299.940
                        36.200
 108482679.970 8  84532045.349 8  81009894.179 8  20643534.720    20643533.100
  20643532.460          50.150          49.850
 109947736.965 8  85673669.668 7                  20922294.180    20922290.200
  20922289.480          50.350          47.200
 126616622.616 7  98662399.871 6  94551492.773 8  24094306.780    24094308.420
  24094307.680          45.000          41.850
 115911552.037 7  90153504.153 7                  21714121.880    21714126.020
  21714124.740          47.550          43.400
 130986146.132 7 101878064.317 5                  24503715.480    24503730.440
  24503729.740          43.800          35.850
 107768387.936 7  83819917.444 7                  20174451.380    20174453.860
  20174452.960          47.950          46.250
 121669042.415 7  94631494.621 7                  22736764.400    22736765.840
  22736764.880          45.200          42.200
 127554141.319 7  99208796.958 6                  23819835.960    23819837.860
  23819837.180          42.800          38.350
 111113861.215 8  86421949.255 7                  20822675.920    20822678.620
  20822678.620          49.100          44.150
 110246034.445 8  85746859.685 6                  20645507.440    20645510.720
  20645508.060          48.150          37.000
 110595938.301 8  86019079.105 7                  20660247.700    20660249.400
  20660248.320          48.700          46.050
 127878906.721 7  99461354.324 6                  23905571.500    23905577.120
  23905575.520          43.950          38.100
 129916709.853 6 101046350.788 5                  24372042.160    24372053.440
  24372051.740          40.700          32.150
 127662675.642 6  99293215.252 6                  23890329.340    23890335.400
  23890332.980          41.950          37.850
 132526883.667 8                  98964917.640 7  25219014.780
                        49.700
 119849683.545 8                                  22806633.600
                        48.350
 15  1 27 19  3 55.0000000  0 21G22G18G13G17G15G24G12G25R18R05R16R17
                                R08R06R09R07R19R10R15E19E20
 127499217.902 7  99350050.91846                  24262288.600
  24262283.300          45.400          36.700
 120924425.658 8  94226841.08846                  23011140.080
  23011135.700          48.400          38.150
 119883414.209 8  93415713.16646                  22813030.900
  22813026.560          48.750          38.900
 122897883.616 7  95764649.912 7                  23386659.020    23386655.100
  23386654.580          47.600          43.600
 109092075.749 8  85006843.733 8                  20759511.900    20759508.400
  20759507.800          50.050          48.900
 108478700.426 8  84528944.406 8  81006922.446 8  20642777.400    20642775.800
  20642775.180          49.900          50.000
 109937373.444 8  85665594.203 7                  20920322.080    20920318.100
  20920317.340          50.150          47.300
 126599606.370 7  98649140.485 6  94538785.865 8  24091068.680    24091070.300
  24091069.520          44.700          41.900
 115901089.461 7  90145366.597 7                  21712161.840    21712166.060
  21712164.740          47.550          43.650
 131008573.949 7 101895507.782 5                  24507911.420    24507926.540
  24507925.780          43.100          35.350
 107774369.554 7  83824569.814 7                  20175571.160    20175573.620
  20175572.760          47.650          46.350
 121675520.572 7  94636533.190 6                  22737975.040    22737976.440
  22737975.520          44.850          41.950
 127536068.931 7  99194740.644 6                  23816461.040    23816462.840
  23816462.220          43.250          37.850
 111129850.465 8  86434385.330 7                  20825672.320    20825674.940
  20825675.000          49.050          44.100
 110238945.758 7  85741346.265 6                  20644179.960    20644183.180
  20644180.580          47.700          37.300
 110592552.121 8  86016445.407 7                  20659615.180    20659616.860
  20659615.740          48.700          46.250
 127858189.098 7  99445240.690 6                  23901698.520    23901704.280
  23901702.540          44.700          37.800
 129902828.710 6 101035554.373 5                  24369438.100    24369449.080
  24369447.420          40.550          33.100
 127677049.719 7  99304395.097 6                  23893019.280    23893025.240
  23893022.860          42.250          38.850
 132523971.818 8                  98962743.211 7  25218460.660
                        49.550
 119858809.072 8                                  22808370.160
                        48.250
 15  1 27 19  4  0.0000000  0 21G22G18G13G17G15G24G12G25R18R05R16R17
                                R08R06R09R07R19R10R15E19E20
 127493993.238 7  99345979.76046                  24261294.300
  24261289.100          44.800          37.350
 120927361.197 8  94229128.51746                  23011698.720
  23011694.320          48.000          38.950
 119899792.715 8  93428475.63646                  22816147.600
  22816143.320          48.650          38.900
 122903238.773 7  95768822.759 7                  23387677.980    23387674.160
  23387673.620          47.850          43.650
 109099922.576 8  85012958.143 8                  20761005.080    20761001.600
  20761001.000          50.000          48.900
 108474728.762 8  84525849.605 8  81003956.595 8  20642021.600    20642020.040
  20642019.380          50.000          50.100
 109927023.292 8  85657529.158 7                  20918352.500    20918348.520
  20918347.760          50.100          47.350
 126582596.112 7  98635885.769 7  94526083.443 8  24087831.720    24087833.340
  24087832.520          45.100          42.450
 115890645.497 7  90137243.521 7                  21710205.320    21710209.600
  21710208.260          47.750          43.650
 131030999.727 7 101912949.648 5                  24512107.000    24512122.100
  24512121.460          42.650          35.650
 107780358.277 7  83829227.710 7                  20176692.320    20176694.740
  20176693.900          47.900          46.350
 121682020.166 7  94641588.425 7                  22739189.680    22739191.040
  22739190.140          45.350          42.300
 127518008.324 7  99180693.530 6                  23813088.360    23813090.060
  23813089.460          43.300          37.750
 111145855.214 8  86446833.470 7                  20828671.640    20828674.220
  20828674.280          48.950          43.850
 110231865.013 8  85735839.026 6                  20642853.940    20642857.180
  20642854.580          48.000          37.200
 110589189.788 8  86013830.261 7                  20658987.100    20658988.720
  20658987.620          48.950          46.100
 127837471.290 7  99429126.889 6                  23897825.480    23897831.180
  23897829.460          44.550          37.350
 129888950.692 6 101024760.375 5                  24366834.580    24366845.580
  24366843.860          41.200          34.300
 127691423.766 6  99315574.912 6                  23895709.260    23895715.100
  23895712.780          41.500          38.550
 132521072.767 8                  98960578.336 7  25217909.000
                        49.600
 119867945.024 8                                  22810108.680
                        48.150
 15  1 27 19  4  5.0000000  0 21G22G18G13G17G15G24G12G25R18R05R16R17
                                R08R06R09R07R19R10R15E19E20
 127488782.161 7  99341919.18646                  24260302.620
  24260297.460          44.400          38.350
 120930310.013 8  94231426.29246                  23012259.860
  23012255.480          48.100          38.900
 119916178.743 8  93441243.96646                  22819265.740
  22819261.480          48.400          39.300
 122908608.387 7  95773006.878 7                  23388699.740    23388695.960
  23388695.420          47.850          43.750
 109107782.643 8  85019082.869 8                  20762500.800    20762497.320
  20762496.720          50.000          49.050
 108470763.946 8  84522760.142 8  81000995.867 8  20641267.100    20641265.560
  20641264.900          49.850          50.100
 109916685.486 8  85649473.731 7                  20916385.300    20916381.300
  20916380.520          50.000          47.600
 126565590.909 7  98622635.003 7  94513384.787 8  24084595.740    24084597.360
  24084596.540          45.050          43.000
 115880219.241 8  90129134.214 7                  21708252.100    21708256.440
  21708255.100          48.100          43.300
 131053422.711 7 101930389.350 5                  24516302.000    24516317.260
  24516316.540          42.250          35.800
 107786352.887 7  83833890.188 7                  20177814.540    20177816.940
  20177816.160          47.800          46.250
 121688540.076 7  94646659.483 6                  22740408.120    22740409.380
  22740408.560          45.800          41.850
 127499958.424 7  99166654.719 6                  23809717.660    23809719.440
  23809718.680          43.050          37.250
 111161874.741 8  86459293.098 7                  20831673.720    20831676.260
  20831676.320          48.950          43.950
 110224791.098 8  85730337.090 6                  20641529.200    20641532.380
  20641529.840          48.150          36.900
 110585850.182 8  86011232.785 7                  20658363.260    20658364.820
  20658363.740          48.750          46.050
 127816752.584 7  99413012.421 6                  23893952.300    23893957.900
  23893956.300          43.950          37.350
 129875074.749 6 101013968.008 5                  24364231.480    24364242.300
  24364240.760          41.400          33.650
 127705796.857 6  99326753.981 6                  23898399.020    23898404.780
  23898402.520          41.400          37.700
 132518185.527 8                  98958422.294 7  25217359.580
                        49.350
 119877090.397 8                                  22811849.020
                        48.250
 15  1 27 19  4 10.0000000  0 21G22G18G13G17G15G24G12G25R18R05R16R17
                                R08R06R09R07R19R10R15E19E20
 127483585.044 7  99337869.49346                  24259313.580
  24259308.480          44.800          37.600
 120933272.442 8  94233734.67246                  23012823.600
  23012819.220          48.250          38.800
 119932572.709 8  93454018.46646                  22822385.380
  22822381.160          48.700          38.500
 122913992.796 7  95777202.515 7                  23389724.280    23389720.540
  23389720.000          47.800          43.550
 109115656.357 8  85025218.226 8                  20763999.100    20763995.660
  20763995.060          49.950          48.950
 108466806.292 8  84519676.262 8  80998040.471 8  20640513.980    20640512.440
  20640511.820          49.950          50.050
 109906360.477 8  85641428.269 7                  20914420.500    20914416.500
  20914415.720          50.100          47.450
 126548591.106 7  98609388.438 7  94500690.164 8  24081360.820    24081362.420
  24081361.540          44.850          42.750
 115869811.061 8  90121038.956 7                  21706302.300    21706306.600
  21706305.360          48.450          44.150
 131075843.063 6 101947827.005 6                  24520496.500    24520511.940
  24520511.180          41.600          36.550
 107792354.027 7  83838557.731 7                  20178938.000    20178940.420
  20178939.620          47.550          46.300
 121695081.000 7  94651746.872 6                  22741630.420    22741631.760
  22741630.900          46.000          41.800
 127481919.622 7  99152624.527 6                  23806348.960    23806350.760
  23806349.920          42.800          36.350
 111177909.653 8  86471764.681 7                  20834678.660    20834681.200
  20834681.220          48.950          43.950
 110217724.526 8  85724840.873 6                  20640205.880    20640209.000
  20640206.480          48.050          37.050
 110582533.473 8  86008653.125 7                  20657743.700    20657745.220
  20657744.180          48.900          46.600
 127796033.244 7  99396897.444 6                  23890079.020    23890084.540
  23890082.980          43.550          37.900
 129861201.293 6 101003177.551 5                  24361628.840    24361639.600
  24361638.140          40.900          34.350
 127720169.227 6  99337932.480 6                  23901088.660    23901094.320
  23901092.100          41.400          37.350
 132515310.500 8                  98956275.352 7  25216812.500
                        49.550
 119886245.641 8                                  22813591.220
                        48.400
 15  1 27 19  4 15.0000000  0 21G22G18G13G17G15G24G12G25R18R05R16R17
                                R08R06R09R07R19R10R15E19E20
 127478401.064 7  99333830.02446                  24258327.080
  24258322.000          44.800          37.050
 120936247.638 7  94236053.00246                  23013389.760
  23013385.440          47.650          38.950
 119948973.691 8  93466798.45446                  22825506.340
  22825502.200          48.300          39.200
 122919391.155 7  95781409.041 7                  23390751.500    23390747.800
  23390747.300          47.300          43.600
 109123542.810 8  85031363.514 8                  20765499.820    20765496.420
  20765495.800          49.450          48.900
 108462854.955 8  84516597.304 8  80995089.800 8  20639762.040    20639760.540
  20639759.920          49.750          50.000
 109896047.396 8  85633392.104 7                  20912457.980    20912453.980
  20912453.160          49.750          47.350
 126531595.861 7  98596145.429 7  94487998.946 8  24078126.720    24078128.360
  24078127.480          44.350          42.650
 115859420.114 8  90112957.127 7                  21704355.740    21704360.060
  21704358.860          49.000          44.100
 131098260.013 7 101965262.044 6                  24524690.420    24524705.900
  24524705.220          42.300          36.300
 107798360.565 7  83843229.481 7                  20180062.420    20180064.860
  20180064.080          47.850          46.100
 121701641.822 7  94656849.734 6                  22742856.480    22742857.800
  22742856.940          46.550          41.950
 127463891.179 7  99138602.412 6                  23802982.180    23802984.120
  23802983.140          43.400          37.250
 111193958.866 8  86484247.400 7                  20837686.260    20837688.820
  20837688.780          49.350          43.900
 110210664.420 8  85719349.678 6                  20638883.740    20638886.920
  20638884.320          48.600          36.650
 110579239.076 8  86006090.815 7                  20657128.320    20657129.800
  20657128.780          49.200          46.550
 127775312.316 7  99380781.251 6                  23886205.460    23886210.960
  23886209.400          44.200          38.250
 129847329.509 6 100992388.447 5                  24359026.540    24359037.440
  24359035.840          40.050          34.150
 127734540.054 6  99349109.780 6                  23903778.060    23903783.680
  23903781.360          41.700          37.200
 132512446.813 8                  98954136.874 7  25216267.580
                        49.300
 119895409.850 8                                  22815335.160
                        48.000
 15  1 27 19  4 20.0000000  0 21G22G18G13G17G15G24G12G25R18R05R16R17
                                R08R06R09R07R19R10R15E19E20
 127473230.228 7  99329800.83645                  24257343.100
  24257338.020          45.050          34.650
 120939235.630 8  94238381.31046                  23013958.380
  23013954.020          48.050          38.550
 119965381.743 8  93479583.94146                  22828628.680
  22828624.540          49.050          38.500
 122924803.497 7  95785626.463 7                  23391781.420    23391777.720
  23391777.240          47.800          43.850
 109131442.100 8  85037518.799 8                  20767003.000    20766999.600
  20766998.980          49.900          49.050
 108458910.078 8  84513523.370 8  80992143.955 8  20639011.340    20639009.860
  20639009.240          50.150          50.150
 109885746.289 8  85625365.269 7                  20910497.740    20910493.740
  20910492.900          50.150          47.400
 126514605.289 7  98582906.044 7  94475311.198 8  24074893.540    24074895.200
  24074894.340          44.950          42.600
 115849046.422 8  90104888.704 7                  21702412.420    21702416.740
  21702415.620          49.050          44.300
 131120673.608 7 101982694.468 6                  24528883.620    24528899.440
  24528898.620          42.850          36.750
 107804372.640 7  83847905.541 7                  20181187.860    20181190.320
  20181189.560          47.650          46.100
 121708222.570 7  94661968.085 6                  22744086.260    22744087.540
  22744086.720          46.500          41.650
 127445873.023 7  99124588.299 6                  23799617.340    23799619.280
  23799618.380          43.100          37.100
 111210022.427 8  86496741.267 7                  20840696.520    20840699.180
  20840699.040          49.250          43.900
 110203610.786 8  85713863.537 6                  20637562.820    20637565.940
  20637563.380          48.850          36.850
 110575966.914 8  86003545.812 7                  20656517.080    20656518.540
  20656517.540          49.150          46.550
 127754590.034 7  99364663.969 6                  23882331.660    23882337.060
  23882335.520          43.750          37.650
 129833459.435 6 100981600.604 5                  24356424.460    24356435.280
  24356433.780          39.550          33.800
 127748909.410 6  99360285.942 6                  23906467.040    23906472.620
  23906470.360          41.500          37.550
 132509594.542 8                  98952006.942 7  25215724.840
                        49.850
 119904583.048 8                                  22817080.800
                        48.700
 15  1 27 19  4 25.0000000  0 21G22G18G13G17G15G24G12G25R18R05R16R17
                                R08R06R09R07R19R10R15E19E20
 127468072.768 7  99325782.02846                  24256361.660
  24256356.580          45.100          37.100
 120942236.589 7  94240719.70746                  23014529.420
  23014525.100          47.850          39.350
 119981797.071 8  93492375.10146                  22831752.380
  22831748.320          48.850          40.050
 122930229.960 7  95789854.869 7                  23392814.040    23392810.340
  23392809.840          47.700          44.700
 109139354.397 8  85043684.219 8                  20768508.660    20768505.260
  20768504.640          50.000          49.450
 108454971.810 8  84510454.578 8  80989203.035 8  20638261.920    20638260.420
  20638259.820          50.050          50.500
 109875457.352 8  85617347.916 7                  20908539.820    20908535.820
  20908534.960          50.200          47.950
 126497619.524 7  98569670.402 7  94462627.049 8  24071661.240    24071662.880
  24071661.960          44.950          43.300
 115838690.261 8  90096833.910 7                  21700472.420    21700476.700
  21700475.640          48.700          44.850
 131143083.867 6 102000124.298 5                  24533076.220    24533092.100
  24533091.320          41.350          35.200
 107810390.556 7  83852586.132 7                  20182314.380    20182316.880
  20182316.140          47.350          46.150
 121714823.535 7  94667102.154 6                  22745319.780    22745321.140
  22745320.260          46.250          41.800
 127427865.470 7  99110582.447 6                  23796254.480    23796256.460
  23796255.600          42.650          37.900
 111226100.426 8  86509246.362 7                  20843709.540    20843712.160
  20843712.040          49.150          44.250
 110196563.827 8  85708382.565 6                  20636243.160    20636246.240
  20636243.720          48.700          37.250
 110572717.287 8  86001018.316 7                  20655910.060    20655911.500
  20655910.520          49.100          46.750
 127733866.540 7  99348545.754 6                  23878457.520    23878463.020
  23878461.460          43.750          39.600
 129819591.211 6 100970814.212 5                  24353822.800    24353833.340
  24353832.120          40.000          34.450
 127763277.323 6  99371460.981 6                  23909155.780    23909161.340
  23909159.140          41.600          38.250
 132506753.862 8                  98949885.655 7  25215184.300
                        49.650
 119913765.439 8                                  22818828.180
                        48.500
 15  1 27 19  4 30.0000000  0 21G22G18G13G17G15G24G12G25R18R05R16R17
                                R08R06R09R07R19R10R15E19E20
 127462929.772 7  99321774.50746                  24255382.980
  24255377.960          44.950          38.800
 120945251.647 7  94243069.10546                  23015103.180
  23015098.860          47.650          39.400
 119998220.770 8  93505172.78246                  22834877.680
  22834873.680          48.700          39.650
 122935671.694 8  95794095.187 7                  23393849.580    23393845.860
  23393845.400          48.000          44.650
 109147280.766 8  85049860.619 8                  20770016.980    20770013.600
  20770012.980          50.100          49.300
 108451041.301 8  84507391.845 8  80986267.913 8  20637513.960    20637512.480
  20637511.880          50.000          50.350
 109865181.735 8  85609340.950 7                  20906584.400    20906580.440
  20906579.580          50.150          47.900
 126480639.677 7  98556439.395 7  94449947.336 8  24068430.060    24068431.680
  24068430.780          45.650          43.300
 115828352.697 8  90088793.601 7                  21698535.900    21698540.180
  21698539.160          48.450          44.900
 131165492.114 6 102017552.597 5                  24537268.360    24537284.240
  24537283.680          41.000          35.600
 107816415.248 7  83857272.008 7                  20183442.180    20183444.720
  20183443.960          47.500          46.300
 121721445.770 7  94672252.774 7                  22746557.280    22746558.660
  22746557.780          46.000          42.100
 127409869.578 7  99096585.650 6                  23792893.800    23792895.780
  23792894.960          42.700          37.850
 111242194.214 8  86521763.764 7                  20846725.520    20846728.120
  20846727.980          49.050          44.000
 110189524.619 8  85702907.636 6                  20634924.940    20634928.060
  20634925.460          48.750          37.400
 110569491.131 8  85998509.094 7                  20655307.420    20655308.820
  20655307.860          49.050          46.450
 127713142.942 7  99332427.477 6                  23874583.420    23874588.840
  23874587.380          44.900          39.100
 129805725.965 6 100960030.149 5                  24351221.660    24351232.260
  24351231.040          41.700          33.600
 127777644.856 6  99382635.760 6                  23911844.500    23911849.980
  23911847.800          41.600          37.800
 132503925.878 8                  98947773.850 7  25214646.200
                        49.700
 119922958.120 8                                  22820577.540
                        48.400
 15  1 27 19  4 35.0000000  0 21G22G18G13G17G15G24G12G25R18R05R16R17
                                R08R06R09R07R19R10R15E19E20
 127457798.485 7  99317776.11746                  24254406.540
  24254401.500          45.050          37.850
 120948278.054 7  94245427.34246                  23015679.080
  23015674.740          47.750          38.850
 120014650.057 8  93517974.81346                  22838004.060
  22838000.100          48.800          39.300
 122941125.979 8  95798345.282 7                  23394887.580    23394883.760
  23394883.320          48.350          44.400
 109155218.500 8  85056045.868 8                  20771527.500    20771524.100
  20771523.460          50.150          49.150
 108447115.790 8  84504332.999 8  80983336.518 8  20636766.960    20636765.480
  20636764.880          50.000          50.250
 109854916.612 8  85601342.159 7                  20904631.020    20904627.040
  20904626.200          50.150          47.800
 126463663.027 7  98543210.859 7  94437269.991 8  24065199.480    24065201.140
  24065200.160          45.950          42.950
 115818031.012 8  90080765.628 7                  21696602.360    21696606.580
  21696605.640          49.050          44.750
 131187895.347 6 102034976.985 5                  24541459.740    24541475.560
  24541475.100          40.300          34.550
 107822444.061 7  83861961.087 7                  20184570.740    20184573.320
  20184572.560          47.500          46.150
 121728086.449 7  94677417.767 7                  22747798.240    22747799.600
  22747798.760          46.050          42.100
 127391882.754 7  99082595.915 6                  23789534.780    23789536.840
  23789536.040          42.400          37.250
 111258300.834 8  86534291.132 7                  20849743.900    20849746.440
  20849746.340          48.850          43.850
 110182490.418 8  85697436.590 6                  20633607.680    20633610.780
  20633608.200          48.750          37.100
 110566285.858 8  85996016.104 7                  20654708.680    20654710.040
  20654709.100          49.000          46.400
 127692416.533 7  99316306.968 6                  23870708.800    23870714.200
  23870712.700          44.000          38.350
 129791860.966 7 100949246.292 5                  24348620.620    24348631.180
  24348630.000          42.400          33.450
 127792009.397 6  99393808.187 6                  23914532.620    23914538.180
  23914535.960          41.150          38.650
 132501107.855 8                  98945669.476 7  25214109.980
                        49.650
 119932158.331 8                                  22822328.320
                        48.300
 15  1 27 19  4 40.0000000  0 21G22G18G13G17G15G24G12G25R18R05R16R17
                                R08R06R09R07R19R10R15E19E20
 127452682.705 7  99313789.79446                  24253433.040
  24253428.040          45.300          37.300
 120951319.561 7  94247797.33946                  23016257.840
  23016253.540          47.450          38.500
 120031088.707 8  93530784.14846                  22841132.240
  22841128.300          48.800          39.600
 122946596.571 8  95802608.085 7                  23395928.640    23395924.800
  23395924.360          48.800          44.350
 109163171.345 8  85062242.888 8                  20773040.880    20773037.480
  20773036.840          50.050          49.100
 108443198.910 8  84501280.891 8  80980411.577 8  20636021.620    20636020.120
  20636019.520          49.850          50.200
 109844665.769 8  85593354.497 7                  20902680.340    20902676.380
  20902675.540          50.100          47.750
 126446693.349 7  98529987.766 7  94424597.864 8  24061970.260    24061971.860
  24061970.900          45.700          42.700
 115807729.048 8  90072752.989 7                  21694672.480    21694676.700
  21694675.760          48.350          44.450
 131210297.559 6 102052400.561 5                  24545650.820    24545666.620
  24545666.280          39.800          34.550
 107828480.756 7  83866656.296 7                  20185700.800    20185703.400
  20185702.580          47.200          46.050
 121734749.458 7  94682600.119 7                  22749043.380    22749044.660
  22749043.880          45.850          42.000
 127373908.694 6  99068616.084 6                  23786178.140    23786180.320
  23786179.500          41.650          37.800
 111274423.945 8  86546831.330 7                  20852765.360    20852767.940
  20852767.780          48.400          43.750
 110175465.059 8  85691972.430 6                  20632292.060    20632295.140
  20632292.540          48.100          37.000
 110563105.153 8  85993542.218 7                  20654114.540    20654115.860
  20654114.940          48.600          46.450
 127671691.081 7  99300187.220 6                  23866834.300    23866839.780
  23866838.180          42.850          37.950
 129778000.005 6 100938465.599 5                  24346020.380    24346031.000
  24346029.540          41.700          31.500
 127806374.753 6  99404981.229 6                  23917220.800    23917226.480
  23917224.280          39.600          38.400
 132498303.550 8                  98943575.360 7  25213576.360
                        49.750
 119941369.809 8                                  22824081.240
                        48.350
 15  1 27 19  4 45.0000000  0 21G22G18G13G17G15G24G12G25R18R05R16R17
                                R08R06R09R07R19R10R15E19E20
 127447578.742 7  99309812.70246                  24252461.820
  24252456.840          45.400          38.000
 120954372.429 7  94250176.19146                  23016838.760
  23016834.460          47.450          38.350
 120047532.977 8  93543597.86046                  22844261.480
  22844257.580          48.800          40.100
 122952079.725 8  95806880.672 7                  23396972.120    23396968.200
  23396967.820          48.900          44.350
 109171135.553 8  85068448.765 8                  20774556.400    20774553.000
  20774552.360          49.900          49.100
 108439287.087 8  84498232.718 8  80977490.407 8  20635277.220    20635275.720
  20635275.120          49.700          50.200
 109834425.542 8  85585375.101 7                  20900731.680    20900727.720
  20900726.900          50.100          47.800
 126429726.909 7  98516767.199 7  94411928.158 8  24058741.620    24058743.240
  24058742.300          45.600          42.750
 115797443.034 8  90064752.758 7                  21692745.600    21692749.780
  21692748.840          48.250          44.250
 131232694.861 6 102069820.365 5                  24549841.000    24549856.920
  24549856.560          39.700          33.900
 107834521.608 7  83871354.736 7                  20186831.640    20186834.220
  20186833.400          47.250          45.950
 121741431.110 7  94687796.962 6                  22750292.080    22750293.260
  22750292.460          45.850          41.500
 127355943.597 6  99054643.235 6                  23782823.240    23782825.420
  23782824.620          41.350          37.400
 111290559.846 8  86559381.471 7                  20855789.180    20855791.760
  20855791.640          48.700          43.750
 110168444.741 8  85686512.187 6                  20630977.400    20630980.420
  20630977.820          48.050          36.950
 110559945.322 8  85991084.575 7                  20653524.280    20653525.560
  20653524.660          48.800          46.550
 127650962.904 6  99284065.377 6                  23862959.280    23862964.800
  23862963.200          41.700          37.500
 129764139.294 6 100927685.055 5                  24343420.160    24343430.640
  24343429.080          41.400          32.050
 127820737.261 6  99416152.031 6                  23919908.400    23919914.240
  23919912.040          40.200          38.350
 132495509.266 8                  98941488.714 7  25213044.660
                        49.800
 119950588.881 8                                  22825835.620
                        48.300
 15  1 27 19  4 50.0000000  0 21G22G18G13G17G15G24G12G25R18R05R16R17
                                R08R06R09R07R19R10R15E19E20
 127442489.101 7  99305846.75645                  24251493.340
  24251488.400          46.400          35.900
 120957439.176 7  94252565.86846                  23017422.300
  23017418.000          47.950          38.350
 120063985.413 8  93556417.94546                  22847392.280
  22847388.420          49.250          39.200
 122957577.982 8  95811165.036 7                  23398018.460    23398014.560
  23398014.120          49.350          44.200
 109179113.675 8  85074665.482 8                  20776074.580    20776071.200
  20776070.540          50.300          49.000
 108435382.796 8  84495190.425 8  80974574.877 8  20634534.260    20634532.760
  20634532.180          50.050          50.200
 109824198.417 8  85577405.922 7                  20898785.520    20898781.580
  20898780.740          50.350          47.850
 126412766.251 7  98503551.146 7  94399262.780 8  24055514.140    24055515.700
  24055514.720          46.400          42.000
 115787175.557 8  90056766.959 7                  21690822.180    21690826.320
  21690825.380          48.800          44.100
 131255089.906 6 102087238.430 5                  24554030.760    24554046.680
  24554046.440          38.800          33.550
 107840569.075 7  83876058.332 7                  20187963.740    20187966.320
  20187965.460          47.600          45.850
 121748133.804 7  94693010.175 6                  22751544.660    22751545.780
  22751544.980          45.900          41.700
 127337990.167 6  99040679.496 6                  23779470.500    23779472.780
  23779471.940          41.300          37.550
 111306711.191 8  86571943.624 7                  20858815.940    20858818.500
  20858818.400          49.450          43.700
 110161431.982 8  85681057.827 6                  20629664.140    20629667.080
  20629664.560          48.050          36.750
 110556808.956 8  85988645.182 7                  20652938.400    20652939.660
  20652938.800          48.850          46.650
 127630234.553 7  99267943.408 6                  23859084.200    23859089.860
  23859088.200          43.150          37.000
 129750281.422 7 100916906.729 5                  24340820.500    24340830.860
  24340829.280          43.250          32.150
 127835099.360 7  99427322.544 6                  23922596.080    23922602.040
  23922599.760          42.750          38.100
 132492727.510 8                  98939411.449 7  25212515.360
                        50.250
 119959818.045 8                                  22827591.900
                        48.900
 15  1 27 19  4 55.0000000  0 21G22G18G13G17G15G24G12G25R18R05R16R17
                                R08R06R09R07R19R10R15E19E20
 127437412.050 7  99301890.60746                  24250527.300
  24250522.340          46.750          36.550
 120960518.067 7  94254964.99246                  23018008.160
  23018003.860          47.800          38.500
 120080444.323 8  93569243.05346                  22850524.300
  22850520.480          49.250          39.050
 122963089.584 8  95815459.793 7                  23399067.320    23399063.360
  23399062.940          49.000          44.200
 109187104.009 8  85080891.707 8                  20777595.100    20777591.680
  20777591.040          50.200          48.950
 108431484.300 8  84492152.638 8  80971663.669 8  20633792.400    20633790.900
  20633790.320          50.050          50.200
 109813982.684 8  85569445.614 7                  20896841.520    20896837.580
  20896836.780          50.150          47.950
 126395809.710 7  98490338.280 6  94386600.461 8  24052287.420    24052288.880
  24052287.860          46.200          41.950
 115776924.852 8  90048794.189 7                  21688901.900    21688906.000
  21688905.060          48.600          44.150
 131277480.786 6 102104653.251 5                  24558219.720    24558235.520
  24558235.480          40.400          34.550
 107846621.491 7  83880765.761 7                  20189096.760    20189099.340
  20189098.420          47.550          45.800
 121754855.764 7  94698238.373 6                  22752800.820    22752801.960
  22752801.120          45.850          41.650
 127320046.614 6  99026723.386 6                  23776119.660    23776121.980
  23776121.120          41.650          37.500
 111322876.089 8  86584516.319 7                  20861845.260    20861847.820
  20861847.720          49.250          44.000
 110154425.145 8  85675608.059 6                  20628351.960    20628354.980
  20628352.400          48.200          37.050
 110553694.382 8  85986222.727 7                  20652356.600    20652357.840
  20652356.960          48.700          46.650
 127609504.373 7  99251819.967 6                  23855208.940    23855214.420
  23855212.740          44.500          38.050
 129736424.601 7 100906129.221 5                  24338221.000    24338231.220
  24338229.820          43.450          32.900
 127849459.279 7  99438491.374 6                  23925283.480    23925289.380
  23925287.020          42.550          38.100
 132489956.614 8                  98937342.261 7  25211988.120
                        50.150
 119969055.591 8                                  22829349.760
                        48.700
 15  1 27 19  5  0.0000000  0 21G22G18G13G17G15G24G12G25R18R05R16R17
                                R08R06R09R07R19R10R15E19E20
 127432349.483 7  99297945.75145                  24249564.000
  24249559.100          46.150          35.100
 120963610.986 7  94257375.05346                  23018596.680
  23018592.380          47.600          38.200
 120096911.494 8  93582074.61146                  22853657.920
  22853654.140          49.150          39.100
 122968616.399 8  95819766.399 7                  23400119.080    23400115.100
  23400114.660          48.700          44.050
 109195108.360 8  85087128.864 8                  20779118.260    20779114.840
  20779114.200          50.050          48.850
 108427593.485 8  84489120.834 8  80968758.182 8  20633052.000    20633050.520
  20633049.920          49.900          50.150
 109803780.214 8  85561495.643 7                  20894900.020    20894896.120
  20894895.320          50.200          47.750
 126378859.120 7  98477130.056 6  94373942.567 8  24049061.840    24049063.240
  24049062.240          45.550          41.900
 115766692.910 8  90040836.018 7                  21686985.160    21686989.160
  21686988.260          48.600          44.050
 131299869.585 6 102122066.487 5                  24562408.340    24562424.200
  24562424.180          40.150          35.150
 107852680.718 7  83885478.493 7                  20190231.080    20190233.600
  20190232.640          47.600          45.750
 121761598.999 7  94703483.106 6                  22754060.920    22754062.060
  22754061.260          45.450          41.750
 127302114.866 6  99012776.469 6                  23772771.020    23772773.380
  23772772.500          40.800          38.000
 111339056.415 8  86597101.008 7                  20864877.520    20864879.940
  20864879.940          49.000          44.450
 110147426.032 8  85670164.308 6                  20627041.220    20627044.280
  20627041.700          48.100          37.400
 110550603.298 8  85983818.557 7                  20651779.160    20651780.380
  20651779.520          48.550          46.650
 127588774.243 7  99235696.589 6                  23851333.640    23851339.060
  23851337.340          44.600          37.850
 129722570.756 7 100895354.013 5                  24335622.120    24335632.380
  24335631.040          43.100          32.650
 127863818.850 6  99449659.932 6                  23927970.860    23927976.440
  23927974.120          41.750          37.850
 132487198.385 8                  98935282.543 7  25211463.280
                        50.050
 119978303.318 8                                  22831109.560
                        48.450
 15  1 27 19  5  5.0000000  0 21G22G18G13G17G15G24G12G25R18R05R16R17
                                R08R06R09R07R19R10R15E19E20
 127427299.846 7  99294010.97346                  24248603.140
  24248598.260          46.150          36.100
 120966716.376 7  94259794.82946                  23019187.580
  23019183.320          47.650          37.350
 120113385.445 8  93594911.44746                  22856792.820
  22856789.060          49.050          38.350
 122974156.914 8  95824083.689 7                  23401173.440    23401169.460
  23401168.980          48.850          43.950
 109203125.251 8  85093375.797 8                  20780643.820    20780640.400
  20780639.740          50.050          48.650
 108423708.748 8  84486093.764 8  80965857.239 8  20632312.740    20632311.260
  20632310.680          49.950          50.000
 109793589.528 8  85553554.851 7                  20892960.800    20892956.900
  20892956.120          50.200          47.650
 126361912.929 7  98463925.263 6  94361287.987 8  24045837.120    24045838.420
  24045837.420          45.550          40.950
 115756478.058 8  90032891.141 7                  21685071.620    21685075.600
  21685074.640          48.650          44.200
 131322254.504 6 102139476.693 5                  24566596.100    24566612.000
  24566612.100          39.300          34.750
 107858745.193 7  83890195.321 7                  20191366.380    20191368.900
  20191367.860          47.600          45.950
 121768361.960 7  94708743.173 7                  22755324.720    22755325.860
  22755325.100          45.700          42.100
 127284193.404 6  98998837.563 6                  23769424.260    23769426.660
  23769425.800          40.700          38.850
 111355250.679 8  86609696.532 7                  20867912.380    20867914.740
  20867914.780          48.950          44.250
 110140433.116 7  85664725.378 6                  20625731.680    20625734.740
  20625732.100          47.900          36.900
 110547534.193 8  85981431.482 7                  20651205.840    20651207.040
  20651206.180          48.450          46.600
 127568042.603 7  99219572.017 6                  23847458.100    23847463.380
  23847461.660          44.300          38.350
 129708718.319 6 100884579.909 5                  24333023.400    24333033.680
  24333032.380          41.900          32.700
 127878176.714 6  99460827.186 6                  23930657.840    23930663.340
  23930660.920          41.350          37.600
 132484451.334 8                  98933231.175 8  25210940.560
                        50.000
 119987559.758 8                                  22832871.000
                        48.450
 15  1 27 19  5 10.0000000  0 21G22G18G13G17G15G24G12G25R18R05R16R17
                                R08R06R09R07R19R10R15E19E20
 127422265.517 7  99290088.11745                  24247645.220
  24247640.300          45.600          35.600
 120969836.621 7  94262226.18746                  23019781.320
  23019777.040          47.350          37.600
 120129868.494 8  93607755.37846                  22859929.440
  22859925.740          49.100          38.800
 122979713.473 8  95828413.480 7                  23402230.840    23402226.880
  23402226.380          48.850          43.750
 109211157.005 8  85099634.307 8                  20782172.200    20782168.780
  20782168.100          50.000          48.550
 108419832.620 8  84483073.401 8  80962962.733 8  20631575.120    20631573.660
  20631573.080          49.850          50.000
 109783413.070 8  85545625.144 7                  20891024.280    20891020.380
  20891019.620          50.050          47.450
 126344973.569 7  98450725.780 6  94348638.488 8  24042613.680    24042614.940
  24042613.860          45.400          41.150
 115746282.823 8  90024961.525 7                  21683161.760    21683165.660
  21683164.700          48.950          44.200
 131344638.036 6 102156885.849 5                  24570783.580    24570799.700
  24570799.780          38.100          34.050
 107864817.342 7  83894918.093 7                  20192503.120    20192505.620
  20192504.540          47.850          45.900
 121775146.856 7  94714020.316 7                  22756592.620    22756593.860
  22756593.040          46.000          42.400
 127266284.618 6  98984908.532 6                  23766079.860    23766082.460
  23766081.500          40.800          38.600
 111371461.186 8  86622304.708 7                  20870950.300    20870952.580
  20870952.640          48.800          44.100
 110133448.853 7  85659293.176 6                  20624423.760    20624426.880
  20624424.180          47.950          36.900
 110544489.694 8  85979063.536 7                  20650637.140    20650638.260
  20650637.420          48.700          46.650
 127547311.794 6  99203448.107 6                  23843582.640    23843587.900
  23843586.140          41.950          38.650
 129694869.805 6 100873808.843 5                  24330425.420    24330435.600
  24330434.340          41.250          30.600
 127892535.137 6  99471994.836 6                  23933344.840    23933350.320
  23933347.920          41.500          38.300
 132481717.806 8                  98931189.911 7  25210420.440
                        49.900
 119996827.258 8                                  22834634.540
                        48.350
 15  1 27 19  5 15.0000000  0 21G22G18G13G17G15G24G12G25R18R05R16R17
                                R08R06R09R07R19R10R15E19E20
 127417244.315 7  99286175.50846                  24246689.780
  24246684.800          45.750          36.000
 120972969.516 7  94264667.40646                  23020377.460
  23020373.180          47.400          38.250
 120146358.475 8  93620604.71146                  22863067.400
  22863063.660          49.150          38.750
 122985283.942 8  95832754.111 7                  23403290.880    23403286.940
  23403286.400          48.700          44.200
 109219201.450 8  85105902.702 8                  20783702.980    20783699.560
  20783698.880          49.950          48.750
 108415962.820 8  84480057.972 8  80960072.949 8  20630838.720    20630837.260
  20630836.680          49.900          50.100
 109773248.473 8  85537704.681 7                  20889090.020    20889086.140
  20889085.360          49.950          47.750
 126328038.854 7  98437529.917 6  94335992.457 8  24039391.080    24039392.300
  24039391.280          45.400          41.300
 115736104.977 8  90017045.420 7                  21681255.160    21681258.980
  21681258.000          48.950          44.050
 131367018.013 6 102174292.241 5                  24574970.440    24574986.520
  24574986.780          38.150          34.000
 107870894.940 7  83899645.124 7                  20193640.880    20193643.340
  20193642.260          47.800          46.050
 121781951.624 7  94719312.895 7                  22757864.260    22757865.480
  22757864.660          45.700          42.100
 127248386.309 6  98970987.646 6                  23762737.400    23762740.040
  23762739.100          41.100          37.750
 111387685.668 8  86634923.752 7                  20873990.800    20873993.040
  20873993.140          48.350          43.850
 110126470.927 7  85653865.910 6                  20623117.040    20623120.000
  20623117.440          47.800          36.900
 110541467.389 8  85976712.852 7                  20650072.560    20650073.680
  20650072.840          48.650          46.450
 127526579.819 6  99187323.314 6                  23839706.980    23839712.220
  23839710.460          41.750          38.400
 129681022.820 6 100863038.993 5                  24327827.720    24327837.900
  24327836.500          41.500          30.550
 127906891.830 6  99483161.143 6                  23936031.520    23936037.020
  23936034.660          40.900          38.500
 132478995.659 8                  98929157.128 7  25209902.440
                        49.850
 120006103.614 8                                  22836399.780
                        48.350
 15  1 27 19  5 20.0000000  0 21G22G18G13G17G15G24G12G25R18R05R16R17
                                R08R06R09R07R19R10R15E19E20
 127412235.057 7  99282272.20545                  24245736.580
  24245731.540          46.050          35.650
 120976113.893 7  94267117.57546                  23020975.780
  23020971.500          47.400          38.200
 120162854.197 8  93633458.51446                  22866206.440
  22866202.680          49.100          39.000
 122990867.070 8  95837104.605 7                  23404353.320    23404349.380
  23404348.840          48.350          44.250
 109227257.367 8  85112180.040 8                  20785235.960    20785232.540
  20785231.860          50.050          48.900
 108412098.293 8  84477046.655 8  80957187.103 8  20630103.320    20630101.860
  20630101.280          49.750          50.200
 109763094.591 8  85529792.573 7                  20887157.760    20887153.940
  20887153.160          49.800          47.950
 126311107.527 7  98424336.703 7  94323348.980 8  24036169.180    24036170.360
  24036169.280          45.450          42.200
 115725943.391 8  90009141.977 7                  21679351.600    21679355.340
  21679354.340          49.000          43.850
 131389393.093 6 102191694.818 5                  24579156.380    24579172.660
  24579172.860          40.000          34.650
 107876976.720 7  83904375.404 7                  20194779.400    20194781.820
  20194780.780          47.500          46.200
 121788774.944 7  94724619.930 6                  22759139.380    22759140.540
  22759139.740          45.450          41.750
 127230497.282 6  98957073.956 6                  23759396.660    23759399.300
  23759398.420          41.500          38.550
 111403923.040 8  86647552.807 7                  20877033.660    20877035.900
  20877036.040          48.750          43.900
 110119498.270 7  85648442.729 6                  20621811.260    20621814.220
  20621811.680          47.650          37.000
 110538465.964 8  85974378.412 7                  20649511.900    20649513.000
  20649512.140          48.750          46.350
 127505845.174 7  99171196.448 6                  23835830.780    23835836.100
  23835834.300          42.100          38.550
 129667176.255 7 100852269.477 5                  24325230.040    24325240.320
  24325238.720          42.900          30.350
 127921245.799 6  99494325.316 6                  23938717.660    23938723.060
  23938720.860          40.700          37.350
 132476283.656 8                  98927131.941 7  25209386.400
                        49.950
 120015387.622 8                                  22838166.480
                        48.600
 15  1 27 19  5 25.0000000  0 21G22G18G13G17G15G24G12G25R18R05R16R17
                                R08R06R09R07R19R10R15E19E20
 127407240.464 7  99278380.31245                  24244786.180
  24244781.020          45.850          34.700
 120979272.390 7  94269578.74246                  23021576.760
  23021572.500          47.050          38.500
 120179358.340 8  93646318.88246                  22869347.080
  22869343.340          48.850          39.350
 122996465.578 8  95841467.078 7                  23405418.680    23405414.720
  23405414.200          48.300          44.400
 109235327.496 8  85118468.446 8                  20786771.660    20786768.220
  20786767.520          50.150          48.850
 108408241.512 8  84474041.377 8  80954307.047 8  20629369.380    20629367.940
  20629367.360          49.550          50.200
 109752954.199 8  85521890.977 7                  20885228.080    20885224.280
  20885223.540          49.750          47.950
 126294182.371 7  98411148.301 7  94310710.108 8  24032948.460    24032949.600
  24032948.460          45.600          42.550
 115715800.712 7  90001253.233 7                  21677451.560    21677455.260
  21677454.200          47.450          43.450
 131411766.094 6 102209095.806 5                  24583341.900    24583358.340
  24583358.540          37.850          35.300
 107883065.516 7  83909111.141 7                  20195919.240    20195921.600
  20195920.640          46.650          46.150
 121795619.712 7  94729943.667 7                  22760418.400    22760419.680
  22760418.820          43.850          42.050
 127212620.406 6  98943169.749 6                  23756058.260    23756060.960
  23756060.020          40.800          38.600
 111420176.111 7  86660194.087 7                  20880079.500    20880081.740
  20880081.880          47.900          43.650
 110112533.467 7  85643025.653 6                  20620507.000    20620509.920
  20620507.420          46.900          36.850
 110535488.458 7  85972062.573 7                  20648955.680    20648956.740
  20648955.920          47.700          46.400
 127485110.985 7  99155069.935 6                  23831954.620    23831959.960
  23831958.260          42.750          37.500
 129653332.834 7 100841502.393 5                  24322633.080    24322643.260
  24322641.680          42.400          32.900
 127935599.762 6  99505489.538 6                  23941403.780    23941409.100
  23941407.060          38.250          37.150
 132473584.538 8                  98925116.368 7  25208872.800
                        49.900
 120024682.012 8                                  22839935.160
                        48.400
 15  1 27 19  5 30.0000000  0 21G22G18G13G17G15G24G12G25R18R05R16R17
                                R08R06R09R07R19R10R15E19E20
 127402259.920 7  99274499.37545                  24243838.440
  24243833.220          45.550          35.750
 120982444.460 7  94272050.47746                  23022180.360
  23022176.080          47.300          37.050
 120195870.313 8  93659185.34646                  22872489.220
  22872485.500          48.750          39.000
 123002078.838 7  95845841.039 7                  23406486.840    23406482.920
  23406482.360          47.900          44.300
 109243411.199 8  85124767.433 8                  20788309.920    20788306.480
  20788305.780          50.100          48.800
 108404392.149 8  84471041.875 8  80951432.524 8  20628636.860    20628635.440
  20628634.860          49.400          50.150
 109742826.613 8  85513999.358 7                  20883300.860    20883297.060
  20883296.320          50.050          47.800
 126277262.799 7  98397964.244 7  94298075.389 8  24029728.800    24029729.860
  24029728.760          45.450          42.550
 115705676.423 7  89993378.788 7                  21675554.940    21675558.600
  21675557.500          47.400          43.650
 131434136.261 6 102226494.609 5                  24587526.820    24587543.560
  24587543.580          37.050          33.900
 107889160.672 7  83913851.816 7                  20197060.240    20197062.620
  20197061.680          46.700          46.100
 121802485.211 7  94735283.512 7                  22761701.340    22761702.640
  22761701.800          43.900          42.250
 127194754.926 6  98929274.389 6                  23752721.900    23752724.640
  23752723.660          40.850          38.000
 111436443.977 7  86672846.869 7                  20883128.140    20883130.340
  20883130.460          47.900          43.600
 110105576.037 7  85637614.323 6                  20619204.060    20619207.060
  20619204.520          47.200          37.350
 110532534.119 7  85969764.759 7                  20648403.800    20648404.820
  20648404.000          47.800          46.450
 127464376.378 7  99138943.054 6                  23828078.460    23828083.820
  23828082.100          43.400          37.250
 129639491.878 7 100830737.255 5                  24320036.580    24320046.680
  24320045.260          42.200          32.150
 127949953.089 6  99516653.258 6                  23944089.800    23944095.180
  23944093.120          38.650          37.900
 132470897.699 8                  98923109.964 7  25208361.540
                        49.750
 120033986.165 8                                  22841705.700
                        48.350
 15  1 27 19  5 35.0000000  0 21G22G18G13G17G15G24G12G25R18R05R16R17
                                R08R06R09R07R19R10R15E19E20
 127397290.724 7  99270627.26845                  24242892.820
  24242887.480          45.100          35.750
 120985627.388 7  94274530.66446                  23022785.980
  23022781.760          47.100          38.400
 120212387.417 8  93672055.81346                  22875632.320
  22875628.540          48.700          39.950
 123007704.223 7  95850224.455 7                  23407557.260    23407553.420
  23407552.860          47.850          44.150
 109251505.811 8  85131074.923 8                  20789850.280    20789846.820
  20789846.140          50.100          48.800
 108400547.386 8  84468045.958 8  80948561.433 8  20627905.220    20627903.800
  20627903.240          49.650          50.100
 109732709.222 8  85506115.677 7                  20881375.560    20881371.800
  20881371.060          50.150          47.900
 126260346.110 7  98384782.424 7  94285442.833 8  24026509.680    24026510.700
  24026509.640          45.450          42.600
 115695567.810 7  89985516.533 7                  21673661.260    21673664.920
  21673663.760          47.550          43.600
 131456501.019 6 102243889.221 5                  24591710.880    24591727.700
  24591727.660          36.800          34.650
 107895259.485 7  83918595.332 7                  20198201.900    20198204.320
  20198203.400          46.800          46.300
 121809368.796 7  94740637.422 6                  22762987.640    22762989.020
  22762988.180          44.050          41.850
 127176898.211 6  98915385.840 6                  23749387.160    23749389.960
  23749388.980          40.750          38.150
 111452724.055 8  86685509.145 7                  20886179.040    20886181.180
  20886181.340          48.150          43.800
 110098623.166 7  85632206.538 6                  20617901.960    20617905.060
  20617902.480          47.300          37.200
 110529600.292 8  85967482.892 7                  20647855.720    20647856.760
  20647855.920          48.150          46.600
 127443638.882 7  99122813.922 6                  23824201.740    23824207.040
  23824205.340          43.200          37.000
 129625650.761 6 100819971.960 5                  24317440.060    24317450.380
  24317448.880          41.650          33.000
 127964303.005 6  99527814.270 6                  23946775.140    23946780.540
  23946778.620          38.700          38.000
 132468220.461 8                  98921110.724 7  25207852.100
                        49.850
 120043297.397 8                                  22843477.600
                        48.450
 15  1 27 19  5 40.0000000  0 21G22G18G13G17G15G24G12G25R18R05R16R17
                                R08R06R09R07R19R10R15E19E20
 127392337.893 7  99266767.93645                  24241950.320
  24241944.840          45.550          34.750
 120988826.183 7  94277023.23046                  23023394.640
  23023390.460          47.050          37.750
 120228914.630 8  93684934.16046                  22878777.360
  22878773.520          49.050          37.950
 123013346.675 7  95854621.178 7                  23408630.940    23408627.140
  23408626.600          47.550          44.150
 109259616.335 8  85137394.810 8                  20791393.640    20791390.180
  20791389.500          50.100          48.800
 108396712.091 8  84465057.424 8  80945697.426 8  20627175.360    20627173.980
  20627173.400          49.800          50.150
 109722606.989 8  85498243.815 7                  20879453.160    20879449.440
  20879448.680          50.150          47.900
 126243437.300 7  98371606.763 7  94272816.158 8  24023292.020    24023293.060
  24023292.020          45.700          42.700
 115685479.940 7  89977670.416 7                  21671771.440    21671775.140
  21671773.880          47.350          43.600
 131478865.352 6 102261283.455 5                  24595894.780    24595911.700
  24595911.680          37.050          34.350
 107901367.055 7  83923345.667 7                  20199345.180    20199347.640
  20199346.800          47.000          46.300
 121816275.376 7  94746009.200 6                  22764278.260    22764279.620
  22764278.880          44.550          41.750
 127159055.406 6  98901508.103 6                  23746055.080    23746057.880
  23746056.880          41.150          38.300
 111469021.341 8  86698184.803 7                  20889233.180    20889235.280
  20889235.460          48.400          43.750
 110091679.935 7  85626806.262 6                  20616601.680    20616604.780
  20616602.260          47.350          37.000
 110526691.999 8  85965220.891 7                  20647312.400    20647313.480
  20647312.620          48.400          46.400
 127422903.417 7  99106686.416 6                  23820325.380    23820330.620
  23820328.940          42.250          36.850
 129611814.632 6 100809210.523 5                  24314844.420    24314854.740
  24314853.340          41.800          33.050
 127978654.569 6  99538976.597 6                  23949460.720    23949466.340
  23949464.400          39.950          38.200
 132465557.821 8                  98919122.391 7  25207345.440
                        49.900
 120052620.650 8                                  22845251.780
                        48.400
 15  1 27 19  5 45.0000000  0 21G22G18G13G17G15G24G12G25R18R05R16R17
                                R08R06R09R07R19R10R15E19E20
 127387396.770 7  99262917.71646                  24241010.040
  24241004.500          45.700          36.250
 120992036.190 7  94279524.53246                  23024005.440
  23024001.300          47.100          39.600
 120245447.292 8  93697816.75446                  22881923.460
  22881919.540          48.800          38.900
 123019001.535 7  95859027.564 7                  23409706.940    23409703.200
  23409702.720          47.700          44.700
 109267738.077 8  85143723.440 8                  20792939.160    20792935.720
  20792935.020          50.150          49.200
 108392881.750 8  84462072.754 8  80942837.115 8  20626446.460    20626445.100
  20626444.520          49.750          50.550
 109712515.272 8  85490380.153 8                  20877532.740    20877529.040
  20877528.280          50.050          48.250
 126226531.733 7  98358433.628 7  94260191.912 8  24020075.000    24020076.040
  24020074.980          45.600          43.100
 115675408.116 7  89969836.802 7                  21669884.600    21669888.300
  21669887.060          47.600          44.250
 131501224.591 6 102278673.787 5                  24600077.800    24600094.800
  24600094.740          36.850          34.500
 107907478.566 7  83928099.060 7                  20200489.260    20200491.740
  20200490.920          46.300          47.000
 121823200.297 7  94751395.252 7                  22765572.300    22765573.700
  22765573.000          44.150          42.250
 127141221.726 6  98887637.467 6                  23742724.740    23742727.500
  23742726.440          40.750          38.600
 111485331.182 7  86710870.234 7                  20892289.620    20892291.740
  20892291.920          47.600          44.750
 110084741.652 7  85621409.830 6                  20615302.340    20615305.480
  20615302.960          46.800          37.650
 110523804.356 7  85962974.950 7                  20646772.960    20646774.040
  20646773.180          47.600          47.050
 127402165.394 7  99090556.908 6                  23816448.580    23816453.920
  23816452.080          42.400          37.600
 129597978.658 6 100798449.234 5                  24312248.780    24312259.160
  24312257.700          41.650          31.850
 127993003.073 6  99550136.556 6                  23952145.960    23952151.480
  23952149.600          40.200          39.200
 132462905.129 8                  98917141.491 8  25206840.680
                        49.950
 120061951.317 8                                  22847027.400
                        48.600
 15  1 27 19  5 50.0000000  0 21G22G18G13G17G15G24G12G25R18R05R16R17
                                R08R06R09R07R19R10R15E19E20
 127382470.481 7  99259079.04745                  24240072.580
  24240066.920          46.850          35.450
 120995260.538 8  94282037.01346                  23024618.940
  23024614.940          48.450          37.950
 120261988.557 8  93710706.04746                  22885071.160
  22885067.180          49.700          38.100
 123024671.975 8  95863446.079 7                  23410785.900    23410782.280
  23410781.740          48.650          44.300
 109275874.201 8  85150063.271 8                  20794487.420    20794483.980
  20794483.260          50.800          49.000
 108389059.650 8  84459094.492 8  80939982.941 8  20625719.140    20625717.760
  20625717.220          50.650          50.250
 109702437.254 8  85482527.159 7                  20875614.940    20875611.260
  20875610.480          50.650          47.800
 126209632.561 7  98345265.459 7  94247572.424 8  24016859.200    24016860.180
  24016859.140          46.650          42.500
 115665355.560 8  89962018.154 7                  21668001.440    21668005.040
  21668003.840          48.250          44.100
 131523581.796 6 102296062.564 5                  24604260.380    24604277.420
  24604277.400          37.800          35.200
 107913597.223 7  83932858.005 7                  20201634.640    20201637.180
  20201636.400          47.050          46.850
 121830146.743 7  94756798.035 6                  22766870.400    22766871.820
  22766871.100          44.650          41.750
 127123400.421 7  98873776.468 6                  23739396.720    23739399.380
  23739398.380          42.100          39.350
 111501656.633 8  86723567.795 7                  20895348.980    20895351.120
  20895351.300          48.750          44.200
 110077811.491 7  85616019.707 6                  20614004.480    20614007.740
  20614005.180          47.350          37.450
 110520940.775 8  85960747.718 7                  20646238.020    20646239.120
  20646238.240          48.150          47.200
 127381427.909 7  99074427.795 6                  23812571.840    23812577.180
  23812575.280          43.200          37.350
 129584145.976 7 100787690.510 5                  24309653.840    24309664.080
  24309662.660          42.900          33.450
 128007351.701 6  99561296.606 6                  23954831.180    23954836.700
  23954834.800          41.250          39.100
 132460265.532 8                  98915170.350 8  25206338.400
                        50.800
 120071292.545 8                                  22848805.000
                        49.500
 15  1 27 19  5 55.0000000  0 21G22G18G13G17G15G24G12G25R18R05R16R17
                                R08R06R09R07R19R10R15E19E20
 127377557.577 7  99255250.83145                  24239137.680
  24239131.980          46.550          34.700
 120998497.711 8  94284559.47346                  23025234.900
  23025230.940          48.350          37.400
 120278536.887 8  93723600.83846                  22888220.200
  22888216.220          49.450          38.300
 123030356.450 8  95867875.529 7                  23411867.520    23411864.000
  23411863.440          48.400          44.400
 109284023.211 8  85156413.142 8                  20796038.120    20796034.680
  20796033.980          50.600          49.050
 108385244.056 8  84456121.301 8  80937133.631 8  20624993.060    20624991.660
  20624991.120          50.500          50.300
 109692371.415 8  85474683.644 8                  20873699.460    20873695.780
  20873695.020          50.700          48.000
 126192738.310 7  98332101.114 7  94234956.601 8  24013644.300    24013645.280
  24013644.240          46.050          42.400
 115655320.747 8  89954213.289 7                  21666121.580    21666125.180
  21666123.960          48.350          44.600
 131545935.392 5 102313448.522 5                  24608442.220    24608459.420
  24608459.360          35.550          34.350
 107919721.473 7  83937621.311 7                  20202781.080    20202783.640
  20202782.900          47.100          46.700
 121837113.205 7  94762216.397 6                  22768172.280    22768173.700
  22768172.940          45.100          41.650
 127105589.976 7  98859923.898 6                  23736070.720    23736073.420
  23736072.440          42.750          39.200
 111517996.078 8  86736276.246 7                  20898410.980    20898413.140
  20898413.300          48.700          44.500
 110070887.949 7  85610634.732 6                  20612707.880    20612711.140
  20612708.660          47.500          37.900
 110518099.714 8  85958538.007 7                  20645707.260    20645708.380
  20645707.500          48.200          47.000
 127360689.609 7  99058298.047 6                  23808695.000    23808700.340
  23808698.360          43.000          37.550
 129570315.194 7 100776933.292 5                  24307059.240    24307069.420
  24307068.040          43.100          34.150
 128021698.917 6  99572455.531 6                  23957516.120    23957521.680
  23957519.700          41.300          38.250
 132457637.510 8                  98913207.875 8  25205838.320
                        50.550
 120080642.753 8                                  22850584.320
                        49.450
 15  1 27 19  6  0.0000000  0 21G22G18G13G17G15G24G12G25R18R05R16R17
                                R08R06R09R07R19R10R15E19E20
 127372657.951 7  99251432.93045                  24238205.280
  24238199.560          46.400          34.950
 121001747.619 8  94287091.86946                  23025853.340
  23025849.400          48.300          38.100
 120295092.206 8  93736501.08646                  22891370.600
  22891366.560          49.300          38.100
 123036054.750 7  95872315.767 7                  23412951.820    23412948.340
  23412947.780          47.950          44.100
 109292184.988 8  85162772.971 8                  20797591.240    20797587.800
  20797587.120          50.350          48.950
 108381434.867 8  84453153.104 8  80934289.115 8  20624268.180    20624266.800
  20624266.260          50.300          50.250
 109682317.626 8  85466849.526 7                  20871786.280    20871782.600
  20871781.840          50.550          47.950
 126175848.841 7  98318940.509 7  94222344.363 8  24010430.320    24010431.300
  24010430.240          45.350          42.550
 115645303.583 8  89946422.178 7                  21664245.040    21664248.660
  21664247.360          48.900          43.850
 131568285.420 6 102330831.713 5                  24612623.400    24612640.820
  24612640.660          36.800          35.600
 107925851.276 7  83942388.940 7                  20203928.560    20203931.160
  20203930.440          47.200          46.450
 121844099.547 7  94767650.237 6                  22769477.860    22769479.280
  22769478.460          44.750          41.150
 127087790.187 7  98846079.626 6                  23732746.700    23732749.440
  23732748.480          42.900          39.750
 111534349.681 8  86748995.708 7                  20901475.620    20901477.820
  20901477.980          48.650          44.250
 110063970.863 7  85605254.783 6                  20611412.500    20611415.740
  20611413.340          47.250          37.750
 110515281.005 8  85956345.684 7                  20645180.660    20645181.840
  20645180.920          48.100          46.700
 127339950.168 7  99042167.459 6                  23804817.940    23804823.260
  23804821.200          43.650          37.500
 129556486.078 7 100766177.319 5                  24304464.960    24304475.040
  24304473.800          43.600          34.150
 128036044.534 6  99583613.266 6                  23960200.800    23960206.280
  23960204.340          41.250          38.750
 132455020.989 8                  98911253.977 7  25205340.420
                        50.300
 120090001.885 8                                  22852365.340
                        49.150
 15  1 27 19  6  5.0000000  0 21G22G18G13G17G15G24G12G25R18R05R16R17
                                R08R06R09R07R19R10R15E19E20
 127367771.511 7  99247625.31345                  24237275.400
  24237269.660          46.050          35.250
 121005010.135 8  94289634.07446                  23026474.180
  23026470.280          48.150          37.600
 120311654.373 8  93749406.66746                  22894522.260
  22894518.180          49.100          38.150
 123041766.911 7  95876766.797 7                  23414038.760    23414035.340
  23414034.760          47.850          43.950
 109300359.443 8  85169142.669 8                  20799146.780    20799143.320
  20799142.660          50.250          48.750
 108377632.171 8  84450189.958 8  80931449.436 8  20623544.560    20623543.160
  20623542.620          50.100          50.100
 109672275.831 8  85459024.749 7                  20869875.380    20869871.720
  20869870.940          50.400          47.950
 126158964.076 7  98305783.568 7  94209735.633 8  24007217.220    24007218.280
  24007217.200          44.900          42.050
 115635303.988 8  89938644.715 7                  21662371.800    21662375.420
  21662374.080          48.000          43.900
 131590631.645 6 102348211.937 5                  24616803.880    24616821.500
  24616821.180          36.200          34.350
 107931986.539 7  83947160.806 7                  20205077.080    20205079.740
  20205079.000          46.900          46.300
 121851105.721 7  94773099.475 6                  22770787.120    22770788.500
  22770787.660          44.800          40.750
 127070001.245 7  98832243.782 6                  23729424.720    23729427.500
  23729426.620          42.850          39.700
 111550717.162 8  86761725.947 7                  20904542.900    20904545.080
  20904545.260          48.650          44.000
 110057060.209 7  85599879.827 6                  20610118.360    20610121.600
  20610119.240          47.400          37.650
 110512484.638 7  85954170.721 7                  20644658.260    20644659.440
  20644658.520          47.950          46.750
 127319209.744 7  99026036.049 6                  23800940.700    23800945.940
  23800943.880          43.500          37.050
 129542658.523 7 100755422.556 5                  24301870.940    24301880.920
  24301879.920          42.950          33.750
 128050388.678 6  99594769.820 6                  23962885.240    23962890.660
  23962888.740          41.250          38.700
 132452415.870 8                  98909308.593 7  25204844.700
                        50.300
 120099369.845 8                                  22854148.040
                        49.150
 15  1 27 19  6 10.0000000  0 21G22G18G13G17G15G24G12G25R18R05R16R17
                                R08R06R09R07R19R10R15E19E20
 127362899.870 7  99243829.22945                  24236348.340
  24236342.580          45.700          34.900
 121008286.909 8  94292187.40146                  23027097.740
  23027093.820          48.250          38.400
 120328225.000 8  93762318.84246                  22897675.520
  22897671.420          48.850          38.150
 123047494.539 7  95881229.889 7                  23415128.660    23415125.260
  23415124.680          47.750          43.550
 109308548.175 8  85175523.500 8                  20800705.060    20800701.600
  20800700.920          50.100          48.700
 108373837.502 8  84447233.076 8  80928615.760 8  20622822.440    20622821.060
  20622820.500          49.950          50.100
 109662247.673 8  85451210.606 7                  20867967.080    20867963.420
  20867962.660          50.100          47.750
 126142085.633 7  98292631.565 7  94197131.638 8  24004005.320    24004006.400
  24004005.360          45.000          42.050
 115625323.661 8  89930882.245 7                  21660502.140    21660505.780
  21660504.440          48.450          43.700
 131612975.905 5 102365590.692 5                  24620983.980    24621001.700
  24621001.340          33.100          32.750
 107938128.772 7  83951938.109 7                  20206226.900    20206229.620
  20206228.880          46.800          46.350
 121858133.230 7  94778565.325 6                  22772100.340    22772101.700
  22772100.820          44.700          40.650
 127052224.598 7  98818417.503 6                  23726105.080    23726107.840
  23726107.020          42.800          40.150
 111567100.036 8  86774468.190 7                  20907613.040    20907615.220
  20907615.400          48.550          44.150
 110050157.479 7  85594511.034 6                  20608825.680    20608828.980
  20608826.600          47.550          37.400
 110509712.228 8  85952014.402 7                  20644140.340    20644141.520
  20644140.600          48.100          46.750
 127298469.922 7  99009905.119 6                  23797063.520    23797068.740
  23797066.700          43.250          36.750
 129528834.229 7 100744670.327 5                  24299277.520    24299287.520
  24299286.500          43.000          31.650
 128064732.902 6  99605926.429 6                  23965569.560    23965575.000
  23965573.120          40.050          38.250
 132449823.751 8                  98907372.923 7  25204351.440
                        50.100
 120108748.223 8                                  22855932.720
                        49.100
 15  1 27 19  6 15.0000000  0 21G22G18G13G17G15G24G12G25R18R05R16R17
                                R08R06R09R07R19R10R15E19E20
 127358040.691 7  99240042.88046                  24235423.640
  24235417.860          45.700          36.700
 121011575.539 7  94294749.96646                  23027723.560
  23027719.620          47.850          38.500
 120344801.762 8  93775235.79346                  22900829.940
  22900825.800          48.950          38.800
 123053235.256 8  95885703.188 7                  23416221.060    23416217.640
  23416217.060          48.150          43.600
 109316748.842 8  85181913.632 8                  20802265.600    20802262.120
  20802261.460          50.150          48.800
 108370048.398 8  84444280.531 8  80925786.236 8  20622101.400    20622100.020
  20622099.440          49.850          50.100
 109652230.792 8  85443405.253 7                  20866060.900    20866057.260
  20866056.500          49.850          47.800
 126125211.188 7  98279482.682 7  94184530.609 8  24000794.140    24000795.340
  24000794.320          45.250          42.050
 115615360.214 8  89923132.909 7                  21658635.660    21658639.280
  21658637.960          48.600          44.150
 131635315.673 5 102382965.917 5                  24625163.280    24625181.060
  24625180.680          34.650          33.650
 107944275.712 7  83956719.060 7                  20207377.620    20207380.400
  20207379.620          46.950          46.250
 121865179.778 7  94784045.980 6                  22773417.160    22773418.460
  22773417.580          44.150          40.800
 127034457.902 7  98804598.964 6                  23722787.320    23722790.080
  23722789.300          42.650          40.500
 111583495.984 8  86787220.588 7                  20910685.620    20910687.840
  20910688.000          48.000          43.700
 110043260.450 7  85589146.688 6                  20607534.100    20607537.420
  20607535.020          47.350          37.400
 110506961.511 8  85949874.961 7                  20643626.440    20643627.660
  20643626.720          48.050          46.800
 127277728.267 7  98993772.773 6                  23793186.000    23793191.140
  23793189.140          43.950          38.350
 129515010.875 7 100733918.877 5                  24296684.380    24296694.220
  24296693.080          43.300          31.700
 128079074.724 6  99617081.159 6                  23968253.460    23968258.860
  23968257.060          39.350          38.600
 132447242.293 8                  98905445.219 7  25203860.220
                        50.050
 120118134.649 8                                  22857718.940
                        49.050
 15  1 27 19  6 20.0000000  0 21G22G18G13G17G15G24G12G25R18R05R16R17
                                R08R06R09R07R19R10R15E19E20
 127353195.695 7  99236267.56745                  24234501.660
  24234495.880          46.200          33.950
 121014877.812 7  94297323.16346                  23028351.980
  23028348.020          47.900          38.250
 120361386.386 8  93788158.87346                  22903985.880
  22903981.700          48.750          38.750
 123058990.867 8  95890188.085 7                  23417316.320    23417312.880
  23417312.280          48.400          43.550
 109324963.232 8  85188314.452 8                  20803828.740    20803825.280
  20803824.600          50.150          48.800
 108366266.767 8  84441333.803 8  80922962.297 8  20621381.780    20621380.380
  20621379.800          49.750          50.150
 109642226.968 8  85435610.067 7                  20864157.220    20864153.600
  20864152.840          49.950          47.850
 126108342.501 7  98266338.271 7  94171933.888 8  23997584.080    23997585.240
  23997584.320          45.100          42.100
 115605415.407 7  89915398.062 7                  21656772.680    21656776.320
  21656775.020          47.750          44.150
 131657652.612 6 102400338.943 5                  24629341.940    24629359.860
  24629359.480          38.800          34.550
 107950429.131 7  83961505.057 7                  20208529.540    20208532.360
  20208531.560          47.000          46.200
 121872247.215 7  94789542.865 6                  22774737.800    22774739.160
  22774738.220          44.500          40.250
 127016703.066 7  98790789.659 6                  23719471.740    23719474.640
  23719473.820          42.400          40.050
 111599906.921 8  86799984.640 7                  20913761.000    20913763.260
  20913763.420          48.250          43.300
 110036370.860 7  85583788.130 6                  20606243.900    20606247.240
  20606244.800          47.750          36.850
 110504233.882 8  85947753.472 7                  20643116.860    20643118.100
  20643117.200          48.150          46.700
 127256986.671 7  98977640.479 6                  23789308.460    23789313.700
  23789311.640          43.800          38.800
 129501190.186 7                                  24294091.660
                        42.950
 128093415.937 6  99628235.432 6                  23970937.140    23970942.580
  23970940.820          39.100          38.400
 132444673.288 8                  98903526.802 7  25203371.360
                        50.100
 120127530.912 8                                  22859507.000
                        49.000
 15  1 27 19  6 25.0000000  0 21G22G18G13G17G15G24G12G25R18R05R16R17
                                R08R06R09R07R19R10R15E19E20
 127348364.268 7  99232502.82545                  24233582.280
  24233576.440          46.050          34.250
 121018193.040 7  94299906.45446                  23028982.840
  23028978.940          47.850          37.050
 120377978.236 8  93801087.57846                  22907143.220
  22907139.040          48.700          37.300
 123064760.670 8  95894684.033 7                  23418414.300    23418410.820
  23418410.180          48.350          42.300
 109333190.644 8  85194725.420 8                  20805394.360    20805390.900
  20805390.220          50.000          48.000
 108362491.878 8  84438392.331 8  80920143.390 8  20620663.420    20620662.040
  20620661.440          49.800          49.350
 109632235.543 8  85427824.539 7                  20862255.920    20862252.300
  20862251.520          50.050          46.950
 126091478.924 7  98253197.854 6  94159340.996 8  23994374.980    23994376.160
  23994375.260          45.000          40.600
 115595488.631 8  89907677.241 7                  21654913.080    21654916.740
  21654915.440          48.550          44.500
 131679986.107 6 102417709.303 5                  24633519.940    24633538.080
  24633537.660          40.300          34.850
 107956588.307 7  83966295.521 7                  20209682.560    20209685.360
  20209684.560          47.200          46.400
 121879334.684 7  94795055.356 6                  22776062.220    22776063.680
  22776062.640          44.550          40.700
 126998959.349 7  98776988.993 6                  23716158.260    23716161.220
  23716160.340          42.950          39.650
 111616331.999 8  86812759.694 7                  20916839.040    20916841.340
  20916841.460          48.800          43.500
 110029488.053 7  85578434.834 6                  20604954.940    20604958.260
  20604955.840          47.650          37.350
 110501529.103 8  85945649.747 7                  20642611.540    20642612.860
  20642611.920          48.600          46.900
 127236244.514 7  98961507.775 6                  23785430.860    23785436.100
  23785434.060          44.400          38.600
 129487371.502 7 100712431.637 5                  24291499.320    24291509.140
  24291507.140          44.200          33.350
 128107755.911 6  99639388.734 6                  23973620.440    23973626.020
  23973624.300          39.250          38.750
 132442116.059 8                  98901617.183 7  25202884.760
                        50.100
 120136936.362 8                                  22861296.820
                        48.900
 15  1 27 19  6 30.0000000  0 21G22G18G13G17G15G24G12G25R18R05R16R17
                                R08R06R09R07R19R10R15E19E20
 127343545.427 7  99228747.90045                  24232665.300
  24232659.500          45.900          35.750
 121021520.245 7  94302499.09346                  23029615.980
  23029612.100          47.450          37.950
 120394576.276 8  93814021.11846                  22910301.720
  22910297.560          48.500          37.650
 123070543.695 8  95899190.294 7                  23419514.780    23419511.200
  23419510.640          48.400          42.750
 109341430.041 8  85201145.733 8                  20806962.260    20806958.780
  20806958.140          49.800          48.150
 108358722.782 8  84435455.378 8  80917328.816 8  20619946.180    20619944.800
  20619944.200          49.750          49.550
 109622255.474 8  85420047.870 7                  20860356.760    20860353.140
  20860352.380          50.050          47.100
 126074619.480 7  98240060.651 6  94146751.195 8  23991166.660    23991167.840
  23991166.960          45.100          40.650
 115585578.925 8  89899969.716 7                  21653056.660    21653060.320
  21653059.080          48.850          44.600
 131702315.106 6 102435076.269 5                  24637697.240    24637715.480
  24637715.020          39.200          34.700
 107962752.265 7  83971089.717 7                  20210836.460    20210839.300
  20210838.440          46.650          46.150
 121886441.380 7  94800582.784 6                  22777390.300    22777391.740
  22777390.660          44.100          41.050
 126981225.804 7  98763196.248 6                  23712846.660    23712849.580
  23712848.700          42.450          39.350
 111632770.183 8  86825544.948 7                  20919919.560    20919921.920
  20919921.980          48.450          43.750
 110022610.966 7  85573085.988 6                  20603667.080    20603670.440
  20603667.960          47.350          37.350
 110498845.968 8  85943562.869 7                  20642110.300    20642111.680
  20642110.700          48.350          46.900
 127215500.741 7  98945373.794 6                  23781553.020    23781558.240
  23781556.180          44.550          37.650
 129473553.876 7 100701684.597 5                  24288907.180    24288917.000
  24288915.280          44.850          32.900
 128122093.757 6  99650540.376 6                  23976303.520    23976309.100
  23976307.440          39.100          38.650
 132439569.613 8                  98899715.630 7  25202400.200
                        50.000
 120146349.938 8                                  22863088.160
                        48.800
 15  1 27 19  6 35.0000000  0 21G22G18G13G17G15G24G12G25R18R05R16R17
                                R08R06R09R07R19R10R15E19E20
 127338742.004 7  99225004.98546                  24231751.280
  24231745.500          46.150          36.600
 121024862.258 7  94305103.25746                  23030251.960
  23030248.080          47.600          37.450
 120411183.375 8  93826961.71146                  22913461.920
  22913457.820          48.200          38.000
 123076342.816 8  95903709.086 7                  23420618.340    23420614.680
  23420614.140          48.250          43.250
 109349684.322 8  85207577.639 8                  20808532.980    20808529.520
  20808528.900          49.650          48.400
 108354962.405 8  84432525.214 8  80914520.736 8  20619230.580    20619229.220
  20619228.600          49.700          49.700
 109612289.648 8  85412282.302 7                  20858460.320    20858456.680
  20858455.940          49.950          47.250
 126057766.999 7  98226928.870 6  94134166.581 8  23987959.680    23987960.880
  23987959.980          44.950          41.150
 115575689.132 7  89892277.640 7                  21651203.980    21651207.640
  21651206.440          47.700          44.400
 131724642.618 6 102452442.023 5                  24641874.180    24641892.580
  24641892.040          40.050          33.700
 107968923.986 7  83975889.954 7                  20211991.800    20211994.660
  20211993.800          46.550          46.100
 121893570.013 7  94806127.285 6                  22778722.420    22778723.860
  22778722.800          44.950          41.350
 126963505.324 7  98749413.670 6                  23709537.520    23709540.460
  23709539.500          42.750          38.700
 111649224.396 8  86838342.647 7                  20923003.080    20923005.460
  20923005.500          48.250          43.700
 110015742.511 7  85567743.863 6                  20602380.820    20602384.140
  20602381.720          47.450          37.300
 110496187.298 8  85941495.020 7                  20641613.600    20641615.040
  20641614.020          48.350          46.750
 127194758.227 7  98929240.743 6                  23777675.420    23777680.620
  23777678.540          44.300          38.700
 129459740.101 7 100690940.587 5                  24286315.760    24286325.620
  24286324.380          44.000          34.350
 128136432.261 6  99661692.531 6                  23978986.680    23978992.360
  23978990.800          39.450          38.750
 132437036.817 8                  98897824.259 7  25201918.240
                        49.900
 120155774.502 8                                  22864881.620
                        48.650
 15  1 27 19  6 40.0000000  0 21G22G18G13G17G15G24G12G25R18R05R16R17
                                R08R06R09R07R19R10R15E19E20
 127333950.245 7  99221271.14945                  24230839.480
  24230833.660          46.600          34.850
 121028215.318 7  94307716.01346                  23030890.020
  23030886.120          47.750          37.700
 120427795.738 8  93839906.39746                  22916623.140
  22916619.060          48.650          38.000
 123082154.223 8  95908237.459 7                  23421724.240    23421720.500
  23421720.000          48.200          43.050
 109357949.699 8  85214018.192 8                  20810105.840    20810102.380
  20810101.740          49.800          48.350
 108351206.889 8  84429598.836 8  80911716.286 8  20618515.920    20618514.560
  20618513.940          49.700          49.700
 109602334.273 8  85404524.874 7                  20856565.840    20856562.220
  20856561.480          49.850          47.250
 126040917.745 7  98213799.610 6  94121584.375 8  23984753.300    23984754.560
  23984753.640          44.750          41.300
 115565815.428 8  89884598.097 7                  21649354.340    21649357.900
  21649356.780          48.700          44.200
 131746964.580 6 102469803.473 5                  24646049.960    24646068.600
  24646068.020          36.650          31.700
 107975099.472 7  83980693.104 7                  20213147.840    20213150.720
  20213149.820          46.400          45.800
 121900716.747 7  94811685.862 6                  22780057.880    22780059.360
  22780058.340          44.600          41.000
 126945794.072 7  98735638.236 6                  23706230.100    23706232.940
  23706231.980          42.450          38.550
 111665690.896 8  86851149.910 7                  20926088.860    20926091.260
  20926091.320          48.100          43.850
 110008878.888 7  85562405.486 6                  20601095.500    20601098.640
  20601096.340          47.550          36.800
 110493549.477 8  85939443.374 7                  20641120.800    20641122.280
  20641121.240          48.400          46.550
 127174013.296 7  98913105.844 6                  23773797.360    23773802.540
  23773800.460          44.950          38.700
 129445926.276 7 100680196.531 5                  24283724.340    24283734.200
  24283733.080          43.250          32.300
 128150767.658 6  99672842.275 6                  23981669.320    23981675.020
  23981673.540          40.450          38.150
 132434513.898 8                  98895940.241 7  25201438.160
                        49.950
 120165206.311 8                                  22866676.460
                        48.600
 15  1 27 19  6 45.0000000  0 21G22G18G13G17G15G24G12G25R18R05R16R17
                                R08R06R09R07R19R10R15E19E20
 127329172.600 7  99217548.30745                  24229930.420
  24229924.540          46.550          35.750
 121031581.872 7  94310339.30046                  23031530.680
  23031526.760          47.950          37.800
 120444415.826 8  93852857.10946                  22919785.840
  22919781.820          48.900          38.100
 123087980.373 8  95912777.320 7                  23422832.960    23422829.160
  23422828.660          48.100          43.400
 109366228.619 8  85220469.292 8                  20811681.260    20811677.820
  20811677.180          50.050          48.450
 108347458.677 8  84426678.155 8  80908917.301 8  20617802.620    20617801.300
  20617800.660          49.450          49.800
 109592391.861 8  85396777.547 7                  20854673.840    20854670.240
  20854669.520          49.900          47.400
 126024074.187 7  98200674.792 6  94109006.421 8  23981548.000    23981549.300
  23981548.400          44.950          41.350
 115555960.404 8  89876933.080 7                  21647508.140    21647511.760
  21647510.640          48.750          44.200
 131769283.606 6 102487162.589 5                  24650225.200    24650243.900
  24650243.340          38.200          31.300
 107981281.302 7  83985501.194 7                  20214305.080    20214307.960
  20214307.040          47.000          45.750
 121907884.198 7  94817260.546 6                  22781397.240    22781398.800
  22781397.760          45.250          41.650
 126928094.619 7  98721871.999 6                  23702924.920    23702927.740
  23702926.680          42.300          39.050
 111682171.919 8  86863968.477 7                  20929177.360    20929179.840
  20929179.860          48.250          44.250
 110002022.595 7  85557072.823 6                  20599811.520    20599814.680
  20599812.340          47.750          37.150
 110490934.873 8  85937409.791 7                  20640632.360    20640633.880
  20640632.800          48.500          46.650
 127153268.392 7  98896970.966 6                  23769919.300    23769924.480
  23769922.300          44.700          37.400
 129432114.945 7 100669454.419 5                  24281133.380    24281143.120
  24281141.980          43.300          33.750
 128165102.410 6  99683991.538 6                  23984351.980    23984357.580
  23984356.180          41.300          38.650
 132432003.308 8                  98894065.461 7  25200960.420
                        50.050
 120174647.794 8                                  22868473.120
                        48.800
 15  1 27 19  6 50.0000000  0 21G22G18G13G17G15G24G12G25R18R05R16R17
                                R08R06R09R07R19R10R15E19E20
 127324407.542 7  99213835.29346                  24229023.760
  24229017.900          46.350          36.400
 121034960.376 7  94312971.89846                  23032173.600
  23032169.680          47.750          37.900
 120461042.067 8  93865812.62346                  22922949.760
  22922945.700          48.950          38.600
 123093819.692 8  95917327.455 7                  23423944.200    23423940.340
  23423939.880          48.250          43.300
 109374519.541 8  85226929.751 8                  20813258.960    20813255.560
  20813254.880          50.150          48.600
 108343716.114 8  84423761.881 8  80906122.538 8  20617090.380    20617089.120
  20617088.480          48.950          49.850
 109582460.848 8  85389039.103 7                  20852784.000    20852780.420
  20852779.720          49.800          47.550
 126007234.759 7  98187553.191 6  94096431.558 8  23978343.500    23978344.840
  23978343.980          45.350          41.300
 115546122.414 8  89869281.315 7                  21645665.160    21645668.760
  21645667.700          48.000          44.600
 131791598.145 6 102504518.325 5                  24654399.720    24654418.500
  24654417.880          37.600          31.500
 107987467.857 7  83990312.963 7                  20215463.200    20215466.080
  20215465.140          46.950          45.900
 121915070.653 7  94822850.011 6                  22782740.160    22782741.720
  22782740.720          44.900          41.600
 126910405.303 7  98708113.651 6                  23699621.560    23699624.440
  23699623.300          42.150          38.750
 111698666.002 7  86876797.212 7                  20932268.320    20932270.860
  20932270.860          47.600          44.350
 109995172.007 7  85551744.599 6                  20598528.620    20598531.820
  20598529.420          47.450          36.800
 110488342.054 8  85935393.147 7                  20640148.000    20640149.520
  20640148.440          48.400          46.600
 127132521.856 7  98880834.826 6                  23766040.860    23766046.040
  23766043.840          44.250          37.100
 129418304.632 7 100658713.077 5                  24278542.540    24278552.360
  24278551.640          43.550          33.900
 128179434.830 6  99695138.990 6                  23987034.160    23987039.720
  23987038.320          41.100          38.400
 132429503.501 8                  98892198.718 7  25200484.760
                        50.050
 120184097.391 8                                  22870271.320
                        48.600
 15  1 27 19  6 55.0000000  0 21G22G18G13G17G15G24G12G25R18R05R16R17
                                R08R06R09R07R19R10R15E19E20
 127319658.282 7  99210134.57346                  24228120.080
  24228114.220          46.550          36.000
 121038354.107 7  94315616.35046                  23032819.440
  23032815.540          47.650          39.250
 120477677.730 8  93878775.46846                  22926115.460
  22926111.440          49.000          38.300
 123099675.436 8  95921890.375 7                  23425058.560    23425054.620
  23425054.160          48.150          43.400
 109382825.742 8  85233402.103 8                  20814839.580    20814836.200
  20814835.500          50.300          48.700
 108339982.635 8  84420852.670 8  80903334.544 8  20616379.860    20616378.660
  20616378.000          49.050          49.950
 109572544.499 8  85381312.072 7                  20850896.980    20850893.400
  20850892.700          49.900          47.650
 125990402.752 7  98174437.350 6  94083862.217 8  23975140.460    23975141.740
  23975140.940          45.550          41.250
 115536304.837 8  89861645.421 7                  21643826.000    21643829.620
  21643828.560          48.950          44.750
 131813911.604 6 102521873.134 5                  24658574.020    24658592.820
  24658592.260          38.200          34.750
 107993662.480 7  83995130.993 7                  20216622.840    20216625.720
  20216624.740          47.150          45.950
 121922279.471 7  94828456.872 6                  22784087.220    22784088.840
  22784087.840          44.850          41.150
 126892729.602 6  98694365.871 6                  23696320.780    23696323.700
  23696322.480          41.350          39.400
 111715176.504 7  86889638.698 7                  20935362.400    20935364.900
  20935364.940          47.700          44.600
 109988330.503 7  85546423.420 6                  20597247.420    20597250.620
  20597248.160          47.100          37.000
 110485774.054 8  85933395.812 7                  20639668.240    20639669.820
  20639668.720          48.400          46.850
 127111777.195 7  98864700.123 6                  23762162.820    23762167.860
  23762165.680          43.950          36.900
 129404498.707 7 100647975.141 5                  24275952.580    24275962.260
  24275962.040          43.300          34.400
 128193768.348 6  99706287.284 6                  23989716.600    23989722.040
  23989720.700          41.250          38.900
 132427017.753 8                  98890342.470 7  25200011.760
                        50.150
 120193558.362 8                                  22872071.680
                        48.700
 15  1 27 19  7  0.0000000  0 21G22G18G13G17G15G24G12G25R18R05R16R17
                                R08R06R09R07R19R10R15E19E20
 127314920.038 7  99206442.46745                  24227218.500
  24227212.580          46.350          35.200
 121041758.169 7  94318268.86846                  23033467.240
  23033463.380          47.850          39.400
 120494317.958 8  93891741.87746                  22929282.020
  22929278.000          48.750          39.200
 123105542.754 8  95926462.327 7                  23426175.120    23426171.100
  23426170.680          48.300          43.300
 109391142.335 8  85239882.575 8                  20816422.180    20816418.780
  20816418.120          50.050          48.750
 108336253.383 8  84417946.776 8  80900549.725 8  20615670.140    20615669.020
  20615668.360          48.700          50.000
 109562637.979 8  85373592.714 7                  20849011.820    20849008.240
  20849007.520          49.950          47.550
 125973573.322 7  98161323.527 6  94071294.813 8  23971937.900    23971939.140
  23971938.300          45.250          41.100
 115526502.791 8  89854021.629 7                  21641989.720    21641993.380
  21641992.340          48.700          44.500
 131836218.782 6 102539223.089 5                  24662747.120    24662765.940
  24662765.400          40.700          34.850
 107999860.186 7  83999951.450 7                  20217783.040    20217785.940
  20217784.940          46.850          45.900
 121929505.801 7  94834077.365 6                  22785437.620    22785439.200
  22785438.240          44.700          40.650
 126875062.519 6  98680624.836 6                  23693021.580    23693024.500
  23693023.340          40.800          39.000
 111731698.314 8  86902488.996 7                  20938458.580    20938461.120
  20938461.140          48.150          44.100
 109981493.081 7  85541105.440 6                  20595966.980    20595970.160
  20595967.680          47.400          36.750
 110483226.125 8  85931414.100 7                  20639192.240    20639193.860
  20639192.780          48.300          46.800
 127091029.375 7  98848562.971 6                  23758284.140    23758289.100
  23758287.000          43.650          37.150
 129390692.176 7 100637236.755 5                  24273362.480    24273372.240
  24273372.240          42.150          33.500
 128208098.129 6  99717432.679 6                  23992398.380    23992403.760
  23992402.300          40.150          38.550
 132424541.213 8                  98888493.112 7  25199540.520
                        50.050
 120203025.874 8                                  22873873.300
                        48.600
 15  1 27 19  7  5.0000000  0 21G22G18G13G17G15G24G12G25R18R05R16R17
                                R08R06R09R07R19R10R15E19E20
 127310197.080 7  99202762.23245                  24226319.740
  24226313.860          46.400          35.650
 121045176.851 7  94320932.77346                  23034117.820
  23034113.940          47.800          38.650
 120510967.042 8  93904715.17746                  22932450.280
  22932446.260          49.000          38.900
 123111425.948 8  95931046.636 7                  23427294.680    23427290.620
  23427290.200          48.550          43.450
 109399473.652 8  85246374.499 8                  20818007.600    20818004.200
  20818003.520          50.000          48.750
 108332532.684 8  84415047.530 8  80897771.285 8  20614962.060    20614960.980
  20614960.340          48.900          50.000
 109552745.574 8  85365884.349 7                  20847129.340    20847125.780
  20847125.060          50.000          47.750
 125956750.755 7  98148215.037 6  94058732.525 8  23968736.660    23968737.860
  23968737.000          45.200          41.350
 115516720.592 8  89846413.241 7                  21640157.180    21640160.880
  21640159.860          48.150          44.750
 131858524.164 6 102556571.682 5                  24666919.940    24666938.700
  24666938.220          39.350          34.000
 108006065.410 7  84004777.731 7                  20218944.660    20218947.560
  20218946.520          47.300          45.700
 121936753.951 7  94839714.805 6                  22786792.100    22786793.660
  22786792.660          44.950          40.300
 126857408.447 6  98666893.899 6                  23689724.840    23689727.700
  23689726.620          41.800          38.950
 111748235.935 8  86915351.596 7                  20941557.760    20941560.320
  20941560.300          48.450          43.900
 109974664.130 7  85535794.034 6                  20594688.100    20594691.320
  20594688.780          47.750          36.700
 110480702.866 8  85929451.558 7                  20638720.820    20638722.520
  20638721.420          48.600          46.500
 127070282.794 7  98832426.820 6                  23754405.760    23754410.660
  23754408.620          44.900          38.250
 129376889.326 6 100626501.226 5                  24270773.060    24270782.940
  24270782.320          41.600          32.500
 128222428.334 6  99728578.392 6                  23995080.060    23995085.460
  23995083.980          39.300          37.650
 132422078.164 8                  98886653.820 7  25199071.820
                        49.900
 120212504.213 8                                  22875676.980
                        48.600
 15  1 27 19  7 10.0000000  0 21G22G18G13G17G15G24G12G25R18R05R16R17
                                R08R06R09R07R19R10R15E19E20
 127305488.452 7  99199093.17445                  24225423.720
  24225417.900          46.050          35.900
 121048609.198 7  94323607.32846                  23034771.000
  23034767.140          47.850          38.300
 120527623.991 8  93917694.60846                  22935620.040
  22935616.020          49.150          38.350
 123117324.039 8  95935642.558 7                  23428417.080    23428412.980
  23428412.580          48.750          43.400
 109407818.696 8  85252877.124 8                  20819595.620    20819592.220
  20819591.540          50.050          48.750
 108328819.452 8  84412154.103 8  80894998.419 8  20614255.380    20614254.380
  20614253.760          49.100          50.000
 109542866.313 8  85358186.229 7                  20845249.380    20845245.820
  20845245.100          50.150          47.800
 125939934.095 7  98135111.171 6  94046174.657 8  23965536.520    23965537.700
  23965536.840          45.450          41.500
 115506957.370 8  89838819.635 7                  21638328.180    21638331.900
  21638330.960          49.000          44.750
 131880826.775 6 102573918.125 5                  24671092.180    24671111.140
  24671110.560          36.000          31.050
 108012277.138 7  84009609.081 7                  20220107.460    20220110.380
  20220109.340          47.200          45.700
 121944022.874 7  94845368.413 6                  22788150.500    22788152.020
  22788150.980          44.800          40.650
 126839766.474 6  98653172.383 6                  23686430.280    23686433.180
  23686432.180          41.200          39.100
 111764788.307 7  86928225.658 7                  20944659.660    20944662.240
  20944662.200          47.950          43.800
 109967842.680 7  85530488.468 6                  20593410.640    20593413.880
  20593411.280          47.600          36.650
 110478202.941 8  85927507.170 7                  20638253.820    20638255.520
  20638254.420          48.850          46.500
 127049536.622 7  98816290.946 6                  23750527.540    23750532.360
  23750530.380          45.700          38.850
 129363089.147 6 100615767.778 5                  24268184.100    24268194.000
  24268192.840          40.800          30.700
 128236758.031 6  99739723.691 6                  23997761.540    23997767.140
  23997765.500          38.700          37.350
 132419627.670 8                  98884823.902 7  25198605.520
                        50.050
 120221992.379 8                                  22877482.520
                        48.550
 15  1 27 19  7 15.0000000  0 21G22G18G13G17G15G24G12G25R18R05R16R17
                                R08R06R09R07R19R10R15E19E20
 127300792.303 7  99195433.84945                  24224530.040
  24224524.240          45.800          35.600
 121052053.330 7  94326291.06746                  23035426.420
  23035422.540          47.950          38.900
 120544286.957 8  93930678.74546                  22938790.940
  22938786.920          48.800          39.900
 123123235.210 8  95940248.673 7                  23429541.940    23429537.820
  23429537.420          48.450          43.400
 109416175.595 8  85259388.999 8                  20821185.900    20821182.520
  20821181.840          49.950          48.600
 108325111.972 8  84409265.163 8  80892229.848 8  20613549.800    20613548.840
  20613548.240          49.250          50.050
 109532998.418 8  85350496.968 7                  20843371.600    20843368.020
  20843367.300          50.150          47.800
 125923121.537 7  98122010.503 6  94033619.852 8  23962337.180    23962338.360
  23962337.480          45.650          41.500
 115497211.227 8  89831239.316 7                  21636502.360    21636506.120
  21636505.200          48.400          44.350
 131903124.841 5 102591260.995 5                  24675263.580    24675282.620
  24675282.020          35.700          31.400
 108018493.535 7  84014444.056 7                  20221271.160    20221274.100
  20221273.060          47.200          45.650
 121951310.780 7  94851036.802 6                  22789512.420    22789513.920
  22789512.900          44.600          40.950
 126822134.593 6  98639458.729 6                  23683137.660    23683140.500
  23683139.540          40.850          38.650
 111781353.629 8  86941109.776 7                  20947763.960    20947766.560
  20947766.520          48.350          43.650
 109961026.898 7  85525187.312 6                  20592134.280    20592137.460
  20592134.860          47.850          36.550
 110475724.618 8  85925579.590 7                  20637790.820    20637792.540
  20637791.440          48.600          46.400
 127028788.893 7  98800153.882 6                  23746649.000    23746653.920
  23746651.860          45.200          38.350
 129349289.989 6 100605035.097 5                  24265595.360    24265605.160
  24265603.760          41.250          30.900
 128251085.372 6  99750867.160 6                  24000442.620    24000448.280
  24000446.660          39.800          37.850
 132417187.889 8                  98883001.999 7  25198141.280
                        49.950
 120231488.562 8                                  22879289.580
                        48.600
 15  1 27 19  7 20.0000000  0 21G22G18G13G17G15G24G12G25R18R05R16R17
                                R08R06R09R07R19R10R15E19E20
 127296110.587 7  99191785.76446                  24223639.100
  24223633.380          46.150          36.250
 121055511.175 7  94328985.49146                  23036084.480
  23036080.560          47.900          39.650
 120560957.885 8  93943669.07246                  22941963.360
  22941959.320          48.950          38.650
 123129161.380 8  95944866.467 7                  23430669.640    23430665.540
  23430665.100          48.600          43.300
 109424546.309 8  85265911.636 8                  20822778.800    20822775.420
  20822774.740          50.000          48.700
 108321412.178 8  84406382.210 8  80889467.018 8  20612845.700    20612844.780
  20612844.200          49.250          50.200
 109523143.765 8  85342818.022 7                  20841496.340    20841492.760
  20841492.020          50.200          47.900
 125906315.006 7  98108914.527 6  94021069.545 8  23959138.980    23959140.220
  23959139.260          45.850          41.750
 115487484.107 7  89823673.773 7                  21634680.100    21634683.880
  21634682.940          47.700          44.400
 131925420.259 5 102608601.801 4                  24679434.360    24679453.580
  24679453.020          34.950          29.600
 108024716.499 7  84019284.140 7                  20222436.100    20222439.020
  20222438.020          46.850          45.700
 121958619.634 7  94856721.455 6                  22790878.240    22790879.740
  22790878.720          44.350          41.100
 126804515.060 6  98625754.664 6                  23679847.280    23679850.200
  23679849.200          41.250          38.500
 111797933.667 8  86954005.357 7                  20950871.060    20950873.660
  20950873.600          48.250          43.700
 109954218.718 7  85519892.067 6                  20590859.300    20590862.480
  20590859.880          47.300          36.850
 110473269.910 8  85923670.373 7                  20637332.240    20637333.940
  20637332.860          48.400          46.550
 127008041.629 7  98784017.169 6                  23742770.480    23742775.480
  23742773.380          43.950          38.350
 129335493.514 7 100594304.531 5                  24263007.100    24263017.060
  24263015.660          42.850          31.650
 128265412.374 6  99762010.371 6                  24003123.680    24003129.380
  24003127.660          39.950          37.400
 132414760.751 8                  98881189.526 7  25197679.420
                        50.000
 120240994.701 8                                  22881098.500
                        48.450
 15  1 27 19  7 25.0000000  0 21G22G18G13G17G15G24G12G25R18R05R16R17
                                R08R06R09R07R19R10R15E19E20
 127291441.772 7  99188147.74745                  24222750.620
  24222744.940          45.950          35.900
 121058981.193 7  94331689.39646                  23036744.860
  23036740.880          47.750          38.150
 120577635.210 8  93956664.38746                  22945136.980
  22945132.920          48.850          39.100
 123135100.975 8  95949494.724 7                  23431799.900    23431795.800
  23431795.340          48.100          43.650
 109432929.294 8  85272443.838 8                  20824374.040    20824370.640
  20824369.980          50.000          48.750
 108317718.376 8  84403503.932 8  80886708.666 8  20612142.740    20612141.880
  20612141.300          49.350          50.200
 109513300.821 8  85335148.196 7                  20839623.300    20839619.680
  20839618.980          50.200          47.900
 125889512.934 7  98095822.024 6  94008522.569 8  23955941.620    23955942.900
  23955941.920          45.550          41.850
 115477774.436 8  89816121.824 7                  21632861.100    21632864.880
  21632863.960          48.750          44.200
 131947711.275 5 102625936.975 4                  24683604.380
  24683623.260          32.700          26.450
 108030944.431 7  84024128.087 7                  20223601.980    20223604.900
  20223603.920          46.850          45.850
 121965947.701 7  94862421.071 6                  22792247.660    22792249.180
  22792248.140          44.600          40.600
 126786906.135 6  98612058.828 6                  23676558.940    23676561.860
  23676560.780          41.350          38.050
 111814526.960 8  86966911.243 7                  20953980.660    20953983.220
  20953983.180          48.350          43.700
 109947416.518 7  85514601.478 6                  20589585.480    20589588.620
  20589586.000          47.150          36.900
 110470837.199 8  85921778.260 7                  20636877.780    20636879.500
  20636878.400          48.350          46.700
 126987293.240 7  98767879.610 6                  23738891.740    23738896.740
  23738894.680          43.900          38.550
 129321698.260 7 100583574.943 5                  24260419.160    24260429.140
  24260428.160          42.050          31.750
 128279737.550 6  99773152.173 6                  24005804.400    24005810.140
  24005808.340          39.700          36.400
 132412344.701 8                  98879385.337 7  25197219.700
                        50.000
 120250509.174 8                                  22882909.020
                        48.450
 15  1 27 19  7 30.0000000  0 21G22G18G13G17G15G24G12G25R18R05R16R17
                                R08R06R09R07R19R10R15E19E20
 127286787.111 7  99184520.73745                  24221864.820
  24221859.220          45.650          35.550
 121062464.743 7  94334403.85846                  23037407.780
  23037403.800          47.900          38.300
 120594320.245 8  93969665.70446                  22948312.040
  22948308.000          48.900          38.650
 123141055.241 7  95954134.419 7                  23432932.920    23432928.860
  23432928.400          47.700          43.550
 109441325.861 8  85278986.613 8                  20825971.880    20825968.460
  20825967.780          49.900          48.750
 108314032.058 8  84400631.474 8  80883955.900 8  20611441.200    20611440.400
  20611439.820          49.200          50.250
 109503470.957 8  85327488.561 7                  20837752.780    20837749.120
  20837748.420          50.100          47.900
 125872716.674 7  98082734.052 7  93995979.947 8  23952745.380    23952746.620
  23952745.660          45.250          42.050
 115468083.641 8  89808584.547 7                  21631045.640    21631049.420
  21631048.540          48.000          44.250
 131969999.348 4                                  24687773.800
                        29.300
 108037178.774 7  84028977.020 7                  20224769.060    20224771.980
  20224771.040          46.650          46.000
 121973296.467 7  94868136.774 6                  22793620.940    22793622.440
  22793621.440          44.600          40.700
 126769309.205 6  98598372.319 6                  23673272.860    23673275.760
  23673274.580          41.300          38.100
 111831134.936 8  86979828.548 7                  20957093.020    20957095.560
  20957095.500          48.500          43.700
 109940621.690 7  85509316.605 6                  20588312.980    20588316.120
  20588313.520          47.100          36.550
 110468427.853 8  85919904.328 7                  20636427.720    20636429.460
  20636428.340          48.600          46.600
 126966545.067 7  98751742.194 6                  23735013.060    23735017.980
  23735015.960          44.550          38.250
 129307905.837 6 100572847.519 5                  24257831.660    24257841.780
  24257840.900          39.800          31.600
 128294062.123 6  99784293.499 5                  24008484.960    24008490.620
  24008488.720          40.400          34.350
 132409941.100 8                  98877590.438 7  25196762.340
                        50.000
 120260033.342 8                                  22884721.400
                        48.350
 15  1 27 19  7 35.0000000  0 20G22G18G13G17G15G24G12G25R18R16R17R08
                                R06R09R07R19R10R15E19E20
 127282146.307 7  99180904.53446                  24220981.680
  24220976.100          45.700          36.250
 121065961.394 7  94337128.51346                  23038073.180
  23038069.220          47.650          38.750
 120611012.586 8  93982672.71146                  22951488.520
  22951484.440          49.150          38.550
 123147023.913 7  95958785.330 7                  23434068.660    23434064.700
  23434064.200          47.800          43.750
 109449735.623 8  85285539.669 8                  20827572.200    20827568.800
  20827568.120          49.950          48.850
 108310352.790 8  84397764.510 8  80881208.392 8  20610741.000    20610740.240
  20610739.700          49.300          50.250
 109493653.738 8  85319838.791 7                  20835884.640    20835880.940
  20835880.280          50.150          47.900
 125855925.898 7  98069650.352 7  93983441.402 8  23949550.140    23949551.440
  23949550.500          45.100          42.450
 115458411.395 8  89801061.689 7                  21629233.640    21629237.480
  21629236.580          48.300          44.250
 108043419.153 7  84033830.640 7                  20225937.260    20225940.160
  20225939.260          46.900          45.900
 121980665.551 7  94873868.288 6                  22794998.060    22794999.500
  22794998.500          44.800          40.600
 126751723.998 6  98584694.951 6                  23669988.880    23669991.760
  23669990.580          41.400          37.850
 111847756.879 8  86992756.720 7                  20960208.000    20960210.460
  20960210.440          48.950          43.850
 109933833.870 7  85504037.186 6                  20587041.800    20587045.000
  20587042.340          47.100          36.800
 110466041.453 8  85918048.242 7                  20635981.920    20635983.680
  20635982.560          48.650          46.800
 126945796.916 7  98735604.766 6                  23731134.420    23731139.220
  23731137.260          45.000          38.700
 129294115.791 6 100562121.897 5                  24255244.640    24255254.820
  24255253.760          40.000          31.200
 128308385.592 6  99795433.992 5                  24011165.380    24011170.700
  24011168.940          40.300          34.200
 132407549.560 8                  98875804.542 7  25196307.260
                        50.000
 120269566.851 8                                  22886535.520
                        48.450
 15  1 27 19  7 40.0000000  0 20G22G18G13G17G15G24G12G25R18R16R17R08
                                R06R09R07R19R10R15E19E20
 127277519.078 7  99177298.91946                  24220101.100
  24220095.500          45.600          36.550
 121069470.904 7  94339863.18446                  23038741.020
  23038737.080          47.500          38.800
 120627712.049 8  93995685.27946                  22954666.340
  22954662.260          48.850          39.250
 123153006.741 7  95963447.273 7                  23435207.100    23435203.200
  23435202.680          47.850          44.000
 109458158.341 8  85292102.822 8                  20829174.980    20829171.580
  20829170.900          50.150          48.800
 108306680.340 8  84394902.863 8  80878465.984 8  20610042.120    20610041.420
  20610040.860          49.350          50.150
 109483848.951 8  85312198.705 7                  20834018.880    20834015.140
  20834014.480          50.200          47.850
 125839140.308 7  98056570.697 7  93970906.737 8  23946355.940    23946357.220
  23946356.220          44.750          42.200
 115448757.374 8  89793553.025 7                  21627425.020    21627428.940
  21627428.000          48.350          43.950
 108049665.218 7  84038688.701 7                  20227106.540    20227109.440
  20227108.540          46.900          46.050
 121988054.589 7  94879615.322 6                  22796378.900    22796380.340
  22796379.300          44.400          40.300
 126734150.177 7  98571026.437 6                  23666707.140    23666709.780
  23666708.660          42.200          38.000
 111864392.750 8  87005695.734 7                  20963325.580    20963328.020
  20963328.000          48.700          43.800
 109927052.731 7  85498762.983 6                  20585771.860    20585775.140
  20585772.460          47.600          36.750
 110463677.732 8  85916209.790 7                  20635540.380    20635542.160
  20635541.040          48.750          46.750
 126925048.360 7  98719467.067 6                  23727255.700    23727260.400
  23727258.520          44.300          38.200
 129280327.502 6 100551397.666 5                  24252657.860    24252668.060
  24252666.620          40.400          30.750
 128322707.838 6  99806573.560 5                  24013845.640    24013850.800
  24013848.960          40.650          35.750
 132405169.820 8                  98874027.477 7  25195854.420
                        49.950
 120279109.389 8                                  22888351.380
                        48.250
 15  1 27 19  7 45.0000000  0 20G22G18G13G17G15G24G12G25R18R16R17R08
                                R06R09R07R19R10R15E19E20
 127272904.807 7  99173703.37645                  24219222.960
  24219217.360          45.200          35.950
 121072992.581 7  94342607.34446                  23039411.200
  23039407.220          47.450          38.500
 120644417.904 8  94008702.82246                  22957845.400
  22957841.280          48.700          38.800
 123159003.013 7  95968119.684 7                  23436348.100    23436344.240
  23436343.760          47.700          43.800
 109466593.330 8  85298675.532 8                  20830780.100    20830776.700
  20830776.040          50.100          48.800
 108303014.036 8  84392046.002 8  80875728.164 8  20609344.420    20609343.760
  20609343.200          49.350          50.100
 109474055.930 8  85304567.773 7                  20832155.360    20832151.600
  20832150.940          50.100          47.750
 125822359.238 7  98043494.552 7  93958375.454 8  23943162.560    23943163.840
  23943162.900          44.300          42.450
 115439120.923 7  89786058.003 7                  21625619.760    21625623.680
  21625622.700          47.800          43.850
 108055916.307 7  84043550.657 7                  20228276.760    20228279.660
  20228278.780          46.800          45.950
 121995463.013 7  94885377.425 6                  22797763.320    22797764.760
  22797763.680          44.900          40.700
 126716587.123 7  98557366.263 6                  23663427.360    23663429.960
  23663428.800          42.200          38.500
 111881041.903 8  87018645.069 7                  20966445.640    20966448.060
  20966448.040          48.600          43.950
 109920277.650 7  85493493.488 6                  20584503.040    20584506.360
  20584503.720          47.350          36.800
 110461336.146 8  85914388.552 7                  20635102.960    20635104.760
  20635103.640          48.650          46.700
 126904298.826 7  98703328.574 6                  23723376.820    23723381.460
  23723379.600          44.250          38.550
 129266540.492 6 100540674.516 5                  24250071.400    24250081.540
  24250079.940          41.600          33.250
 128337028.232 6  99817711.650 6                  24016525.440    24016530.840
  24016528.820          40.950          38.400
 132402801.202 8                  98872258.706 7  25195403.680
                        49.900
 120288660.308 8                                  22890168.840
                        48.000
 15  1 27 19  7 50.0000000  0 20G22G18G13G17G15G24G12G25R18R16R17R08
                                R06R09R07R19R10R15E19E20
 127268303.916 7  99170118.28645                  24218347.360
  24218341.820          44.950          35.900
 121076526.926 7  94345361.38146                  23040083.780
  23040079.780          47.250          39.850
 120661130.627 8  94021725.72446                  22961025.740
  22961021.620          48.750          38.300
 123165013.234 7  95972802.983 7                  23437491.760    23437488.000
  23437487.460          47.250          44.000
 109475041.073 8  85305258.197 8                  20832387.640    20832384.240
  20832383.600          50.050          48.850
 108299354.377 8  84389194.330 8  80872995.301 8  20608647.980    20608647.360
  20608646.780          49.300          50.100
 109464275.129 8  85296946.380 7                  20830294.140    20830290.400
  20830289.720          49.900          47.900
 125805583.225 7  98030422.370 7  93945847.934 8  23939970.140    23939971.460
  23939970.480          44.100          42.750
 115429502.549 8  89778577.048 7                  21623817.880    21623821.820
  21623820.800          48.600          44.150
 108062173.035 7  84048417.009 7                  20229448.040    20229450.960
  20229450.060          46.800          45.900
 122002891.244 7  94891154.940 6                  22799151.460    22799152.900
  22799151.780          45.700          40.550
 126699035.274 7  98543714.839 6                  23660149.720    23660152.240
  23660151.100          42.450          38.400
 111897704.580 8  87031604.929 7                  20969568.220    20969570.640
  20969570.600          48.650          44.050
 109913509.116 7  85488229.083 6                  20583235.460    20583238.880
  20583236.200          47.150          36.800
 110459017.037 8  85912584.797 7                  20634669.780    20634671.520
  20634670.420          48.600          46.650
 126883548.784 7  98687189.708 6                  23719497.860    23719502.520
  23719500.580          44.150          38.100
 129252755.270 6 100529952.754 5                  24247485.360    24247495.580
  24247494.100          41.250          33.150
 128351347.296 6  99828848.675 6                  24019205.000    24019210.500
  24019208.560          41.950          38.600
 132400444.213 8                  98870498.617 7  25194955.160
                        49.900
 120298220.050 8                                  22891987.960
                        48.000
 15  1 27 19  7 55.0000000  0 20G22G18G13G17G15G24G12G25R18R16R17R08
                                R06R09R07R19R10R15E19E20
 127263718.501 7  99166545.23345                  24217474.720
  24217469.200          45.250          35.600
 121080075.972 7  94348126.86546                  23040759.140
  23040755.140          47.250          37.800
 120677852.263 8  94034755.56446                  22964207.740
  22964203.660          48.350          38.650
 123171039.430 7  95977498.714 7                  23438638.460    23438634.740
  23438634.240          46.800          43.950
 109483503.627 8  85311852.389 8                  20833997.980    20833994.600
  20833993.960          49.900          48.800
 108295703.385 8  84386349.400 8  80870268.924 8  20607953.200    20607952.600
  20607952.040          49.300          50.150
 109454508.643 8  85289336.133 8                  20828435.640    20828431.920
  20828431.220          49.900          48.050
 125788814.292 7  98017355.678 7  93933325.702 8  23936779.060    23936780.440
  23936779.540          44.100          42.850
 115419904.402 8  89771111.820 7                  21622019.840    21622023.720
  21622022.760          48.800          44.250
 108068437.289 7  84053289.209 7                  20230620.740    20230623.640
  20230622.740          46.900          46.050
 122010341.243 7  94896949.384 6                  22800543.700    22800545.120
  22800543.980          45.850          41.250
 126681496.754 7  98530073.793 6                  23656874.540    23656876.980
  23656875.900          42.900          39.200
 111914382.874 8  87044576.925 7                  20972693.700    20972696.100
  20972696.080          48.900          44.000
 109906749.153 7  85482971.330 6                  20581969.460    20581973.020
  20581970.280          46.700          37.000
 110456722.598 8  85910800.237 7                  20634241.200    20634242.920
  20634241.800          48.950          46.650
 126862800.333 7  98671052.062 6                  23715619.120    23715623.760
  23715621.880          43.100          38.400
 129238973.812 6 100519233.896 5                  24244900.040    24244910.340
  24244909.020          40.100          33.650
 128365666.960 6  99839986.152 6                  24021884.780    24021890.340
  24021888.360          41.850          38.250
 132398100.885 8                  98868748.733 7  25194509.220
                        49.700
 120307790.684 7                                  22893809.180
                        47.900
 15  1 27 19  8  0.0000000  0 20G22G18G13G17G15G24G12G25R18R16R17R08
                                R06R09R07R19R10R15E19E20
 127259145.409 7  99162981.79345                  24216604.440
  24216598.900          45.400          35.950
 121083636.614 7  94350901.39146                  23041436.700
  23041432.780          47.150          38.650
 120694579.729 8  94047789.94146                  22967390.840
  22967386.760          48.600          38.100
 123177078.469 7  95982204.472 7                  23439787.600    23439783.960
  23439783.480          46.950          44.000
 109491977.845 8  85318455.665 8                  20835610.560    20835607.200
  20835606.560          49.850          48.800
 108292058.002 8  84383508.841 8  80867546.712 8  20607259.500    20607258.900
  20607258.340          49.400          50.150
 109444753.347 8  85281734.609 8                  20826579.240    20826575.560
  20826574.840          50.050          48.050
 125772049.291 7  98004292.070 7  93920806.422 8  23933588.680    23933590.140
  23933589.320          44.200          42.950
 115410323.274 8  89763659.844 7                  21620225.000    21620228.840
  21620227.880          48.550          44.350
 108074705.998 7  84058164.872 7                  20231794.260    20231797.140
  20231796.280          46.950          46.150
 122017810.026 7  94902758.456 6                  22801939.420    22801940.800
  22801939.740          45.650          41.700
 126663968.517 7  98516440.724 6                  23653601.260    23653603.700
  23653602.620          42.700          39.250
 111931073.849 8  87057558.794 7                  20975821.580    20975823.940
  20975823.980          48.750          43.850
 109899994.713 7  85477717.877 6                  20580704.500    20580708.020
  20580705.420          46.600          36.700
 110454449.611 8  85909032.361 7                  20633816.640    20633818.320
  20633817.220          49.100          46.850
 126842050.397 7  98654913.306 6                  23711740.060    23711744.820
  23711742.940          43.250          39.250
 129225193.281 6 100508515.678 5                  24242314.760    24242325.220
  24242323.960          37.000          31.700
 128379984.041 6  99851121.672 6                  24024564.120    24024569.580
  24024567.620          40.150          37.300
 132395768.123 8                  98867006.737 7  25194065.300
                        49.800
 120317369.111 8                                  22895631.860
                        48.000
 15  1 27 19  8  5.0000000  0 20G22G18G13G17G15G24G12G25R18R16R17R08
                                R06R09R07R19R10R15E19E20
 127254586.602 7  99159429.48345                  24215736.860
  24215731.340          45.750          35.900
 121087210.813 7  94353686.47946                  23042116.860
  23042112.940          47.150          39.200
 120711314.881 8  94060830.31746                  22970575.440
  22970571.340          48.700          38.250
 123183132.341 7  95986921.776 7                  23440939.560    23440936.000
  23440935.500          47.450          44.000
 109500465.681 8  85325069.563 8                  20837225.720    20837222.400
  20837221.720          49.800          48.700
 108288420.069 8  84380674.094 8  80864830.076 8  20606567.200    20606566.620
  20606566.080          49.100          50.150
 109435011.176 8  85274143.305 7                  20824725.380    20824721.700
  20824720.980          50.100          47.950
 125755290.261 7  97991233.118 7  93908291.576 8  23930399.480    23930401.040
  23930400.160          44.900          42.600
 115400761.233 8  89756222.720 7                  21618433.700    21618437.520
  21618436.560          48.850          43.950
 108080981.123 7  84063045.520 7                  20232968.980    20232971.880
  20232971.000          47.050          45.900
 122025299.523 7  94908583.616 6                  22803339.060    22803340.400
  22803339.400          45.700          41.550
 126646452.415 7  98502817.100 6                  23650330.300    23650332.620
  23650331.600          42.000          38.400
 111947779.357 8  87070551.961 7                  20978952.200    20978954.520
  20978954.580          49.050          43.600
 109893247.710 7  85472470.203 6                  20579440.940    20579444.420
  20579441.920          47.150          36.550
 110452200.109 8  85907282.745 7                  20633396.440    20633398.140
  20633397.000          49.150          46.800
 126821300.925 7  98638774.913 6                  23707861.160    23707865.880
  23707864.040          44.350          37.850
 129211415.485 6 100497799.623 5                  24239729.900    24239740.420
  24239739.160          38.400          32.550
 128394300.620 6  99862256.801 6                  24027243.300    24027248.800
  24027246.720          40.750          36.350
 132393447.893 8                  98865274.084 7  25193623.740
                        49.800
 120326957.249 8                                  22897456.380
                        48.150
 15  1 27 19  8 10.0000000  0 20G22G18G13G17G15G24G12G25R18R16R17R08
                                R06R09R07R19R10R15E19E20
 127250040.534 7  99155887.10245                  24214871.720
  24214866.240          45.600          35.950
 121090796.952 7  94356480.87146                  23042799.260
  23042795.380          47.250          38.600
 120728056.144 8  94073875.45746                  22973761.200
  22973757.100          48.600          38.400
 123189199.387 8  95991649.347 7                  23442094.040    23442090.520
  23442090.000          48.000          43.800
 109508965.551 8  85331692.841 8                  20838843.180    20838839.900
  20838839.180          49.750          48.700
 108284788.033 8  84377843.938 8  80862117.847 8  20605876.060    20605875.460
  20605874.920          49.050          50.050
 109425280.582 8  85266561.030 7                  20822873.680    20822870.040
  20822869.320          49.950          47.950
 125738535.592 7  97978177.550 7  93895780.004 8  23927211.140    23927212.680
  23927211.820          45.100          42.300
 115391216.594 8  89748799.118 7                  21616645.640    21616649.400
  21616648.460          48.900          43.950
 108087261.012 7  84067929.889 7                  20234144.560    20234147.460
  20234146.600          47.350          45.850
 122032808.059 7  94914423.593 6                  22804742.260    22804743.520
  22804742.600          45.900          41.550
 126628946.956 7  98489201.760 6                  23647061.340    23647063.560
  23647062.620          42.750          39.350
 111964497.669 8  87083555.085 7                  20982085.220    20982087.500
  20982087.620          49.250          43.600
 109886506.473 7  85467227.036 6                  20578178.480    20578181.840
  20578179.520          47.600          37.150
 110449972.417 8  85905550.096 7                  20632980.360    20632982.020
  20632980.900          49.200          46.900
 126800550.393 7  98622635.648 6                  23703982.100    23703986.700
  23703984.880          44.850          38.150
 129197638.552 6 100487084.316 5                  24237145.300    24237155.900
  24237154.380          39.750          32.350
 128408615.056 6  99873390.268 6                  24029922.000    24029927.580
  24029925.420          39.750          36.950
 132391138.576 8                  98863549.600 7  25193184.280
                        49.750
 120336553.479 8                                  22899282.460
                        48.300
 15  1 27 19  8 15.0000000  0 20G22G18G13G17G15G24G12G25R18R16R17R08
                                R06R09R07R19R10R15E19E20
 127245508.213 7  99152355.43245                  24214009.220
  24214003.800          45.800          35.100
 121094396.065 7  94359285.37346                  23043484.160
  23043480.240          47.300          38.150
 120744804.610 8  94086926.20346                  22976948.340
  22976944.260          48.700          38.350
 123195280.675 8  95996388.008 7                  23443251.220    23443247.760
  23443247.240          48.100          43.850
 109517478.461 8  85338326.279 8                  20840463.120    20840459.840
  20840459.120          49.900          48.700
 108281162.957 8  84375019.204 8  80859410.819 8  20605186.220    20605185.620
  20605185.080          49.150          50.050
 109415562.527 8  85258988.527 8                  20821024.380    20821020.740
  20821020.060          49.900          48.000
 125721786.285 7  97965126.167 7  93883272.430 8  23924023.820    23924025.420
  23924024.480          45.550          42.300
 115381690.497 8  89741389.934 7                  21614861.060    21614864.840
  21614863.820          48.350          43.850
 108093546.866 7  84072818.886 7                  20235321.300    20235324.200
  20235323.320          47.300          45.950
 122040336.692 7  94920279.206 6                  22806149.160    22806150.520
  22806149.580          45.900          41.700
 126611453.166 7  98475595.482 6                  23643794.500    23643796.760
  23643795.800          42.700          39.600
 111981229.837 8  87096568.980 7                  20985220.820    20985223.160
  20985223.240          48.900          43.600
 109879772.067 7  85461989.179 6                  20576917.320    20576920.760
  20576918.440          47.750          37.150
 110447767.554 8  85903835.203 7                  20632568.500    20632570.140
  20632569.060          49.250          47.150
 126779799.767 7  98606496.295 6                  23700102.960    23700107.560
  23700105.720          44.100          38.950
 129183863.768 6 100476370.682 5                  24234561.240    24234571.800
  24234570.220          40.050          33.650
 128422928.452 6  99884522.866 6                  24032600.400    24032606.200
  24032604.040          37.550          38.050
 132388841.219 8                  98861834.047 7  25192747.100
                        49.850
 120346158.891 8                                  22901110.260
                        48.100
 15  1 27 19  8 20.0000000  0 20G22G18G13G17G15G24G12G25R18R16R17R08
                                R06R09R07R19R10R15E19E20
 127240990.559 7  99148835.19445                  24213149.500
  24213144.060          45.850          35.800
 121098009.046 7  94362100.67746                  23044171.680
  23044167.740          47.250          38.200
 120761561.168 8  94099983.26546                  22980137.020
  22980132.880          48.600          39.450
 123201377.112 7  96001138.471 7                  23444411.320    23444407.840
  23444407.360          47.850          44.000
 109526005.363 8  85344970.625 8                  20842085.740    20842082.480
  20842081.740          49.900          48.850
 108277545.780 8  84372200.626 8  80856709.667 8  20604497.900    20604497.300
  20604496.740          49.300          50.150
 109405857.948 8  85251426.536 8                  20819177.620    20819174.040
  20819173.380          49.800          48.000
 125705043.285 7  97952079.700 7  93870769.564 8  23920837.720    23920839.260
  23920838.400          45.650          42.750
 115372183.775 8  89733995.837 7                  21613080.100    21613083.900
  21613082.860          48.750          44.400
 108099839.490 7  84077713.162 7                  20236499.300    20236502.140
  20236501.300          47.250          45.950
 122047886.323 7  94926151.133 6                  22807560.040    22807561.420
  22807560.440          45.750          41.100
 126593972.010 7  98461999.044 6                  23640530.000    23640532.340
  23640531.320          43.050          39.750
 111997976.911 8  87109594.466 7                  20988359.200    20988361.580
  20988361.660          48.950          43.600
 109873045.489 7  85456757.408 6                  20575657.640    20575661.060
  20575658.800          47.400          36.850
 110445586.611 8  85902138.916 7                  20632161.140    20632162.740
  20632161.680          49.350          47.050
 126759050.016 7  98590357.658 6                  23696223.980    23696228.600
  23696226.720          44.050          39.550
 129170092.094 6 100465659.390 5                  24231977.740    24231988.240
  24231986.980          38.150          34.650
 128437241.563 6  99895655.242 6                  24035278.620    24035284.760
  24035282.600          38.900          38.300
 132386556.723 8                  98860128.090 7  25192312.360
                        49.950
 120355774.373 8                                  22902939.980
                        48.150
 15  1 27 19  8 25.0000000  0 20G22G18G13G17G15G24G12G25R18R16R17R08
                                R06R09R07R19R10R15E19E20
 127236485.383 7  99145324.65146                  24212292.180
  24212286.680          45.400          37.050
 121101633.655 7  94364925.04146                  23044861.420
  23044857.460          47.100          38.850
 120778323.559 8  94113044.85546                  22983326.800
  22983322.640          48.600          38.400
 123207486.448 7  96005898.997 7                  23445573.880    23445570.420
  23445569.940          47.250          43.850
 109534544.013 8  85351624.110 8                  20843710.580    20843707.340
  20843706.600          49.850          48.850
 108273934.251 8  84369386.444 8  80854012.754 8  20603810.640    20603810.040
  20603809.480          49.300          50.100
 109396164.675 8  85243873.340 7                  20817333.040    20817329.440
  20817328.820          49.700          47.950
 125688304.389 7  97939036.429 7  93858269.757 8  23917652.400    23917653.960
  23917653.100          45.300          42.350
 115362694.299 8  89726615.134 7                  21611302.400    21611306.200
  21611305.160          48.400          44.800
 108106136.522 7  84082610.847 7                  20237678.120    20237680.960
  20237680.120          46.800          46.200
 122055454.600 7  94932037.575 6                  22808974.420    22808975.760
  22808974.760          45.550          41.250
 126576501.246 7  98448410.687 6                  23637267.460    23637269.920
  23637268.800          42.700          39.850
 112014736.294 8  87122629.537 7                  20991499.900    20991502.260
  20991502.360          48.750          43.950
 109866324.429 7  85451529.913 6                  20574398.940    20574402.480
  20574400.160          46.900          37.000
 110443427.053 8  85900459.247 7                  20631757.780    20631759.340
  20631758.300          48.950          47.100
 126738298.952 7  98574218.019 6                  23692344.700    23692349.340
  23692347.560          43.850          39.400
 129156321.134 6 100454948.611 5                  24229394.240    24229404.860
  24229403.960          37.400          35.450
 128451552.250 6  99906785.756 6                  24037956.600    24037962.840
  24037960.700          40.750          38.800
 132384282.896 8                  98858430.098 7  25191879.640
                        49.900
 120365397.626 7                                  22904771.200
                        47.950
 15  1 27 19  8 30.0000000  0 20G22G18G13G17G15G24G12G25R18R16R17R08
                                R06R09R07R19R10R15E19E20
 127231995.922 7  99141826.39645                  24211437.860
  24211432.480          45.200          35.300
 121105273.119 7  94367760.98746                  23045553.960
  23045549.960          47.300          38.050
 120795094.989 8  94126113.50546                  22986518.320
  22986514.100          48.700          38.750
 123213611.909 7  96010672.091 7                  23446739.500    23446736.040
  23446735.580          47.150          43.450
 109543097.621 8  85358289.255 8                  20845338.260    20845335.040
  20845334.320          49.850          48.750
 108270331.578 8  84366579.170 8  80851322.438 8  20603125.080    20603124.500
  20603123.900          49.450          50.050
 109386485.924 8  85236331.463 7                  20815491.240    20815487.640
  20815487.020          49.900          47.850
 125671572.824 7  97925998.866 7  93845775.422 8  23914468.460    23914470.040
  23914469.180          44.850          42.150
 115353225.250 8  89719250.310 7                  21609528.560    21609532.300
  21609531.340          48.650          44.700
 108112441.288 7  84087514.554 7                  20238858.360    20238861.240
  20238860.400          47.050          46.300
 122063044.980 7  94937941.211 6                  22810392.900    22810394.200
  22810393.240          46.000          41.350
 126559044.217 7  98434833.002 6                  23634007.520    23634010.020
  23634008.840          42.900          40.100
 112031511.466 8  87135676.895 7                  20994643.580    20994645.960
  20994646.040          48.950          43.900
 109859612.119 7  85446309.226 6                  20573141.960    20573145.460
  20573143.160          47.150          37.100
 110441292.500 8  85898799.043 7                  20631359.060    20631360.620
  20631359.580          49.400          47.250
 126717549.784 7  98558079.842 6                  23688465.780    23688470.460
  23688468.700          44.700          38.800
 129142554.263 6 100444241.038 5                  24226811.600    24226822.440
  24226821.660          40.850          34.900
 128465863.883 6  99917917.026 6                  24040634.840    24040641.060
  24040638.980          41.650          37.200
 132382022.939 8                  98856742.468 7  25191449.540
                        49.950
 120375031.937 8                                  22906604.520
                        48.000
 15  1 27 19  8 35.0000000  0 20G22G18G13G17G15G24G12G25R18R16R17R08
                                R06R09R07R19R10R15E19E20
 127227517.373 7  99138336.62045                  24210585.600
  24210580.220          45.050          34.900
 121108922.707 7  94370604.80946                  23046248.440
  23046244.420          47.450          37.750
 120811870.704 8  94139185.48946                  22989710.660
  22989706.420          48.700          38.400
 123219748.761 7  96015454.054 7                  23447907.340    23447903.820
  23447903.400          47.450          43.200
 109551661.419 8  85364962.336 8                  20846967.900    20846964.660
  20846963.960          49.800          48.300
 108266733.132 8  84363775.182 8  80848635.291 8  20602440.320    20602439.740
  20602439.140          49.250          49.750
 109376817.011 8  85228797.236 7                  20813651.300    20813647.700
  20813647.080          49.900          47.600
 125654843.855 7  97912963.314 7  93833283.025 8  23911285.040    23911286.560
  23911285.740          44.550          42.000
 115343771.991 8  89711897.787 7                  21607757.660    21607761.400
  21607760.460          49.200          44.650
 108118749.102 7  84092420.634 7                  20240039.140    20240042.060
  20240041.260          47.150          46.450
 122070652.629 7  94943858.269 6                  22811814.580    22811815.840
  22811814.920          46.100          41.250
 126541595.989 7  98421262.158 6                  23630749.240    23630751.640
  23630750.520          43.400          40.600
 112048297.644 8  87148732.814 7                  20997789.340    20997791.700
  20997791.800          48.900          44.250
 109852903.865 7  85441091.697 6                  20571885.720    20571889.240
  20571886.920          47.650          37.800
 110439177.978 8  85897154.413 7                  20630964.080    20630965.640
  20630964.600          49.600          47.400
 126696797.851 7  98541939.497 6                  23684586.360    23684591.020
  23684589.340          44.950          38.050
 129128786.691 7 100433533.017 5                  24224228.860    24224239.620
  24224238.900          42.650          33.000
 128480171.631 6  99929045.318 6                  24043312.440    24043318.380
  24043316.420          41.350          37.050
 132379772.141 8                  98855061.688 7  25191021.200
                        49.750
 120384672.515 7                                  22908439.040
                        47.800
 15  1 27 19  8 40.0000000  0 20G22G18G13G17G15G24G12G25R18R16R17R08
                                R06R09R07R19R10R15E19E20
 127223053.410 7  99134858.21745                  24209736.140
  24209730.780          45.450          35.650
 121112586.063 7  94373459.37546                  23046945.580
  23046941.520          47.650          38.600
 120828654.371 8  94152263.66946                  22992904.480
  22992900.300          48.600          38.100
 123225900.594 8  96020247.698 7                  23449078.040    23449074.400
  23449074.000          48.050          43.300
 109560239.079 8  85371646.223 8                  20848600.180    20848596.940
  20848596.220          50.000          48.450
 108263142.426 8  84360977.230 8  80845953.918 8  20601757.000    20601756.440
  20601755.840          49.400          49.900
 109367161.566 8  85221273.515 7                  20811813.920    20811810.300
  20811809.720          50.000          47.800
 125638121.149 7  97899932.649 7  93820795.301 8  23908102.820    23908104.360
  23908103.480          44.800          42.150
 115334338.154 8  89704560.361 7                  21605990.400    21605994.140
  21605993.200          48.700          44.550
 108125063.604 7  84097331.913 7                  20241221.240    20241224.120
  20241223.340          47.100          46.300
 122078281.089 7  94949791.519 6                  22813240.180    22813241.420
  22813240.480          45.600          41.050
 126524160.442 7  98407701.189 6                  23627493.300    23627495.680
  23627494.540          43.900          40.450
 112065098.435 8  87161800.081 7                  21000937.820    21000940.200
  21000940.300          48.750          44.100
 109846203.319 7  85435880.172 6                  20570630.880    20570634.480
  20570632.160          47.550          37.650
 110437087.226 8  85895528.277 7                  20630573.560    20630575.100
  20630574.060          49.300          47.350
 126676046.739 7  98525799.789 6                  23680707.100    23680711.700
  23680710.040          44.100          38.150
 129115021.992 6 100422827.203 5                  24221646.760    24221657.100
  24221656.320          40.850          31.200
 128494479.174 6  99940173.417 6                  24045989.940    24045995.840
  24045993.800          41.550          36.550
 132377534.135 8                  98853390.445 7  25190595.280
                        49.900
 120394323.057 8                                  22910275.480
                        48.050
 15  1 27 19  8 45.0000000  0 20G22G18G13G17G15G24G12G25R18R16R17R08
                                R06R09R07R19R10R15E19E20
 127218602.668 7  99131390.12146                  24208889.140
  24208883.780          44.700          36.250
 121116261.787 7  94376323.57346                  23047645.040
  23047640.960          47.600          38.550
 120845444.622 8  94165346.96946                  22996099.560
  22996095.380          48.600          39.700
 123232066.062 8  96025051.967 7                  23450251.320    23450247.640
  23450247.220          48.100          44.200
 109568829.233 8  85378339.850 8                  20850234.820    20850231.600
  20850230.880          49.800          49.200
 108259558.151 8  84358184.296 8  80843277.362 8  20601074.940    20601074.360
  20601073.780          49.300          50.650
 109357518.161 8  85213759.186 8                  20809978.840    20809975.200
  20809974.640          50.000          48.750
 125621403.352 7  97886905.803 7  93808311.243 8  23904921.540    23904923.020
  23904922.160          44.800          43.050
 115324922.336 8  89697236.940 7                  21604226.560    21604230.260
  21604229.300          48.600          44.550
 108131383.312 7  84102247.245 7                  20242404.260    20242407.180
  20242406.400          47.250          46.000
 122085929.056 7  94955739.940 6                  22814669.400    22814670.620
  22814669.700          45.000          41.300
 126506736.107 7  98394148.954 6                  23624239.480    23624241.820
  23624240.680          43.750          40.550
 112081912.415 8  87174877.606 7                  21004088.780    21004091.180
  21004091.260          48.950          43.900
 109839509.005 7  85430673.493 6                  20569377.280    20569381.000
  20569378.560          47.500          36.800
 110435018.737 8  85893919.450 7                  20630187.180    20630188.680
  20630187.660          49.200          47.100
 126655295.140 7  98509659.691 6                  23676827.840    23676832.280
  23676830.640          44.500          38.650
 129101258.868 6 100412122.615 5                  24219064.840    24219074.940
  24219074.080          39.850          32.000
 128508785.231 6  99951300.358 6                  24048667.160    24048672.860
  24048670.880          40.800          36.600
 132375307.576 8                  98851727.755 7  25190171.560
                        49.750
 120403982.172 7                                  22912113.520
                        47.950
 15  1 27 19  8 50.0000000  0 20G22G18G13G17G15G24G12G25R18R16R17R08
                                R06R09R07R19R10R15E19E20
 127214166.386 7  99127933.26946                  24208044.880
  24208039.480          44.700          36.850
 121119951.147 7  94379198.40246                  23048347.100
  23048343.020          47.600          39.250
 120862242.695 8  94178436.37446                  22999296.140
  22999291.980          48.600          39.900
 123238246.488 8  96029867.886 7                  23451427.440    23451423.720
  23451423.280          48.450          44.000
 109577433.100 8  85385044.162 8                  20851872.080    20851868.860
  20851868.120          49.900          49.200
 108255981.558 8  84355397.346 8  80840606.522 8  20600394.320    20600393.740
  20600393.180          49.200          50.550
 109347888.054 8  85206255.214 8                  20808146.280    20808142.640
  20808142.080          50.100          48.550
 125604691.656 7  97873883.708 7  93795831.742 8  23901741.360    23901742.840
  23901742.020          44.800          43.400
 115315525.909 8  89689928.608 7                  21602466.300    21602470.000
  21602469.060          48.950          44.550
 108137709.576 7  84107167.673 7                  20243588.560    20243591.480
  20243590.660          47.450          46.200
 122093597.882 7  94961704.579 6                  22816102.480    22816103.780
  22816102.860          45.350          41.200
 126489324.320 7  98380606.459 6                  23620987.980    23620990.300
  23620989.200          44.000          39.950
 112098740.714 8  87187966.279 7                  21007242.400    21007244.840
  21007244.900          48.850          43.950
 109832822.319 7  85425472.750 6                  20568125.080    20568128.820
  20568126.380          47.350          36.650
 110432973.843 8  85892328.975 7                  20629805.200    20629806.660
  20629805.660          49.400          47.050
 126634544.445 7  98493520.285 6                  23672948.700    23672953.120
  23672951.480          44.250          39.600
 129087498.623 6 100401420.171 5                  24216483.460    24216493.480
  24216492.680          40.600          31.800
 128523090.863 6  99962426.953 6                  24051344.160    24051349.880
  24051347.960          40.100          37.400
 132373093.703 8                  98850074.529 7  25189750.240
                        49.800
 120413651.090 8                                  22913953.440
                        48.250
 15  1 27 19  8 55.0000000  0 20G22G18G13G17G15G24G12G25R18R16R17R08
                                R06R09R07R19R10R15E19E20
 127209744.168 7  99124487.40246                  24207203.320
  24207197.900          44.700          37.900
 121123653.740 7  94382083.53546                  23049051.680
  23049047.580          47.550          38.850
 120879048.182 8  94191531.54546                  23002494.120
  23002490.000          48.800          39.450
 123244441.471 8  96034695.141 7                  23452606.360    23452602.520
  23452602.100          48.450          43.400
 109586050.352 8  85391758.903 8                  20853511.900    20853508.680
  20853507.940          49.850          49.000
 108252412.243 8  84352616.071 8  80837941.138 8  20599715.100    20599714.520
  20599713.980          49.300          50.350
 109338270.921 8  85198761.349 8                  20806316.200    20806312.520
  20806311.980          50.250          48.300
 125587985.715 7  97860866.118 7  93783356.563 8  23898562.280    23898563.780
  23898563.000          44.950          43.100
 115306148.421 8  89682635.010 7                  21600709.580    21600713.300
  21600712.380          48.750          44.250
 108144041.931 7  84112092.838 7                  20244773.980    20244776.880
  20244776.060          47.650          45.950
 122101287.000 7  94967685.004 6                  22817539.340    22817540.660
  22817539.800          45.400          41.300
 126471924.664 7  98367073.414 6                  23617738.680    23617740.980
  23617739.940          43.700          40.000
 112115583.309 8  87201066.069 7                  21010398.720    21010401.160
  21010401.240          48.800          43.800
 109826142.791 7  85420277.568 6                  20566874.200    20566878.020
  20566875.520          47.300          37.150
 110430952.210 8  85890756.596 7                  20629427.560    20629429.020
  20629428.020          49.400          47.100
 126613794.055 7  98477381.159 6                  23669069.580    23669074.040
  23669072.400          43.800          39.250
 129073740.867 7 100390719.671 5                  24213902.540    24213912.500
  24213911.980          42.700          34.050
 128537395.581 6  99973552.834 6                  24054021.160    24054026.860
  24054024.960          40.750          37.500
 132370892.114 8                  98848430.497 7  25189331.280
                        49.800
 120423329.433 8                                  22915795.160
                        48.250
 15  1 27 19  9  0.0000000  0 20G22G18G13G17G15G24G12G25R18R16R17R08
                                R06R09R07R19R10R15E19E20
 127205334.873 7  99121051.58746                  24206364.220
  24206358.740          44.950          37.050
 121127368.404 7  94384978.07646                  23049758.580
  23049754.480          47.400          38.200
 120895859.903 8  94204631.58546                  23005693.300
  23005689.180          49.100          39.200
 123250649.775 8  96039532.780 7                  23453787.780    23453783.860
  23453783.440          48.600          43.350
 109594679.780 8  85398483.133 8                  20855154.060    20855150.820
  20855150.060          49.800          48.800
 108248849.192 8  84349839.680 8  80835280.426 8  20599037.060    20599036.500
  20599035.940          49.200          50.150
 109328665.554 8  85191276.658 8                  20804488.360    20804484.640
  20804484.100          50.150          48.000
 125571284.416 7  97847852.147 7  93770884.835 8  23895384.080    23895385.580
  23895384.880          45.100          42.900
 115296788.727 8  89675355.274 7                  21598956.160    21598959.900
  21598959.000          48.800          44.050
 108150379.272 7  84117021.885 7                  20245960.360    20245963.240
  20245962.400          47.800          45.850
 122108995.308 7  94973680.362 6                  22818979.840    22818981.140
  22818980.340          45.100          41.400
 126454536.032 7  98353548.922 6                  23614491.460    23614493.740
  23614492.760          43.250          40.400
 112132438.687 8  87214175.807 7                  21013557.440    21013559.840
  21013559.960          48.650          43.650
 109819469.262 7  85415087.052 6                  20565624.500    20565628.280
  20565625.780          47.550          37.050
 110428952.675 8  85889201.406 7                  20629054.060    20629055.520
  20629054.520          49.350          46.950
 126593043.127 7  98461241.617 6                  23665190.300    23665194.900
  23665193.220          44.350          38.400
 129059984.212 7 100380020.107 5                  24211321.940    24211331.900
  24211331.400          42.400          31.300
 128551698.333 6  99984677.216 6                  24056697.780    24056703.500
  24056701.540          41.350          37.450
 132368701.692 8                  98846794.784 7  25188914.420
                        49.750
 120433016.038 8                                  22917638.440
                        48.150
 15  1 27 19  9  5.0000000  0 20G22G18G13G17G15G24G12G25R18R16R17R08
                                R06R09R07R19R10R15E19E20
 127200938.681 7  99117625.99845                  24205527.620
  24205522.100          44.850          35.950
 121131095.280 7  94387882.12946                  23050467.800
  23050463.680          47.650          38.300
 120912678.045 8  94217736.63546                  23008893.700
  23008889.580          48.850          39.400
 123256871.635 8  96044380.985 7                  23454971.800    23454967.820
  23454967.380          48.650          43.300
 109603321.520 8  85405216.954 8                  20856798.560    20856795.300
  20856794.520          49.950          48.850
 108245292.429 8  84347068.180 8  80832624.418 8  20598360.220    20598359.660
  20598359.120          49.300          50.150
 109319072.180 8  85183801.305 7                  20802662.800    20802659.080
  20802658.500          50.050          47.900
 125554587.875 7  97834841.870 7  93758416.677 8  23892206.800    23892208.360
  23892207.620          44.950          42.800
 115287447.029 8  89668089.508 7                  21597206.100    21597209.880
  21597208.980          48.700          44.300
 108156721.786 7  84121954.948 7                  20247147.740    20247150.580
  20247149.720          47.600          45.700
 122116722.901 7  94979690.713 6                  22820423.900    22820425.200
  22820424.480          45.000          40.850
 126437158.572 7  98340033.158 6                  23611246.300    23611248.600
  23611247.640          43.000          39.800
 112149306.887 8  87227295.519 7                  21016718.560    21016720.960
  21016721.060          48.600          43.550
 109812801.934 7  85409901.349 6                  20564375.960    20564379.680
  20564377.200          47.700          37.400
 110426975.429 8  85887663.542 7                  20628684.720    20628686.160
  20628685.140          49.150          46.900
 126572291.525 7  98445101.530 6                  23661310.960    23661315.560
  23661313.860          45.050          38.000
 129046228.950 6 100369321.624 5                  24208741.660    24208751.520
  24208750.740          40.450          31.550
 128565999.401 6  99995800.290 6                  24059374.100    24059379.860
  24059377.900          39.600          37.350
 132366522.552 8                  98845167.524 7  25188499.740
                        49.850
 120442711.045 8                                  22919483.320
                        48.100
 15  1 27 19  9 10.0000000  0 20G22G18G13G17G15G24G12G25R18R16R17R08
                                R06R09R07R19R10R15E19E20
 127196558.309 7  99114212.72745                  24204694.020
  24204688.480          44.500          35.700
 121134837.118 7  94390797.84546                  23051179.860
  23051175.740          47.550          38.500
 120929505.357 8  94230848.82046                  23012095.840
  23012091.740          48.600          38.950
 123263109.735 8  96049241.846 7                  23456158.900    23456154.820
  23456154.420          48.350          43.250
 109611978.332 8  85411962.522 8                  20858445.900    20858442.620
  20858441.860          50.000          48.750
 108241744.752 8  84344303.763 8  80829975.174 8  20597685.120    20597684.560
  20597684.000          49.400          50.100
 109309493.472 8  85176337.381 7                  20800840.040    20800836.320
  20800835.700          49.950          47.800
 125537898.873 7  97821837.474 7  93745954.122 8  23889030.960    23889032.520
  23889031.780          44.900          42.900
 115278126.079 8  89660839.888 7                  21595459.940    21595463.780
  21595462.920          48.100          44.650
 108163072.145 7  84126894.124 7                  20248336.540    20248339.380
  20248338.480          47.600          45.850
 122124472.597 7  94985718.265 6                  22821872.120    22821873.380
  22821872.720          45.600          40.500
 126419795.118 7  98326528.256 6                  23608003.780    23608006.080
  23608005.120          43.700          39.700
 112166190.894 8  87240427.520 7                  21019882.620    21019885.020
  21019885.140          48.950          43.550
 109806143.450 7  85404722.533 6                  20563129.080    20563132.860
  20563130.260          47.850          36.800
 110425023.156 8  85886145.114 7                  20628320.020    20628321.540
  20628320.440          49.100          46.850
 126551542.242 7  98428963.210 6                  23657432.160    23657436.720
  23657434.940          44.400          38.300
 129032478.073 5 100358626.551 5                  24206162.020    24206171.720
  24206170.660          35.050          31.200
 128580301.456 6 100006924.073 6                  24062050.500    24062056.380
  24062054.340          39.200          37.700
 132364357.470 8                  98843550.726 7  25188087.720
                        49.650
 120452417.150 7                                  22921330.320
                        47.900
