     2.11           OBSERVATION DATA    M (MIXED)           RINEX VERSION / TYPE
teqc  2011Oct11     IGN-E (SPG)         20150127 18:00:46UTCPGM / RUN BY / DATE
Linux 2.4.21-27.ELsmp|Opteron|gcc -static|Linux x86_64|=+   COMMENT
BIT 2 OF LLI FLAGS DATA COLLECTED UNDER A/S CONDITION       COMMENT
VALE                                                        MARKER NAME
13439M001                                                   MARKER NUMBER
Programas GeodesicosInstituto Geografico Nacional           OBSERVER / AGENCY
1700071             LEICA GR10          3.03/6.214          REC # / TYPE / VERS
10190012            LEIAR25.R3      LEIT                    ANT # / TYPE
  4929534.0457   -29050.6755  4033709.9250                  APPROX POSITION XYZ
        3.0390        0.0000        0.0000                  ANTENNA: DELTA H/E/N
     1     1                                                WAVELENGTH FACT L1/2
     8    L1    L2    L5    C1    C2    P2    S1    S2      # / TYPES OF OBSERV
     5.0000                                                 INTERVAL
Forced Modulo Decimation to 5 seconds                       COMMENT
DefaultJobName                                              COMMENT
DefaultUserDiscription                                      COMMENT
Project creator:                                            COMMENT
 SNR is mapped to RINEX snr flag value [0-9]                COMMENT
  L1 & L2: min(max(int(snr_dBHz/6), 0), 9)                  COMMENT
  2015     1    27    17     0    0.0000000     GPS         TIME OF FIRST OBS
    15                                                      LEAP SECONDS
                                                            END OF HEADER
 15  1 27 17  0  0.0000000  0 19G30G21G18G13G17G15G28G24G05R14R05R16
                                R24R06R09R04R15E19E20
 128373583.334 7 100031452.954 7  95863489.249 7  24428647.700    24428648.080
  24428647.220          44.200          42.200
 134755420.992 6 105004221.90144                  25643104.580
  25643104.580          40.750          27.000
 131130342.381 7 102179492.52645                  24953269.620
  24953268.060          44.850          33.000
 106567379.032 8  83039584.17147                  20279071.760
  20279067.540          49.800          47.450
 129718767.290 7 101079613.761 6                  24684637.680    24684636.620
  24684636.340          45.550          39.550
 111683045.227 8  87025778.736 7                  21252558.860    21252555.720
  21252555.040          50.250          47.400
 116033882.348 8  90416146.43347                  22080445.100
  22080440.880          49.600          43.450
 121160589.666 7  94410926.141 7  90477153.039 8  23056067.840    23056068.900
  23056068.120          46.600          44.750
 117844127.044 8  91826606.670 7                  22424978.660    22424976.980
  22424976.380          49.750          46.000
 125231747.387 6  97402561.410 5                  23493117.520    23493126.120
  23493125.060          38.850          33.650
 103844298.601 8  80767837.092 7                  19426206.920    19426209.800
  19426209.300          49.550          47.450
 108392889.330 7  84305636.320 7                  20291362.440    20291366.220
  20291365.460          47.800          46.300
 128769989.988 7 100154449.199 5                  24080635.640    24080639.020
  24080637.120          42.400          32.150
 109554116.206 8  85208813.907 7                  20530380.960    20530383.340
  20530383.520          49.100          44.350
 128891045.004 6 100248588.056 4                  24137141.200    24137152.780
  24137149.720          41.000          29.550
 121637806.048 7  94607216.230 6                  22714997.180    22715000.820
  22714998.940          46.100          41.050
 106934043.932 7  83171076.930 7                  20011190.240    20011196.200
  20011194.140          47.800          46.050
 146974701.882 7                 109753855.242 6  27968354.300
                        44.250
 118391961.418 8                                  22529239.520
                        48.750
 15  1 27 17  0  5.0000000  0 19G30G21G18G13G17G15G28G24G05R14R05R16
                                R24R06R09R04R15E19E20
 128388733.071 7 100043257.915 6  95874802.356 8  24431530.540    24431531.020
  24431530.180          44.150          41.400
 134759343.169 6 105007278.07044                  25643851.040
  25643850.960          41.200          29.000
 131115561.041 7 102167974.58145                  24950456.840
  24950455.260          45.200          32.650
 106568244.211 8  83040258.33647                  20279236.420
  20279232.200          49.750          47.250
 129706977.447 7 101070426.889 6                  24682394.120    24682393.080
  24682392.760          45.550          39.700
 111673321.464 8  87018201.784 7                  21250708.500    21250705.340
  21250704.680          50.300          47.650
 116042821.502 8  90423111.99847                  22082146.040
  22082141.920          49.250          43.950
 121147820.655 7  94400976.273 7  90467617.756 8  23053637.960    23053639.040
  23053638.280          47.000          44.700
 117859754.190 8  91838783.663 7                  22427952.420    22427950.740
  22427950.140          49.900          46.150
 125250101.232 6  97416836.621 5                  23496560.700    23496569.180
  23496568.300          38.250          33.900
 103852283.505 8  80774047.569 7                  19427700.680    19427703.580
  19427703.080          49.600          47.800
 108384093.510 7  84298795.122 7                  20289715.840    20289719.620
  20289718.820          47.850          46.450
 128762925.839 7 100148954.838 5                  24079314.580    24079318.000
  24079316.000          42.800          32.400
 109540265.435 8  85198041.096 7                  20527785.360    20527787.720
  20527787.900          49.150          44.600
 128873358.695 6 100234832.180 5                  24133829.060    24133840.300
  24133837.600          40.000          30.000
 121659038.405 7  94623730.257 6                  22718962.220    22718965.860
  22718964.060          46.550          41.200
 106944958.385 7  83179565.957 7                  20013232.780    20013238.680
  20013236.640          47.550          46.350
 146960701.172 7                 109743400.209 6  27965690.080
                        44.100
 118384971.800 8                                  22527909.480
                        48.700
 15  1 27 17  0 10.0000000  0 19G30G21G18G13G17G15G28G24G05R14R05R16
                                R24R06R09R04R15E19E20
 128403882.597 7 100055062.753 6  95886115.316 8  24434413.420    24434413.880
  24434413.000          44.900          40.850
 134763274.894 6 105010341.85245                  25644599.200
  25644599.120          40.400          30.350
 131100786.015 7 102156461.59445                  24947645.240
  24947643.600          45.400          33.050
 106569119.602 8  83040940.45947                  20279402.980
  20279398.760          50.000          47.050
 129695191.653 7 101061243.170 6                  24680151.320    24680150.300
  24680149.980          45.700          39.900
 111663605.082 8  87010630.583 7                  21248859.520    21248856.380
  21248855.740          50.450          47.550
 116051772.506 8  90430086.80247                  22083849.220
  22083845.200          49.100          43.900
 121135056.986 7  94391030.562 7  90458086.454 8  23051209.100    23051210.160
  23051209.440          46.950          44.950
 117875389.030 8  91850966.649 7                  22430927.660    22430925.920
  22430925.360          49.850          46.150
 125268453.509 6  97431110.629 5                  23500003.520    23500011.980
  23500011.140          38.900          33.750
 103860288.613 8  80780273.758 7                  19429198.200    19429201.100
  19429200.600          49.850          47.650
 108375310.729 7  84291964.077 7                  20288071.700    20288075.500
  20288074.640          47.850          46.300
 128755878.785 7 100143473.809 5                  24077996.740    24078000.240
  24077998.080          42.250          31.750
 109526429.499 8  85187279.818 7                  20525192.560    20525194.820
  20525195.060          49.450          44.400
 128855677.603 6 100221080.354 5                  24130517.800    24130529.140
  24130526.460          39.950          31.250
 121680277.234 7  94640249.342 6                  22722928.440    22722932.180
  22722930.420          45.850          41.550
 106955882.218 7  83188062.272 7                  20015277.040    20015282.980
  20015280.920          47.350          46.200
 146946702.543 7                 109732946.694 6  27963026.240
                        44.000
 118377991.051 8                                  22526581.100
                        48.850
 15  1 27 17  0 15.0000000  0 19G30G21G18G13G17G15G28G24G05R14R05R16
                                R24R06R09R04R15E19E20
 128419031.764 7 100066867.328 6  95897428.013 7  24437296.180    24437296.600
  24437295.700          44.200          41.250
 134767216.045 6 105013412.76844                  25645349.160
  25645349.020          39.950          25.400
 131086017.098 7 102144953.36145                  24944834.820
  24944833.140          44.800          33.700
 106570005.015 8  83041630.39147                  20279571.460
  20279567.260          50.050          47.050
 129683409.704 7 101052062.448 6                  24677909.280    24677908.280
  24677907.940          45.900          40.150
 111653895.866 8  87003064.970 7                  21247011.940    21247008.780
  21247008.160          50.550          47.600
 116060735.161 8  90437070.68347                  22085554.620
  22085550.700          49.050          43.700
 121122298.217 7  94381088.685 7  90448558.814 8  23048781.180    23048782.200
  23048781.500          46.750          44.750
 117891031.318 8  91863155.436 7                  22433904.320    22433902.520
  22433901.960          49.900          46.150
 125286804.222 6  97445383.407 5                  23503446.040    23503454.540
  23503453.780          39.350          33.700
 103868313.684 8  80786515.482 7                  19430699.460    19430702.340
  19430701.880          49.900          47.550
 108366540.790 7  84285143.021 7                  20286429.940    20286433.720
  20286432.860          47.650          46.000
 128748848.502 7 100138005.788 5                  24076682.040    24076685.460
  24076683.280          42.350          31.650
 109512608.293 8  85176530.000 7                  20522602.500    20522604.680
  20522605.000          49.550          44.400
 128838001.523 6 100207332.414 5                  24127207.440    24127218.860
  24127216.160          41.350          30.900
 121701522.197 7  94656773.164 6                  22726895.820    22726899.580
  22726897.920          45.950          41.800
 106966815.147 7  83196565.664 7                  20017322.960    20017328.980
  20017326.920          46.950          46.150
 146932705.745 7                 109722494.583 6  27960362.780
                        43.650
 118371018.937 8                                  22525254.360
                        48.850
 15  1 27 17  0 20.0000000  0 19G30G21G18G13G17G15G28G24G05R14R05R16
                                R24R06R09R04R15E19E20
 128434182.625 7 100078673.192 6  95908741.993 8  24440179.240    24440179.720
  24440178.820          43.700          41.900
 134771168.612 6 105016492.75044                  25646101.280
  25646101.140          40.350          25.100
 131071256.357 7 102133451.50845                  24942025.980
  24942024.260          44.750          34.700
 106570902.512 8  83042329.74447                  20279742.260
  20279738.040          49.950          47.750
 129671633.692 7 101042886.346 6                  24675668.360    24675667.360
  24675667.000          46.100          41.350
 111644195.924 8  86995506.576 7                  21245166.100    21245162.940
  21245162.300          50.450          47.950
 116069711.516 8  90444065.24147                  22087262.680
  22087258.760          49.250          44.900
 121109546.663 7  94371152.422 7  90439036.565 8  23046354.640    23046355.600
  23046354.900          46.650          44.950
 117906683.147 8  91875351.659 7                  22436882.800    22436880.940
  22436880.380          49.750          46.200
 125305155.348 6  97459656.522 5                  23506888.720    23506897.140
  23506896.440          39.300          34.350
 103876360.817 8  80792774.362 8                  19432204.880    19432207.720
  19432207.280          49.700          48.150
 108357785.797 7  84278333.584 7                  20284791.000    20284794.800
  20284793.880          47.700          46.800
 128741837.295 7 100132552.623 5                  24075370.980    24075374.220
  24075372.080          42.200          33.450
 109498803.893 8  85165793.253 7                  20520015.580    20520017.760
  20520018.060          49.750          45.000
 128820332.550 6 100193590.021 5                  24123898.480    24123910.040
  24123907.120          41.800          31.250
 121722775.490 7  94673303.474 6                  22730864.760    22730868.540
  22730866.940          45.600          41.850
 106977759.383 7  83205077.840 7                  20019371.040    20019377.040
  20019375.000          47.100          46.950
 146918712.905 7                 109712045.392 6  27957700.000
                        43.200
 118364057.566 8                                  22523929.640
                        48.850
 15  1 27 17  0 25.0000000  0 19G30G21G18G13G17G15G28G24G05R14R05R16
                                R24R06R09R04R15E19E20
 128449330.632 7 100090476.826 6  95920053.809 7  24443061.800    24443062.240
  24443061.360          43.550          40.950
 134775128.013 6 105019577.94644                  25646854.740
  25646854.380          39.800          27.350
 131056499.269 7 102121952.47845                  24939217.820
  24939216.080          45.150          32.550
 106571807.524 8  83043034.94447                  20279914.480
  20279910.260          49.900          47.050
 129659859.023 7 101033711.306 6                  24673427.720    24673426.660
  24673426.360          45.700          39.850
 111634500.704 8  86987951.851 7                  21243321.180    21243318.020
  21243317.360          50.300          47.150
 116078696.996 8  90451066.91447                  22088972.520
  22088968.600          49.750          43.400
 121096797.600 7  94361218.089 7  90429516.171 8  23043928.560    23043929.520
  23043928.780          46.800          44.050
 117922339.908 8  91887551.722 7                  22439862.220    22439860.320
  22439859.740          49.700          45.400
 125323502.201 6  97473926.274 5                  23510330.540    23510338.960
  23510338.380          39.100          34.050
 103884425.466 8  80799046.859 8                  19433713.560    19433716.380
  19433715.920          49.300          48.400
 108349041.071 7  84271532.127 7                  20283154.000    20283157.740
  20283156.840          47.650          47.000
 128734840.489 6 100127110.667 5                  24074062.540    24074065.940
  24074063.620          41.600          33.300
 109485011.711 8  85155065.992 7                  20517430.940    20517433.080
  20517433.400          49.600          45.100
 128802666.161 6 100179849.631 5                  24120590.020    24120601.720
  24120598.560          40.800          30.600
 121744032.480 7  94689836.678 6                  22734834.400    22734838.160
  22734836.500          45.650          41.200
 106988710.207 7  83213595.131 7                  20021420.320    20021426.300
  20021424.300          47.100          47.100
 146904719.426 7                 109701595.781 6  27955037.120
                        43.050
 118357102.313 8                                  22522606.100
                        48.900
 15  1 27 17  0 30.0000000  0 19G30G21G18G13G17G15G28G24G05R14R05R16
                                R24R06R09R04R15E19E20
 128464480.765 7 100102282.131 6  95931367.218 7  24445944.720    24445945.240
  24445944.340          44.050          40.900
 134779099.296 6 105022672.46543                  25647610.480
  25647610.180          40.550          22.650
 131041750.828 7 102110460.22145                  24936411.280
  24936409.440          45.600          32.050
 106572725.106 8  83043749.93247                  20280089.100
  20280084.860          49.700          47.400
 129648090.823 7 101024541.286 6                  24671188.300    24671187.180
  24671186.860          45.850          39.750
 111624815.177 8  86980404.688 7                  21241478.100    21241474.900
  21241474.280          50.200          47.300
 116087696.630 8  90458079.61447                  22090685.100
  22090681.120          49.900          43.350
 121084056.163 7  94351289.692 7  90420001.461 8  23041503.940    23041504.900
  23041504.060          46.800          44.200
 117938006.598 8  91899759.532 7                  22442843.500    22442841.600
  22442841.000          49.700          45.600
 125341849.950 6  97488196.778 5                  23513772.540    23513780.820
  23513780.360          39.400          34.650
 103892512.535 8  80805336.798 8                  19435226.420    19435229.220
  19435228.780          49.100          48.000
 108340311.690 7  84264742.616 7                  20281519.820    20281523.540
  20281522.680          47.600          46.800
 128727863.121 6 100121683.825 5                  24072757.720    24072761.160
  24072758.860          41.300          33.750
 109471236.783 8  85144352.165 7                  20514849.560    20514851.640
  20514851.980          49.550          44.950
 128785007.329 6 100166115.123 5                  24117282.940    24117294.720
  24117291.380          40.550          30.300
 121765298.209 7  94706376.696 6                  22738805.620    22738809.260
  22738807.660          44.850          41.400
 106999672.670 7  83222121.479 7                  20023471.800    20023477.780
  20023475.800          46.900          46.850
 146890730.343 7                 109691149.395 6  27952375.100
                        43.150
 118350158.241 8                                  22521284.680
                        48.750
 15  1 27 17  0 35.0000000  0 19G30G21G18G13G17G15G28G24G05R14R05R16
                                R24R06R09R04R15E19E20
 128479630.746 7 100114087.315 6  95942680.515 7  24448827.640    24448828.180
  24448827.220          43.850          40.650
 134783080.114 6 105025774.43644                  25648368.000
  25648367.760          39.450          28.800
 131027008.751 7 102098972.88245                  24933605.920
  24933604.040          45.550          33.900
 106573652.966 8  83044472.94447                  20280265.660
  20280261.400          49.550          47.550
 129636326.711 7 101015374.446 6                  24668949.660    24668948.580
  24668948.220          45.550          40.250
 111615137.115 8  86972863.342 7                  21239636.440    21239633.240
  21239632.600          50.100          47.350
 116096708.060 8  90465101.50147                  22092399.960
  22092395.900          50.150          43.550
 121071319.919 7  94341365.353 7  90410490.640 8  23039080.320    23039081.240
  23039080.400          46.900          44.250
 117953680.947 8  91911973.305 7                  22445826.240    22445824.340
  22445823.720          49.400          45.850
 125360196.228 6  97502466.128 5                  23517214.280    23517222.580
  23517222.100          39.350          34.050
 103900619.709 8  80811642.375 7                  19436743.060    19436745.880
  19436745.400          49.300          47.800
 108331595.431 7  84257963.310 7                  20279888.100    20279891.820
  20279890.980          47.650          46.850
 128720902.889 6 100116270.321 5                  24071456.080    24071459.720
  24071457.380          40.600          33.550
 109457476.872 8  85133650.022 7                  20512270.980    20512273.040
  20512273.360          49.650          44.850
 128767353.716 6 100152384.635 5                  24113976.820    24113988.380
  24113985.340          40.550          30.200
 121786570.319 7  94722921.625 6                  22742778.020    22742781.720
  22742780.120          45.400          41.400
 107010644.394 7  83230655.039 7                  20025525.000    20025530.960
  20025529.000          47.050          46.700
 146876743.338 7                 109680704.593 6  27949713.460
                        42.950
 118343223.055 8                                  22519964.960
                        48.600
 15  1 27 17  0 40.0000000  0 19G30G21G18G13G17G15G28G24G05R14R05R16
                                R24R06R09R04R15E19E20
 128494778.704 7 100125890.927 6  95953992.326 7  24451710.160    24451710.760
  24451709.780          44.400          41.100
 134787068.655 6 105028882.34645                  25649126.960
  25649126.540          39.900          30.400
 131012271.301 7 102087489.16345                  24930801.500
  24930799.600          45.250          32.950
 106574589.245 8  83045202.51347                  20280443.820
  20280439.560          49.350          47.500
 129624564.925 7 101006209.448 6                  24666711.440    24666710.360
  24666709.960          45.850          40.050
 111605464.684 8  86965326.393 7                  21237795.860    21237792.640
  21237792.000          50.000          47.400
 116105729.495 8  90472131.19547                  22094116.780
  22094112.580          50.350          43.450
 121058587.142 7  94331443.718 7  90400982.413 8  23036657.340    23036658.220
  23036657.400          46.450          44.500
 117969361.101 8  91924191.596 7                  22448810.100    22448808.180
  22448807.540          49.350          46.000
 125378539.190 6  97516732.893 5                  23520655.380    23520663.700
  23520663.180          39.000          34.250
 103908745.354 8  80817962.324 7                  19438263.160    19438265.940
  19438265.480          49.400          47.700
 108322890.269 7  84251192.643 7                  20278258.460    20278262.200
  20278261.380          47.400          46.850
 128713957.892 6 100110868.682 5                  24070157.240    24070161.000
  24070158.720          41.550          33.300
 109443730.178 8  85122958.157 7                  20509694.880    20509696.900
  20509697.200          49.450          44.750
 128749703.479 6 100138656.774 4                  24110671.460    24110682.880
  24110680.040          40.850          29.800
 121807846.866 7  94739470.023 7                  22746751.280    22746755.020
  22746753.500          45.700          42.250
 107021623.470 7  83239194.332 7                  20027579.620    20027585.560
  20027583.580          47.200          46.400
 146862756.665 7                 109670260.015 6  27947051.880
                        43.050
 118336294.940 8                                  22518646.580
                        48.600
 15  1 27 17  0 45.0000000  0 19G30G21G18G13G17G15G28G24G05R14R05R16
                                R24R06R09R04R15E19E20
 128509929.859 7 100137697.024 6  95965306.506 7  24454593.340    24454593.920
  24454593.020          44.150          41.000
 134791070.122 6 105032000.35044                  25649888.420
  25649887.900          39.650          29.250
 130997543.554 7 102076013.01545                  24927998.900
  24927997.040          44.600          34.400
 106575539.069 8  83045942.63747                  20280624.560
  20280620.300          49.450          47.250
 129612810.688 7 100997050.320 6                  24664474.660    24664473.540
  24664473.120          45.750          39.900
 111595802.991 8  86957797.803 7                  21235957.300    21235954.100
  21235953.440          49.850          47.400
 116114766.054 8  90479172.67947                  22095836.500
  22095832.180          50.550          43.600
 121045862.925 7  94321528.766 7  90391480.586 8  23034236.020    23034236.840
  23034236.080          46.300          44.800
 117985052.203 8  91936418.417 7                  22451796.060    22451794.100
  22451793.460          49.450          46.050
 125396883.969 6  97531001.067 5                  23524096.880    23524105.120
  23524104.600          39.750          33.400
 103916894.418 8  80824300.472 7                  19439787.600    19439790.380
  19439789.920          49.400          47.700
 108314201.606 7  84244434.790 7                  20276631.920    20276635.640
  20276634.840          47.450          46.900
 128707033.495 6 100105483.053 5                  24068862.300    24068866.140
  24068863.880          41.600          32.450
 109430001.798 8  85112280.541 7                  20507122.220    20507124.180
  20507124.480          49.700          44.550
 128732061.974 6 100124935.762 5                  24107367.660    24107379.360
  24107376.340          40.750          30.150
 121829133.180 7  94756026.003 6                  22750726.300    22750730.160
  22750728.700          45.400          41.900
 107032615.329 7  83247743.567 7                  20029636.640    20029642.500
  20029640.560          47.350          46.550
 146848775.427 7                 109659819.502 6  27944391.340
                        43.200
 118329379.032 8                                  22517330.520
                        48.600
 15  1 27 17  0 50.0000000  0 19G30G21G18G13G17G15G28G24G05R14R05R16
                                R24R06R09R04R15E19E20
 128525078.456 7 100149501.125 6  95976618.785 8  24457476.000    24457476.560
  24457475.720          44.250          41.750
 134795078.726 6 105035123.92645                  25650651.160
  25650650.720          39.650          30.200
 130982819.833 7 102064540.02745                  24925197.100
  24925195.200          44.200          34.150
 106576496.844 8  83046688.95548                  20280806.840
  20280802.540          49.550          48.450
 129601058.350 7 100987892.671 6                  24662238.220    24662237.160
  24662236.740          45.750          41.550
 111586146.409 8  86950273.200 8                  21234119.720    21234116.520
  21234115.860          49.800          48.550
 116123812.051 8  90486221.51847                  22097558.020
  22097553.580          50.600          44.750
 121033141.603 7  94311616.062 7  90381980.915 8  23031815.180    23031816.100
  23031815.320          46.550          45.950
 118000748.550 8  91948649.332 7                  22454782.980    22454781.040
  22454780.400          49.550          46.850
 125415224.783 6  97545266.176 5                  23527537.580    23527545.900
  23527545.280          39.400          35.350
 103925061.292 8  80830652.481 8                  19441315.360    19441318.140
  19441317.660          49.150          48.850
 108305523.605 7  84237685.244 8                  20275007.340    20275011.100
  20275010.320          47.600          48.250
 128700123.831 6 100100108.874 5                  24067570.160    24067573.780
  24067571.740          41.800          35.000
 109416286.171 8  85101612.827 7                  20504551.960    20504553.860
  20504554.140          49.500          45.900
 128714423.362 6 100111216.949 5                  24104064.440    24104076.320
  24104073.200          40.900          30.750
 121850423.406 7  94772585.039 7                  22754702.100    22754705.980
  22754704.540          45.100          42.650
 107043614.242 7  83256298.281 8                  20031694.960    20031700.820
  20031698.860          47.500          48.150
 146834793.953 7                 109649378.829 6  27941730.720
                        43.600
 118322469.701 8                                  22516015.720
                        48.650
 15  1 27 17  0 55.0000000  0 19G30G21G18G13G17G15G28G24G05R14R05R16
                                R24R06R09R04R15E19E20
 128540226.392 7 100161304.726 6  95987930.550 7  24460358.560    24460359.100
  24460358.240          43.600          40.250
 134799096.382 6 105038254.53644                  25651415.740
  25651415.200          39.300          28.050
 130968102.050 7 102053071.60445                  24922396.380
  24922394.520          44.300          33.800
 106577464.394 8  83047442.88247                  20280990.980
  20280986.640          49.550          47.550
 129589309.617 7 100978737.833 6                  24660002.500    24660001.420
  24660001.060          45.750          40.200
 111576496.773 8  86942754.002 7                  21232283.460    21232280.260
  21232279.580          49.850          47.400
 116132869.344 8  90493279.15947                  22099281.680
  22099277.160          50.600          43.200
 121020424.972 7  94301707.001 7  90372484.733 8  23029395.280    23029396.200
  23029395.460          46.950          45.000
 118016451.973 8  91960885.765 7                  22457771.240    22457769.320
  22457768.680          49.300          45.700
 125433563.782 6  97559529.850 5                  23530977.940    23530986.220
  23530985.600          38.650          32.900
 103933247.863 8  80837019.808 7                  19442846.820    19442849.600
  19442849.120          49.350          47.050
 108296858.149 7  84230945.445 7                  20273385.100    20273388.900
  20273388.140          47.700          46.100
 128693230.958 6 100094747.744 5                  24066281.180    24066284.800
  24066282.720          41.900          31.900
 109402585.061 8  85090956.408 7                  20501984.400    20501986.260
  20501986.500          49.700          43.700
 128696789.502 6 100097501.828 4                  24100762.060    24100773.760
  24100770.880          41.100          27.300
 121871719.463 7  94789148.637 6                  22758679.020    22758682.760
  22758681.320          45.050          39.350
 107054621.835 7  83264859.734 7                  20033754.940    20033760.720
  20033758.780          47.550          45.750
 146820814.122 7                 109638939.360 6  27939070.460
                        43.450
 118315568.783 8                                  22514702.500
                        48.750
 15  1 27 17  1  0.0000000  0 19G30G21G18G13G17G15G28G24G05R14R05R16
                                R24R06R09R04R15E19E20
 128555375.188 7 100173108.987 6  95999242.968 8  24463241.240    24463241.760
  24463240.980          44.050          41.000
 134803124.580 6 105041393.39944                  25652182.280
  25652181.340          38.800          27.500
 130953391.687 7 102041609.02845                  24919597.060
  24919595.160          44.300          34.150
 106578443.220 8  83048205.60647                  20281177.240
  20281172.880          49.550          47.650
 129577566.092 7 100969587.053 6                  24657767.740    24657766.600
  24657766.320          45.500          40.750
 111566855.628 8  86935241.429 7                  21230448.780    21230445.580
  21230444.960          49.800          47.600
 116141939.490 8  90500346.81447                  22101007.760
  22101003.200          50.550          43.450
 121007714.686 7  94291802.900 7  90362993.300 8  23026976.580    23026977.540
  23026976.800          47.400          45.000
 118032163.980 8  91973128.884 7                  22460761.140    22460759.240
  22460758.600          49.250          45.900
 125451902.312 6  97573793.132 5                  23534418.220    23534426.620
  23534425.860          38.300          33.550
 103941455.531 8  80843403.556 7                  19444382.220    19444385.020
  19444384.520          49.350          47.200
 108288206.849 7  84224216.664 7                  20271765.560    20271769.380
  20271768.620          47.550          46.100
 128686356.358 6 100089400.855 5                  24064995.580    24064999.180
  24064997.060          41.700          31.600
 109388900.086 8  85080312.541 7                  20499419.900    20499421.660
  20499421.920          49.750          43.900
 128679161.943 6 100083791.613 4                  24097460.880    24097472.080
  24097469.720          40.600          28.000
 121893022.894 7  94805717.966 6                  22762657.180    22762661.040
  22762659.500          44.800          39.950
 107065639.554 7  83273429.061 7                  20035816.740    20035822.560
  20035820.580          47.250          45.700
 146806837.480 7                 109628502.286 6  27936410.800
                        43.000
 118308677.803 8                                  22513391.180
                        48.650
 15  1 27 17  1  5.0000000  0 19G30G21G18G13G17G15G28G24G05R14R05R16
                                R24R06R09R04R15E19E20
 128570523.881 7 100184913.173 6  96010555.312 8  24466123.920    24466124.420
  24466123.740          43.750          40.650
 134807162.397 6 105044540.67243                  25652950.740
  25652949.840          39.400          23.700
 130938687.877 7 102030151.53345                  24916798.980
  24916797.140          44.550          31.000
 106579432.410 8  83048976.40147                  20281365.480
  20281361.100          49.550          47.650
 129565826.856 7 100960439.610 6                  24655533.860    24655532.660
  24655532.340          45.950          40.850
 111557222.052 8  86927734.757 7                  21228615.560    21228612.400
  21228611.760          49.950          47.750
 116151021.474 8  90507423.68547                  22102736.060
  22102731.480          50.250          43.650
 120995009.765 7  94281902.970 7  90353505.879 8  23024558.920    23024559.920
  23024559.180          47.200          45.050
 118047883.677 8  91985377.993 7                  22463752.500    22463750.620
  22463749.980          49.200          46.250
 125470239.327 6  97588055.256 5                  23537858.160    23537866.520
  23537865.840          38.600          33.550
 103949683.469 8  80849803.069 7                  19445921.420    19445924.200
  19445923.720          49.400          47.450
 108279568.612 7  84217498.048 7                  20270148.460    20270152.280
  20270151.520          47.250          46.300
 128679499.026 6 100084067.332 5                  24063713.200    24063716.680
  24063714.680          40.900          32.750
 109375230.244 8  85069680.443 7                  20496858.160    20496859.960
  20496860.180          49.700          44.050
 128661539.814 6 100070085.629 4                  24094160.720    24094172.060
  24094169.460          40.650          28.350
 121914332.660 7  94822292.189 6                  22766636.660    22766640.560
  22766638.940          45.600          39.800
 107076666.420 7  83282005.512 7                  20037880.280    20037886.060
  20037884.080          47.150          45.850
 146792863.059 7                 109618066.859 6  27933751.480
                        42.950
 118301795.808 8                                  22512081.580
                        48.750
 15  1 27 17  1 10.0000000  0 19G30G21G18G13G17G15G28G24G05R14R05R16
                                R24R06R09R04R15E19E20
 128585672.969 7 100196717.676 6  96021867.933 8  24469006.680    24469007.140
  24469006.440          45.050          41.000
 134811210.248 6 105047694.87644                  25653721.060
  25653720.520          40.650          27.500
 130923991.101 7 102018699.52045                  24914002.260
  24914000.420          46.100          32.050
 106580432.467 8  83049755.67047                  20281555.800
  20281551.420          50.400          46.750
 129554092.374 7 100951295.883 6                  24653300.840    24653299.640
  24653299.320          47.050          40.850
 111547596.538 8  86920234.364 7                  21226783.860    21226780.720
  21226780.080          50.800          47.750
 116160115.812 8  90514510.19047                  22104466.680
  22104462.160          50.750          43.200
 120982310.683 8  94272007.606 7  90344022.806 8  23022142.340    23022143.360
  23022142.640          48.050          45.250
 118063611.515 8  91997633.440 7                  22466745.380    22466743.560
  22466742.880          50.300          46.350
 125488575.330 6  97602316.604 5                  23541297.880    23541306.220
  23541305.580          39.250          33.500
 103957932.215 8  80856218.758 7                  19447464.520    19447467.360
  19447466.840          49.050          47.300
 108270944.070 7  84210790.079 7                  20268533.920    20268537.740
  20268536.960          47.000          46.250
 128672659.505 6 100078747.746 5                  24062434.140    24062437.480
  24062435.640          41.950          32.050
 109361576.247 8  85059060.687 7                  20494299.420    20494301.200
  20494301.440          49.400          44.100
 128643923.611 6 100056384.260 4                  24090861.680    24090873.460
  24090870.540          41.250          28.650
 121935649.267 7  94838871.780 6                  22770617.360    22770621.320
  22770619.680          44.700          39.400
 107087703.045 7  83290589.563 7                  20039945.680    20039951.420
  20039949.400          46.800          45.700
 146778891.391 7                 109607633.502 6  27931092.760
                        44.200
 118294923.365 8                                  22510773.800
                        49.750
 15  1 27 17  1 15.0000000  0 19G30G21G18G13G17G15G28G24G05R14R05R16
                                R24R06R09R04R15E19E20
 128600820.010 7 100208520.564 6  96033179.044 8  24471889.060    24471889.520
  24471888.860          44.250          41.150
 134815265.761 6 105050854.95944                  25654492.760
  25654491.980          38.250          24.500
 130909298.931 7 102007251.08645                  24911206.420
  24911204.540          44.650          33.750
 106581440.955 8  83050541.50348                  20281747.700
  20281743.320          49.400          48.000
 129542360.263 7 100942153.988 6                  24651068.280    24651067.060
  24651066.760          45.900          40.850
 111537976.670 8  86912738.363 7                  21224953.220    21224950.120
  21224949.480          50.050          47.700
 116169220.079 8  90521604.42247                  22106199.120
  22106194.700          49.400          43.800
 120969615.014 7  94262114.898 7  90334542.307 8  23019726.400    23019727.500
  23019726.700          46.800          44.950
 118079345.041 8  92009893.327 7                  22469739.340    22469737.520
  22469736.880          49.400          46.350
 125506908.015 6  97616575.387 5                  23544737.040    23544745.400
  23544744.760          40.000          33.800
 103966199.181 8  80862648.606 7                  19449011.040    19449013.880
  19449013.360          49.750          47.550
 108262330.683 8  84204090.776 7                  20266921.480    20266925.300
  20266924.480          48.000          46.300
 128665835.349 6 100073440.042 5                  24061157.960    24061161.500
  24061159.540          41.100          32.550
 109347935.626 8  85048451.327 7                  20491743.180    20491744.940
  20491745.200          50.000          44.400
 128626310.795 7 100042685.522 4                  24087563.280    24087575.080
  24087572.120          42.050          29.300
 121956970.308 7  94855454.791 6                  22774598.820    22774602.900
  22774601.200          45.450          39.450
 107098746.872 7  83299179.207 7                  20042012.400    20042018.060
  20042016.040          47.550          45.900
 146764920.035 7                 109597200.389 7  27928434.060
                        42.650
 118288058.008 8                                  22509467.380
                        48.650
 15  1 27 17  1 20.0000000  0 19G30G21G18G13G17G15G28G24G05R14R05R16
                                R24R06R09R04R15E19E20
 128615969.415 7 100220325.288 6  96044491.943 8  24474771.880    24474772.360
  24474771.680          44.050          40.500
 134819333.340 6 105054024.58944                  25655266.780
  25655266.040          38.050          27.550
 130894615.792 7 101995809.69745                  24908412.300
  24908410.240          44.550          34.150
 106582462.271 8  83051337.33847                  20281942.060
  20281937.660          49.350          47.950
 129530634.926 7 100933017.384 6                  24648837.000    24648835.860
  24648835.500          45.600          40.850
 111528366.857 8  86905250.200 7                  21223124.520    21223121.460
  21223120.780          49.950          47.600
 116178338.635 8  90528709.78447                  22107934.200
  22107929.940          48.950          44.400
 120956927.233 7  94252228.331 7  90325067.685 8  23017312.040    23017313.040
  23017312.260          47.150          45.150
 118095088.662 8  92022161.075 7                  22472735.220    22472733.400
  22472732.800          49.350          46.150
 125525241.795 6  97630834.984 5                  23548176.440    23548184.640
  23548184.120          40.000          33.300
 103974488.799 8  80869096.091 7                  19450561.820    19450564.620
  19450564.080          49.600          47.600
 108253732.988 8  84197403.680 7                  20265311.960    20265315.780
  20265314.960          48.000          46.200
 128659031.135 6 100068147.879 5                  24059885.580    24059889.100
  24059887.160          40.800          33.500
 109334312.580 8  85037855.633 7                  20489190.280    20489191.980
  20489192.220          49.900          44.400
 128608705.979 7 100028993.012 4                  24084266.380    24084278.080
  24084275.300          43.150          29.950
 121978300.166 7  94872044.658 6                  22778581.940    22778586.060
  22778584.360          45.750          39.850
 107109802.521 7  83307778.056 7                  20044081.340    20044086.960
  20044084.900          47.700          45.850
 146750953.399 7                 109586770.783 6  27925776.320
                        42.650
 118281204.146 8                                  22508163.160
                        48.700
 15  1 27 17  1 25.0000000  0 19G30G21G18G13G17G15G28G24G05R14R05R16
                                R24R06R09R04R15E19E20
 128631115.694 7 100232127.601 6  96055802.452 8  24477654.100    24477654.560
  24477653.880          44.800          40.700
 134823407.419 6 105057199.18043                  25656041.980
  25656041.340          37.900          23.150
 130879936.165 7 101984371.04645                  24905618.860
  24905616.800          44.850          32.250
 106583490.929 8  83052138.88747                  20282137.800
  20282133.420          49.350          47.900
 129518910.903 7 100923881.806 6                  24646605.980    24646604.840
  24646604.480          45.900          40.750
 111518761.598 8  86897765.589 7                  21221296.680    21221293.660
  21221292.960          49.800          47.700
 116187465.962 8  90535821.97747                  22109670.960
  22109666.860          48.450          44.300
 120944241.821 7  94242343.599 7  90315594.824 8  23014898.080    23014899.060
  23014898.280          47.300          45.450
 118110836.819 8  92034432.358 7                  22475731.980    22475730.200
  22475729.580          49.300          46.200
 125543570.869 6  97645090.932 5                  23551614.900    23551622.980
  23551622.580          39.650          33.550
 103982795.585 8  80875556.922 7                  19452115.780    19452118.540
  19452118.040          49.300          47.500
 108245145.328 7  84190724.397 7                  20263704.320    20263708.160
  20263707.320          47.900          46.300
 128652241.163 6 100062866.806 5                  24058615.740    24058619.380
  24058617.520          40.300          34.150
 109320701.668 8  85027269.366 7                  20486639.640    20486641.300
  20486641.500          49.850          44.300
 128591103.430 7 100015302.248 4                  24080969.940    24080981.520
  24080978.980          43.800          29.300
 121999633.290 7  94888637.061 6                  22782565.740    22782569.920
  22782568.160          45.950          39.700
 107120864.398 7  83316381.742 7                  20046151.440    20046157.040
  20046154.960          47.750          46.000
 146736986.022 7                 109576340.611 6  27923118.480
                        42.850
 118274356.286 8                                  22506860.060
                        48.800
 15  1 27 17  1 30.0000000  0 19G30G21G18G13G17G15G28G24G05R14R05R16
                                R24R06R09R04R15E19E20
 128646262.119 7 100243930.031 6  96067113.103 8  24480536.380    24480536.860
  24480536.180          44.650          40.950
 134827491.452 6 105060381.57144                  25656819.100
  25656818.360          38.350          25.250
 130865263.384 7 101972937.68945                  24902826.740
  24902824.680          44.550          33.850
 106584530.235 8  83052948.73747                  20282335.560
  20282331.200          49.550          47.750
 129507191.530 7 100914749.840 6                  24644375.860    24644374.660
  24644374.360          46.050          40.200
 111509164.235 8  86890287.128 7                  21219470.320    21219467.340
  21219466.640          49.800          47.750
 116196605.417 8  90542943.62047                  22111410.020
  22111406.080          48.600          44.600
 120931561.980 7  94232463.208 7  90306126.122 8  23012485.220    23012486.200
  23012485.380          47.150          45.600
 118126592.836 8  92046709.764 7                  22478730.260    22478728.460
  22478727.860          49.650          46.150
 125561898.719 6  97659345.930 5                  23555053.180    23555061.320
  23555060.820          39.100          33.050
 103991122.881 8  80882033.710 7                  19453673.600    19453676.320
  19453675.840          49.450          47.450
 108236571.097 7  84184055.557 7                  20262099.220    20262103.040
  20262102.200          47.450          46.200
 128645468.832 6 100057599.465 5                  24057349.280    24057352.960
  24057351.140          40.500          32.100
 109307106.485 8  85016695.335 7                  20484091.900    20484093.500
  20484093.720          49.800          44.250
 128573506.562 7 100001615.908 4                  24077674.520    24077686.480
  24077683.540          42.450          29.000
 122020972.940 7  94905234.545 6                  22786550.800    22786554.940
  22786553.180          46.800          39.900
 107131935.717 7  83324992.765 7                  20048223.320    20048228.920
  20048226.820          47.550          45.950
 146723021.178 7                 109565912.355 7  27920461.060
                        43.100
 118267517.777 8                                  22505558.740
                        48.850
 15  1 27 17  1 35.0000000  0 19G30G21G18G13G17G15G28G24G05R14R05R16
                                R24R06R09R04R15E19E20
 128661409.891 7 100255733.477 6  96078424.768 8  24483418.920    24483419.380
  24483418.800          45.000          40.750
 134831586.385 6 105063572.35343                  25657598.360
  25657597.700          38.500          22.350
 130850598.605 7 101961510.63245                  24900036.140
  24900034.160          44.500          32.650
 106585581.363 8  83053767.81047                  20282535.600
  20282531.200          49.600          47.850
 129495477.964 7 100905622.412 6                  24642146.860    24642145.600
  24642145.340          46.150          40.750
 111499575.955 8  86882815.759 7                  21217645.680    21217642.760
  21217642.060          49.750          47.750
 116205758.125 8  90550075.60547                  22113151.620
  22113147.780          49.000          44.250
 120918888.953 7  94222588.138 7  90296662.503 8  23010073.660    23010074.600
  23010073.840          46.650          45.700
 118142357.911 8  92058994.240 7                  22481730.260    22481728.480
  22481727.840          50.050          46.300
 125580226.664 6  97673601.024 5                  23558491.420    23558499.480
  23558499.060          38.900          33.050
 103999471.821 8  80888527.331 7                  19455235.460    19455238.160
  19455237.680          49.500          47.600
 108228011.436 7  84177398.064 7                  20260496.820    20260500.680
  20260499.820          47.050          46.250
 128638715.327 6 100052346.756 5                  24056086.300    24056090.160
  24056088.280          41.150          32.950
 109293528.107 8  85006134.385 7                  20481547.320    20481548.960
  20481549.120          49.550          44.650
 128555916.732 6  99987935.018 4                  24074380.400    24074392.280
  24074389.480          41.100          29.250
 122042320.434 7  94921838.143 6                  22790537.300    22790541.400
  22790539.660          46.300          40.200
 107143017.791 7  83333612.155 7                  20050297.180    20050302.780
  20050300.680          47.200          46.200
 146709060.083 7                 109555486.876 7  27917804.400
                        43.100
 118260689.738 8                                  22504259.400
                        48.750
 15  1 27 17  1 40.0000000  0 19G30G21G18G13G17G15G28G24G05R14R05R16
                                R24R06R09R04R15E19E20
 128676557.265 7 100267536.659 6  96089736.119 8  24486301.380    24486301.820
  24486301.260          45.300          40.750
 134835690.568 6 105066770.52444                  25658379.400
  25658378.460          38.100          26.900
 130835940.167 7 101950088.46445                  24897246.740
  24897244.720          44.150          34.050
 106586642.647 8  83054594.78047                  20282737.540
  20282733.180          49.650          47.500
 129483768.523 7 100896498.195 6                  24639918.660    24639917.380
  24639917.140          46.400          40.650
 111489995.032 8  86875350.109 7                  21215822.440    21215819.580
  21215818.860          49.800          47.800
 116214922.374 8  90557216.57547                  22114895.440
  22114891.680          49.250          44.000
 120906221.004 7  94212717.023 7  90287202.695 8  23007663.060    23007663.980
  23007663.240          46.450          45.850
 118158130.270 8  92071284.389 7                  22484731.660    22484729.880
  22484729.260          50.000          46.450
 125598552.761 6  97687854.684 5                  23561929.380    23561937.360
  23561936.960          39.000          33.350
 104007840.720 8  80895036.468 7                  19456801.040    19456803.760
  19456803.240          49.600          47.350
 108219464.681 7  84170750.588 7                  20258896.840    20258900.700
  20258899.840          47.200          46.250
 128631978.990 6 100047107.426 5                  24054826.560    24054830.540
  24054828.560          41.550          31.700
 109279964.746 8  84995585.110 7                  20479005.500    20479007.200
  20479007.340          49.400          44.250
 128538331.930 6  99974258.041 4                  24071087.240    24071099.000
  24071096.240          41.800          28.350
 122063673.894 7  94938446.371 6                  22794524.960    22794528.980
  22794527.240          46.000          40.400
 107154108.909 7  83342238.574 7                  20052372.780    20052378.380
  20052376.260          47.150          45.850
 146695101.011 7                 109545062.945 7  27915148.060
                        43.250
 118253870.463 8                                  22502961.740
                        48.600
 15  1 27 17  1 45.0000000  0 19G30G21G18G13G17G15G28G24G05R14R05R16
                                R24R06R09R04R15E19E20
 128691704.022 7 100279339.327 6  96101047.011 8  24489183.720    24489184.240
  24489183.640          44.900          41.000
 134839803.797 6                                  25659162.120
                        37.850
 130821287.838 7 101938671.09845                  24894458.500
  24894456.600          44.200          32.000
 106587713.852 8  83055429.48747                  20282941.380
  20282937.020          49.650          47.750
 129472062.987 7 100887377.012 6                  24637691.180    24637689.880
  24637689.620          46.300          40.250
 111480421.222 8  86867890.001 7                  21214000.560    21213997.740
  21213997.020          49.750          47.600
 116224097.978 8  90564366.39547                  22116641.480
  22116637.700          49.400          44.050
 120893557.848 7  94202849.655 7  90277746.457 8  23005253.320    23005254.280
  23005253.560          46.900          45.700
 118173909.667 8  92083580.014 7                  22487734.440    22487732.620
  22487732.000          49.900          46.300
 125616876.948 6  97702106.857 5                  23565366.920    23565375.020
  23565374.460          39.200          32.950
 104016229.274 8  80901560.899 7                  19458370.300    19458373.000
  19458372.500          49.550          47.450
 108210930.578 7  84164112.952 7                  20257299.220    20257303.100
  20257302.240          47.400          46.450
 128625259.572 7 100041881.198 5                  24053570.040    24053573.920
  24053572.040          42.100          32.150
 109266416.313 8  84985047.444 7                  20476466.520    20476468.220
  20476468.380          49.400          44.600
 128520752.129 6  99960561.96414                  24067795.080    24067804.400
  24067803.980          41.300          29.100
 122085033.158 7  94955059.103 6                  22798513.580    22798517.720
  22798515.940          45.550          40.800
 107165208.737 7  83350871.770 7                  20054450.020    20054455.600
  20054453.460          47.200          45.950
 146681143.742 7                 109534640.305 7  27912492.120
                        43.100
 118247059.787 8                                  22501665.720
                        48.650
 15  1 27 17  1 50.0000000  0 20G30G21G18G13G17G15G28G24G05R14R05R16
                                R17R24R06R09R04R15E19E20
 128706850.400 7 100291141.695 6  96112357.626 8  24492065.980    24492066.500
  24492065.860          44.500          39.350
 134843926.317 6 105073162.66045                  25659946.640
  25659960.500          36.700          31.000
 130806641.868 7 101927258.68445                  24891671.440
  24891669.520          44.300          34.650
 106588795.193 8  83056272.08947                  20283147.140
  20283142.820          49.750          46.550
 129460361.604 7 100878259.083 6                  24635464.480    24635463.160
  24635462.860          46.250          39.300
 111470854.795 8  86860435.645 7                  21212180.080    21212177.300
  21212176.600          49.750          47.800
 116233285.139 8  90571525.21747                  22118389.740
  22118385.920          49.900          42.750
 120880899.891 7  94192986.321 7  90268294.103 8  23002844.560    23002845.600
  23002844.900          47.600          44.800
 118189696.353 8  92095881.313 7                  22490738.580    22490736.760
  22490736.140          50.000          45.300
 125635199.313 6  97716357.601 5                  23568804.140    23568812.180
  23568811.640          38.300          33.700
 104024637.775 8  80908100.842 7                  19459943.280    19459945.980
  19459945.480          49.250          47.800
 108202409.330 7  84157485.329 7                  20255704.000    20255707.920
  20255707.040          47.150          46.650
 132010433.426 6                                  24669306.080
                        40.700
 128618557.381 6 100036668.320 5                  24052316.680    24052320.400
  24052318.680          41.550          31.750
 109252882.984 8  84974521.522 7                  20473930.360    20473932.100
  20473932.260          49.150          44.900
 128503177.486 6  99946909.676 4                  24064503.820
  24064512.700          39.650          28.300
 122106398.418 7  94971676.490 6                  22802503.340    22802507.480
  22802505.800          45.350          41.050
 107176317.543 7  83359511.945 7                  20056528.900    20056534.480
  20056532.320          47.350          46.000
 146667188.533 7                 109524219.223 7  27909836.500
                        42.750
 118240257.929 8                                  22500371.380
                        48.600
 15  1 27 17  1 55.0000000  0 20G30G21G18G13G17G15G28G24G05R14R05R16
                                R17R24R06R09R04R15E19E20
 128721997.764 7 100302944.844 6  96123668.983 8  24494948.420    24494948.920
  24494948.180          44.150          39.550
 134848059.482 6 105076442.72454                  25660733.100
  25660740.640          37.600          29.550
 130792003.683 7 101915852.32245                  24888885.900
  24888883.920          45.100          32.150
 106589888.025 8  83057123.64847                  20283355.100
  20283350.760          49.900          46.600
 129448665.758 7 100869145.445 6                  24633238.840    24633237.480
  24633237.220          46.750          40.250
 111461297.116 8  86852988.112 7                  21210361.280    21210358.540
  21210357.860          49.800          47.250
 116242485.174 8  90578694.07847                  22120140.500
  22120136.560          50.550          42.150
 120868248.554 7  94183128.144 7  90258846.688 8  23000437.100    23000438.140
  23000437.480          47.900          44.850
 118205491.676 8  92108189.355 7                  22493744.360    22493742.520
  22493741.920          50.250          45.550
 125653521.225 6  97730607.971 5                  23572241.240    23572249.300
  23572248.780          38.400          34.000
 104033067.476 8  80914657.276 7                  19461520.220    19461522.920
  19461522.440          48.950          47.850
 108193902.318 7  84150868.774 7                  20254111.460    20254115.420
  20254114.500          46.600          46.800
 131994349.174 6 102662281.581 5                  24666300.140    24666303.420
  24666301.100          39.850          35.350
 128611873.652 6 100031469.875 5                  24051066.760    24051070.400
  24051068.820          40.250          31.650
 109239366.059 8  84964008.364 7                  20471397.240    20471399.040
  20471399.240          48.800          45.000
 128485609.417 6  99933274.948 4                  24061213.760    24061222.720
  24061222.580          38.700          27.700
 122127770.922 7  94988299.534 6                  22806494.540    22806498.620
  22806497.000          45.700          41.550
 107187436.541 7  83368160.060 7                  20058609.700    20058615.220
  20058613.060          47.050          46.200
 146653236.716 7                 109513800.702 6  27907181.500
                        43.150
 118233466.253 8                                  22499078.940
                        48.750
 15  1 27 17  2  0.0000000  0 20G30G21G18G13G17G15G28G24G05R14R05R16
                                R17R24R06R09R04R15E19E20
 128737142.698 7 100314746.091 6  96134978.497 8  24497830.400    24497830.960
  24497830.160          44.900          39.850
 134852199.953 6 105079623.80354                  25661520.980
  25661517.440          37.500          28.800
 130777369.865 7 101904449.34745                  24886101.200
  24886099.140          45.300          32.850
 106590989.013 8  83057981.55447                  20283564.600
  20283560.280          49.950          46.450
 129436972.098 7 100860033.524 6                  24631013.620    24631012.300
  24631012.040          46.300          40.150
 111451744.783 8  86845544.740 7                  21208543.480    21208540.800
  21208540.120          49.800          47.250
 116251694.703 8  90585870.33847                  22121893.100
  22121889.000          50.600          42.100
 120855600.324 7  94173272.383 7  90249401.577 8  22998030.240    22998031.260
  22998030.620          47.550          44.800
 118221292.230 8  92120501.465 7                  22496751.120    22496749.260
  22496748.660          50.250          45.450
 125671839.432 6  97744855.473 5                  23575677.740    23575685.740
  23575685.200          38.300          34.000
 104041515.080 8  80921227.624 7                  19463100.520    19463103.220
  19463102.740          49.050          47.800
 108185406.160 7  84144260.650 7                  20252520.900    20252524.940
  20252524.020          46.300          46.600
 131978266.249 6 102649772.602 6                  24663294.120    24663298.960
  24663296.860          40.850          38.150
 128605205.099 6 100026283.227 5                  24049819.780    24049823.400
  24049821.760          40.600          33.200
 109225862.242 8  84953505.399 7                  20468866.600    20468868.420
  20468868.660          48.700          44.800
 128468044.493 6  99919613.451 4                  24057924.360    24057935.920
  24057933.100          40.250          27.300
 122149147.368 7  95004925.646 6                  22810486.480    22810490.520
  22810488.920          44.800          41.000
 107198562.270 7  83376813.413 7                  20060691.760    20060697.200
  20060695.020          47.150          45.850
 146639284.965 7                 109503382.178 6  27904526.580
                        42.850
 118226681.380 8                                  22497787.800
                        48.700
 15  1 27 17  2  5.0000000  0 20G30G21G18G13G17G15G28G24G05R14R05R16
                                R17R24R06R09R04R15E19E20
 128752289.242 7 100326548.615 6  96146289.240 8  24500712.740    24500713.260
  24500712.460          44.300          40.050
 134856351.586 6 105082878.80443                  25662310.960
  25662313.580          37.250          23.000
 130762744.426 7 101893052.89545                  24883318.060
  24883315.900          45.050          32.850
 106592102.158 8  83058848.94647                  20283776.420
  20283772.100          49.800          46.800
 129425284.642 7 100850926.442 6                  24628789.520    24628788.320
  24628787.960          46.300          40.400
 111442201.927 8  86838108.763 7                  21206727.500    21206724.860
  21206724.200          49.800          47.550
 116260917.697 8  90593057.09747                  22123648.260
  22123644.020          50.300          42.800
 120842959.253 7  94163422.219 7  90239961.837 8  22995624.740    22995625.740
  22995625.100          47.050          45.100
 118237102.062 8  92132820.810 7                  22499759.680    22499757.760
  22499757.180          50.100          45.700
 125690157.825 6  97759103.115 5                  23579114.100    23579122.280
  23579121.740          38.300          34.100
 104049984.617 8  80927815.048 7                  19464684.940    19464687.620
  19464687.160          49.200          47.700
 108176924.978 7  84137664.181 7                  20250933.180    20250937.260
  20250936.340          46.650          46.750
 131962188.755 6 102637267.905 6                  24660289.800    24660293.460
  24660292.400          41.300          37.000
 128598555.819 6 100021111.585 5                  24048576.380    24048579.860
  24048578.280          40.850          32.850
 109212375.644 8  84943015.834 7                  20466339.180    20466341.020
  20466341.300          48.950          44.450
 128450486.815 6  99905957.629 4                  24054636.280    24054647.360
  24054645.040          41.050          28.150
 122170531.852 7  95021557.998 6                  22814479.880    22814483.940
  22814482.300          45.250          41.350
 107209698.991 7  83385475.317 7                  20062775.860    20062781.260
  20062779.060          47.150          45.900
 146625337.273 7                 109492966.720 6  27901872.400
                        42.650
 118219907.360 8                                  22496498.720
                        48.450
 15  1 27 17  2 10.0000000  0 20G30G21G18G13G17G15G28G24G05R14R05R16
                                R17R24R06R09R04R15E19E20
 128767434.761 7 100338350.329 6  96157599.208 8  24503594.840    24503595.380
  24503594.480          44.600          40.550
 134860511.893 6                                  25663102.620
                        37.550
 130748124.807 7 101881661.00745                  24880536.040
  24880533.700          44.600          33.050
 106593224.792 8  83059723.72147                  20283990.020
  20283985.740          49.900          46.750
 129413600.754 7 100841822.140 6                  24626566.160    24626564.960
  24626564.620          46.400          40.400
 111432665.877 8  86830678.081 7                  21204912.820    21204910.220
  21204909.540          49.750          47.400
 116270151.543 8  90600252.31247                  22125405.500
  22125401.100          50.350          42.450
 120830322.529 7  94153575.438 7  90230525.337 8  22993220.100    22993221.040
  22993220.420          46.900          45.000
 118252918.484 8  92145145.287 7                  22502769.460    22502767.520
  22502766.920          50.150          45.350
 125708473.737 6  97773348.841 5                  23582550.020    23582558.280
  23582557.740          38.700          34.150
 104058473.406 8  80934417.435 7                  19466272.940    19466275.580
  19466275.140          49.200          47.400
 108168456.032 7  84131077.234 7                  20249347.740    20249351.820
  20249350.940          46.800          46.700
 131946114.006 6 102624765.387 5                  24657286.080    24657288.500
  24657287.600          41.650          35.850
 128591923.038 6 100015952.763 5                  24047336.000    24047339.560
  24047337.860          40.100          32.350
 109198903.545 8  84932537.537 7                  20463814.460    20463816.380
  20463816.620          48.850          44.550
 128432933.626 6  99892305.268 4                  24051349.080    24051360.160
                        41.600          27.000
 122191921.653 7  95038194.468 6                  22818474.240    22818478.280
  22818476.740          45.500          40.650
 107220843.969 7  83394143.633 7                  20064861.500    20064866.880
  20064864.680          47.350          45.950
 146611391.000 7                 109482552.317 6  27899218.500
                        42.900
 118213141.552 8                                  22495211.180
                        48.600
 15  1 27 17  2 15.0000000  0 20G30G21G18G13G17G15G28G24G05R14R05R16
                                R17R24R06R09R04R15E19E20
 128782580.175 7 100350151.952 6  96168909.101 8  24506476.960    24506477.440
  24506476.620          45.250          41.300
 134864681.737 6 105089366.89144                  25663896.160
  25663896.180          37.050          25.250
 130733511.891 7 101870274.32545                  24877755.300
  24877752.940          44.300          33.250
 106594357.888 8  83060606.66047                  20284205.640
  20284201.360          49.900          46.750
 129401921.395 7 100832721.344 6                  24624343.660    24624342.400
  24624342.060          46.100          39.750
 111423137.521 8  86823253.394 7                  21203099.580    21203097.020
  21203096.360          49.700          47.450
 116279397.177 8  90607456.70847                  22127164.960
  22127160.460          50.400          43.000
 120817691.324 7  94143732.955 7  90221092.963 8  22990816.460    22990817.400
  22990816.780          47.350          45.100
 118268742.434 8  92157475.631 7                  22505780.700    22505778.680
  22505778.080          50.300          45.550
 125726788.184 6  97787593.429 5                  23585985.700    23585994.140
  23585993.520          38.650          34.700
 104066982.366 8  80941035.509 7                  19467864.700    19467867.380
  19467866.900          49.250          47.550
 108160000.165 7  84124500.465 7                  20247764.760    20247768.860
  20247768.000          47.050          46.550
 131930042.843 6 102612265.581 6                  24654282.620    24654285.860
  24654284.340          41.550          36.950
 128585307.820 6 100010807.642 5                  24046098.920    24046102.500
  24046100.720          39.200          32.300
 109185446.908 8  84922071.280 7                  20461292.620    20461294.600
  20461294.860          48.800          44.550
 128415386.011 6  99878657.240 4                  24048062.960    24048072.120
                        41.800          26.700
 122213317.591 7  95054835.739 6                  22822469.820    22822473.820
  22822472.220          46.450          39.400
 107231998.105 7  83402819.080 7                  20066948.860    20066954.200
  20066952.060          47.700          45.950
 146597447.142 7                 109472139.725 6  27896565.060
                        42.800
 118206384.869 8                                  22493925.380
                        48.400
 15  1 27 17  2 20.0000000  0 20G30G21G18G13G17G15G28G24G05R14R05R16
                                R17R24R06R09R04R15E19E20
 128797725.174 7 100361953.250 6  96180218.702 7  24509358.980    24509359.480
  24509358.620          44.400          41.000
 134868860.817 6                                  25664691.460
                        36.900
 130718905.396 7 101858892.66545                  24874975.800
  24874973.520          44.350          34.200
 106595501.157 8  83061497.51347                  20284423.200
  20284418.920          49.750          47.000
 129390246.267 7 100823623.849 6                  24622121.940    24622120.620
  24622120.300          45.850          39.900
 111413616.629 8  86815834.515 7                  21201287.780    21201285.280
  21201284.600          49.750          47.350
 116288654.287 8  90614670.04747                  22128926.580
  22128921.980          50.350          42.650
 120805065.194 7  94133894.413 7  90211664.362 8  22988413.800    22988414.720
  22988414.120          47.550          44.700
 118284573.601 8  92169811.597 7                  22508793.340    22508791.240
  22508790.620          50.400          45.250
 125745100.833 6  97801836.593 5                  23589421.080    23589429.700
  23589429.020          39.050          34.900
 104075511.308 8  80947669.123 7                  19469460.220    19469462.900
  19469462.420          49.400          47.600
 108151557.266 7  84117933.769 7                  20246184.220    20246188.340
  20246187.480          47.150          46.550
 131913975.107 7 102599768.433 6                  24651279.920    24651283.380
  24651281.860          42.100          36.850
 128578709.923 6 100005675.973 5                  24044865.020    24044868.620
  24044866.800          40.900          31.850
 109172005.663 8  84911616.988 7                  20458773.680    20458775.740
  20458775.960          49.250          44.250
 128397843.632 7                                  24044777.840
                        42.450
 122234719.500 7  95071481.676 6                  22826466.480    22826470.480
  22826468.800          46.200          39.900
 107243161.199 7  83411501.471 7                  20069037.920    20069043.220
  20069041.120          47.650          45.950
 146583505.375 7                 109461728.689 6  27893912.020
                        42.800
 118199637.057 8                                  22492641.300
                        48.400
 15  1 27 17  2 25.0000000  0 20G30G21G18G13G17G15G28G24G05R14R05R16
                                R17R24R06R09R04R15E19E20
 128812870.265 7 100373754.624 6  96191528.347 7  24512241.000    24512241.520
  24512240.700          45.050          41.900
 134873049.629 6                                  25665488.540
                        36.400
 130704305.841 7 101847516.40145                  24872197.580
  24872195.400          44.900          33.300
 106596655.063 8  83062396.66747                  20284642.780
  20284638.500          49.900          46.900
 129378575.843 7 100814530.051 6                  24619901.080    24619899.760
  24619899.460          46.200          40.000
 111404103.627 8  86808421.795 7                  21199477.480    21199475.020
  21199474.340          50.000          47.700
 116297923.323 8  90621892.67947                  22130690.440
  22130685.820          50.350          42.700
 120792444.578 7  94124060.164 7  90202239.885 8  22986012.160    22986013.100
  22986012.500          47.450          45.100
 118300412.475 8  92182153.571 7                  22511807.440    22511805.260
  22511804.620          50.650          45.400
 125763411.996 6  97816078.623 5                  23592856.220    23592864.760
  23592864.200          39.800          34.550
 104084060.448 8  80954318.448 7                  19471059.520    19471062.200
  19471061.740          49.650          47.650
 108143127.745 7  84111377.477 7                  20244606.140    20244610.320
  20244609.480          47.250          46.600
 131897911.291 6 102587274.403 5                  24648278.340    24648281.740
  24648279.980          40.350          35.900
 128572129.659 7 100000557.984 5                  24043634.500    24043638.180
  24043636.140          42.250          30.500
 109158580.008 8  84901174.812 7                  20456257.660    20456259.760
  20456260.000          49.300          44.400
 128380306.943 7                                  24041493.800
                        42.300
 122256127.829 7  95088132.563 6                  22830464.320    22830468.320
  22830466.700          46.450          40.700
 107254333.619 7  83420191.135 7                  20071128.700    20071133.940
  20071131.920          47.800          46.050
 146569566.173 7                 109451319.562 7  27891259.420
                        43.550
 118192898.591 8                                  22491358.980
                        48.750
 15  1 27 17  2 30.0000000  0 20G30G21G18G13G17G15G28G24G05R14R05R16
                                R17R24R06R09R04R15E19E20
 128828015.887 7 100385556.399 6  96202838.382 7  24515123.140    24515123.720
  24515122.860          44.550          41.850
 134877248.550 6 105099218.22745                  25666287.500
  25666301.680          36.100          32.850
 130689713.698 7 101836145.92045                  24869420.740
  24869418.700          44.600          32.550
 106597820.123 8  83063304.50547                  20284864.480
  20284860.200          49.350          47.650
 129366910.675 7 100805440.327 6                  24617681.240    24617679.940
  24617679.620          45.900          39.950
 111394599.039 8  86801015.626 7                  21197668.760    21197666.360
  21197665.680          49.650          47.650
 116307204.801 8  90629124.99947                  22132456.620
  22132452.040          49.650          43.250
 120779830.088 7  94114230.702 7  90192819.996 8  22983611.660    22983612.640
  22983612.040          46.250          44.950
 118316259.492 8  92194501.894 7                  22514823.060    22514820.840
  22514820.200          50.200          45.450
 125781722.378 6  97830320.041 5                  23596291.320    23596299.700
  23596299.180          39.550          33.600
 104092630.562 8  80960984.094 7                  19472662.740    19472665.420
  19472664.980          49.650          47.600
 108134712.067 7  84104831.952 7                  20243030.660    20243034.880
  20243034.040          47.050          46.300
 131881851.954 6 102574783.816 5                  24645276.980    24645280.840
  24645279.080          40.950          34.750
 128565567.679 7  99995454.203 5                  24042407.420    24042410.840
  24042408.840          43.800          30.450
 109145170.724 8  84890745.377 7                  20453744.720    20453746.860
  20453747.080          49.450          44.100
 128362776.461 7                                  24038210.900
                        42.050
 122277542.954 7  95104788.728 6                  22834463.460    22834467.480
  22834465.920          46.850          40.750
 107265515.759 7  83428888.354 7                  20073221.320    20073226.560
  20073224.520          47.500          45.950
 146555630.066 7                 109440912.752 6  27888607.440
                        42.700
 118186169.938 7                                  22490078.520
                        47.950
 15  1 27 17  2 35.0000000  0 20G30G21G18G13G17G15G28G24G05R14R05R16
                                R17R24R06R09R04R15E19E20
 128843160.860 7 100397357.681 6  96214147.959 7  24518005.120    24518005.720
  24518004.860          44.700          41.750
 134881456.514 6 105102429.07255                  25667088.200
  25667086.700          36.050          32.950
 130675127.774 7 101824780.28645                  24866645.140
  24866643.040          44.300          35.300
 106598995.125 8  83064220.10047                  20285088.080
  20285083.820          49.050          47.800
 129355249.555 7 100796353.766 6                  24615462.200    24615460.880
  24615460.580          45.350          40.400
 111385101.671 8  86793615.090 7                  21195861.460    21195859.060
  21195858.400          49.350          47.750
 116316497.483 8  90636366.05047                  22134224.900
  22134220.400          49.000          43.900
 120767220.410 7  94104405.013 7  90183403.711 8  22981212.120    22981213.120
  22981212.520          46.250          45.050
 118332113.511 8  92206855.675 7                  22517839.980    22517837.780
  22517837.100          49.800          45.750
 125800030.755 6  97844559.892 5                  23599725.900    23599734.240
  23599733.800          40.400          34.550
 104101220.283 8  80967664.988 7                  19474269.640    19474272.320
  19474271.900          49.900          47.750
 108126309.039 7  84098296.278 7                  20241457.520    20241461.820
  20241460.960          47.200          46.550
 131865795.854 7 102562295.772 5                  24642276.500    24642279.960
  24642278.660          42.000          35.950
 128559022.716 7  99990363.656 5                  24041183.540    24041186.920
  24041184.720          43.300          30.300
 109131776.331 8  84880327.526 7                  20451234.540    20451236.760
  20451236.960          49.300          44.400
 128345251.055 7                                  24034928.880
                        42.250
 122298963.680 7  95121449.265 6                  22838463.700    22838467.720
  22838466.140          46.800          40.100
 107276706.379 7  83437592.168 7                  20075315.480    20075320.740
  20075318.720          47.650          46.200
 146541695.832 7                 109430507.332 7  27885955.860
                        42.250
 118179449.941 7                                  22488799.720
                        47.800
 15  1 27 17  2 40.0000000  0 20G30G21G18G13G17G15G28G24G05R14R05R16
                                R17R24R06R09R04R15E19E20
 128858304.424 7 100409157.865 6  96225456.475 7  24520886.900    24520887.440
  24520886.580          44.850          41.350
 134885672.692 6                                  25667890.560
                        37.000
 130660547.305 7 101813418.89445                  24863870.540
  24863868.460          44.250          34.600
 106600179.316 8  83065142.84847                  20285313.420
  20285309.180          49.600          47.400
 129343591.729 7 100787269.762 6                  24613243.760    24613242.480
  24613242.220          45.800          40.300
 111375610.754 8  86786219.574 7                  21194055.380    21194053.000
  21194052.340          49.700          47.600
 116325800.574 8  90643615.20847                  22135995.140
  22135990.760          49.250          43.050
 120754614.936 7  94094582.584 7  90173990.538 8  22978813.340    22978814.380
  22978813.760          47.150          45.250
 118347973.697 8  92219214.247 7                  22520858.080    22520855.880
  22520855.200          50.200          45.650
 125818336.174 6  97858797.450 5                  23603160.000    23603168.300
  23603167.780          39.000          34.050
 104109828.901 8  80974360.573 7                  19475880.080    19475882.760
  19475882.320          49.150          47.550
 108117917.875 7  84091769.832 7                  20239886.620    20239890.940
  20239890.120          46.450          46.250
 131849742.259 6 102549809.676 5                  24639276.400    24639280.220
  24639278.580          40.500          35.250
 128552494.063 6  99985285.787 4                  24039962.680    24039966.200
  24039963.720          40.450          29.800
 109118396.177 8  84869920.746 7                  20448727.100    20448729.320
  20448729.500          48.600          44.150
 128327729.823 6                                  24031647.700
                        40.950
 122320389.250 7  95138113.572 6                  22842464.820    22842468.760
  22842467.160          45.450          38.850
 107287904.745 7  83446302.008 7                  20077411.080    20077416.340
  20077414.360          46.550          45.900
 146527762.726 7                 109420102.741 6  27883304.460
                        43.150
 118172737.810 8                                  22487522.420
                        48.350
 15  1 27 17  2 45.0000000  0 20G30G21G18G13G17G15G28G24G05R14R05R16
                                R17R24R06R09R04R15E19E20
 128873449.778 7 100420959.441 7  96236766.309 7  24523769.020    24523769.560
  24523768.760          44.750          42.250
 134889900.135 6                                  25668695.100
                        36.050
 130645975.494 7 101802064.26845                  24861097.640
  24861095.560          44.200          34.550
 106601375.888 8  83066075.24547                  20285541.120
  20285536.900          49.650          47.500
 129331940.414 7 100778190.864 6                  24611026.560    24611025.360
  24611025.040          46.100          40.650
 111366129.474 8  86778831.574 7                  21192251.120    21192248.760
  21192248.120          49.850          47.650
 116335117.306 8  90650874.99047                  22137767.940
  22137763.720          49.050          44.050
 120742016.842 7  94084765.900 7  90164582.888 8  22976416.000    22976417.040
  22976416.460          47.700          45.350
 118363843.221 8  92231580.103 7                  22523877.920    22523875.760
  22523875.100          49.900          45.800
 125836642.078 6  97873035.398 5                  23606594.120    23606602.400
  23606601.880          38.900          33.300
 104118459.516 8  80981073.278 7                  19477494.620    19477497.320
  19477496.860          49.550          47.650
 108109541.778 7  84085255.100 7                  20238318.560    20238322.920
  20238322.080          46.450          46.550
 131833694.467 6 102537328.030 5                  24636277.300    24636281.160
  24636279.540          41.000          34.350
 128545984.803 6  99980223.050 5                  24038745.440    24038749.100
  24038746.380          40.000          30.650
 109105033.636 8  84859527.669 7                  20446222.940    20446225.200
  20446225.340          48.900          44.250
 128310216.146 7                                  24028367.860
                        42.050
 122341822.860 7  95154784.162 6                  22846467.460    22846471.300
  22846469.640          45.850          39.450
 107299114.140 7  83455020.435 7                  20079508.780    20079514.060
  20079512.080          47.050          46.150
 146513833.955 7                 109409701.410 7  27880653.920
                        43.250
 118166036.775 8                                  22486247.220
                        48.600
 15  1 27 17  2 50.0000000  0 20G30G21G18G13G17G15G28G24G05R14R05R16
                                R17R24R06R09R04R15E19E20
 128888593.009 7 100432759.335 6  96248074.584 7  24526650.700    24526651.200
  24526650.440          44.700          41.750
 134894135.105 5 105112327.42545                  25669501.120
  25669502.360          35.150          30.100
 130631408.554 7 101790713.41045                  24858325.660
  24858323.500          44.600          34.000
 106602581.001 8  83067014.28947                  20285770.460
  20285766.220          49.650          47.400
 129320291.734 7 100769113.979 6                  24608809.900    24608808.680
  24608808.380          46.100          40.650
 111356654.012 8  86771448.103 7                  21190448.000    21190445.620
  21190444.980          49.800          47.600
 116344443.769 8  90658142.35447                  22139542.600
  22139538.540          49.050          43.700
 120729422.122 7  94074951.833 7  90155177.746 8  22974019.300    22974020.320
  22974019.780          47.600          45.250
 118379718.189 8  92243950.194 7                  22526898.760    22526896.700
  22526896.040          49.750          45.750
 125854944.298 6  97887270.492 5                  23610027.680    23610035.700
  23610035.240          39.450          33.950
 104127108.287 8  80987800.098 7                  19479112.560    19479115.260
  19479114.800          49.400          47.550
 108101176.874 7  84078749.070 7                  20236752.600    20236756.940
  20236756.160          46.650          46.600
 131817648.543 6 102524847.871 5                  24633278.700    24633282.620
  24633281.040          39.750          35.000
 128539491.211 6  99975172.480 5                  24037531.120    24037534.580
  24037531.960          39.700          30.850
 109091684.792 8  84849145.239 7                  20443721.340    20443723.660
  20443723.760          49.050          44.150
 128292706.002 7                                  24025088.700
                        42.300
 122363260.537 7  95171457.901 6                  22850470.860    22850474.640
  22850472.920          46.050          39.600
 107310330.517 7  83463744.275 7                  20081607.780    20081613.040
  20081611.100          47.550          45.850
 146499905.638 7                 109399300.441 7  27878003.480
                        42.950
 118159342.966 8                                  22484973.400
                        48.300
 15  1 27 17  2 55.0000000  0 20G30G21G18G13G17G15G28G24G05R14R05R16
                                R17R24R06R09R04R15E19E20
 128903736.032 7 100444559.114 6  96259382.697 7  24529532.280    24529532.820
  24529531.960          44.500          41.200
 134898379.581 5                                  25670308.800
                        35.350
 130616848.395 7 101779367.86345                  24855554.940
  24855552.700          45.150          32.450
 106603796.549 8  83067961.47747                  20286001.760
  20285997.540          49.700          47.400
 129308647.664 7 100760040.698 6                  24606594.080    24606592.880
  24606592.540          45.750          41.100
 111347186.283 8  86764070.662 7                  21188646.340    21188643.960
  21188643.320          49.800          47.750
 116353781.857 8  90665418.78647                  22141319.500
  22141315.580          49.300          43.800
 120716832.821 7  94065141.999 7  90145776.660 8  22971623.640    22971624.620
  22971624.140          47.000          45.300
 118395600.569 8  92256326.069 7                  22529921.040    22529919.060
  22529918.360          49.450          45.850
 125873244.941 6  97901504.340 5                  23613460.840    23613469.020
  23613468.380          39.350          34.500
 104135777.211 8  80994542.588 7                  19480734.260    19480737.000
  19480736.520          49.450          47.750
 108092825.066 7  84072253.234 7                  20235189.080    20235193.440
  20235192.680          46.750          46.850
 131801606.348 6 102512370.650 5                  24630280.720    24630284.360
  24630283.200          40.500          32.900
 128533015.203 6  99970135.625 5                  24036320.080    24036323.460
  24036320.880          40.950          31.300
 109078351.370 8  84838774.810 7                  20441222.640    20441225.000
  20441225.080          49.250          44.400
 128275201.312 7                                  24021810.520
                        42.400
 122384704.286 7  95188136.345 6                  22854475.340    22854479.120
  22854477.440          45.600          40.550
 107321555.791 7  83472475.059 7                  20083708.460    20083713.720
  20083711.780          47.550          46.050
 146485979.713 7                 109388901.223 7  27875353.440
                        42.800
 118152658.285 8                                  22483701.360
                        48.250
 15  1 27 17  3  0.0000000  0 20G30G21G18G13G17G15G28G24G05R14R05R16
                                R17R24R06R09R04R15E19E20
 128918879.849 7 100456359.511 6  96270691.389 7  24532414.020    24532414.620
  24532413.700          43.950          41.550
 134902634.334 5 105118949.38444                  25671118.460
  25671120.540          33.900          27.700
 130602295.957 7 101768028.28645                  24852785.700
  24852783.400          45.400          31.700
 106605023.484 8  83068917.53247                  20286235.260
  20286231.020          49.750          47.400
 129297009.124 7 100750971.741 6                  24604379.320    24604378.200
  24604377.780          46.150          40.750
 111337727.216 8  86756699.965 7                  21186846.320    21186843.940
  21186843.300          49.850          47.600
 116363132.570 8  90672705.05447                  22143098.840
  22143095.000          49.700          43.600
 120704249.882 7  94055337.135 7  90136380.340 8  22969229.180    22969230.180
  22969229.720          46.950          45.050
 118411491.197 8  92268708.366 7                  22532944.880    22532942.940
  22532942.260          49.550          45.750
 125891545.011 6  97915737.748 5                  23616893.940    23616902.120
  23616901.420          38.200          34.400
 104144467.108 8  81001301.391 7                  19482359.900    19482362.620
  19482362.180          49.350          47.800
 108084487.349 7  84065768.345 7                  20233628.260    20233632.580
  20233631.840          46.800          46.650
 131785569.063 6 102499897.203 5                  24627283.920    24627287.320
  24627286.100          40.700          34.750
 128526557.754 6  99965113.153 5                  24035112.460    24035115.940
  24035113.340          41.100          33.100
 109065034.498 8  84828417.248 7                  20438727.020    20438729.380
  20438729.500          49.100          44.600
 128257703.121 7                                  24018533.620
                        42.300
 122406155.019 7  95204820.207 6                  22858481.140    22858484.980
  22858483.320          45.400          40.400
 107332791.112 7  83481213.647 7                  20085811.000    20085816.260
  20085814.320          47.550          45.950
 146472057.140 7                 109378504.532 6  27872704.040
                        43.400
 118145983.702 8                                  22482431.200
                        48.300
 15  1 27 17  3  5.0000000  0 20G30G21G18G13G17G15G28G24G05R14R05R16
                                R17R24R06R09R04R15E19E20
 128934023.568 7 100468159.785 6  96282000.013 7  24535295.780    24535296.360
  24535295.460          44.800          40.800
 134906898.635 5                                  25671929.780
                        33.400
 130587750.415 7 101756694.10644                  24850017.780
  24850015.520          45.400          29.950
 106606260.966 8  83069881.80447                  20286470.720
  20286466.520          49.750          47.400
 129285375.311 7 100741906.448 6                  24602165.500    24602164.320
  24602163.960          46.250          40.750
 111328276.003 8  86749335.384 7                  21185047.800    21185045.400
  21185044.780          49.850          47.550
 116372495.020 8  90680000.46347                  22144880.460
  22144876.660          50.100          43.050
 120691672.381 7  94045536.503 7  90126988.077 8  22966835.760    22966836.760
  22966836.300          47.350          45.000
 118427389.269 8  92281096.466 7                  22535970.140    22535968.240
  22535967.560          49.550          45.450
 125909843.476 6  97929969.869 5                  23620326.600    23620334.980
  23620334.160          38.500          33.800
 104153177.303 8  81008075.980 7                  19483989.320    19483992.080
  19483991.620          49.450          47.800
 108076162.918 7  84059293.790 7                  20232069.860    20232074.220
  20232073.480          46.900          46.450
 131769535.832 6 102487426.880 5                  24624287.780    24624291.140
  24624289.980          41.550          35.100
 128520118.000 6  99960104.470 5                  24033908.260    24033911.480
  24033909.180          41.850          33.000
 109051733.478 8  84818072.011 7                  20436234.360    20436236.760
  20436236.900          48.950          44.750
 128240210.489 6                                  24015257.760
                        41.750
 122427611.894 7  95221508.868 6                  22862488.100    22862492.000
  22862490.260          45.300          40.000
 107344035.535 7  83489959.312 7                  20087915.240    20087920.500
  20087918.560          47.150          46.150
 146458137.084 7                 109368109.687 6  27870055.160
                        43.700
 118139318.401 8                                  22481162.820
                        48.350
 15  1 27 17  3 10.0000000  0 20G30G21G18G13G17G15G28G24G05R14R05R16
                                R17R24R06R09R04R15E19E20
 128949165.995 7 100479959.095 6  96293307.689 7  24538177.300    24538177.780
  24538176.920          45.000          40.850
 134911171.123 5 105125521.04245                  25672742.760
  25672723.500          35.550          30.900
 130573210.612 7 101745364.39845                  24847250.940
  24847248.700          45.250          33.950
 106607507.818 8  83070853.38147                  20286708.000
  20286703.780          49.900          47.050
 129273745.058 7 100732843.940 6                  24599952.320    24599951.160
  24599950.840          46.150          40.200
 111318831.488 8  86741976.031 7                  21183250.560    21183248.180
  21183247.540          49.750          47.400
 116381867.980 8  90687304.07347                  22146664.120
  22146660.280          50.450          43.050
 120679099.083 7  94035739.146 7  90117598.942 8  22964443.140    22964444.120
  22964443.640          47.900          44.900
 118443293.576 8  92293489.428 7                  22538996.620    22538994.740
  22538994.040          49.650          45.350
 125928139.143 6  97944199.851 5                  23623758.900    23623767.280
  23623766.320          38.200          33.900
 104161906.332 8  81014865.232 7                  19485622.260    19485625.020
  19485624.540          49.350          47.800
 108067850.458 7  84052828.551 7                  20230513.720    20230518.080
  20230517.340          46.700          46.350
 131753505.250 6 102474958.672 5                  24621292.120    24621295.380
  24621294.000          40.200          34.400
 128513694.759 6  99955108.636 5                  24032707.160    24032710.240
  24032708.160          41.300          32.250
 109038446.817 8  84807737.958 7                  20433744.380    20433746.900
  20433747.000          48.700          44.650
 128222722.407 6  99728762.692 4                  24011982.740    24011992.040
                        40.750          27.350
 122449073.719 7  95238201.383 6                  22866495.920    22866499.860
  22866498.140          44.350          39.800
 107355287.714 7  83498711.003 7                  20090020.880    20090026.220
  20090024.240          46.650          46.150
 146444218.332 7                 109357715.843 6  27867406.500
                        44.000
 118132661.144 8                                  22479895.960
                        48.450
 15  1 27 17  3 15.0000000  0 20G30G21G18G13G17G15G28G24G05R14R05R16
                                R17R24R06R09R04R15E19E20
 128964308.845 7 100491758.729 6  96304615.667 7  24541058.900    24541059.360
  24541058.480          44.650          41.500
 134915453.693 5                                  25673557.660
                        34.350
 130558678.201 7 101734040.47545                  24844485.540
  24844483.260          44.750          33.250
 106608765.739 8  83071833.58147                  20286947.380
  20286943.160          49.850          47.400
 129262120.055 7 100723785.521 6                  24597740.140    24597738.980
  24597738.680          46.300          40.650
 111309395.365 8  86734623.208 7                  21181454.900    21181452.520
  21181451.860          49.800          47.550
 116391253.221 8  90694617.25647                  22148450.140
  22148446.240          50.600          43.000
 120666531.910 7  94025946.546 7  90108214.364 8  22962051.680    22962052.640
  22962052.180          47.900          45.250
 118459205.811 8  92305888.572 7                  22542024.620    22542022.780
  22542022.040          49.800          45.550
 125946433.805 6  97958429.028 5                  23627190.940    23627199.320
  23627198.400          37.900          33.750
 104170656.119 8  81021670.615 7                  19487259.080    19487261.880
  19487261.380          49.400          47.600
 108059551.782 7  84046374.038 7                  20228960.200    20228964.540
  20228963.760          46.800          46.300
 131737479.253 6 102462494.042 6                  24618297.260    24618300.480
  24618299.380          40.650          36.250
 128507289.753 6  99950126.989 5                  24031509.380    24031512.360
  24031510.460          41.700          31.900
 109025176.469 8  84797416.583 7                  20431257.460    20431260.060
  20431260.160          48.650          44.550
 128205240.466 6                                  24008708.900
                        39.250
 122470542.112 7  95254898.995 6                  22870504.980    22870508.820
  22870507.140          44.550          39.350
 107366549.494 7  83507470.159 7                  20092128.320    20092133.720
  20092131.740          46.350          45.850
 146430302.625 7                 109347324.253 6  27864758.400
                        43.750
 118126013.676 8                                  22478630.980
                        48.450
 15  1 27 17  3 20.0000000  0 20G30G21G18G13G17G15G28G24G05R14R05R16
                                R17R24R06R09R04R15E19E20
 128979451.122 7 100503557.887 6  96315923.194 7  24543940.360    24543940.860
  24543940.000          44.850          41.350
 134919745.273 5                                  25674374.260
                        34.700
 130544152.155 7 101722721.48345                  24841721.300
  24841719.100          44.700          35.800
 106610033.732 8  83072821.62447                  20287188.680
  20287184.480          49.800          47.300
 129250499.332 7 100714730.433 6                  24595528.820    24595527.620
  24595527.280          46.300          40.600
 111299966.594 8  86727276.112 7                  21179660.660    21179658.300
  21179657.600          49.700          47.550
 116400649.674 8  90701939.16547                  22150238.320
  22150234.300          50.550          43.150
 120653969.719 7  94016157.828 7  90098833.515 8  22959661.160    22959662.120
  22959661.620          47.300          45.150
 118475124.982 8  92318293.115 7                  22545053.920    22545052.100
  22545051.360          49.650          45.600
 125964726.547 6  97972656.706 5                  23630622.620    23630630.980
  23630630.160          38.050          33.950
 104179425.494 8  81028491.232 7                  19488899.600    19488902.380
  19488901.880          49.450          47.650
 108051265.873 7  84039929.457 7                  20227409.040    20227413.400
  20227412.600          47.250          46.200
 131721456.767 6 102450032.100 5                  24615303.040    24615306.420
  24615305.480          41.100          33.550
 128500902.016 6  99945158.747 5                  24030314.860    24030317.860
  24030315.980          41.950          32.550
 109011921.454 8  84787107.137 7                  20428773.460    20428776.060
  20428776.200          48.850          44.400
 128187763.693 6                                  24005435.940
                        37.850
 122492016.184 7  95271601.030 6                  22874515.120    22874518.900
  22874517.220          45.250          40.000
 107377819.909 7  83516236.027 7                  20094237.380    20094242.800
  20094240.820          46.950          45.850
 146416388.965 7                 109336934.190 6  27862110.720
                        43.400
 118119375.008 8                                  22477367.660
                        48.450
 15  1 27 17  3 25.0000000  0 20G30G21G18G13G17G15G28G24G05R14R05R16
                                R17R24R06R09R04R15E19E20
 128994593.585 7 100515357.219 6  96327230.895 7  24546821.880    24546822.320
  24546821.520          46.400          41.800
 134924046.575 6                                  25675192.880
                        36.350
 130529633.362 7 101711408.17245                  24838958.480
  24838956.200          46.300          32.900
 106611312.723 8  83073818.24047                  20287432.060
  20287427.860          50.700          47.300
 129238883.670 8 100705679.290 6                  24593318.420    24593317.260
  24593316.900          48.050          41.700
 111290546.005 8  86719935.401 8                  21177867.960    21177865.600
  21177864.880          50.750          48.250
 116410058.168 8  90709270.46647                  22152028.800
  22152024.660          51.250          43.450
 120641413.298 7  94006373.612 7  90089456.992 8  22957271.740    22957272.700
  22957272.200          47.950          46.150
 118491051.872 8  92330703.668 7                  22548084.680    22548082.920
  22548082.160          50.800          46.350
 125983018.059 6  97986883.452 5                  23634054.040    23634062.540
  23634061.660          37.050          34.550
 104188215.447 8  81035327.858 8                  19490543.960    19490546.720
  19490546.240          48.850          48.550
 108042993.463 7  84033495.368 7                  20225860.460    20225864.780
  20225863.980          46.050          47.150
 131705438.589 6 102437573.506 5                  24612309.660    24612313.100
  24612312.080          38.750          32.700
 128494532.425 6  99940204.611 5                  24029123.680    24029126.800
  24029124.820          40.850          33.950
 108998682.448 7  84776810.141 7                  20426292.440    20426295.080
  20426295.220          47.550          45.450
 128170292.891 6  99687986.423 4                  24002164.060    24002175.000
                        38.050          27.300
 122513496.514 7  95288307.921 6                  22878526.440    22878530.280
  22878528.580          44.300          40.950
 107389099.584 7  83525009.112 7                  20096348.240    20096353.640
  20096351.620          46.350          46.700
 146402478.166 7                 109326546.278 6  27859463.580
                        44.900
 118112745.968 8                                  22476106.160
                        49.600
 15  1 27 17  3 30.0000000  0 20G30G21G18G13G17G15G28G24G05R14R05R16
                                R17R24R06R09R04R15E19E20
 129009735.008 7 100527155.735 7  96338537.788 8  24549703.160    24549703.660
  24549702.840          45.850          42.050
 134928356.460 5 105139008.32254                  25676013.140
  25676019.700          35.800          28.100
 130515120.491 7 101700099.45645                  24836196.760
  24836194.500          45.950          33.350
 106612601.284 8  83074822.30647                  20287677.280
  20287673.080          50.550          47.550
 129227271.831 8 100696631.128 6                  24591108.820    24591107.600
  24591107.220          48.150          41.200
 111281132.324 8  86712600.065 8                  21176076.600    21176074.220
  21176073.500          50.550          48.300
 116419477.412 8  90716610.13847                  22153821.320
  22153817.060          50.900          43.750
 120628861.517 7  93996593.032 7  90080083.929 8  22954883.200    22954884.160
  22954883.640          47.600          46.100
 118506985.182 8  92343119.226 7                  22551116.680    22551114.920
  22551114.160          50.550          46.250
 126001306.897 6  98001108.129 5                  23637484.900    23637493.480
  23637492.580          38.150          34.600
 104197024.580 8  81042179.397 8                  19492191.920    19492194.660
  19492194.160          48.850          48.200
 108034733.342 7  84027070.821 7                  20224314.160    20224318.460
  20224317.640          46.350          46.900
 131689423.573 6 102425117.372 5                  24609316.880    24609320.200
  24609319.060          39.350          30.600
 128488179.479 6  99935263.441 5                  24027935.700    24027938.660
  24027936.780          40.650          33.300
 108985458.338 7  84766524.737 7                  20423814.220    20423816.860
  20423817.020          47.750          44.900
 128152826.764 6                                  23998893.200    23998909.920
                        39.800          28.100
 122534981.981 7  95305018.820 6                  22882538.720    22882542.680
  22882540.960          44.350          41.500
 107400387.276 7  83533788.440 7                  20098460.600    20098465.980
  20098463.900          46.750          46.050
 146388568.931 7                 109316159.517 6  27856816.700
                        44.750
 118106125.225 8                                  22474846.260
                        49.150
 15  1 27 17  3 35.0000000  0 20G30G21G18G13G17G15G28G24G05R14R05R16
                                R17R24R06R09R04R15E19E20
 129024876.479 7 100538954.281 6  96349844.762 7  24552584.560    24552585.000
  24552584.220          45.900          41.800
 134932675.963 5                                  25676835.100
                        34.500
 130500614.751 7 101688796.30745                  24833436.340
  24833434.060          45.600          33.750
 106613900.587 8  83075834.75347                  20287924.540
  20287920.340          50.200          47.700
 129215664.985 7 100687586.855 6                  24588900.120    24588898.860
  24588898.500          47.700          41.250
 111271726.735 8  86705271.043 8                  21174286.780    21174284.380
  21174283.660          50.450          48.100
 116428908.535 8  90723959.07747                  22155616.080
  22155611.680          50.650          43.400
 120616315.451 7  93986816.891 7  90070715.131 8  22952495.760    22952496.700
  22952496.220          47.700          46.150
 118522926.109 8  92355540.719 7                  22554150.140    22554148.380
  22554147.620          50.550          46.250
 126019594.256 6  98015331.674 5                  23640915.520    23640924.160
  23640923.360          37.600          35.100
 104205853.927 8  81049046.676 8                  19493843.660    19493846.360
  19493845.880          48.800          48.000
 108026486.594 7  84020656.688 7                  20222770.380    20222774.640
  20222773.820          46.600          46.800
 131673412.726 6 102412664.414 5                  24606324.940    24606328.020
  24606327.000          40.150          32.950
 128481844.524 6  99930336.279 5                  24026751.040    24026754.040
  24026752.000          40.400          31.450
 108972250.277 8  84756251.817 7                  20421339.020    20421341.640
  20421341.800          48.000          44.900
 128135366.455 6  99660828.604 4                  23995623.340    23995631.980
                        38.850          27.300
 122556473.623 7  95321734.493 6                  22886552.180    22886556.180
  22886554.540          45.100          41.450
 107411684.284 7  83542575.010 7                  20100574.680    20100580.020
  20100577.920          46.850          46.050
 146374662.449 7                 109305774.830 6  27854170.360
                        44.050
 118099514.004 8                                  22473588.180
                        49.000
 15  1 27 17  3 40.0000000  0 20G30G21G18G13G17G15G28G24G05R14R05R16
                                R17R24R06R09R04R15E19E20
 129040017.437 7 100550752.443 6  96361151.335 7  24555465.760    24555466.220
  24555465.420          45.350          40.850
 134937004.449 5                                  25677658.880
                        32.900
 130486115.588 7 101677498.27045                  24830677.240
  24830674.960          45.250          34.550
 106615210.047 8  83076855.11247                  20288173.740
  20288169.560          49.900          47.550
 129204062.494 7 100678545.990 6                  24586692.240    24586690.960
  24586690.600          47.300          41.000
 111262328.658 8  86697947.873 7                  21172498.360    21172495.940
  21172495.240          50.200          47.750
 116438350.906 8  90731316.77747                  22157412.960
  22157408.460          50.200          43.550
 120603774.429 7  93977044.679 7  90061350.100 8  22950109.280    22950110.220
  22950109.740          47.800          45.950
 118538873.998 8  92367967.642 7                  22557184.940    22557183.140
  22557182.420          50.450          46.000
 126037879.675 6  98029553.662 5                  23644345.820    23644354.420
  23644353.720          37.350          34.250
 104214703.149 8  81055929.402 7                  19495499.080    19495501.780
  19495501.300          48.900          47.700
 108018252.701 7  84014252.564 7                  20221229.020    20221233.220
  20221232.400          46.900          46.650
 131657405.691 6 102400214.519 5                  24603333.620    24603337.020
  24603335.720          41.650          32.700
 128475526.989 6  99925422.622 5                  24025569.680    24025572.640
  24025570.360          41.200          30.750
 108959057.666 8  84745990.899 7                  20418866.700    20418869.360
  20418869.500          48.300          44.700
 128117911.448 6  99647252.585 4                  23992354.500    23992363.000
                        39.000          26.250
 122577970.860 7  95338454.559 6                  22890566.660    22890570.680
  22890569.080          45.050          41.050
 107422989.903 7  83551368.271 7                  20102690.360    20102695.700
  20102693.560          46.600          46.050
 146360758.119 7                 109295391.744 6  27851524.440
                        43.950
 118092911.688 8                                  22472331.780
                        48.700
 15  1 27 17  3 45.0000000  0 20G30G21G18G13G17G15G28G24G05R14R05R16
                                R17R24R06R09R04R15E19E20
 129055159.038 7 100562551.101 6  96372458.385 7  24558347.080    24558347.560
  24558346.660          45.400          40.650
 134941343.245 5                                  25678484.600
                        31.900
 130471624.142 7 101666206.27145                  24827919.600
  24827917.300          45.100          34.450
 106616530.827 8  83077884.29347                  20288425.080
  20288420.880          49.800          47.600
 129192465.590 7 100669509.466 6                  24584485.400    24584484.060
  24584483.740          47.200          40.650
 111252939.253 8  86690631.463 7                  21170711.640    21170709.160
  21170708.480          50.200          47.700
 116447805.700 8  90738684.14947                  22159212.160
  22159207.580          50.050          43.450
 120591239.767 7  93967277.409 7  90051989.798 8  22947724.020    22947724.960
  22947724.500          47.700          46.050
 118554829.954 8  92380400.849 7                  22560221.280    22560219.460
  22560218.740          50.550          46.000
 126056164.296 6  98043775.041 5                  23647776.020    23647784.560
  23647783.840          37.700          33.700
 104223573.080 8  81062828.231 7                  19497158.380    19497161.080
  19497160.600          49.100          47.850
 108010032.812 7  84007859.323 7                  20219690.260    20219694.460
  20219693.580          47.150          46.600
 131641403.443 6 102387768.362 5                  24600343.260    24600346.340
  24600345.300          39.900          33.900
 128469227.864 6  99920523.328 4                  24024391.720    24024394.700
  24024392.260          41.050          29.950
 108945881.747 8  84735742.962 7                  20416397.540    20416400.180
  20416400.280          48.700          44.300
 128100462.916 6  99633675.57214                  23989086.840    23989097.280
                        39.700          28.150
 122599474.987 7  95355179.974 6                  22894582.420    22894586.440
  22894584.840          45.000          40.550
 107434305.165 7  83560169.018 7                  20104807.840    20104813.200
  20104811.040          46.200          45.900
 146346857.071 7                 109285011.133 6  27848879.160
                        43.800
 118086319.435 8                                  22471077.300
                        48.550
 15  1 27 17  3 50.0000000  0 19G30G18G13G17G15G28G24G05R14R05R16R17
                                R24R06R09R04R15E19E20
 129070299.563 7 100574348.947 6  96383764.647 8  24561228.280    24561228.660
  24561227.780          45.400          40.300
 130457138.750 7 101654918.96546                  24825163.100
  24825160.780          45.150          36.700
 106617861.215 8  83078920.95547                  20288678.240
  20288674.040          49.700          47.650
 129180872.635 7 100660476.013 6                  24582279.320    24582277.920
  24582277.620          47.400          40.350
 111243556.818 8  86683320.481 7                  21168926.220    21168923.720
  21168923.060          50.200          47.650
 116457271.222 8  90746059.88347                  22161013.360
  22161008.740          49.800          43.700
 120578709.592 7  93957513.647 7  90042632.865 8  22945339.600    22945340.560
  22945340.100          46.800          46.200
 118570792.311 8  92392839.049 7                  22563258.860    22563257.000
  22563256.280          50.400          46.100
 126074446.391 6  98057994.475 5                  23651205.640    23651214.240
  23651213.500          38.500          33.900
 104232462.394 8  81069742.142 7                  19498821.320    19498824.000
  19498823.560          49.250          47.750
 108001825.244 7  84001475.669 7                  20218153.840    20218158.000
  20218157.100          47.400          46.200
 131625404.452 6 102375324.793 5                  24597353.420    24597356.680
  24597355.480          41.650          32.700
 128462945.756 6  99915637.208 5                  24023217.020    24023219.740
  24023217.360          41.150          30.400
 108932720.818 8  84725506.688 7                  20413931.160    20413933.800
  20413933.900          48.750          44.200
 128083019.110 6                                  23985820.140
                        39.400
 122620984.081 7  95371909.235 6                  22898599.060    22898603.100
  22898601.500          44.700          40.050
 107445628.333 7  83568975.922 7                  20106926.780    20106932.220
  20106930.040          46.250          46.000
 146332957.723 7                 109274631.734 6  27846234.200
                        43.800
 118079735.538 8                                  22469824.400
                        48.350
 15  1 27 17  3 55.0000000  0 19G30G18G13G17G15G28G24G05R14R05R16R17
                                R24R06R09R04R15E19E20
 129085440.957 7 100586147.445 6  96395071.538 8  24564109.560    24564109.920
  24564109.060          44.550          40.500
 130442661.303 7 101643637.83545                  24822408.120
  24822405.780          45.200          34.500
 106619203.167 8  83079966.63247                  20288933.640
  20288929.420          49.650          47.850
 129169285.505 7 100651447.089 6                  24580074.360    24580072.900
  24580072.600          47.200          40.400
 111234183.287 8  86676016.433 7                  21167142.500    21167140.000
  21167139.320          50.100          47.750
 116466749.365 8  90753445.44447                  22162816.940
  22162812.320          49.550          43.650
 120566185.828 7  93947754.890 7  90033280.731 8  22942956.400    22942957.420
  22942956.960          46.200          46.300
 118586763.000 8  92405283.735 7                  22566298.020    22566296.120
  22566295.400          50.250          46.150
 126092727.900 6  98072213.407 5                  23654635.200    23654643.840
  23654643.080          38.100          34.100
 104241372.633 8  81076672.321 8                  19500488.160    19500490.840
  19500490.400          49.300          48.050
 107993631.866 7  83995103.040 7                  20216620.060    20216624.200
  20216623.260          47.350          46.600
 131609410.541 7 102362885.050 5                  24594364.660    24594367.940
  24594366.580          43.450          34.850
 128456682.411 6  99910765.709 5                  24022045.720    24022048.520
  24022046.140          40.950          31.950
 108919576.620 8  84715283.425 7                  20411467.960    20411470.560
  20411470.660          48.750          44.850
 128065581.968 6  99606536.07514                  23982554.680    23982561.980
                        40.550          27.750
 122642500.095 7  95388643.870 6                  22902617.120    22902621.120
  22902619.500          45.650          40.700
 107456961.536 7  83577790.630 7                  20109047.640    20109053.140
  20109050.940          46.700          46.350
 146319061.895 7                 109264255.027 6  27843589.900
                        43.550
 118073161.953 8                                  22468573.460
                        48.250
 15  1 27 17  4  0.0000000  0 19G30G18G13G17G15G28G24G05R14R05R16R17
                                R24R06R09R04R15E19E20
 129100580.859 7 100597944.779 6  96406377.318 8  24566990.560    24566990.920
  24566990.060          44.350          40.600
 130428189.537 7 101632361.15945                  24819654.220
  24819651.880          45.100          35.150
 106620554.371 8  83081019.52048                  20289190.740
  20289186.540          49.750          48.000
 129157701.920 7 100642420.941 6                  24577870.060    24577868.600
  24577868.280          47.250          40.750
 111224816.344 8  86668717.525 7                  21165360.060    21165357.520
  21165356.840          50.050          47.750
 116476237.838 8  90760839.05847                  22164622.460
  22164617.880          49.550          43.400
 120553666.200 7  93937999.365 7  90023931.680 8  22940573.980    22940575.040
  22940574.580          46.400          46.400
 118602739.669 8  92417733.089 7                  22569338.320    22569336.360
  22569335.680          50.150          46.200
 126111006.482 6  98086430.095 5                  23658064.240    23658072.920
  23658072.060          37.500          34.050
 104250301.672 8  81083617.126 7                  19502158.500    19502161.200
  19502160.780          49.050          47.900
 107985450.248 7  83988739.566 7                  20215088.480    20215092.580
  20215091.640          47.300          46.750
 131593419.517 7 102350447.570 5                  24591376.360    24591379.700
  24591378.440          42.300          34.100
 128450435.518 6  99905907.050 5                  24020877.540    24020880.380
  24020878.100          40.250          32.350
 108906447.121 8  84705071.607 7                  20409007.480    20409010.120
  20409010.180          48.850          44.800
 128048149.181 6                                  23979290.060
                        40.250
 122664020.796 7  95405382.174 6                  22906636.100    22906639.980
  22906638.440          46.250          40.000
 107468302.418 7  83586611.316 7                  20111169.900    20111175.440
  20111173.280          46.900          46.200
 146305167.316 7                 109253879.206 6  27840945.820
                        43.250
 118066596.354 8                                  22467324.020
                        48.150
 15  1 27 17  4  5.0000000  0 19G30G18G13G17G15G28G24G05R14R05R16R17
                                R24R06R09R04R15E19E20
 129115720.093 7 100609741.597 6  96417682.589 8  24569871.480    24569871.800
  24569870.960          44.400          40.100
 130413724.206 7 101621089.50346                  24816901.540
  24816899.260          44.900          36.100
 106621915.601 8  83082080.22147                  20289449.780
  20289445.580          49.750          47.750
 129146122.628 7 100633398.153 6                  24575666.580    24575665.060
  24575664.800          47.200          40.800
 111215456.811 8  86661424.390 7                  21163579.000    21163576.440
  21163575.760          49.950          47.800
 116485737.400 8  90768241.31047                  22166430.060
  22166425.560          49.400          43.900
 120541151.485 7  93928247.657 7  90014586.284 8  22938192.480    22938193.540
  22938193.080          46.950          46.250
 118618723.106 8  92430187.712 7                  22572379.880    22572377.920
  22572377.260          50.050          46.050
 126129282.839 6  98100645.084 5                  23661492.840    23661501.580
  23661500.620          37.050          33.750
 104259250.287 8  81090577.162 7                  19503832.500    19503835.240
  19503834.780          49.100          47.850
 107977281.373 7  83982386.011 7                  20213559.320    20213563.380
  20213562.440          47.750          46.850
 131577431.929 7 102338012.761 5                  24588388.700    24588391.940
  24588390.640          43.100          34.200
 128444205.935 6  99901061.816 5                  24019712.580    24019715.540
  24019713.320          41.500          33.450
 108893332.851 8  84694871.627 7                  20406549.860    20406552.540
  20406552.560          48.900          44.850
 128030721.501 6  99579421.542 4                  23976026.280    23976036.180
                        41.100          28.500
 122685546.824 7  95422124.655 6                  22910655.960    22910659.860
  22910658.300          45.250          40.250
 107479651.752 7  83595438.571 7                  20113293.800    20113299.340
  20113297.180          47.000          46.300
 146291274.776 7                 109243504.934 6  27838302.120
                        43.500
 118060039.570 8                                  22466076.260
                        48.150
 15  1 27 17  4 10.0000000  0 19G30G18G13G17G15G28G24G05R14R05R16R17
                                R24R06R09R04R15E19E20
 129130860.052 7 100621538.972 6  96428988.403 8  24572752.480    24572752.800
  24572751.980          44.700          40.400
 130399266.731 7 101609823.93645                  24814150.360
  24814148.100          44.700          34.350
 106623288.285 8  83083149.83847                  20289711.000
  20289706.800          49.750          47.700
 129134549.087 7 100624379.820 6                  24573464.180    24573462.660
  24573462.360          47.300          40.300
 111206106.090 8  86654138.110 7                  21161799.620    21161797.040
  21161796.360          49.800          47.750
 116495249.380 8  90775653.23047                  22168240.060
  22168235.620          49.550          43.750
 120528643.161 7  93918500.909 7  90005245.654 8  22935812.200    22935813.240
  22935812.800          47.000          45.850
 118634714.660 8  92442648.657 7                  22575422.980    22575421.000
  22575420.340          49.800          45.900
 126147558.412 6  98114859.400 5                  23664921.300    23664929.920
  23664928.980          37.750          34.250
 104268219.836 8  81097553.464 7                  19505510.400    19505513.160
  19505512.720          49.250          47.800
 107969126.553 7  83976043.366 7                  20212032.760    20212036.760
  20212035.860          47.700          46.850
 131561449.475 7 102325581.961 5                  24585402.020    24585405.400
  24585403.980          42.000          34.650
 128437995.049 6  99896231.150 5                  24018551.100    24018554.120
  24018552.000          41.600          33.000
 108880235.331 8  84684684.662 7                  20404095.360    20404098.080
  20404098.080          48.850          44.950
 128013300.411 6  99565871.872 4                  23972763.800    23972774.180
                        41.050          29.050
 122707079.694 7  95438872.405 6                  22914677.020    22914681.040
  22914679.400          45.000          40.500
 107491010.829 7  83604273.397 7                  20115419.500    20115425.040
  20115422.880          47.150          46.200
 146277385.702 7                 109233133.225 6  27835659.140
                        43.700
 118053492.920 8                                  22464830.440
                        48.100
 15  1 27 17  4 15.0000000  0 19G30G18G13G17G15G28G24G05R14R05R16R17
                                R24R06R09R04R15E19E20
 129145999.268 7 100633335.770 6  96440293.663 8  24575633.360    24575633.700
  24575632.880          44.300          40.050
 130384815.717 7 101598563.44146                  24811400.400
  24811398.180          44.400          36.050
 106624670.984 8  83084227.27547                  20289974.120
  20289969.900          49.650          47.600
 129122979.854 7 100615364.853 6                  24571262.620    24571261.100
  24571260.780          47.250          40.300
 111196762.692 8  86646857.547 7                  21160021.640    21160019.060
  21160018.380          49.650          47.750
 116504772.395 8  90783073.75947                  22170052.220
  22170047.800          49.800          43.800
 120516139.829 7  93908758.061 7  89995908.764 8  22933432.880    22933433.920
  22933433.460          46.750          45.850
 118650712.922 8  92455114.831 7                  22578467.320    22578465.360
  22578464.700          49.700          45.750
 126165831.672 6  98129071.948 5                  23668349.340    23668357.840
  23668356.980          39.100          34.350
 104277208.764 8  81104544.853 7                  19507191.920    19507194.740
  19507194.280          49.200          47.850
 107960984.400 7  83969710.588 7                  20210508.560    20210512.540
  20210511.640          47.300          46.750
 131545470.701 7 102313154.021 6                  24582416.000    24582419.600
  24582418.080          42.400          36.000
 128431801.427 6  99891413.924 5                  24017392.880    24017395.840
  24017393.940          40.900          33.700
 108867153.457 8  84674509.883 7                  20401643.820    20401646.500
  20401646.540          48.800          44.950
 127995884.485 6  99552326.203 4                  23969502.280    23969510.960
                        41.500          28.000
 122728617.843 7  95455624.280 6                  22918699.060    22918703.160
  22918701.520          45.500          40.800
 107502378.246 7  83613114.731 7                  20117546.760    20117552.300
  20117550.140          47.300          46.250
 146263498.656 7                 109222763.032 6  27833016.540
                        42.950
 118046955.073 8                                  22463586.300
                        48.000
 15  1 27 17  4 20.0000000  0 19G30G18G13G17G15G28G24G05R14R05R16R17
                                R24R06R09R04R15E19E20
 129161138.484 7 100645132.557 6  96451598.932 8  24578514.240    24578514.600
  24578513.740          44.700          40.250
 130370371.858 7 101587308.50045                  24808651.820
  24808649.580          44.800          34.850
 106626064.417 8  83085313.06747                  20290239.280
  20290235.060          49.700          47.750
 129111415.649 7 100606353.817 6                  24569062.000    24569060.480
  24569060.160          47.250          40.100
 111187427.382 8  86639583.285 7                  21158245.200    21158242.580
  21158241.920          49.700          47.750
 116514307.165 8  90790503.45647                  22171866.620
  22171862.220          50.050          43.400
 120503642.106 7  93899019.586 7  89986576.063 8  22931054.620    22931055.640
  22931055.140          46.250          45.750
 118666718.572 8  92467586.762 7                  22581513.080    22581511.120
  22581510.480          49.400          45.800
 126184103.521 6  98143283.397 5                  23671777.140    23671785.600
  23671784.720          38.600          34.200
 104286218.049 8  81111552.068 7                  19508877.260    19508880.080
  19508879.660          49.200          47.850
 107952855.611 7  83963388.206 7                  20208986.840    20208990.820
  20208989.920          47.100          46.850
 131529496.268 7 102300729.481 5                  24579430.820    24579434.560
  24579433.040          42.050          35.050
 128425625.797 6  99886610.658 5                  24016238.060    24016240.960
  24016239.200          41.450          32.600
 108854087.659 8  84664347.604 7                  20399195.300    20399197.940
  20399198.020          48.950          45.200
 127978474.355 7  99538785.074 4                  23966241.940    23966249.900
                        42.000          28.800
 122750162.030 7  95472380.843 6                  22922722.320    22922726.460
  22922724.800          45.700          40.750
 107513754.688 7  83621963.071 7                  20119675.700    20119681.240
  20119679.100          47.400          46.350
 146249614.342 7                 109212394.909 6  27830374.420
                        42.550
 118040426.732 7                                  22462343.960
                        47.950
 15  1 27 17  4 25.0000000  0 19G30G18G13G17G15G28G24G05R14R05R16R17
                                R24R06R09R04R15E19E20
 129176276.463 7 100656928.385 6  96462903.270 8  24581394.960    24581395.280
  24581394.320          44.900          40.000
 130355933.937 7 101576058.18845                  24805904.340
  24805902.180          44.650          33.050
 106627467.396 8  83086406.29347                  20290506.240
  20290502.020          49.700          47.400
 129099855.283 7 100597345.758 6                  24566862.120    24566860.540
  24566860.240          47.350          39.650
 111178098.966 8  86632314.396 7                  21156470.060    21156467.460
  21156466.780          49.650          47.700
 116523852.398 8  90797941.29647                  22173683.040
  22173678.660          50.200          43.300
 120491148.769 7  93889284.541 7  89977246.656 8  22928677.180    22928678.200
  22928677.700          46.050          45.400
 118682730.410 8  92480063.509 7                  22584560.000    22584558.060
  22584557.420          49.200          45.500
 126202372.556 6  98157492.638 5                  23675204.340    23675212.720
  23675211.960          38.050          34.200
 104295246.292 8  81118574.029 7                  19510566.160    19510569.020
  19510568.560          48.900          47.900
 107944738.939 7  83957075.247 7                  20207467.440    20207471.400
  20207470.480          47.100          46.950
 131513525.100 6 102288307.489 6                  24576446.280    24576449.940
  24576448.580          41.300          36.450
 128419466.904 6  99881820.412 5                  24015086.320    24015089.280
  24015087.520          40.700          32.200
 108841036.561 8  84654196.756 7                  20396749.520    20396752.180
  20396752.240          48.750          45.300
 127961068.868 6  99525247.519 4                  23962982.460    23962991.200
                        41.800          29.750
 122771711.021 7  95489141.132 6                  22926746.440    22926750.600
  22926748.960          45.650          40.300
 107525138.910 7  83630817.464 7                  20121806.080    20121811.620
  20121809.500          47.400          46.450
 146235731.553 7                 109202027.923 6  27827732.580
                        42.400
 118033906.636 7                                  22461103.160
                        47.800
 15  1 27 17  4 30.0000000  0 19G30G18G13G17G15G28G24G05R14R05R16R17
                                R24R06R09R04R15E19E20
 129191415.319 7 100668724.910 6  96474208.285 8  24584275.840    24584276.100
  24584275.120          45.050          40.050
 130341504.138 7 101564814.20145                  24803158.440
  24803156.260          45.200          32.800
 106628882.036 8  83087508.61447                  20290775.460
  20290771.200          49.650          47.750
 129088300.863 7 100588342.345 6                  24564663.380    24564661.780
  24564661.460          47.050          39.850
 111168779.584 8  86625052.541 7                  21154696.680    21154694.040
  21154693.380          49.750          47.800
 116533410.267 8  90805388.99147                  22175501.920
  22175497.500          50.250          43.350
 120478662.038 7  93879554.641 7  89967922.171 8  22926301.000    22926302.040
  22926301.520          46.250          45.600
 118698750.483 8  92492546.676 7                  22587608.480    22587606.580
  22587605.920          49.200          45.400
 126220640.997 6  98171701.428 5                  23678631.460    23678639.720
  23678639.080          37.800          34.250
 104304295.668 8  81125612.431 7                  19512259.000    19512261.880
  19512261.420          49.250          47.850
 107936636.473 7  83950773.334 7                  20205950.660    20205954.600
  20205953.720          47.400          47.150
 131497559.160 7 102275889.517 6                  24573462.720    24573466.260
  24573465.000          43.000          36.600
 128413326.981 6  99877044.938 5                  24013938.140    24013940.840
  24013939.240          40.950          31.750
 108828002.655 8  84644059.286 7                  20394306.960    20394309.600
  20394309.700          48.850          45.200
 127943670.216 7  99511715.313 4                  23959724.220    23959733.260
                        43.200          29.750
 122793266.855 7  95505906.766 6                  22930771.820    22930775.940
  22930774.320          45.750          40.250
 107536532.952 7  83639679.502 7                  20123938.300    20123943.860
  20123941.760          47.450          46.400
 146221852.436 7                 109191663.669 6  27825091.440
                        42.550
 118027396.927 7                                  22459864.380
                        47.750
 15  1 27 17  4 35.0000000  0 19G30G18G13G17G15G28G24G05R14R05R16R17
                                R24R06R09R04R15E19E20
 129206552.808 7 100680520.369 6  96485512.267 8  24587156.420    24587156.640
  24587155.600          43.000          40.450
 130327080.164 7 101553574.75146                  24800413.640
  24800411.440          43.550          37.800
 106630306.085 8  83088618.26248                  20291046.440
  20291042.180          48.350          48.350
 129076750.200 7 100579341.857 6                  24562465.360    24562463.700
  24562463.380          45.300          40.450
 111159466.978 8  86617795.973 8                  21152924.580    21152921.900
  21152921.260          48.550          48.050
 116542978.515 8  90812844.78047                  22177322.780
  22177318.340          49.000          44.950
 120466179.626 7  93869828.102 7  89958600.915 8  22923925.620    22923926.680
  22923926.180          44.900          46.100
 118714776.602 7  92505034.557 7                  22590658.120    22590656.220
  22590655.580          47.800          45.800
 126238906.498 6  98185907.953 5                  23682058.000    23682066.400
  23682065.680          37.850          34.950
 104313363.861 8  81132665.474 8                  19513955.340    19513958.240
  19513957.780          49.400          48.750
 107928545.998 7  83944480.754 8                  20204436.080    20204440.040
  20204439.200          47.450          48.000
 131481596.346 7 102263473.996 6                  24570479.720    24570483.260
  24570481.920          43.250          38.850
 128407203.826 6  99872282.477 5                  24012792.980    24012795.820
  24012794.000          41.450          32.700
 108814983.673 8  84633933.426 7                  20391867.200    20391869.840
  20391869.960          48.900          46.150
 127926276.010 7  99498186.547 5                  23956466.880    23956475.300
                        42.950          31.850
 122814827.399 7  95522676.055 6                  22934798.140    22934802.240
  22934800.640          45.450          41.500
 107547934.461 7  83648547.343 7                  20126071.960    20126077.500
  20126075.420          47.700          47.450
 146207974.760 6                 109181300.491 6  27822450.580
                        40.250
 118020895.410 7                                  22458627.140
                        46.250
 15  1 27 17  4 40.0000000  0 19G30G18G13G17G15G28G24G05R14R05R16R17
                                R24R06R09R04R15E19E20
 129221691.110 7 100692316.460 6  96496816.833 8  24590037.180    24590037.320
  24590036.220          43.650          39.300
 130312664.264 7 101542341.60945                  24797670.380
  24797668.000          44.600          34.350
 106631741.708 8  83089736.93248                  20291319.620
  20291315.360          49.300          48.050
 129065205.426 7 100570345.949 6                  24560268.420    24560266.780
  24560266.380          46.300          40.300
 111150163.350 8  86610546.399 8                  21151154.180    21151151.480
  21151150.840          49.400          48.050
 116552559.272 8  90820310.30347                  22179146.000
  22179141.540          49.800          43.750
 120453703.691 7  93860106.607 7  89949284.471 8  22921551.480    22921552.580
  22921552.100          46.150          45.900
 118730810.911 8  92517528.809 7                  22593709.300    22593707.460
  22593706.800          48.850          45.400
 126257171.317 6  98200113.942 5                  23685484.360    23685492.720
  23685492.120          38.200          34.650
 104322452.963 8  81139734.765 8                  19515655.600    19515658.520
  19515658.080          49.000          48.400
 107920469.841 7  83938199.305 7                  20202924.200    20202928.160
  20202927.380          47.100          47.850
 131465638.852 6 102251062.623 6                  24567497.680    24567501.080
  24567499.920          41.550          38.500
 128401099.525 6  99867534.675 5                  24011651.480    24011654.500
  24011652.280          40.150          32.150
 108801981.439 8  84623820.584 7                  20389430.600    20389433.240
  20389433.400          48.600          45.900
 127908888.565 6  99484663.019 5                  23953210.700    23953219.660
                        41.400          30.650
 122836394.760 7  95539450.635 6                  22938825.660    22938829.880
  22938828.280          43.900          41.400
 107559345.730 7  83657422.775 7                  20128207.440    20128212.960
  20128210.900          47.000          47.100
 146194100.691 6                 109170939.995 6  27819810.380
                        41.350
 118014404.240 7                                  22457391.860
                        47.200
 15  1 27 17  4 45.0000000  0 20G30G18G13G17G15G28G24G12G05R14R05R16
                                R17R24R06R09R04R15E19E20
 129236827.753 7 100704111.262 6  96508120.159 8  24592917.600    24592917.580
  24592916.460          43.600          39.950
 130298253.943 7 101531112.80045                  24794928.180
  24794925.840          44.450          34.000
 106633186.409 8  83090862.67147                  20291594.560
  20291590.280          49.300          47.800
 129053664.120 7 100561352.740 6                  24558072.160    24558070.480
  24558070.120          46.300          40.650
 111140866.215 8  86603301.876 7                  21149385.020    21149382.300
  21149381.660          49.600          47.950
 116562150.059 8  90827783.63847                  22180971.140
  22180966.600          49.900          43.800
 120441231.805 7  93850388.250 7  89939971.052 8  22919178.120    22919179.240
  22919178.780          46.050          45.850
 133857711.830 6                                  25472274.880
                        39.400
 118746850.908 8  92530027.488 7                  22596761.580    22596759.800
  22596759.120          49.100          45.750
 126275432.932 6  98214317.439 5                  23688909.980    23688918.400
  23688918.000          37.750          34.400
 104331560.678 8  81146818.529 8                  19517359.360    19517362.300
  19517361.860          48.600          48.150
 107912405.295 7  83931926.882 7                  20201414.520    20201418.440
  20201417.700          46.900          47.450
 131449684.158 6 102238653.419 6                  24564516.120    24564519.560
  24564518.360          39.700          36.500
 128395011.595 6  99862799.617 5                  24010513.000    24010516.280
  24010513.680          41.000          32.250
 108788993.765 8  84613719.068 7                  20386996.720    20386999.380
  20386999.540          48.550          45.700
 127891505.271 6  99471142.736 5                  23949955.360    23949964.900
                        41.750          31.200
 122857966.367 7  95556228.490 6                  22942854.040    22942858.280
  22942856.720          44.750          41.300
 107570764.406 7  83666303.956 7                  20130344.280    20130349.820
  20130347.800          46.750          47.050
 146180227.750 6                 109160580.332 6  27817170.360
                        41.850
 118007920.951 7                                  22456158.100
                        47.100
 15  1 27 17  4 50.0000000  0 20G30G18G13G17G15G28G24G12G05R14R05R16
                                R17R24R06R09R04R15E19E20
 129251964.541 7 100715906.168 6  96519423.620 8  24595798.100    24595798.040
  24595796.980          44.750          40.100
 130283851.065 7 101519889.78045                  24792187.340
  24792185.020          44.900          33.500
 106634642.067 8  83091996.95647                  20291871.540
  20291867.260          49.600          47.300
 129042128.159 7 100552363.712 6                  24555876.900    24555875.240
  24555874.840          46.900          40.350
 111131577.385 8  86596063.836 7                  21147617.420    21147614.700
  21147614.060          49.850          47.900
 116571752.746 8  90835266.25947                  22182798.520
  22182793.940          50.150          43.100
 120428765.760 7  93840674.469 7  89930662.018 8  22916805.880    22916807.000
  22916806.520          46.200          45.600
 133837823.084 6                                  25468490.020
                        38.800
 118762898.475 8  92542532.080 7                  22599815.320    22599813.540
  22599812.900          49.300          45.350
 126293693.201 6  98228519.881 5                  23692335.560    23692343.860
  23692343.640          36.600          33.750
 104340688.650 8  81153918.056 8                  19519066.960    19519069.900
  19519069.420          48.200          48.050
 107904354.311 7  83925665.014 7                  20199907.360    20199911.260
  20199910.540          46.750          47.200
 131433734.250 6 102226247.945 6                  24561535.480    24561538.940
  24561537.720          38.600          37.250
 128388941.933 6  99858078.791 5                  24009377.940    24009381.220
  24009378.500          40.400          31.000
 108776022.604 8  84603630.399 7                  20384565.980    20384568.540
  20384568.780          48.450          45.350
 127874128.112 6  99457627.230 5                  23946701.140    23946710.380
                        41.850          31.350
 122879544.106 7  95573011.159 6                  22946883.580    22946887.760
  22946886.240          44.300          40.800
 107582192.246 7  83675192.273 7                  20132482.860    20132488.380
  20132486.400          46.150          46.900
 146166357.809 7                 109150222.958 6  27814530.980
                        42.900
 118001447.336 7                                  22454926.200
                        47.550
 15  1 27 17  4 55.0000000  0 20G30G18G13G17G15G28G24G12G05R14R05R16
                                R17R24R06R09R04R15E19E20
 129267101.243 7 100727701.019 6  96530726.995 8  24598678.520    24598678.460
  24598677.400          43.650          39.950
 130269455.395 7 101508672.40945                  24789447.900
  24789445.620          45.550          33.400
 106636108.432 8  83093139.58447                  20292150.580
  20292146.280          49.850          47.300
 129030597.263 7 100543378.629 6                  24553682.620    24553680.980
  24553680.500          47.400          39.800
 111122296.680 8  86588832.127 7                  21145851.380    21145848.620
  21145848.000          50.300          47.800
 116581367.030 8  90842757.92347                  22184628.100
  22184623.460          50.550          42.800
 120416305.232 7  93830964.992 7  89921357.102 8  22914434.700    22914435.840
  22914435.320          46.850          45.300
 133817934.033 6 104273751.48044                  25464704.500
  25464723.940          40.700          29.450
 118778953.257 8  92555042.295 7                  22602870.440    22602868.700
  22602868.040          49.900          45.300
 126311951.754 6  98242720.998 5                  23695760.860    23695769.120
  23695768.920          36.000          33.100
 104349836.842 7  81161033.329 7                  19520778.300    19520781.280
  19520780.780          47.600          47.900
 107896316.578 7  83919413.459 7                  20198402.700    20198406.560
  20198405.860          46.150          46.900
 131417788.693 6 102213845.897 6                  24558555.640    24558559.180
  24558557.940          37.800          36.850
 128382890.283 6  99853371.932 5                  24008246.280    24008249.580
  24008246.720          38.850          32.750
 108763067.579 7  84593554.279 7                  20382138.260    20382140.780
  20382141.020          47.800          45.250
 127856756.783 6  99444121.261 5                  23943448.040    23943457.820
  23943455.400          40.600          30.550
 122901127.724 7  95589798.397 6                  22950914.240    22950918.260
  22950916.780          43.350          39.950
 107593628.890 7  83684087.448 7                  20134623.060    20134628.600
  20134626.680          45.750          46.800
 146152490.629 7                 109139867.589 6  27811892.140
                        43.550
 117994983.269 8                                  22453696.120
                        48.000
 15  1 27 17  5  0.0000000  0 20G30G18G13G17G15G28G24G12G05R14R05R16
                                R17R24R06R09R04R15E19E20
 129282237.505 7 100739495.490 6  96542030.042 8  24601558.820    24601558.740
  24601557.720          44.550          40.550
 130255066.566 7 101497460.33545                  24786709.760
  24786707.500          45.300          33.350
 106637585.179 8  83094290.28447                  20292431.600
  20292427.280          49.800          47.400
 129019071.146 7 100534397.248 6                  24551489.260    24551487.620
  24551487.120          47.450          40.200
 111113023.726 8  86581606.445 7                  21144086.800    21144084.060
  21144083.420          50.400          47.850
 116590992.560 8  90850258.33247                  22186459.800
  22186455.100          50.350          42.900
 120403849.860 7  93821259.517 7  89912056.023 8  22912064.500    22912065.600
  22912065.100          47.400          45.150
 133798044.321 6 104258253.37744                  25460919.480
  25460931.260          41.250          29.050
 118795014.934 8  92567557.869 7                  22605926.840    22605925.140
  22605924.480          49.950          45.300
 126330208.440 6  98256920.675 5                  23699185.740    23699194.060
  23699193.820          36.300          33.600
 104359004.743 8  81168163.917 7                  19522493.320    19522496.360
  19522495.820          48.100          47.800
 107888291.863 7  83913172.016 7                  20196900.460    20196904.300
  20196903.600          46.700          46.850
 131401847.318 6 102201447.054 6                  24555576.640    24555580.020
  24555578.900          39.850          36.900
 128376856.425 6  99848678.945 5                  24007117.960    24007121.100
  24007118.360          40.600          32.800
 108750128.470 8  84583490.525 7                  20379713.540    20379716.020
  20379716.220          48.450          45.000
 127839390.958 6  99430614.565 5                  23940195.980    23940205.880
  23940202.880          41.850          30.450
 122922716.770 7  95606589.847 6                  22954945.840    22954949.920
  22954948.400          43.950          41.250
 107605074.026 7  83692989.212 7                  20136764.880    20136770.420
  20136768.520          46.350          46.700
 146138625.841 7                 109129514.029 6  27809253.740
                        43.750
 117988528.317 7                                  22452467.760
                        47.900
 15  1 27 17  5  5.0000000  0 20G30G18G13G17G15G28G24G12G05R14R05R16
                                R17R24R06R09R04R15E19E20
 129297373.032 7 100751289.410 6  96553332.558 8  24604439.080    24604438.960
  24604437.920          44.750          40.600
 130240684.312 7 101486253.38645                  24783972.880
  24783970.600          45.300          32.850
 106639072.015 8  83095448.86147                  20292714.540
  20292710.200          49.700          46.900
 129007549.544 7 100525419.397 6                  24549296.780    24549295.120
  24549294.600          47.550          40.000
 111103758.289 8  86574386.630 7                  21142323.640    21142320.880
  21142320.280          50.300          47.600
 116600629.058 8  90857767.29547                  22188293.540
  22188288.800          50.050          42.450
 120391399.575 7  93811558.005 7  89902758.749 8  22909695.280    22909696.340
  22909695.820          47.650          44.950
 133778153.683 6 104242754.61745                  25457134.040
  25457147.420          40.100          30.800
 118811083.191 8  92580078.583 7                  22608984.520    22608982.840
  22608982.200          50.100          45.100
 126348462.683 6  98271118.407 5                  23702610.100    23702618.480
  23702618.360          36.950          34.900
 104368192.065 8  81175309.614 8                  19524211.940    19524215.020
  19524214.500          48.050          48.350
 107880279.840 7  83906940.446 7                  20195400.600    20195404.440
  20195403.720          46.800          47.300
 131385909.820 6 102189051.255 6                  24552598.320    24552601.800
  24552600.660          39.650          36.900
 128370839.940 6  99843999.426 5                  24005992.820    24005995.900
  24005993.300          39.650          34.000
 108737204.924 8  84573438.887 7                  20377291.720    20377294.140
  20377294.340          48.650          45.350
 127822030.330 7  99417111.910 5                  23936944.880    23936954.020
  23936951.760          42.750          30.900
 122944311.122 7  95623385.411 6                  22958978.500    22958982.560
  22958981.100          44.250          41.800
 107616527.419 7  83701897.403 7                  20138908.240    20138913.800
  20138911.900          46.650          47.000
 146124763.165 7                 109119162.070 6  27806615.740
                        43.400
 117982082.194 7                                  22451241.080
                        47.900
 15  1 27 17  5 10.0000000  0 20G30G18G13G17G15G28G24G12G05R14R05R16
                                R17R24R06R09R04R15E19E20
 129312509.429 7 100763084.029 6  96564635.723 8  24607319.440    24607319.360
  24607318.260          44.800          40.500
 130226310.250 7 101475052.84545                  24781237.520
  24781235.240          45.150          32.200
 106640570.580 8  83096616.57447                  20292999.720
  20292995.340          49.850          46.900
 128996034.012 7 100516446.285 6                  24547105.440    24547103.720
  24547103.220          47.150          39.900
 111094501.985 8  86567173.934 7                  21140562.240    21140559.420
  21140558.840          50.150          47.600
 116610278.146 8  90865286.07047                  22190129.640
  22190124.920          49.800          42.650
 120378955.948 7  93801861.682 7  89893466.436 8  22907327.300    22907328.320
  22907327.840          47.700          45.000
 133758263.815 6 104227256.41645                  25453348.760
  25453361.180          41.050          33.850
 118827159.695 8  92592605.726 7                  22612043.800    22612042.120
  22612041.460          50.100          45.050
 126366716.417 6  98285315.761 5                  23706034.420    23706042.800
  23706042.720          37.100          34.400
 104377400.526 8  81182471.743 8                  19525934.560    19525937.680
  19525937.140          48.300          48.100
 107872282.007 7  83900719.920 7                  20193903.440    20193907.200
  20193906.520          46.650          47.000
 131369977.814 6 102176659.662 6                  24549621.020    24549624.540
  24549623.420          39.800          36.950
 128364842.465 6  99839334.723 5                  24004871.220    24004874.400
  24004871.940          39.850          34.100
 108724298.557 8  84563400.606 7                  20374873.140    20374875.480
  20374875.640          48.450          44.950
 127804676.608 7  99403614.625 5                  23933694.960    23933704.360
  23933702.280          42.650          31.450
 122965912.211 7  95640186.225 6                  22963012.380    22963016.460
  22963015.040          44.100          40.750
 107627990.712 7  83710813.302 7                  20141053.460    20141058.980
  20141057.120          46.800          46.800
 146110904.294 7                 109108812.919 6  27803978.500
                        43.600
 117975646.533 7                                  22450016.400
                        47.950
 15  1 27 17  5 15.0000000  0 20G30G18G13G17G15G28G24G12G05R14R05R16
                                R17R24R06R09R04R15E19E20
 129327644.943 7 100774877.940 6  96575938.215 8  24610199.620    24610199.520
  24610198.560          44.800          40.900
 130211942.615 7 101463857.29745                  24778503.400
  24778501.100          45.000          33.900
 106642079.059 8  83097792.00847                  20293286.760
  20293282.380          49.900          47.000
 128984522.856 7 100507476.576 6                  24544914.900    24544913.220
  24544912.700          47.200          40.050
 111085252.973 8  86559966.916 7                  21138802.220    21138799.380
  21138798.800          50.150          47.550
 116619938.055 8  90872813.26547                  22191967.780
  22191963.080          49.650          42.900
 120366517.051 7  93792169.035 7  89884177.667 8  22904960.240    22904961.260
  22904960.760          47.350          45.000
 133738372.791 6 104211757.32645                  25449563.040
  25449578.460          41.400          35.800
 118843242.591 8  92605137.844 7                  22615104.300    22615102.660
  22615101.940          50.050          45.050
 126384967.728 6  98299511.252 5                  23709458.260    23709466.780
  23709466.580          36.700          34.850
 104386628.262 8  81189648.866 7                  19527660.800    19527663.940
  19527663.400          48.750          47.950
 107864296.720 7  83894509.133 7                  20192408.540    20192412.320
  20192411.640          47.050          46.750
 131354049.649 6 102164271.083 6                  24546644.460    24546647.940
  24546646.880          39.700          36.000
 128358862.255 6  99834683.498 5                  24003752.860    24003756.100
  24003753.840          40.700          33.750
 108711407.756 8  84553374.425 7                  20372457.480    20372459.740
  20372459.900          49.050          44.950
 127787327.877 6  99390121.215 5                  23930446.120    23930455.700
  23930453.240          41.950          31.000
 122987518.420 7  95656991.016 6                  22967047.220    22967051.320
  22967049.840          44.600          39.750
 107639461.949 7  83719735.374 7                  20143200.180    20143205.660
  20143203.820          46.950          46.450
 146097047.393 7                 109098465.224 6  27801341.620
                        43.400
 117969219.611 7                                  22448793.400
                        47.950
 15  1 27 17  5 20.0000000  0 20G30G18G13G17G15G28G24G12G05R14R05R16
                                R17R24R06R09R04R15E19E20
 129342779.024 7 100786670.751 6  96587239.654 8  24613079.560    24613079.460
  24613078.500          45.100          41.650
 130197580.950 7 101452666.43145                  24775770.440
  24775768.220          45.200          33.200
 106643596.981 8  83098974.80947                  20293575.620
  20293571.220          49.950          46.750
 128973015.569 7 100498509.886 6                  24542725.120    24542723.400
  24542722.860          47.500          39.700
 111076010.790 8  86552765.225 7                  21137043.500    21137040.640
  21137040.060          50.300          47.500
 116629608.256 8  90880348.48547                  22193807.880
  22193803.200          49.700          42.350
 120354082.509 7  93782479.800 7  89874892.156 8  22902594.040    22902595.040
  22902594.540          46.950          45.150
 133718480.212 7 104196257.03745                  25445776.880
  25445793.460          42.400          31.550
 118859331.434 8  92617674.600 7                  22618165.960    22618164.260
  22618163.560          50.050          44.850
 126403216.025 6  98313704.355 5                  23712881.600    23712890.060
  23712889.900          36.100          33.700
 104395874.767 8  81196840.590 7                  19529390.560    19529393.700
  19529393.160          48.800          47.900
 107856323.463 7  83888307.715 7                  20190915.940    20190919.680
  20190918.980          47.200          46.650
 131338124.696 6 102151885.029 6                  24543668.420    24543671.900
  24543670.900          39.700          36.750
 128352898.969 6  99830045.423 5                  24002637.640    24002640.980
  24002638.960          40.950          33.900
 108698531.910 8  84543359.889 7                  20370044.600    20370046.840
  20370046.940          49.250          44.800
 127769983.744 7  99376631.412 5                  23927198.040    23927207.700
  23927205.220          42.200          30.250
 123009129.088 7  95673799.312 6                  22971082.880    22971086.840
  22971085.340          45.250          40.100
 107650940.683 7  83728663.274 7                  20145348.260    20145353.760
  20145351.900          47.150          46.450
 146083191.943 7                 109088118.680 6  27798704.940
                        43.350
 117962800.911 7                                  22447571.940
                        47.950
 15  1 27 17  5 25.0000000  0 20G30G18G13G17G15G28G24G12G05R14R05R16
                                R17R24R06R09R04R15E19E20
 129357914.036 7 100798464.261 6  96598541.792 7  24615959.620    24615959.640
  24615958.740          44.450          41.600
 130183227.583 7 101441481.98245                  24773039.020
  24773036.820          45.050          33.000
 106645126.635 8  83100166.74947                  20293866.680
  20293862.300          49.900          47.100
 128961514.472 7 100489548.004 6                  24540536.540    24540534.800
  24540534.260          47.550          40.450
 111066777.745 8  86545570.646 7                  21135286.540    21135283.660
  21135283.060          50.250          47.550
 116639290.997 8  90887893.47847                  22195650.380
  22195645.720          49.700          42.850
 120341654.516 7  93772795.670 7  89865611.528 8  22900229.060    22900230.060
  22900229.560          46.900          45.550
 133698588.397 7 104180757.29645                  25441991.260
  25442006.480          43.700          33.350
 118875428.478 8  92630217.747 7                  22621229.160    22621227.460
  22621226.760          50.000          45.200
 126421463.652 6  98327896.965 5                  23716304.840    23716313.080
  23716313.020          37.500          33.150
 104405142.369 8  81204048.726 7                  19531124.260    19531127.380
  19531126.900          48.800          47.800
 107848364.439 7  83882117.369 7                  20189426.040    20189429.700
  20189428.980          47.350          46.450
 131322205.304 6 102139503.315 5                  24540693.500    24540697.060
  24540696.020          40.700          35.150
 128346954.709 6  99825422.122 5                  24001525.980    24001529.520
  24001527.540          41.750          34.100
 108685673.369 8  84533358.799 7                  20367634.960    20367637.160
  20367637.220          49.200          45.050
 127752646.534 7  99363146.972 4                  23923951.320    23923961.000
  23923958.240          42.550          29.700
 123030746.572 7  95690612.910 6                  22975119.880    22975123.760
  22975122.200          45.100          40.550
 107662429.102 7  83737598.711 7                  20147498.180    20147503.680
  20147501.800          46.950          46.300
 146069340.303 7                 109077774.942 6  27796068.980
                        43.450
 117956392.721 7                                  22446352.440
                        47.850
 15  1 27 17  5 30.0000000  0 20G30G18G13G17G15G28G24G12G05R14R05R16
                                R17R24R06R09R04R15E19E20
 129373047.078 7 100810256.235 6  96609842.434 8  24618839.320    24618839.400
  24618838.500          44.600          41.300
 130168879.578 7 101430301.75645                  24770308.660
  24770306.520          45.000          34.000
 106646665.160 8  83101365.60647                  20294159.440
  20294155.060          49.850          46.950
 128950016.696 7 100480588.741 6                  24538348.580    24538346.840
  24538346.340          47.700          40.350
 111057551.009 8  86538380.988 7                  21133530.780    21133527.860
  21133527.240          50.150          47.550
 116648983.485 8  90895446.06147                  22197494.740
  22197490.120          49.800          42.700
 120329230.296 7  93763114.476 7  89856333.722 8  22897864.800    22897865.800
  22897865.300          46.950          45.450
 133678694.449 7 104165255.92645                  25438205.320
  25438221.460          43.700          32.550
 118891530.844 8  92642765.048 7                  22624293.380    22624291.640
  22624290.940          49.950          45.100
 126439707.743 6  98342086.849 5                  23719727.360    23719735.620
  23719735.480          38.100          33.800
 104414428.118 8  81211270.972 7                  19532861.400    19532864.500
  19532863.980          48.850          47.800
 107840416.833 7  83875935.908 7                  20187938.260    20187941.900
  20187941.140          47.450          46.550
 131306288.691 6 102127123.723 5                  24537719.120    24537722.540
  24537721.560          40.000          34.750
 128341026.703 6  99820811.465 5                  24000417.420    24000421.000
  24000419.080          41.150          33.950
 108672829.180 8  84523368.885 7                  20365228.020    20365230.160
  20365230.220          49.150          44.900
 127735313.323 7  99349665.644 5                  23920705.360    23920715.620
  23920712.360          42.350          30.400
 123052367.859 7  95707429.438 6                  22979157.540    22979161.440
  22979159.920          44.000          40.950
 107673924.355 7  83746539.464 7                  20149649.360    20149654.900
  20149652.980          46.750          46.200
 146055489.635 7                 109067431.935 6  27793433.300
                        44.050
 117949992.193 7                                  22445134.420
                        47.750
 15  1 27 17  5 35.0000000  0 20G30G18G13G17G15G28G24G12G05R14R05R16
                                R17R24R06R09R04R15E19E20
 129388181.519 7 100822049.317 6  96621144.145 7  24621719.300    24621719.400
  24621718.520          44.450          41.050
 130154540.413 7 101419128.38045                  24767580.000
  24767577.880          45.300          33.200
 106648215.950 8  83102574.01847                  20294454.520
  20294450.180          49.900          46.900
 128938525.649 7 100471634.699 6                  24536161.880    24536160.200
  24536159.640          47.300          40.500
 111048333.926 8  86531198.850 7                  21131776.840    21131773.880
  21131773.240          50.250          47.600
 116658689.044 8  90903008.83547                  22199341.640
  22199337.020          50.050          42.800
 120316813.238 7  93753438.857 7  89847061.262 8  22895501.940    22895502.900
  22895502.420          47.150          45.650
 133658801.801 7 104149755.54245                  25434419.640
  25434435.460          43.450          30.500
 118907642.003 8  92655319.191 7                  22627359.260    22627357.500
  22627356.800          50.000          45.250
 126457951.663 6  98356276.546 5                  23723149.820    23723158.160
  23723157.960          38.750          33.200
 104423735.424 8  81218509.985 7                  19534602.540    19534605.620
  19534605.120          49.200          47.850
 107832484.050 7  83869765.968 7                  20186453.240    20186456.860
  20186456.060          47.300          46.650
 131290378.289 6 102114748.968 5                  24534745.920    24534749.180
  24534748.220          40.800          34.700
 128335118.333 6  99816216.037 5                  23999312.460    23999316.160
  23999314.220          40.650          33.600
 108660003.003 8  84513392.975 7                  20362824.420    20362826.580
  20362826.580          49.350          45.100
 127717987.490 6  99336190.031 5                  23917460.760    23917470.440
  23917467.900          41.750          30.250
 123073996.615 7  95724251.747 6                  22983196.560    22983200.520
  22983199.080          43.900          41.200
 107685429.880 7  83755488.201 7                  20151802.500    20151807.980
  20151806.060          47.100          46.200
 146041643.284 7                 109057092.150 6  27790798.440
                        44.250
 117943602.735 7                                  22443918.540
                        47.750
 15  1 27 17  5 40.0000000  0 20G30G18G13G17G15G28G24G12G05R14R05R16
                                R17R24R06R09R04R15E19E20
 129403314.652 7 100833841.375 6  96632444.844 7  24624599.040    24624599.080
  24624598.320          44.350          41.600
 130140207.317 7 101407959.74445                  24764852.520
  24764850.360          45.250          33.300
 106649776.307 8  83103789.87447                  20294751.440
  20294747.080          49.800          47.000
 128927038.602 7 100462683.773 6                  24533975.960    24533974.280
  24533973.700          47.550          40.750
 111039123.802 8  86524022.129 7                  21130024.240    21130021.260
  21130020.580          50.400          47.400
 116668404.892 8  90910579.62247                  22201190.520
  22201185.880          50.200          42.250
 120304400.508 7  93743766.598 7  89837792.016 8  22893139.880    22893140.840
  22893140.340          47.550          45.600
 133638907.700 7 104134254.02445                  25430633.740
  25430649.780          44.600          31.100
 118923759.073 8  92667877.933 7                  22630426.280    22630424.500
  22630423.780          50.150          45.250
 126476192.684 6  98370464.031 5                  23726571.800    23726580.120
  23726579.860          38.600          33.350
 104433061.586 8  81225763.661 7                  19536347.220    19536350.280
  19536349.800          49.350          47.750
 107824563.399 7  83863605.460 7                  20184970.480    20184974.080
  20184973.240          47.200          46.400
 131274471.236 7 102102376.803 5                  24531773.400    24531776.460
  24531775.540          42.700          35.900
 128329226.848 6  99811633.783 5                  23998210.640    23998214.380
  23998212.480          40.450          32.650
 108647191.840 8  84503428.731 7                  20360423.660    20360425.780
  20360425.780          49.350          44.950
 127700666.411 7  99322718.106 4                  23914217.120    23914226.780
  23914224.200          42.000          28.850
 123095629.766 7  95741077.477 6                  22987236.440    22987240.380
  22987238.980          44.700          40.200
 107696942.933 7  83764442.803 7                  20153957.020    20153962.500
  20153960.540          47.250          46.200
 146027798.538 7                 109046753.559 6  27788163.860
                        44.350
 117937221.598 7                                  22442704.240
                        47.800
 15  1 27 17  5 45.0000000  0 20G30G18G13G17G15G28G24G12G05R14R05R16
                                R17R24R06R09R04R15E19E20
 129418447.147 7 100845632.919 6  96643745.111 7  24627478.720    24627478.740
  24627477.980          44.900          41.450
 130125881.036 7 101396796.42945                  24762126.320
  24762124.120          45.600          32.200
 106651346.979 8  83105013.77047                  20295050.300
  20295045.980          49.600          47.250
 128915556.273 7 100453736.521 6                  24531790.940    24531789.180
  24531788.660          47.150          40.250
 111029921.401 8  86516851.426 7                  21128273.100    21128270.080
  21128269.380          50.450          47.400
 116678131.769 8  90918159.01647                  22203041.520
  22203036.860          50.200          42.750
 120291992.933 7  93734098.363 7  89828526.629 8  22890778.820    22890779.720
  22890779.220          47.050          45.900
 133619012.871 7 104118751.91245                  25426847.620
  25426863.560          45.250          33.850
 118939882.746 8  92680441.834 7                  22633494.560    22633492.720
  22633492.040          49.950          45.400
 126494431.460 6  98384649.750 5                  23729993.400    23730001.840
  23730001.400          38.150          33.950
 104442407.270 8  81233032.516 7                  19538095.540    19538098.540
  19538098.120          49.350          47.800
 107816655.515 7  83857454.889 7                  20183490.100    20183493.700
  20183492.840          47.400          46.400
 131258568.376 6 102090007.921 6                  24528801.520    24528804.600
  24528803.680          41.150          36.100
 128323353.151 6  99807065.356 5                  23997112.200    23997115.760
  23997113.960          41.250          32.350
 108634396.623 8  84493476.902 7                  20358025.840    20358027.940
  20358027.980          49.400          45.000
 127683350.622 6  99309250.335 4                  23910974.420    23910984.060
  23910981.300          41.700          28.950
 123117268.244 7  95757907.410 6                  22991277.340    22991281.180
  22991279.780          44.800          40.250
 107708464.216 7  83773403.800 7                  20156113.080    20156118.600
  20156116.560          47.700          46.100
 146013956.157 7                 109036416.713 6  27785529.720
                        44.250
 117930849.523 7                                  22441491.640
                        47.850
 15  1 27 17  5 50.0000000  0 21G30G18G13G17G15G28G24G12G05R14R05R16
                                R17R24R06R09R07R04R15E19E20
 129433580.252 7 100857424.966 6  96655045.827 7  24630358.460    24630358.500
  24630357.740          43.850          41.750
 130111562.828 7 101385639.37545                  24759401.660
  24759399.260          45.550          33.600
 106652929.102 8  83106246.59147                  20295351.340
  20295347.040          49.600          47.200
 128904079.906 7 100444793.913 6                  24529607.000    24529605.320
  24529604.740          47.000          40.700
 111020727.917 8  86509687.665 7                  21126523.660    21126520.600
  21126519.860          50.400          47.550
 116687870.902 8  90925747.95547                  22204894.840
  22204890.160          50.250          42.750
 120279591.720 7  93724435.098 7  89819266.000 8  22888418.980    22888419.860
  22888419.340          47.000          45.800
 133599118.566 7 104103250.22945                  25423061.620
  25423077.000          45.250          31.500
 118956014.263 8  92693011.832 7                  22636564.320    22636562.440
  22636561.780          49.950          45.600
 126512669.324 6  98398834.749 5                  23733414.720    23733423.100
  23733422.740          38.350          33.950
 104451773.776 8  81240317.569 7                  19539847.740    19539850.760
  19539850.340          48.850          47.850
 107808761.712 7  83851315.250 7                  20182012.380    20182015.900
  20182015.040          47.200          46.300
 131242671.009 6 102077643.302 6                  24525830.760    24525833.760
  24525832.820          41.250          36.850
 128317498.223 6  99802511.509 5                  23996017.300    23996021.020
  23996018.860          41.400          30.100
 108621618.512 8  84483538.373 7                  20355631.220    20355633.320
  20355633.380          48.950          44.900
 127666041.572 6  99295787.802 4                  23907732.980    23907742.880
  23907739.760          41.650          29.750
 132139953.615 6                                  24684854.200
                        41.550
 123138913.101 7  95774742.275 6                  22995319.480    22995323.220
  22995321.800          44.200          40.600
 107719995.091 7  83782372.254 7                  20158270.920    20158276.400
  20158274.400          47.250          46.250
 146000117.318 7                 109026082.524 6  27782896.260
                        44.350
 117924487.722 7                                  22440281.040
                        47.900
 15  1 27 17  5 55.0000000  0 21G30G18G13G17G15G28G24G12G05R14R05R16
                                R17R24R06R09R07R04R15E19E20
 129448711.199 7 100869215.294 6  96666344.903 7  24633237.760    24633237.860
  24633237.020          45.000          41.850
 130097249.887 7 101374486.47645                  24756678.000
  24756675.560          45.550          31.800
 106654519.951 8  83107486.21047                  20295654.060
  20295649.760          49.600          47.200
 128892606.750 7 100435853.808 6                  24527423.680    24527421.980
  24527421.540          47.150          40.550
 111011540.578 8  86502528.702 7                  21124775.400    21124772.280
  21124771.540          50.400          47.550
 116697619.482 8  90933344.25747                  22206749.960
  22206745.300          50.150          42.900
 120267194.108 7  93714774.634 7  89810008.055 8  22886059.780    22886060.640
  22886060.160          46.900          45.800
 133579221.982 7 104087735.941 5                  25419275.140    25419288.500
  25419290.080          44.950          34.950
 118972150.845 8  92705585.782 7                  22639635.020    22639633.140
  22639632.480          49.800          45.450
 126530903.410 6  98413016.835 5                  23736835.360    23736843.740
  23736843.400          37.900          33.500
 104461158.175 8  81247616.547 7                  19541603.300    19541606.320
  19541605.880          48.900          47.750
 107800879.081 7  83845184.317 7                  20180536.760    20180540.240
  20180539.380          47.600          46.650
 131226776.270 6 102065280.716 6                  24522860.440    24522863.560
  24522862.540          40.850          36.900
 128311659.444 7  99797970.245 5                  23994925.440    23994929.040
  23994926.820          42.050          31.650
 108608854.539 8  84473610.851 7                  20353239.280    20353241.340
  20353241.400          49.000          44.800
 127648736.340 7  99282328.213 4                  23904492.160    23904502.500
  23904498.900          42.200          29.850
 132118479.062 7 102758843.82016                  24680842.160    24680848.380
  24680847.540          42.650          37.200
 123160561.638 7  95791580.002 6                  22999362.180    22999365.940
  22999364.520          43.700          40.250
 107731532.747 7  83791345.983 7                  20160430.060    20160435.520
  20160433.500          47.350          46.350
 145986279.273 7                 109015748.974 6  27780262.980
                        44.350
 117918133.467 7                                  22439071.860
                        47.950
 15  1 27 17  6  0.0000000  0 21G30G18G13G17G15G28G24G12G05R14R05R16
                                R17R24R06R09R07R04R15E19E20
 129463843.276 7 100881006.542 6  96677644.833 7  24636117.320    24636117.420
  24636116.540          45.450          41.650
 130082945.536 7 101363340.20545                  24753956.000
  24753953.500          45.350          34.400
 106656122.831 8  83108735.21247                  20295959.060
  20295954.780          49.600          47.700
 128881140.113 7 100426918.801 6                  24525241.600    24525239.900
  24525239.460          47.050          40.200
 111002362.692 8  86495377.105 7                  21123028.940    21123025.780
  21123025.040          50.400          47.550
 116707380.834 8  90940950.50847                  22208607.520
  22208602.840          50.150          43.200
 120254803.323 7  93705119.502 7  89800755.206 8  22883701.900    22883702.740
  22883702.260          47.300          45.750
 133559326.454 7 104072233.334 5                  25415488.880    25415503.220
  25415503.720          44.400          34.650
 118988295.775 8  92718166.245 7                  22642707.300    22642705.400
  22642704.780          49.800          45.650
 126549137.157 6  98427198.642 5                  23740255.940    23740264.320
  23740263.940          38.200          33.350
 104470563.970 8  81254932.163 7                  19543362.860    19543365.840
  19543365.420          48.950          47.700
 107793011.074 7  83839064.773 7                  20179063.860    20179067.320
  20179066.460          47.350          46.600
 131210887.582 6 102052922.855 6                  24519891.220    24519894.480
  24519893.400          40.450          37.650
 128305840.139 6  99793444.098 5                  23993837.200    23993840.740
  23993838.440          41.350          31.950
 108596108.419 8  84463697.200 7                  20350850.640    20350852.700
  20350852.740          49.100          44.650
 127631438.272 7  99268874.195 4                  23901252.780    23901262.880
  23901259.620          42.550          29.950
 132097006.776 7 102742143.148 6                  24676830.360    24676837.600
  24676835.940          44.400          37.600
 123182217.200 7  95808423.182 6                  23003406.120    23003410.020
  23003408.540          43.650          40.700
 107743080.267 7  83800327.389 7                  20162591.040    20162596.480
  20162594.480          47.100          46.650
 145972445.355 7                 109005418.437 6  27777630.460
                        43.850
 117911789.993 7                                  22437864.720
                        47.850
 15  1 27 17  6  5.0000000  0 21G30G18G13G17G15G28G24G12G05R14R05R16
                                R17R24R06R09R07R04R15E19E20
 129478974.583 7 100892797.187 7  96688944.205 7  24638996.740    24638996.820
  24638995.920          45.100          42.400
 130068647.909 7 101352199.22045                  24751235.260
  24751232.640          45.250          34.500
 106657735.828 8  83109992.08848                  20296265.980
  20296261.740          49.350          48.400
 128869678.168 7 100417987.430 6                  24523060.420    24523058.780
  24523058.260          47.050          41.100
 110993192.395 8  86488231.421 8                  21121283.920    21121280.740
  21121279.960          50.350          48.350
 116717153.045 8  90948565.21847                  22210467.120
  22210462.460          50.250          43.700
 120242417.562 7  93695468.274 7  89791506.114 8  22881344.940    22881345.780
  22881345.320          47.200          46.450
 133539430.099 7 104056730.133 5                  25411702.360    25411716.380
  25411716.840          44.100          35.400
 119004447.160 8  92730751.734 7                  22645780.800    22645778.940
  22645778.300          49.450          46.550
 126567368.531 6  98441378.639 5                  23743676.100    23743684.480
  23743683.980          37.500          33.250
 104479989.116 8  81262262.830 7                  19545126.000    19545128.980
  19545128.580          49.050          47.750
 107785155.700 7  83832955.052 7                  20177593.320    20177596.740
  20177595.900          47.200          46.550
 131195002.989 6 102040568.221 6                  24516922.680    24516926.100
  24516925.000          40.300          37.500
 128300038.402 6  99788931.636 5                  23992752.260    23992755.720
  23992753.460          41.250          32.700
 108583378.042 8  84453795.798 7                  20348464.960    20348467.020
  20348467.040          49.200          44.800
 127614145.599 7  99255424.390 5                  23898014.400    23898024.520
  23898021.360          42.850          30.350
 132075534.797 7 102725442.716 6                  24672819.260    24672826.060
  24672824.700          43.750          39.000
 123203877.780 7  95825270.262 6                  23007451.100    23007455.020
  23007453.560          44.400          40.950
 107754635.758 7  83809314.989 7                  20164753.500    20164758.980
  20164756.960          47.250          46.350
 145958613.611 7                 108995089.600 6  27774998.300
                        43.950
 117905455.476 7                                  22436659.300
                        47.800
 15  1 27 17  6 10.0000000  0 21G30G18G13G17G15G28G24G12G05R14R05R16
                                R17R24R06R09R07R04R15E19E20
 129494105.884 7 100904587.810 7  96700243.566 7  24641876.100    24641876.200
  24641875.220          44.900          42.500
 130054357.765 7 101341064.07745                  24748515.940
  24748513.320          45.200          34.000
 106659359.731 8  83111257.46748                  20296574.980
  20296570.760          49.400          48.450
 128858221.650 7 100409060.306 6                  24520880.280    24520878.620
  24520878.100          47.050          40.750
 110984030.451 8  86481092.248 8                  21119540.500    21119537.260
  21119536.520          50.300          48.250
 116726936.854 8  90956188.96547                  22212328.940
  22212324.300          50.050          43.750
 120230037.544 7  93685821.515 7  89782261.317 8  22878989.060    22878989.940
  22878989.480          46.850          45.950
 133519533.707 7 104041226.848 5                  25407915.760    25407931.100
  25407930.460          43.400          35.600
 119020605.777 8  92743342.850 7                  22648855.660    22648853.820
  22648853.200          49.250          46.200
 126585598.227 6  98455557.298 5                  23747095.920    23747104.340
  23747103.840          36.550          33.600
 104489434.335 8  81269609.107 7                  19546892.940    19546895.920
  19546895.520          49.200          47.600
 107777313.704 7  83826855.718 7                  20176125.280    20176128.660
  20176127.820          47.350          46.350
 131179123.340 6 102028217.385 6                  24513955.080    24513958.640
  24513957.520          40.000          37.500
 128294254.994 6  99784433.444 5                  23991670.700    23991674.120
  23991671.980          40.050          32.300
 108570664.171 8  84443907.236 7                  20346082.340    20346084.460
  20346084.480          49.300          44.950
 127596858.983 6  99241979.275 5                  23894777.120    23894787.480
  23894784.200          41.050          31.350
 132054063.983 6 102708743.321 5                  24668808.040    24668814.340
  24668813.540          39.100          34.200
 123225544.138 7  95842121.830 6                  23011497.200    23011501.240
  23011499.680          45.300          39.300
 107766199.982 7  83818309.388 7                  20166917.600    20166923.080
  20166921.060          47.550          46.100
 145944784.898 7                 108984762.980 6  27772366.760
                        44.150
 117899130.641 7                                  22435455.700
                        47.700
 15  1 27 17  6 15.0000000  0 21G30G18G13G17G15G28G24G12G05R14R05R16
                                R17R24R06R09R07R04R15E19E20
 129509236.732 7 100916378.074 7  96711542.583 7  24644755.400    24644755.520
  24644754.580          45.200          42.000
 130040074.647 7 101329934.38345                  24745797.920
  24745795.240          45.000          34.550
 106660994.081 8  83112530.98548                  20296886.000
  20296881.780          49.250          48.750
 128846770.118 7 100400137.055 6                  24518701.100    24518699.500
  24518698.880          46.650          40.650
 110974876.403 8  86473959.225 8                  21117798.560    21117795.300
  21117794.560          50.400          48.200
 116736731.799 8  90963821.39047                  22214192.860
  22214188.260          49.850          43.700
 120217662.827 7  93676178.886 7  89773020.472 8  22876634.180    22876635.100
  22876634.640          46.600          46.150
 133499636.821 7 104025723.170 5                  25404129.060    25404143.900
  25404144.040          43.250          35.600
 119036771.099 8  92755939.194 7                  22651931.800    22651929.980
  22651929.360          49.150          46.200
 126603825.902 6  98469734.349 5                  23750515.380    23750523.800
  23750523.240          36.850          32.350
 104498899.244 8  81276970.691 7                  19548663.540    19548666.520
  19548666.120          49.200          47.600
 107769484.641 7  83820766.434 7                  20174659.640    20174663.000
  20174662.180          47.600          46.450
 131163248.036 6 102015869.897 6                  24510988.380    24510991.880
  24510990.840          38.950          37.600
 128288489.460 6  99779949.162 5                  23990592.460    23990595.980
  23990593.860          39.800          32.700
 108557966.383 8  84434031.193 7                  20343702.780    20343704.880
  20343704.920          49.250          45.000
 127579577.938 6  99228538.508 5                  23891540.900    23891551.000
  23891548.260          41.100          30.650
 132032593.998 6 102692044.502 5                  24664797.340    24664803.200
  24664802.700          38.250          32.300
 123247215.695 7  95858977.473 6                  23015544.280    23015548.300
  23015546.680          45.550          39.300
 107777772.570 7  83827310.288 7                  20169083.260    20169088.700
  20169086.720          47.850          46.000
 145930958.705 7                 108974438.245 6  27769735.740
                        44.300
 117892815.079 7                                  22434253.880
                        47.650
 15  1 27 17  6 20.0000000  0 21G30G18G13G17G15G28G24G12G05R14R05R16
                                R17R24R06R09R07R04R15E19E20
 129524367.873 7 100928168.607 6  96722841.834 7  24647634.780    24647634.820
  24647633.920          44.750          41.850
 130025799.448 7 101318810.87645                  24743081.400
  24743078.760          45.550          33.750
 106662639.677 8  83113813.27148                  20297199.140
  20297194.920          49.400          48.100
 128835324.396 7 100391218.333 6                  24516523.020    24516521.380
  24516520.840          46.350          40.600
 110965731.072 8  86466833.000 7                  21116058.300    21116055.000
  21116054.260          50.450          47.950
 116746538.659 8  90971463.10347                  22216059.040
  22216054.460          49.650          43.950
 120205294.241 7  93666541.048 7  89763784.215 8  22874280.500    22874281.420
  22874280.960          46.550          46.100
 133479740.240 7 104010219.734 6                  25400342.360    25400357.360
  25400357.660          43.350          36.200
 119052943.952 8  92768541.407 7                  22655009.380    22655007.580
  22655006.960          49.200          46.050
 126622052.304 6  98483910.448 5                  23753934.440    23753942.800
  23753942.400          38.000          32.550
 104508384.589 8  81284348.184 7                  19550437.980    19550440.960
  19550440.560          49.550          47.650
 107761669.339 7  83814687.872 7                  20173196.580    20173199.920
  20173199.120          47.850          46.350
 131147377.957 6 102003526.492 6                  24508022.620    24508026.140
  24508025.060          38.550          36.900
 128282742.673 6  99775479.459 5                  23989517.760    23989521.160
  23989519.240          41.100          33.100
 108545285.785 8  84424168.514 7                  20341326.420    20341328.560
  20341328.580          49.600          45.250
 127562303.328 6  99215102.738 4                  23888305.840    23888316.020
  23888313.340          41.550          29.800
 132011125.617 6 102675346.798 5                  24660786.780    24660793.180
  24660792.020          38.300          30.500
 123268893.475 7  95875837.965 6                  23019592.460    23019596.460
  23019594.780          44.650          38.600
 107789354.381 8  83836318.365 7                  20171250.660    20171256.100
  20171254.100          48.050          46.300
 145917135.881 7                 108964116.012 6  27767105.340
                        44.350
 117886509.565 7                                  22433053.980
                        47.600
 15  1 27 17  6 25.0000000  0 21G30G18G13G17G15G28G24G12G05R14R05R16
                                R17R24R06R09R07R04R15E19E20
 129539497.591 7 100939958.005 7  96734140.007 7  24650513.840    24650513.960
  24650513.060          44.150          42.100
 130011530.335 7 101307692.10345                  24740366.040
  24740363.460          45.700          33.800
 106664294.766 8  83115102.95547                  20297514.100
  20297509.880          49.650          47.900
 128823882.710 7 100382302.770 6                  24514345.720    24514344.080
  24514343.520          46.400          40.200
 110956592.694 8  86459712.190 7                  21114319.360    21114316.040
  21114315.300          50.550          47.900
 116756355.688 8  90979112.73647                  22217927.140
  22217922.560          49.450          43.700
 120192930.099 7  93656906.670 7  89754551.248 8  22871927.660    22871928.580
  22871928.120          46.700          45.900
 133459842.225 7 103994715.181 5                  25396555.480    25396570.480
  25396570.680          42.950          35.800
 119069122.543 8  92781148.101 7                  22658088.060    22658086.260
  22658085.660          49.100          45.800
 126640275.597 6  98498084.147 5                  23757353.000    23757361.480
  23757360.940          37.300          32.950
 104517888.612 8  81291740.209 7                  19552215.920    19552218.900
  19552218.480          49.450          47.700
 107753866.074 7  83808618.674 7                  20171735.800    20171739.160
  20171738.300          47.950          46.450
 131131511.365 6 101991185.861 6                  24505057.560    24505061.140
  24505060.000          38.750          37.300
 128277012.825 6  99771022.900 5                  23988446.180    23988449.540
  23988447.820          41.200          33.850
 108532620.279 8  84414317.569 7                  20338952.920    20338955.060
  20338955.080          49.400          45.100
 127545033.380 6  99201670.626 5                  23885071.720    23885082.000
  23885079.260          41.800          30.150
 131989657.276 6 102658649.351 4                  24656776.380    24656783.220
  24656781.520          37.700          28.500
 123290575.475 7  95892701.707 6                  23023641.380    23023645.420
  23023643.660          44.450          38.250
 107800943.467 7  83845332.092 7                  20173419.400    20173424.840
  20173422.840          47.900          46.250
 145903314.617 7                 108953794.964 6  27764475.280
                        44.600
 117880212.340 7                                  22431855.660
                        47.600
 15  1 27 17  6 30.0000000  0 21G30G18G13G17G15G28G24G12G05R14R05R16
                                R17R24R06R09R07R04R15E19E20
 129554626.341 7 100951746.626 6  96745437.476 7  24653392.720    24653392.880
  24653391.940          44.650          41.850
 129997267.832 7 101296578.47945                  24737651.940
  24737649.400          45.400          34.550
 106665959.858 8  83116400.43247                  20297830.960
  20297826.740          49.750          47.800
 128812445.561 7 100373390.710 6                  24512169.280    24512167.580
  24512167.060          46.550          39.850
 110947461.765 8  86452597.178 7                  21112581.820    21112578.500
  21112577.760          50.350          47.900
 116766183.388 8  90986770.68847                  22219797.240
  22219792.700          49.300          43.750
 120180570.750 7  93647276.018 7  89745321.897 8  22869575.740    22869576.660
  22869576.200          46.950          45.850
 133439943.331 7 103979209.919 5                  25392768.460    25392783.540
  25392783.540          43.550          35.250
 119085307.358 8  92793759.629 7                  22661167.920    22661166.120
  22661165.540          49.150          45.850
 126658496.372 6  98512255.853 5                  23760771.120    23760779.560
  23760779.120          39.200          33.500
 104527411.793 8  81299147.126 7                  19553997.440    19554000.420
  19554000.000          49.450          47.700
 107746075.256 7  83802559.157 7                  20170277.320    20170280.660
  20170279.820          47.850          46.350
 131115648.907 6 101978848.400 6                  24502093.200    24502096.840
  24502095.680          39.250          36.450
 128271300.308 7  99766579.854 5                  23987377.880    23987381.240
  23987379.600          42.100          34.250
 108519970.620 8  84404478.941 7                  20336582.380    20336584.500
  20336584.520          49.300          45.000
 127527768.496 7  99188242.442 4                  23881838.540    23881849.040
  23881846.080          42.350          28.700
 131968189.221 6 102641951.931 5                  24652766.080    24652774.000
  24652771.220          36.850          31.850
 123312262.406 7  95909569.287 6                  23027691.260    23027695.300
  23027693.460          46.100          38.700
 107812540.393 7  83854351.925 7                  20175589.600    20175595.040
  20175593.060          47.800          46.100
 145889495.487 7                 108943475.495 6  27761845.600
                        44.700
 117873923.942 7                                  22430659.000
                        47.600
 15  1 27 17  6 35.0000000  0 21G30G18G13G17G15G28G24G12G05R14R05R16
                                R17R24R06R09R07R04R15E19E20
 129569754.146 7 100963534.544 6  96756734.217 7  24656271.440    24656271.580
  24656270.740          44.450          40.500
 129983011.940 7 101285470.01845                  24734939.120
  24734936.580          44.900          32.350
 106667634.932 8  83117705.68847                  20298149.720
  20298145.520          49.800          46.100
 128801013.014 7 100364482.246 6                  24509993.740    24509992.120
  24509991.540          46.700          38.950
 110938338.291 8  86445487.979 7                  21110845.700    21110842.360
  21110841.640          50.300          46.750
 116776021.721 8  90994436.91947                  22221669.340
  22221664.880          49.100          42.450
 120168216.167 7  93637649.078 7  89736096.070 8  22867224.700    22867225.620
  22867225.180          47.050          44.600
 133420043.516 7 103963703.958 5                  25388981.280    25388996.160
  25388996.440          43.300          33.750
 119101498.343 8  92806375.971 7                  22664248.960    22664247.160
  22664246.580          49.150          44.300
 126676714.628 6  98526425.626 5                  23764188.860    23764197.200
  23764196.760          39.550          31.900
 104536954.088 8  81306568.904 7                  19555782.500    19555785.520
  19555785.080          49.550          47.050
 107738296.876 7  83796509.300 7                  20168821.180    20168824.540
  20168823.660          47.700          45.850
 131099790.496 6 101966514.114 6                  24499129.680    24499133.320
  24499132.040          38.650          36.100
 128265605.331 6  99762150.431 5                  23986312.840    23986316.300
  23986314.600          41.700          31.900
 108507336.664 8  84394652.543 7                  20334214.800    20334216.880
  20334216.920          49.550          44.450
 127510508.835 6  99174806.044 4                  23878606.400
  23878613.900          41.900          27.100
 131946721.675 6 102625255.017 5                  24648755.580    24648762.740
  24648760.840          40.550          31.800
 123333953.903 7  95926440.443 6                  23031742.100    23031746.160
  23031744.220          46.150          39.450
 107824145.134 7  83863377.835 7                  20177761.240    20177766.680
  20177764.720          47.700          45.700
 145875678.425 7                 108933157.593 7  27759216.300
                        44.400
 117867644.353 7                                  22429464.040
                        47.700
 15  1 27 17  6 40.0000000  0 21G30G18G13G17G15G28G24G12G05R14R05R16
                                R17R24R06R09R07R04R15E19E20
 129584883.183 7 100975323.412 6  96768031.896 7  24659150.420    24659150.520
  24659149.720          44.400          40.200
 129968764.827 7 101274368.38045                  24732227.960
  24732225.500          44.750          32.250
 106669322.185 8  83119020.43747                  20298470.780
  20298466.600          49.800          46.550
 128789587.166 7 100355579.015 6                  24507819.460    24507817.820
  24507817.260          46.750          39.050
 110929224.480 8  86438386.319 7                  21109111.420    21109108.100
  21109107.340          50.200          46.900
 116785872.863 8  91002113.13247                  22223543.880
  22223539.480          49.300          42.200
 120155868.649 7  93628027.652 7  89726875.552 8  22864875.000    22864875.920
  22864875.500          46.800          44.600
 133400144.964 7 103948198.974 5                  25385194.420    25385209.520
  25385209.700          44.200          34.700
 119117697.720 8  92818998.854 7                  22667331.580    22667329.780
  22667329.220          49.200          44.600
 126694932.477 6  98540595.093 5                  23767606.560    23767615.000
  23767614.340          38.950          31.650
 104546517.794 8  81314007.340 7                  19557571.580    19557574.620
  19557574.180          49.600          47.100
 107730533.288 7  83790470.962 7                  20167367.780    20167371.180
  20167370.260          47.650          45.900
 131083938.427 6 101954184.756 6                  24496167.360    24496170.980
  24496169.600          39.700          36.450
 128259929.893 6  99757736.210 5                  23985251.440    23985255.200
  23985253.220          40.650          31.350
 108494720.549 8  84384840.011 7                  20331850.520    20331852.600
  20331852.660          49.600          44.700
 127493256.549 7  99161383.876 4                  23875375.680    23875386.440
  23875382.880          42.350          27.100
 131925256.802 6 102608560.117 5                  24644745.780    24644752.620
  24644751.200          40.400          32.900
 123355652.506 7  95943317.077 6                  23035794.220    23035798.260
  23035796.360          45.700          39.000
 107835759.888 7  83872411.543 7                  20179934.780    20179940.220
  20179938.260          47.350          45.850
 145861865.646 7                 108922842.879 6  27756587.800
                        44.250
 117861375.724 7                                  22428271.160
                        47.800
 15  1 27 17  6 45.0000000  0 21G30G18G13G17G15G28G24G12G05R14R05R16
                                R17R24R06R09R07R04R15E19E20
 129600012.863 7 100987112.781 6  96779330.039 7  24662029.520    24662029.520
  24662028.800          44.600          41.050
 129954525.927 7 101263273.14845                  24729518.380
  24729515.980          44.900          34.600
 106671021.020 8  83120344.20047                  20298794.060
  20298789.860          49.800          47.400
 128778167.498 7 100346680.591 6                  24505646.380    24505644.720
  24505644.200          46.950          40.700
 110920119.742 8  86431291.722 7                  21107378.840    21107375.520
  21107374.760          50.150          47.750
 116795736.202 8  91009798.84647                  22225420.760
  22225416.400          49.600          43.450
 120143527.569 7  93618411.249 7  89717659.812 8  22862526.500    22862527.460
  22862527.040          46.900          45.600
 133380247.108 7 103932694.512 6                  25381407.680    25381422.740
  25381423.100          44.850          36.800
 119133904.888 8  92831627.812 7                  22670415.700    22670413.880
  22670413.360          49.150          45.550
 126713149.288 6  98554763.764 5                  23771024.040    23771032.300
  23771031.740          38.600          32.750
 104556102.241 8  81321461.906 7                  19559364.560    19559367.560
  19559367.140          49.700          47.700
 107722783.762 7  83784443.557 7                  20165917.040    20165920.480
  20165919.540          47.650          46.550
 131068092.111 6 101941859.812 6                  24493206.160    24493209.680
  24493208.200          41.100          36.250
 128254273.649 6  99753336.930 5                  23984193.660    23984197.440
  23984195.380          39.250          31.800
 108482121.792 8  84375040.980 7                  20329489.520    20329491.580
  20329491.660          49.700          45.000
 127476011.012 7  99147974.467 4                  23872146.140
  23872153.080          42.750          28.200
 131903793.993 6 102591866.846 5                  24640736.600    24640743.040
  24640741.720          39.400          32.250
 123377357.459 7  95960198.662 6                  23039847.560    23039851.580
  23039849.620          45.550          39.750
 107847383.938 7  83881452.473 7                  20182110.040    20182115.520
  20182113.520          47.350          46.450
 145848056.585 7                 108912530.949 6  27753960.000
                        44.400
 117855117.510 7                                  22427080.240
                        47.800
 15  1 27 17  6 50.0000000  0 21G30G18G13G17G15G28G24G12G05R14R05R16
                                R17R24R06R09R07R04R15E19E20
 129615140.132 7 100998900.261 6  96790626.372 7  24664908.160    24664908.100
  24664907.400          44.900          40.650
 129940292.220 7 101252181.99045                  24726809.740
  24726807.380          44.900          33.350
 106672728.425 8  83121674.64247                  20299118.980
  20299114.760          49.950          47.200
 128766751.005 7 100337784.640 6                  24503473.900    24503472.200
  24503471.740          46.850          40.850
 110911021.053 8  86424201.836 7                  21105647.420    21105644.120
  21105643.360          50.300          47.750
 116805608.747 8  91017491.73147                  22227299.440
  22227295.040          49.650          42.750
 120131189.760 7  93608797.384 7  89708446.545 8  22860178.660    22860179.600
  22860179.180          47.050          45.450
 133360346.899 7 103917188.225 6                  25377620.540    25377635.860
  25377636.120          44.750          36.950
 119150116.849 8  92844260.498 7                  22673500.740    22673498.920
  22673498.380          49.250          45.450
 126731362.113 6  98568929.298 5                  23774440.800    23774449.000
  23774448.400          37.750          32.250
 104565704.323 8  81328930.190 7                  19561160.820    19561163.840
  19561163.380          49.300          47.750
 107715045.189 7  83778424.672 7                  20164468.320    20164471.800
  20164470.840          47.550          46.600
 131052248.406 6 101929536.922 5                  24490245.460    24490248.880
  24490247.320          41.150          35.200
 128248633.371 6  99748950.060 5                  23983138.880    23983142.680
  23983140.500          39.350          31.000
 108469537.374 8  84365253.106 7                  20327131.200    20327133.260
  20327133.340          49.700          45.050
 127458769.189 7  99134564.174 4                  23868917.280
  23868924.200          42.000          27.600
 131882330.111 6 102575172.778 5                  24636727.080    24636733.480
  24636732.120          40.450          35.500
 123399065.703 7  95977082.811 6                  23043901.460    23043905.400
  23043903.520          45.600          39.950
 107859014.198 7  83890498.229 7                  20184286.460    20184291.920
  20184289.940          47.700          46.550
 145834248.209 7                 108902219.507 6  27751332.320
                        44.800
 117848866.721 7                                  22425890.760
                        47.950
 15  1 27 17  6 55.0000000  0 21G30G18G13G17G15G28G24G12G05R14R05R16
                                R17R24R06R09R07R04R15E19E20
 129630266.723 7 101010687.232 6  96801922.226 7  24667786.700    24667786.640
  24667785.980          45.700          40.650
 129926065.467 7 101241096.19545                  24724102.460
  24724100.100          45.250          32.950
 106674446.144 8  83123013.12447                  20299445.880
  20299441.620          49.850          47.400
 128755339.443 7 100328892.541 6                  24501302.360    24501300.620
  24501300.180          47.050          40.550
 110901930.160 8  86417118.023 7                  21103917.460    21103914.140
  21103913.420          50.300          47.850
 116815492.166 8  91025193.09647                  22229180.180
  22229175.760          49.900          43.150
 120118857.214 7  93599187.628 7  89699237.191 8  22857831.820    22857832.760
  22857832.300          47.250          45.300
 133340446.045 7 103901681.433 5                  25373833.200    25373848.400
  25373848.620          43.550          35.900
 119166335.289 8  92856898.235 7                  22676587.000    22676585.180
  22676584.640          49.350          45.750
 126749572.688 6  98583093.091 5                  23777857.120    23777865.200
  23777864.660          38.150          33.250
 104575325.942 8  81336413.666 7                  19562960.760    19562963.760
  19562963.280          49.250          47.650
 107707319.405 7  83772415.726 7                  20163022.000    20163025.500
  20163024.540          47.300          46.350
 131036409.086 6 101917217.457 5                  24487285.600    24487288.760
  24487287.320          39.500          34.550
 128243010.884 6  99744577.012 5                  23982087.460    23982091.060
  23982088.900          40.250          31.000
 108456968.965 8  84355477.681 7                  20324775.860    20324777.960
  20324778.040          49.750          45.200
 127441532.848 7                                  23865689.460
                        42.800
 131860867.110 7 102558479.345 6                  24632717.560    24632724.080
  24632722.560          42.750          36.300
 123420778.858 7  95993970.793 6                  23047956.260    23047960.160
  23047958.240          45.000          39.550
 107870652.535 7  83899550.272 7                  20186464.440    20186469.840
  20186467.900          47.750          46.250
 145820442.264 7                 108891909.894 6  27748705.180
                        44.750
 117842625.074 8                                  22424703.000
                        48.050
 15  1 27 17  7  0.0000000  0 21G30G18G13G17G15G28G24G12G05R14R05R16
                                R17R24R06R09R07R04R15E19E20
 129645394.617 7 101022475.215 6  96813219.059 7  24670665.500    24670665.320
  24670664.700          44.950          40.850
 129911847.653 7 101230017.39945                  24721396.900
  24721394.500          45.000          35.150
 106676176.146 8  83124361.17647                  20299775.100
  20299770.820          49.750          47.700
 128743934.786 7 100320005.797 6                  24499132.120    24499130.360
  24499129.920          46.850          41.050
 110892849.035 8  86410041.825 8                  21102189.360    21102186.080
  21102185.340          50.300          48.000
 116825388.433 8  91032904.47947                  22231063.400
  22231058.900          49.950          43.200
 120106531.688 7  93589583.331 7  89690033.069 8  22855486.360    22855487.240
  22855486.780          47.450          45.600
 133320546.582 6 103886175.728 5                  25370046.140    25370061.460
  25370061.480          41.650          35.600
 119182562.166 8  92869542.545 7                  22679674.900    22679673.080
  22679672.500          49.400          45.750
 126767782.879 6  98597256.571 5                  23781273.400    23781281.440
  23781280.800          36.300          32.650
 104584968.966 8  81343913.789 7                  19564764.680    19564767.660
  19564767.200          49.600          47.800
 107699608.455 7  83766418.312 7                  20161578.460    20161581.960
  20161581.020          47.550          46.450
 131020576.367 6 101904903.120 5                  24484326.980    24484330.100
  24484328.480          40.950          34.050
 128237408.331 6  99740219.477 5                  23981039.760    23981043.440
  23981041.080          41.750          30.950
 108444418.736 8  84345716.395 7                  20322423.940    20322426.060
  20322426.140          49.750          45.200
 127424304.103 7  99107766.357 4                  23862463.060    23862471.020
  23862468.200          43.300          28.750
 131839406.839 7 102541788.066 6                  24628708.600    24628714.980
  24628713.620          42.250          36.000
 123442499.055 7  96010864.258 6                  23052012.360    23052016.300
  23052014.280          44.900          39.950
 107882300.981 7  83908610.169 7                  20188644.300    20188649.680
  20188647.740          47.850          46.550
 145806640.749 7                 108881603.586 6  27746078.820
                        44.600
 117836394.536 7                                  22423517.360
                        47.850
 15  1 27 17  7  5.0000000  0 21G30G18G13G17G15G28G24G12G05R14R05R16
                                R17R24R06R09R07R04R15E19E20
 129660520.343 7 101034261.504 6  96824514.240 7  24673543.820    24673543.680
  24673543.060          44.100          40.900
 129897635.263 7 101218942.84245                  24718692.340
  24718689.920          45.050          32.050
 106677914.898 8  83125716.05647                  20300106.000
  20300101.700          49.850          47.700
 128732533.540 7 100311121.742 6                  24496962.540    24496960.800
  24496960.340          46.950          40.600
 110883774.120 8  86402970.468 8                  21100462.460    21100459.160
  21100458.440          50.250          48.050
 116835294.012 8  91040623.12047                  22232948.400
  22232943.860          49.900          43.150
 120094209.718 7  93579981.801 7  89680831.604 8  22853141.600    22853142.400
  22853141.920          47.600          45.450
 133300645.003 6 103870668.390 6                  25366258.600    25366274.220
  25366274.060          41.850          36.200
 119198793.943 8  92882190.683 7                  22682763.720    22682761.900
  22682761.320          49.400          45.700
 126785989.264 6  98611417.065 5                  23784688.800    23784696.700
  23784696.180          36.200          32.100
 104594629.753 8  81351427.739 7                  19566571.960    19566574.940
  19566574.440          49.700          47.850
 107691908.753 7  83760429.669 7                  20160137.020    20160140.580
  20160139.620          47.800          46.350
 131004746.543 6 101892590.995 5                  24481368.840    24481371.740
  24481370.160          41.900          35.600
 128231821.937 6  99735874.477 5                  23979995.080    23979998.640
  23979996.380          41.800          32.000
 108431883.186 8  84335966.532 7                  20320074.740    20320076.880
  20320077.000          49.600          45.100
 127407079.165 7  99094357.915 4                  23859237.380
  23859242.660          43.400          28.200
 131817945.815 7 102525096.205 6                  24624699.460    24624706.200
  24624704.520          42.900          37.800
 123464222.745 7  96027760.420 6                  23056069.200    23056073.140
  23056071.100          45.350          40.400
 107893955.929 7  83917675.130 7                  20190825.360    20190830.800
  20190828.820          47.800          46.400
 145792840.125 7                 108871297.929 6  27743452.620
                        44.250
 117830171.554 7                                  22422333.160
                        47.750
 15  1 27 17  7 10.0000000  0 21G30G18G13G17G15G28G24G12G05R14R05R16
                                R17R24R06R09R07R04R15E19E20
 129675646.490 7 101046048.103 6  96835809.730 7  24676422.140    24676422.080
  24676421.460          44.350          40.700
 129883430.952 7 101207874.56245                  24715989.320
  24715986.900          45.000          34.200
 106679665.062 8  83127079.81947                  20300439.060
  20300434.740          49.950          47.500
 128721138.358 7 100302242.394 6                  24494794.080    24494792.400
  24494791.900          46.950          40.900
 110874708.156 8  86395906.087 8                  21098737.220    21098733.960
  21098733.240          50.250          48.100
 116845211.567 8  91048351.09147                  22234835.680
  22234831.100          50.100          43.100
 120081894.098 7  93570385.221 7  89671634.894 8  22850798.020    22850798.780
  22850798.280          47.600          45.700
 133280744.050 7 103855161.518 6                  25362471.220    25362487.200
  25362487.120          42.900          37.550
 119215033.240 8  92894844.674 7                  22685854.000    22685852.160
  22685851.560          49.600          45.900
 126804194.447 5  98625576.694 5                  23788104.100    23788111.820
  23788111.300          35.600          32.700
 104604311.142 8  81358957.708 7                  19568383.100    19568386.080
  19568385.560          49.650          47.650
 107684222.882 7  83754451.777 7                  20158698.220    20158701.740
  20158700.800          47.850          46.350
 130988922.367 7 101880283.324 5                  24478411.680    24478414.680
  24478412.960          42.300          35.600
 128226254.528 7  99731544.284 5                  23978953.980    23978957.500
  23978955.240          42.700          32.200
 108419364.753 8  84326229.987 7                  20317728.780    20317730.940
  20317731.060          49.700          45.100
 127389860.859 7  99080970.190 4                  23856012.940    23856020.340
  23856019.140          43.700          28.500
 131796486.668 7 102508405.757 6                  24620690.760    24620697.100
  24620695.740          45.750          39.050
 123485952.423 7  96044661.253 6                  23060127.180    23060131.100
  23060129.120          44.500          40.700
 107905619.907 7  83926747.118 7                  20193008.120    20193013.580
  20193011.600          47.800          46.450
 145779043.053 7                 108860994.952 6  27740827.120
                        44.400
 117823958.891 7                                  22421150.940
                        47.900
 15  1 27 17  7 15.0000000  0 21G30G18G13G17G15G28G24G12G05R14R05R16
                                R17R24R06R09R07R04R15E19E20
 129690771.593 7 101057833.910 6  96847104.473 7  24679300.380    24679300.260
  24679299.640          44.600          41.100
 129869233.346 7 101196811.50545                  24713287.600
  24713285.220          45.000          32.950
 106681425.202 8  83128451.36547                  20300774.040
  20300769.680          49.950          47.850
 128709747.822 7 100293366.686 6                  24492626.480    24492624.840
  24492624.420          46.800          41.550
 110865649.700 8  86388847.555 8                  21097013.440    21097010.200
  21097009.480          50.250          48.300
 116855139.661 8  91056087.28147                  22236724.960
  22236720.340          50.100          43.450
 120069583.274 7  93560792.393 7  89662441.766 8  22848455.380    22848456.060
  22848455.560          47.700          46.050
 133260842.240 7 103839653.993 6                  25358683.720    25358699.760
  25358699.720          43.300          38.500
 119231278.625 8  92907503.414 7                  22688945.440    22688943.580
  22688942.980          49.650          46.150
 126822396.991 5  98639734.238 5                  23791518.840    23791526.580
  23791526.000          35.350          33.800
 104614011.588 8  81366502.491 8                  19570197.780    19570200.740
  19570200.200          49.550          48.300
 107676549.531 7  83748483.625 7                  20157261.760    20157265.260
  20157264.320          47.400          47.200
 130973102.328 7 101867978.816 6                  24475455.300    24475458.300
  24475456.580          42.150          36.350
 128220704.592 7  99727227.665 5                  23977916.160    23977919.560
  23977917.420          42.000          34.200
 108406862.133 8  84316505.736 7                  20315385.800    20315387.980
  20315388.060          49.250          45.950
 127372647.811 7  99067582.284 4                  23852789.460    23852798.080
  23852795.580          43.200          29.750
 131775027.759 7 102491715.542 6                  24616682.080    24616688.040
  24616686.940          43.550          38.700
 123507686.815 7  96061565.729 6                  23064185.980    23064189.940
  23064187.980          43.400          41.600
 107917291.591 7  83935825.096 7                  20195192.280    20195197.780
  20195195.820          47.350          47.150
 145765248.140 7                 108850693.562 6  27738202.040
                        44.450
 117817755.061 7                                  22419970.400
                        47.900
 15  1 27 17  7 20.0000000  0 21G30G18G13G17G15G28G24G12G05R14R05R16
                                R17R24R06R09R07R04R15E19E20
 129705897.364 7 101069620.213 6  96858399.694 7  24682178.660    24682178.540
  24682177.920          43.800          40.650
 129855044.099 7 101185754.96745                  24710587.440
  24710585.020          44.350          35.100
 106683196.992 8  83129831.97947                  20301111.220
  20301106.840          49.950          47.650
 128698363.647 7 100284495.917 6                  24490460.080    24490458.540
  24490458.100          46.600          41.150
 110856600.371 8  86381796.132 8                  21095291.380    21095288.140
  21095287.440          50.050          48.050
 116865079.918 8  91063832.93647                  22238616.580
  22238611.900          50.050          43.600
 120057278.900 7  93551204.580 7  89653253.454 8  22846113.960    22846114.620
  22846114.120          47.500          45.950
 133240941.184 7 103824147.043 6                  25354896.400    25354912.600
  25354912.360          42.700          37.250
 119247531.735 8  92920168.163 7                  22692038.340    22692036.460
  22692035.860          49.700          46.100
 126840598.485 6  98653890.942 5                  23794933.340    23794941.200
  23794940.580          37.250          33.750
 104623732.782 8  81374063.416 8                  19572016.380    19572019.280
  19572018.740          49.650          48.150
 107668890.231 7  83742526.393 7                  20155827.920    20155831.460
  20155830.480          47.350          47.100
 130957288.244 6 101855678.960 5                  24472500.100    24472503.040
  24472501.240          41.900          34.350
 128215173.926 6  99722926.003 5                  23976881.960    23976885.300
  23976883.240          41.950          35.000
 108394377.099 8  84306795.154 7                  20313046.100    20313048.300
  20313048.380          49.350          45.800
 127355441.552 7  99054199.690 5                  23849567.340    23849572.000
  23849573.040          43.900          30.900
 131753571.012 7 102475027.012 6                  24612673.820    24612679.720
  24612678.660          43.450          37.550
 123529427.433 7  96078475.042 6                  23068245.800    23068249.880
  23068247.960          43.500          41.600
 107928972.720 7  83944910.414 7                  20197378.220    20197383.740
  20197381.820          47.350          47.000
 145751456.983 7                 108840395.008 6  27735577.660
                        44.150
 117811561.663 8                                  22418791.840
                        48.000
 15  1 27 17  7 25.0000000  0 21G30G18G13G17G15G28G24G12G05R14R05R16
                                R17R24R06R09R07R04R15E19E20
 129721021.861 7 101081405.535 6  96869693.975 7  24685056.740    24685056.600
  24685055.940          44.250          40.300
 129840861.276 7 101174703.42745                  24707888.480
  24707886.080          43.800          34.150
 106684978.638 8  83131220.27547                  20301450.300
  20301445.880          49.950          47.900
 128686983.860 7 100275628.562 6                  24488294.520    24488292.980
  24488292.580          46.850          40.950
 110847558.315 8  86374750.381 8                  21093570.700    21093567.500
  21093566.760          49.950          48.050
 116875030.430 8  91071586.58447                  22240510.120
  22240505.420          49.950          43.850
 120044979.027 7  93541620.281 7  89644068.504 8  22843773.400    22843774.020
  22843773.500          47.800          45.950
 133221039.030 6 103808639.233 6                  25351108.920    25351125.000
  25351124.840          41.150          36.300
 119263790.668 8  92932837.455 7                  22695132.360    22695130.440
  22695129.840          49.800          45.950
 126858797.000 6  98668045.352 5                  23798347.280    23798355.200
  23798354.600          38.150          33.300
 104633472.753 8  81381638.955 8                  19573838.480    19573841.360
  19573840.780          49.400          48.050
 107661243.188 7  83736578.691 7                  20154396.380    20154399.920
  20154398.940          47.700          47.000
 130941478.110 6 101843382.173 5                  24469545.600    24469548.500
  24469546.620          41.600          34.600
 128209660.497 6  99718637.791 5                  23975851.000    23975854.200
  23975852.300          41.950          33.650
 108381907.681 8  84297096.720 7                  20310709.340    20310711.540
  20310711.620          49.350          45.700
 127338240.235 7  99040820.903 5                  23846346.120    23846354.940
  23846352.000          43.650          31.250
 131732114.550 7 102458338.654 6                  24608665.560    24608671.720
  24608670.460          43.150          38.700
 123551172.353 7  96095387.708 6                  23072306.480    23072310.660
  23072308.680          44.350          40.200
 107940661.199 7  83954001.447 7                  20199565.540    20199571.100
  20199569.200          47.450          46.750
 145737667.725 7                 108830097.866 6  27732953.580
                        44.100
 117805376.867 8                                  22417614.920
                        48.150
 15  1 27 17  7 30.0000000  0 21G30G18G13G17G15G28G24G12G05R14R05R16
                                R17R24R06R09R07R04R15E19E20
 129736147.731 7 101093191.955 6  96880989.293 7  24687935.100    24687934.880
  24687934.160          44.200          40.150
 129826687.560 7 101163659.00346                  24705191.200
  24705188.860          43.450          36.100
 106686772.671 8  83132618.22447                  20301791.720
  20301787.260          49.950          47.750
 128675611.196 7 100266766.775 6                  24486130.360    24486128.840
  24486128.420          46.850          41.350
 110838526.194 8  86367712.375 7                  21091851.900    21091848.740
  21091848.000          49.950          47.850
 116884993.857 8  91079350.30147                  22242406.080
  22242401.440          49.850          43.350
 120032686.416 7  93532041.638 7  89634888.963 8  22841434.220    22841434.820
  22841434.260          47.800          45.750
 133201138.457 6 103793132.640 6                  25347321.700    25347337.500
  25347337.480          41.850          36.300
 119280058.048 8  92945513.340 7                  22698227.980    22698226.040
  22698225.420          49.900          46.000
 126876995.266 6  98682199.553 5                  23801761.200    23801769.140
  23801768.500          38.350          32.850
 104643234.181 8  81389231.175 8                  19575664.580    19575667.420
  19575666.860          49.600          48.150
 107653610.931 7  83730642.491 7                  20152967.620    20152971.160
  20152970.200          47.950          47.100
 130925674.697 6 101831090.677 5                  24466592.280    24466595.100
  24466593.360          40.950          35.600
 128204166.976 6  99714365.111 5                  23974823.700    23974826.780
  23974825.120          41.250          33.700
 108369456.553 8  84287412.513 7                  20308375.980    20308378.220
  20308378.280          49.250          45.600
 127321046.512 7  99027448.038 5                  23843126.280    23843134.780
  23843132.680          43.250          30.750
 131710660.927 6 102441652.557 6                  24604657.840    24604663.880
  24604662.800          41.800          37.550
 123572924.361 7  96112305.923 6                  23076368.600    23076372.680
  23076370.740          45.450          40.200
 107952359.668 7  83963100.263 7                  20201754.740    20201760.320
  20201758.400          47.250          46.700
 145723883.026 7                 108819804.115 6  27730330.440
                        44.350
 117799203.354 8                                  22416440.140
                        48.100
 15  1 27 17  7 35.0000000  0 21G30G18G13G17G15G28G24G12G05R14R05R16
                                R17R24R06R09R07R04R15E19E20
 129751270.536 7 101104975.989 6  96892282.281 7  24690812.800    24690812.620
  24690811.920          44.150          40.550
 129812518.468 7 101152618.17145                  24702494.880
  24702492.640          43.600          35.300
 106688574.604 8  83134022.33247                  20302134.640
  20302130.160          49.950          47.400
 128664241.138 7 100257907.012 6                  24483966.680    24483965.140
  24483964.720          46.800          40.750
 110829499.514 8  86360678.605 7                  21090134.140    21090131.000
  21090130.260          50.050          47.700
 116894965.710 8  91087120.57847                  22244303.640
  22244299.040          49.900          43.050
 120020396.601 7  93522465.171 7  89625711.529 8  22839095.540    22839096.140
  22839095.560          47.450          45.600
 133181235.021 6 103777623.807 6                  25343533.920    25343549.720
  25343549.680          41.850          37.300
 119296329.472 8  92958192.369 7                  22701324.360    22701322.400
  22701321.780          49.950          45.900
 126895188.815 6  98696350.110 5                  23805174.300    23805182.240
  23805181.600          37.850          32.150
 104653012.558 8  81396836.582 8                  19577493.840    19577496.680
  19577496.140          49.650          48.100
 107645988.997 7  83724714.327 7                  20151540.800    20151544.340
  20151543.380          47.800          46.950
 130909873.520 6 101818800.838 5                  24463639.380    24463642.200
  24463640.520          40.250          35.550
 128198688.980 6  99710104.476 5                  23973799.300    23973802.480
  23973800.720          41.050          33.400
 108357019.185 8  84277739.013 7                  20306045.200    20306047.480
  20306047.500          49.250          45.500
 127303855.953 7  99014077.651 5                  23839906.960    23839915.980
  23839913.500          43.150          30.850
 131689205.698 6 102424965.207 6                  24600649.800    24600655.680
  24600654.760          41.400          36.250
 123594678.853 7  96129226.086 6                  23080431.120    23080435.080
  23080433.220          44.700          40.050
 107964063.539 7  83972203.274 7                  20203944.940    20203950.560
  20203948.620          47.550          46.550
 145710098.435 7                 108809510.462 6  27727707.360
                        44.500
 117793036.628 8                                  22415266.680
                        48.100
 15  1 27 17  7 40.0000000  0 21G30G18G13G17G15G28G24G12G05R14R05R16
                                R17R24R06R09R07R04R15E19E20
 129766394.633 7 101116760.989 6  96903576.255 7  24693690.780    24693690.680
  24693689.900          44.300          40.550
 129798358.407 7 101141584.37445                  24699800.280
  24699798.040          43.850          34.100
 106690388.889 8  83135436.05247                  20302479.940
  20302475.400          50.100          47.400
 128652878.130 7 100249052.727 6                  24481804.360    24481802.780
  24481802.400          46.650          41.300
 110820482.730 8  86353652.535 7                  21088418.240    21088415.140
  21088414.400          50.050          47.700
 116904950.398 8  91094900.85247                  22246203.640
  22246199.120          49.850          43.400
 120008113.989 7  93512894.315 7  89616539.458 8  22836758.240    22836758.820
  22836758.240          47.600          45.500
 133161333.125 6 103762116.200 6                  25339746.400    25339762.320
  25339762.240          41.200          37.150
 119312609.264 8  92970877.911 7                  22704422.320    22704420.320
  22704419.720          49.950          45.900
 126913382.087 6  98710500.456 5                  23808587.180    23808595.240
  23808594.560          38.100          31.050
 104662812.298 8  81404458.594 8                  19579327.100    19579329.920
  19579329.420          49.800          48.000
 107638381.895 7  83718797.694 7                  20150116.740    20150120.300
  20150119.320          47.750          46.850
 130894078.955 6 101806516.138 5                  24460687.660    24460690.740
  24460688.860          39.750          34.950
 128193230.900 6  99705859.269 5                  23972778.480    23972781.840
  23972780.000          41.350          33.750
 108344600.303 8  84268079.879 7                  20303717.840    20303720.200
  20303720.200          49.100          45.350
 127286672.960 7  99000713.149 5                  23836689.040    23836698.580
  23836695.660          43.600          30.750
 131667753.472 7 102408280.151 5                  24596642.320    24596648.260
  24596647.260          42.450          34.950
 123616440.248 7  96146151.555 6                  23084494.800    23084498.820
  23084497.100          44.000          40.750
 107975777.436 7  83981314.082 7                  20206137.020    20206142.620
  20206140.680          47.600          46.400
 145696318.350 7                 108799220.133 6  27725085.120
                        44.350
 117786881.058 8                                  22414095.320
                        48.100
 15  1 27 17  7 45.0000000  0 21G30G18G13G17G15G28G24G12G05R14R05R16
                                R17R24R06R09R07R04R15E19E20
 129781516.823 7 101128544.526 6  96914868.823 8  24696568.460    24696568.300
  24696567.480          44.250          40.000
 129784204.221 7 101130555.14445                  24697106.780
  24697104.520          44.050          33.800
 106692212.284 8  83136856.88247                  20302826.940
  20302822.380          50.200          47.200
 128641518.977 7 100240201.461 6                  24479642.780    24479641.220
  24479640.820          46.700          41.150
 110811472.601 8  86346631.659 7                  21086703.620    21086700.580
  21086699.820          49.900          47.650
 116914944.682 8  91102688.60647                  22248105.460
  22248101.020          49.750          43.150
 119995835.267 7  93503326.484 7  89607370.291 8  22834421.700    22834422.240
  22834421.640          47.650          45.300
 133141429.541 6 103746607.289 6                  25335958.560    25335974.520
  25335974.580          41.400          37.550
 119328894.167 8  92983567.440 7                  22707521.260    22707519.240
  22707518.640          49.850          45.750
 126931571.662 6  98724647.936 5                  23811999.440    23812007.400
  23812006.760          38.100          31.700
 104672630.202 8  81412094.735 7                  19581163.760    19581166.560
  19581166.060          49.900          47.650
 107630786.253 7  83712889.983 7                  20148694.800    20148698.380
  20148697.400          47.700          46.400
 130878287.788 6 101794234.090 5                  24457736.680    24457739.740
  24457737.900          40.850          35.750
 128187789.469 6  99701627.064 5                  23971760.840    23971764.240
  23971762.420          41.650          31.700
 108332196.430 8  84258432.434 7                  20301393.320    20301395.700
  20301395.700          48.850          45.050
 127269494.226 7  98987351.932 4                  23833471.960    23833479.880
  23833478.360          43.950          29.000
 131646301.083 7 102391594.942 5                  24592634.840    24592640.800
  24592639.700          43.100          34.600
 123638205.260 7  96163079.827 6                  23088559.260    23088563.420
  23088561.620          44.700          40.050
 107987498.121 7  83990430.173 7                  20208330.360    20208335.980
  20208334.000          47.600          46.000
 145682539.558 7                 108788930.805 6  27722463.100
                        44.300
 117780733.515 8                                  22412925.500
                        48.050
 15  1 27 17  7 50.0000000  0 21G30G18G13G17G15G28G24G12G05R14R05R16
                                R17R24R06R09R07R04R15E19E20
 129796640.615 7 101140329.309 6  96926162.566 8  24699446.380    24699446.200
  24699445.380          43.700          40.150
 129770059.387 7 101119533.20145                  24694415.020
  24694412.780          44.350          33.200
 106694048.315 8  83138287.55747                  20303176.360
  20303171.760          50.200          46.800
 128630167.197 7 100231355.942 6                  24477482.580    24477481.000
  24477480.620          46.600          40.600
 110802472.649 8  86339618.713 7                  21084990.940    21084987.920
  21084987.180          49.900          47.600
 116924952.077 8  91110486.57047                  22250009.760
  22250005.400          49.500          43.350
 119983563.990 7  93493764.466 7  89598206.684 8  22832086.580    22832087.080
  22832086.460          47.700          44.950
 133121527.768 7 103731099.761 6                  25332171.100    25332187.120
  25332187.140          42.250          37.650
 119345187.686 8  92996263.674 7                  22710621.800    22710619.820
  22710619.240          50.000          45.450
 126949761.288 6  98738795.429 5                  23815411.780    23815419.720
  23815419.060          38.100          31.900
 104682469.811 8  81419747.763 7                  19583004.500    19583007.280
  19583006.780          49.550          47.750
 107623205.868 7  83706994.132 7                  20147275.720    20147279.320
  20147278.360          47.600          46.550
 130862503.591 6 101781957.541 6                  24454787.020    24454790.220
  24454788.360          40.450          37.550
 128182368.265 7  99697410.568 5                  23970746.940    23970750.440
  23970748.580          42.200          32.400
 108319811.148 8  84248799.451 7                  20299072.240    20299074.700
  20299074.700          48.850          44.950
 127252323.435 7  98973996.893 5                  23830256.380    23830263.760
  23830262.660          43.400          30.000
 131624851.855 7 102374912.189 6                  24588627.940    24588633.960
  24588632.720          42.900          36.550
 123659977.488 7  96180013.741 6                  23092625.080    23092629.340
  23092627.500          45.100          39.400
 107999229.094 7  83999554.271 7                  20210525.620    20210531.300
  20210529.260          47.200          46.100
 145668765.566 7                 108778645.071 6  27719841.980
                        44.250
 117774597.465 8                                  22411757.880
                        48.050
 15  1 27 17  7 55.0000000  0 21G30G18G13G17G15G28G24G12G05R14R05R16
                                R17R24R06R09R07R04R15E19E20
 129811761.231 7 101152111.603 6  96937453.921 8  24702323.680    24702323.480
  24702322.580          44.100          39.750
 129755919.169 7 101108514.89145                  24691724.140
  24691721.920          44.750          32.250
 106695892.199 8  83139724.35247                  20303527.240
  20303522.640          50.050          47.250
 128618817.999 7 100222512.422 6                  24475322.900    24475321.320
  24475320.960          46.650          40.800
 110793478.091 8  86332609.977 7                  21083279.320    21083276.300
  21083275.540          49.850          47.650
 116934967.767 8  91118291.00247                  22251915.660
  22251911.340          49.600          43.250
 119971295.331 7  93484204.485 7  89589045.034 8  22829751.960    22829752.400
  22829751.780          47.650          45.100
 133101623.068 7 103715589.951 6                  25328383.120    25328399.180
  25328399.200          42.300          38.350
 119361484.985 8  93008962.864 7                  22713723.040    22713721.120
  22713720.520          49.900          45.500
 126967945.951 6  98752939.070 5                  23818823.100    23818831.140
  23818830.420          37.950          32.250
 104692326.123 8  81427413.786 7                  19584848.320    19584851.120
  19584850.600          49.600          47.700
 107615635.627 7  83701106.173 7                  20145858.580    20145862.140
  20145861.220          47.900          46.650
 130846721.537 6 101769682.626 6                  24451837.720    24451841.100
  24451839.260          41.150          37.800
 128176962.453 7  99693206.037 5                  23969736.020    23969739.660
  23969737.620          43.250          32.250
 108307439.572 8  84239177.125 7                  20296753.720    20296756.260
  20296756.260          49.050          45.100
 127235155.659 7  98960644.242 5                  23827041.280    23827048.840
  23827047.700          43.500          30.150
 131603400.957 6 102358228.178 6                  24584620.740    24584626.900
  24584625.500          41.900          37.200
 123681752.005 7  96196949.466 6                  23096691.300    23096695.660
  23096693.700          44.650          39.000
 108010965.268 7  84008682.402 7                  20212721.840    20212727.600
  20212725.500          47.650          46.150
 145654991.611 7                 108768359.313 6  27717220.860
                        44.300
 117768468.092 8                                  22410591.540
                        48.100
 15  1 27 17  8  0.0000000  0 21G30G18G13G17G15G28G24G12G05R14R05R16
                                R17R24R06R09R07R04R15E19E20
 129826883.570 7 101163895.269 6  96948746.581 8  24705201.340    24705201.140
  24705200.240          44.300          39.900
 129741788.500 7 101097504.01045                  24689035.100
  24689032.900          44.950          32.200
 106697748.916 8  83141171.14647                  20303880.580
  20303875.980          50.000          47.050
 128607476.353 7 100213674.778 6                  24473164.660    24473163.020
  24473162.620          46.800          40.500
 110784493.867 8  86325609.289 7                  21081569.640    21081566.620
  21081565.880          49.900          47.550
 116944996.679 8  91126105.73747                  22253824.100
  22253819.780          49.600          43.250
 119959034.301 7  93474650.455 7  89579889.091 8  22827418.760    22827419.200
  22827418.560          47.650          45.350
 133081720.372 7 103700081.710 6                  25324595.540    25324611.640
  25324611.680          42.050          38.100
 119377791.040 8  93021668.871 7                  22716825.980    22716824.080
  22716823.480          50.000          45.450
 126986130.678 6  98767082.751 5                  23822234.420    23822242.600
  23822241.780          37.200          33.000
 104702204.323 8  81435096.823 7                  19586696.260    19586699.060
  19586698.540          49.350          47.700
 107608080.691 7  83695230.111 7                  20144444.280    20144447.820
  20144446.920          47.950          46.600
 130830946.756 6 101757413.371 6                  24448889.780    24448893.220
  24448891.400          41.850          37.700
 128171577.160 7  99689017.443 5                  23968728.860    23968732.480
  23968730.420          42.000          32.350
 108295086.830 8  84229569.445 7                  20294438.740    20294441.320
  20294441.380          48.950          45.250
 127217995.866 7  98947297.755 5                  23823827.760    23823835.980
  23823834.200          42.550          30.200
 131581953.675 6 102341546.998 6                  24580614.260    24580620.480
  24580618.940          41.600          36.800
 123703533.867 7  96213890.870 6                  23100758.920    23100763.200
  23100761.300          44.800          39.400
 108022711.726 7  84017818.545 7                  20214920.000    20214925.800
  20214923.680          47.350          46.250
 145641222.643 7                 108758077.331 6  27714600.760
                        44.000
 117762350.397 8                                  22409427.400
                        48.050
 15  1 27 17  8  5.0000000  0 21G30G18G13G17G15G28G24G12G05R14R05R16
                                R17R24R06R09R07R04R15E19E20
 129842003.810 7 101175677.295 6  96960037.691 7  24708078.600    24708078.420
  24708077.640          44.050          39.900
 129727663.568 7 101086497.56645                  24686347.200
  24686345.000          44.950          31.050
 106699614.616 8  83142624.94147                  20304235.620
  20304231.020          49.950          47.300
 128596138.425 7 100204840.045 6                  24471007.120    24471005.500
  24471005.040          46.850          40.400
 110775516.172 8  86318613.683 7                  21079861.200    21079858.220
  21079857.460          49.950          47.450
 116955034.979 8  91133927.79147                  22255734.320
  22255730.000          49.650          43.200
 119946777.010 7  93465099.332 7  89570735.941 8  22825086.240    22825086.720
  22825086.060          47.800          45.450
 133061815.872 6 103684572.053 6                  25320807.640    25320823.700
  25320823.660          41.550          38.200
 119394102.081 8  93034378.769 7                  22719929.860    22719927.980
  22719927.380          49.800          45.450
 127004311.714 6  98781223.565 5                  23825645.100    23825653.500
  23825652.500          36.250          32.700
 104712100.390 8  81442793.765 7                  19588547.520    19588550.340
  19588549.820          49.600          47.700
 107600537.084 7  83689362.866 7                  20143032.120    20143035.660
  20143034.760          47.900          46.450
 130815175.335 6 101745146.708 6                  24445942.520    24445945.920
  24445944.200          41.000          37.650
 128166208.438 6  99684841.766 5                  23967724.840    23967728.500
  23967726.400          41.850          31.900
 108282749.064 8  84219973.405 7                  20292126.600    20292129.220
  20292129.280          48.750          45.150
 127200840.275 7  98933954.551 5                  23820615.000    23820623.420
  23820621.640          42.750          30.800
 131560505.766 6 102324865.347 6                  24576607.580    24576613.780
  24576612.280          41.700          37.750
 123725319.150 7  96230834.954 6                  23104827.220    23104831.520
  23104829.580          45.400          40.000
 108034464.637 7  84026959.691 7                  20217119.360    20217125.180
  20217123.080          47.400          46.200
 145627454.817 7                 108747796.181 6  27711980.820
                        44.000
 117756240.586 8                                  22408264.780
                        48.100
 15  1 27 17  8 10.0000000  0 21G30G18G13G17G15G28G24G12G05R14R05R16
                                R17R24R06R09R07R04R15E19E20
 129857124.097 7 101187459.333 6  96971328.815 7  24710955.840    24710955.720
  24710954.800          43.800          39.950
 129713546.523 7 101075497.26345                  24683660.780
  24683658.640          44.600          33.100
 106701491.415 8  83144087.38447                  20304592.760
  20304588.160          49.900          47.100
 128584806.340 7 100196009.869 6                  24468850.680    24468849.060
  24468848.580          46.600          40.900
 110766547.145 8  86311624.837 7                  21078154.420    21078151.420
  21078150.680          50.000          47.500
 116965084.783 8  91141758.81547                  22257646.760
  22257642.420          49.750          42.900
 119934525.646 7  93455552.823 7  89561587.201 8  22822754.840    22822755.340
  22822754.700          47.750          45.850
 133041911.695 6 103669062.655 6                  25317019.740    25317035.760
  25317035.760          41.350          38.200
 119410420.241 8  93047094.208 7                  22723035.120    22723033.240
  22723032.660          49.950          45.600
 127022491.046 6  98795363.039 5                  23829055.600    23829063.720
  23829062.880          37.000          33.150
 104722016.663 8  81450506.419 7                  19590402.580    19590405.420
  19590404.860          49.750          47.650
 107593007.051 7  83683506.177 7                  20141622.500    20141626.000
  20141625.120          47.800          46.700
 130799409.436 6 101732884.342 6                  24442996.300    24442999.760
  24442997.980          40.900          37.600
 128160858.355 6  99680680.597 5                  23966724.300    23966727.960
  23966725.820          40.300          33.800
 108270428.345 8  84210390.631 7                  20289817.640    20289820.340
  20289820.380          48.800          45.100
 127183691.039 7  98920616.275 5                  23817403.440    23817411.920
  23817410.180          42.250          31.200
 131539059.592 7 102308185.006 6                  24572601.280    24572607.360
  24572606.000          42.450          39.000
 123747109.893 7  96247783.285 6                  23108896.520    23108900.840
  23108898.960          44.150          40.300
 108046226.135 7  84036107.519 7                  20219320.360    20219326.200
  20219324.120          47.400          46.700
 145613690.306 7                 108737517.502 6  27709361.520
                        43.900
 117750140.719 8                                  22407104.040
                        48.250
 15  1 27 17  8 15.0000000  0 21G30G18G13G17G15G28G24G12G05R14R05R16
                                R17R24R06R09R07R04R15E19E20
 129872245.375 7 101199242.151 6  96982620.684 7  24713833.360    24713833.180
  24713832.320          45.100          40.100
 129699438.287 7 101064503.85345                  24680976.040
  24680973.920          44.000          31.100
 106703380.309 8  83145559.24547                  20304952.200
  20304947.620          49.800          47.550
 128573481.079 7 100187185.007 6                  24466695.500    24466693.920
  24466693.420          46.150          40.800
 110757587.722 8  86304643.465 7                  21076449.480    21076446.480
  21076445.760          49.900          47.650
 116975147.033 8  91149599.52547                  22259561.560
  22259557.140          49.800          43.150
 119922281.156 7  93446011.678 7  89552443.612 8  22820424.780    22820425.280
  22820424.680          47.500          46.100
 133022008.813 6 103653554.252 6                  25313232.060    25313248.060
  25313248.060          40.800          37.950
 119426746.338 8  93059815.830 7                  22726141.880    22726140.000
  22726139.400          49.750          45.650
 127040669.571 6  98809501.919 5                  23832465.840    23832473.940
  23832473.120          37.700          32.600
 104731953.907 8  81458235.381 7                  19592261.540    19592264.420
  19592263.820          49.650          47.450
 107585491.515 7  83677660.757 7                  20140215.580    20140219.060
  20140218.220          47.800          46.350
 130783649.967 7 101720626.996 6                  24440051.300    24440054.640
  24440052.960          42.400          36.750
 128155527.994 6  99676534.779 5                  23965727.500    23965731.140
  23965728.960          39.800          32.650
 108258125.840 8  84200822.019 7                  20287512.120    20287514.860
  20287514.900          48.600          44.850
 127166549.089 6  98907283.693 5                  23814193.280    23814202.400
  23814199.920          41.650          30.850
 131517616.132 7 102291506.766 6                  24568595.500    24568601.500
  24568600.200          43.600          38.350
 123768907.265 7  96264736.740 6                  23112966.960    23112971.460
  23112969.520          43.150          39.850
 108057997.150 7  84045262.743 7                  20221523.160    20221528.980
  20221526.980          47.450          46.350
 145599930.022 7                 108727241.985 6  27706743.000
                        43.700
 117744051.802 8                                  22405945.380
                        48.150
 15  1 27 17  8 20.0000000  0 21G30G18G13G17G15G28G24G12G05R14R05R16
                                R17R24R06R09R07R04R15E19E20
 129887364.173 7 101211023.069 6  96993910.699 7  24716710.360    24716710.140
  24716709.420          44.600          40.850
 129685335.409 7 101053514.62645                  24678292.260
  24678290.220          43.000          35.850
 106705277.802 8  83147037.82447                  20305313.280
  20305308.720          49.800          47.450
 128562159.260 7 100178362.831 6                  24464540.980    24464539.400
  24464538.900          46.200          41.150
 110748634.479 8  86297666.920 7                  21074745.720    21074742.720
  21074742.020          49.850          47.750
 116985218.264 8  91157447.24147                  22261478.080
  22261473.580          49.850          43.100
 119910040.079 7  93436473.193 7  89543302.559 8  22818095.380    22818095.880
  22818095.300          47.250          46.000
 133002103.745 6 103638044.147 6                  25309443.980    25309460.000
  25309459.820          40.800          37.850
 119443076.912 8  93072540.953 7                  22729249.520    22729247.600
  22729247.040          49.750          45.500
 127058844.015 6  98823637.581 5                  23835875.280    23835883.440
  23835882.600          37.750          31.850
 104741908.599 8  81465977.919 7                  19594123.740    19594126.660
  19594126.080          49.600          47.550
 107577986.896 7  83671823.845 7                  20138810.700    20138814.160
  20138813.360          47.800          46.400
 130767893.558 7 101708372.016 6                  24437106.940    24437110.080
  24437108.420          43.250          36.850
 128150213.832 6  99672401.527 5                  23964733.700    23964737.280
  23964735.140          39.400          32.600
 108245837.837 8  84191264.691 7                  20285209.280    20285212.060
  20285212.140          48.650          44.650
 127149410.963 6  98893954.102 4                  23810983.780    23810992.900
  23810990.360          41.800          29.250
 131496171.885 7 102274827.938 6                  24564589.520    24564595.540
  24564594.240          42.450          37.900
 123790707.681 7  96281692.578 6                  23117038.040    23117042.480
  23117040.620          43.350          39.600
 108069774.380 7  84054422.825 7                  20223727.080    20223732.900
  20223730.960          47.250          46.200
 145586170.552 7                 108716967.082 6  27704124.640
                        43.950
 117737970.359 8                                  22404788.160
                        48.000
 15  1 27 17  8 25.0000000  0 21G30G18G13G17G15G28G24G12G05R14R05R16
                                R17R24R06R09R07R04R15E19E20
 129902483.193 7 101222804.105 6  97005200.885 7  24719587.380    24719587.240
  24719586.540          44.250          41.100
 129671240.576 7 101042531.67845                  24675610.000
  24675608.060          42.750          34.000
 106707186.613 8  83148525.20647                  20305676.500
  20305671.960          49.850          47.400
 128550843.553 7 100169545.421 6                  24462387.640    24462386.060
  24462385.500          46.600          40.750
 110739690.117 8  86290697.291 7                  21073043.620    21073040.660
  21073039.940          49.800          47.700
 116995301.158 8  91165304.04647                  22263396.840
  22263392.240          49.850          43.150
 119897805.166 7  93426939.505 7  89534166.108 8  22815767.140    22815767.680
  22815767.100          47.400          45.850
 132982199.313 6 103622534.513 6                  25305656.080    25305672.020
  25305671.720          41.000          37.750
 119459414.678 8  93085271.675 7                  22732358.480    22732356.600
  22732356.020          49.600          45.400
 127077016.994 6  98837772.118 5                  23839284.500    23839292.600
  23839291.760          38.600          32.250
 104751883.666 8  81473736.294 7                  19595989.780    19595992.700
  19595992.140          49.700          47.750
 107570496.045 7  83665997.634 7                  20137408.400    20137411.860
  20137411.040          47.750          46.300
 130752142.849 7 101696121.458 6                  24434163.560    24434166.600
  24434165.000          43.050          38.000
 128144918.528 6  99668282.993 5                  23963743.440    23963747.140
  23963744.900          40.350          31.850
 108233567.211 8  84181720.873 7                  20282909.760    20282912.520
  20282912.600          48.850          44.750
 127132279.383 6  98880629.556 4                  23807775.460    23807784.200
  23807782.060          41.350          29.200
 131474729.705 6 102258150.710 6                  24560583.920    24560589.840
  24560588.680          41.600          36.650
 123812513.777 7  96298652.870 6                  23121110.260    23121114.560
  23121112.740          43.850          39.850
 108081560.542 7  84063589.829 7                  20225932.660    20225938.540
  20225936.560          47.200          46.200
 145572414.616 7                 108706694.820 6  27701506.980
                        44.150
 117731899.162 8                                  22403632.900
                        48.150
 15  1 27 17  8 30.0000000  0 21G30G18G13G17G15G28G24G12G05R14R05R16
                                R17R24R06R09R07R04R15E19E20
 129917602.487 7 101234585.378 6  97016491.290 7  24722464.440    24722464.360
  24722463.620          44.250          40.900
 129657153.933 7 101031555.09845                  24672929.380
  24672927.400          43.750          34.250
 106709106.758 8  83150021.42147                  20306041.900
  20306037.340          50.000          47.400
 128539533.991 7 100160732.784 6                  24460235.500    24460233.880
  24460233.280          46.900          40.650
 110730754.644 8  86283734.587 7                  21071343.240    21071340.280
  21071339.580          49.600          47.800
 117005395.705 8  91173169.92747                  22265317.800
  22265313.120          49.900          43.650
 119885576.436 7  93417410.636 7  89525034.290 8  22813440.100    22813440.640
  22813440.040          47.350          45.750
 132962295.372 6 103607025.272 6                  25301868.280    25301884.180
  25301883.740          41.600          38.500
 119475759.641 8  93098008.002 7                  22735468.820    22735466.940
  22735466.380          49.700          45.650
 127095188.602 6  98851905.610 5                  23842693.440    23842701.360
  23842700.760          38.300          31.850
 104761878.915 8  81481510.376 7                  19597859.600    19597862.560
  19597862.000          49.750          47.700
 107563018.994 7  83660182.150 7                  20136008.660    20136012.120
  20136011.320          47.800          46.350
 130736398.139 7 101683875.583 6                  24431221.340    24431224.440
  24431222.780          42.600          37.400
 128139642.323 6  99664179.271 5                  23962756.780    23962760.280
  23962758.180          41.250          32.100
 108221313.925 8  84172190.548 7                  20280613.460    20280616.200
  20280616.320          48.850          44.400
 127115154.406 6  98867310.178 5                  23804568.340    23804577.300
  23804575.000          40.550          30.500
 131453289.488 6 102241474.984 6                  24556578.700    24556584.700
  24556583.480          41.850          37.250
 123834325.473 7  96315617.492 6                  23125183.520    23125187.720
  23125186.040          43.950          39.650
 108093355.534 7  84072763.721 7                  20228139.920    20228145.800
  20228143.800          47.000          45.900
 145558662.236 7                 108696425.215 6  27698890.020
                        44.550
 117725838.180 8                                  22402479.580
                        48.350
 15  1 27 17  8 35.0000000  0 21G30G18G13G17G15G28G24G12G05R14R05R16
                                R17R24R06R09R07R04R15E19E20
 129932720.389 7 101246365.581 6  97027780.638 7  24725341.280    24725341.120
  24725340.440          44.600          40.850
 129643073.825 7 101020583.60945                  24670250.000
  24670248.060          44.450          34.050
 106711036.633 8  83151525.22047                  20306409.140
  20306404.580          49.800          47.500
 128528228.957 7 100151923.675 6                  24458084.220    24458082.580
  24458081.960          46.800          41.050
 110721826.460 8  86276777.574 7                  21069644.240    21069641.280
  21069640.600          49.550          47.850
 117015500.308 8  91181043.64847                  22267240.700
  22267235.940          49.750          43.750
 119873352.201 7  93407885.273 7  89515905.803 8  22811113.900    22811114.440
  22811113.840          47.300          45.350
 132942390.493 6 103591515.296 6                  25298080.340    25298096.060
  25298095.700          40.050          38.900
 119492110.198 8  93110748.683 7                  22738580.240    22738578.380
  22738577.800          49.600          45.600
 127113357.135 6  98866036.703 5                  23846101.780    23846109.760
  23846109.180          38.150          32.150
 104771892.771 8  81489298.938 7                  19599732.900    19599735.860
  19599735.320          49.550          47.600
 107555553.955 7  83654376.007 7                  20134611.160    20134614.620
  20134613.840          47.850          46.300
 130720657.452 6 101671632.808 6                  24428279.860    24428283.000
  24428281.380          41.700          37.800
 128134383.556 6  99660089.134 5                  23961773.400    23961776.980
  23961774.780          41.300          31.750
 108209076.621 8  84162672.657 7                  20278320.180    20278322.920
  20278323.020          49.000          44.550
 127098034.350 6  98853994.635 5                  23801362.200    23801371.140
  23801368.880          40.950          30.600
 131431849.685 7 102224799.612 6                  24552573.640    24552579.640
  24552578.360          42.150          37.850
 123856141.269 7  96332585.327 6                  23129257.540    23129261.700
  23129260.040          43.450          40.100
 108105157.615 7  84081943.121 7                  20230348.500    20230354.420
  20230352.360          47.200          45.900
 145544911.787 7                 108686157.010 6  27696273.380
                        44.250
 117719785.758 8                                  22401327.900
                        48.400
 15  1 27 17  8 40.0000000  0 21G30G18G13G17G15G28G24G12G05R14R05R16
                                R17R24R06R09R07R04R15E19E20
 129947838.062 7 101258145.610 6  97039069.827 7  24728218.120    24728217.920
  24728217.340          44.350          41.700
 129629001.478 7 101009618.14245                  24667572.100
  24667570.260          44.450          34.400
 106712977.417 8  83153037.52347                  20306778.440
  20306773.920          49.700          47.750
 128516929.664 7 100143119.059 6                  24455934.020    24455932.360
  24455931.740          46.750          41.200
 110712906.783 8  86269827.183 7                  21067946.860    21067943.900
  21067943.240          49.550          47.950
 117025616.141 8  91188926.12147                  22269165.700
  22269160.920          49.650          43.700
 119861133.737 7  93398364.399 7  89506781.650 8  22808788.760    22808789.280
  22808788.680          47.150          45.250
 132922485.719 6 103576005.419 6                  25294292.420    25294308.120
  25294307.620          40.400          39.100
 119508467.505 8  93123494.624 7                  22741692.920    22741691.080
  22741690.480          49.450          45.500
 127131523.631 6  98880166.225 5                  23849509.740    23849517.700
  23849517.240          38.550          31.750
 104781926.473 8  81497102.920 7                  19601609.900    19601612.820
  19601612.340          49.200          47.600
 107548102.265 7  83648580.250 7                  20133216.180    20133219.640
  20133218.880          47.650          46.400
 130704922.256 7 101659394.326 6                  24425339.300    24425342.520
  24425340.940          42.000          36.700
 128129143.178 6  99656013.255 5                  23960793.380    23960796.960
  23960794.780          41.350          32.100
 108196856.366 8  84153168.012 7                  20276030.100    20276032.840
  20276032.920          49.000          44.800
 127080920.464 6  98840683.870 5                  23798157.240    23798166.600
  23798164.040          39.750          30.600
 131410411.366 7 102208125.381 6                  24548568.780    24548574.800
  24548573.540          42.850          38.500
 123877962.401 7  96349557.281 6                  23133332.420    23133336.700
  23133335.120          43.350          40.250
 108116967.882 7  84091128.884 7                  20232558.620    20232564.540
  20232562.480          47.150          45.800
 145531164.438 7                 108675891.194 6  27693657.340
                        44.300
 117713743.164 8                                  22400178.100
                        48.400
 15  1 27 17  8 45.0000000  0 21G30G18G13G17G15G28G24G12G05R14R05R16
                                R17R24R06R09R07R04R15E19E20
 129962955.438 7 101269925.357 6  97050358.769 7  24731094.840    24731094.700
  24731094.060          45.000          41.050
 129614936.728 7 100998658.59545                  24664895.620
  24664893.880          43.900          34.950
 106714929.019 8  83154558.25047                  20307149.820
  20307145.280          49.750          47.600
 128505636.022 7 100134318.832 6                  24453784.880    24453783.280
  24453782.620          46.950          41.500
 110703995.494 8  86262883.325 7                  21066251.080    21066248.160
  21066247.500          49.650          47.900
 117035743.070 8  91196817.24347                  22271092.800
  22271088.040          49.550          43.550
 119848920.771 7  93388847.816 7  89497661.601 8  22806464.680    22806465.180
  22806464.620          47.350          45.350
 132902581.037 6 103560495.595 6                  25290504.500    25290520.180
  25290519.660          39.750          39.050
 119524831.423 8  93136245.721 7                  22744806.880    22744805.020
  22744804.420          49.650          45.250
 127149688.158 6  98894294.211 5                  23852917.400    23852925.320
  23852924.900          37.950          31.900
 104791979.794 8  81504922.167 7                  19603490.560    19603493.500
  19603493.040          49.300          47.600
 107540663.644 7  83642794.666 7                  20131823.620    20131827.120
  20131826.380          47.650          46.400
 130689192.366 6 101647159.967 6                  24422399.680    24422403.040
  24422401.440          41.500          36.250
 128123921.292 7  99651951.816 5                  23959816.880    23959820.380
  23959818.220          43.050          31.800
 108184652.816 8  84143676.366 7                  20273743.160    20273745.860
  20273745.980          48.900          44.500
 127063812.562 6  98827377.767 4                  23794953.440    23794962.740
  23794960.340          40.250          29.900
 131388974.664 7 102191452.410 6                  24544564.220    24544570.200
  24544569.000          42.400          37.400
 123899788.607 7  96366533.181 6                  23137408.280    23137412.580
  23137411.120          43.750          40.550
 108128786.312 7  84100320.999 7                  20234770.280    20234776.180
  20234774.140          47.150          45.900
 145517420.124 7                 108665627.583 6  27691041.900
                        44.350
 117707710.265 8                                  22399030.140
                        48.450
 15  1 27 17  8 50.0000000  0 21G30G18G13G17G15G28G24G12G05R14R05R16
                                R17R24R06R09R07R04R15E19E20
 129978072.391 7 101281704.832 6  97061647.406 7  24733971.540    24733971.360
  24733970.760          45.000          41.400
 129600879.490 7 100987704.93345                  24662220.600
  24662218.860          43.350          35.900
 106716891.355 8  83156087.34347                  20307523.240
  20307518.700          49.800          47.600
 128494347.967 7 100125522.961 6                  24451636.840    24451635.200
  24451634.560          47.450          41.250
 110695092.458 8  86255945.903 7                  21064556.860    21064553.980
  21064553.320          49.700          47.800
 117045881.142 8  91204717.04347                  22273022.000
  22273017.280          49.400          43.550
 119836713.264 7  93379335.488 7  89488545.608 8  22804141.660    22804142.180
  22804141.600          47.050          45.350
 132882676.322 6 103544985.760 6                  25286716.540    25286732.260
  25286731.660          39.600          38.300
 119541201.820 8  93149001.872 7                  22747922.080    22747920.220
  22747919.620          49.750          45.100
 127167850.553 6  98908420.524 5                  23856324.640    23856332.580
  23856332.200          38.600          31.650
 104802052.743 8  81512756.689 7                  19605374.920    19605377.880
  19605377.380          49.400          47.650
 107533238.171 7  83637019.300 7                  20130433.560    20130437.020
  20130436.320          47.850          46.600
 130673467.679 6 101634929.628 6                  24419461.080    24419464.460
  24419463.000          39.850          36.750
 128118717.807 7  99647904.677 5                  23958843.840    23958847.400
  23958845.200          43.100          32.700
 108172466.144 8  84134197.850 7                  20271459.360    20271462.060
  20271462.160          49.100          44.550
 127046710.632 6  98814076.296 5                  23791750.760    23791760.620
  23791757.800          41.000          30.250
 131367539.154 7 102174780.360 6                  24540559.900    24540565.800
  24540564.740          42.150          37.550
 123921619.726 7  96383512.903 6                  23141485.080    23141489.380
  23141488.020          44.850          40.750
 108140612.787 7  84109519.368 7                  20236983.440    20236989.340
  20236987.320          47.450          45.850
 145503678.690 7                 108655366.138 6  27688427.020
                        44.400
 117701686.941 8                                  22397883.980
                        48.600
 15  1 27 17  8 55.0000000  0 21G30G18G13G17G15G28G24G12G05R14R05R16
                                R17R24R06R09R07R04R15E19E20
 129993188.056 7 101293483.277 6  97072935.088 7  24736847.960    24736847.820
  24736847.280          43.950          41.750
 129586828.981 7 100976756.48945                  24659546.880
  24659545.100          43.250          35.050
 106718863.543 8  83157624.11147                  20307898.540
  20307894.000          49.850          47.500
 128483064.612 7 100116730.749 6                  24449489.720    24449488.100
  24449487.380          47.300          41.100
 110686196.899 8  86249014.307 7                  21062864.080    21062861.220
  21062860.520          49.650          47.700
 117056029.310 8  91212624.69847                  22274953.100
  22274948.440          49.350          43.550
 119824510.451 7  93369826.822 7  89479433.132 8  22801819.540    22801820.060
  22801819.500          47.200          45.600
 132862770.786 6 103529475.272 6                  25282928.340    25282944.080
  25282943.560          38.900          38.250
 119557577.848 8  93161762.405 7                  22751038.380    22751036.440
  22751035.860          49.950          45.050
 127186009.927 6  98922544.497 5                  23859731.260    23859739.440
  23859738.880          37.950          31.550
 104812144.378 8  81520605.735 7                  19607262.780    19607265.700
  19607265.240          49.700          47.600
 107525824.932 7  83631253.447 7                  20129045.760    20129049.280
  20129048.560          47.700          46.550
 130657747.360 6 101622702.715 5                  24416523.320    24416526.800
  24416525.360          40.600          35.900
 128113531.851 7  99643871.141 5                  23957874.060    23957877.640
  23957875.380          42.900          33.100
 108160295.428 8  84124731.746 7                  20269178.580    20269181.280
  20269181.340          49.200          44.500
 127029613.781 6  98800778.780 4                  23788549.000    23788558.520
  23788556.140          40.600          29.550
 131346104.497 7 102158108.962 6                  24536555.700    24536561.520
  24536560.580          42.250          38.600
 123943455.017 7  96400495.903 6                  23145562.640    23145567.020
  23145565.660          45.050          40.850
 108152446.435 7  84118723.313 7                  20239197.940    20239203.880
  20239201.840          47.600          45.850
 145489939.373 7                 108645106.262 6  27685812.520
                        44.650
 117695672.348 8                                  22396739.520
                        48.600
 15  1 27 17  9  0.0000000  0 21G30G18G13G17G15G28G24G12G05R14R05R16
                                R17R24R06R09R07R04R15E19E20
 130008302.156 7 101305260.470 6  97084221.570 7  24739724.000    24739723.920
  24739723.400          44.350          41.350
 129572784.833 7 100965813.02545                  24656874.360
  24656872.620          43.700          33.300
 106720845.228 8  83159168.28347                  20308275.640
  20308271.100          49.850          47.650
 128471785.651 7 100107941.956 6                  24447343.440    24447341.760
  24447341.060          47.600          41.400
 110677308.490 8  86242088.278 7                  21061172.640    21061169.800
  21061169.100          49.750          47.600
 117066187.267 8  91220539.98547                  22276886.060
  22276881.480          49.300          43.050
 119812311.898 7  93360321.466 7  89470323.850 8  22799498.220    22799498.760
  22799498.220          47.300          45.800
 132842864.068 6 103513963.861 6                  25279140.040    25279155.720
  25279155.180          39.900          38.200
 119573959.146 8  93174527.050 7                  22754155.680    22754153.700
  22754153.100          49.900          44.950
 127204165.957 6  98936665.843 5                  23863137.200    23863145.400
  23863144.960          37.350          31.250
 104822254.239 8  81528468.957 7                  19609154.020    19609156.960
  19609156.500          49.700          47.650
 107518423.564 7  83625496.826 7                  20127660.240    20127663.740
  20127663.000          47.650          46.400
 130642031.110 6 101610478.946 5                  24413586.420    24413589.880
  24413588.360          41.100          35.200
 128108363.068 6  99639850.955 5                  23956907.460    23956911.020
  23956908.840          41.900          32.800
 108148140.426 8  84115277.856 7                  20266900.700    20266903.420
  20266903.460          49.200          44.450
 127012521.666 6  98787484.958 4                  23785348.140    23785357.580
  23785355.500          40.650          29.250
 131324669.912 7 102141437.644 6                  24532551.560    24532557.320
  24532556.420          42.650          38.100
 123965294.133 7  96417481.841 6                  23149640.980    23149645.360
  23149644.120          45.450          41.600
 108164287.039 7  84127932.669 7                  20241413.700    20241419.700
  20241417.680          47.300          45.750
 145476201.796 7                 108634847.709 6  27683198.360
                        44.900
 117689666.199 8                                  22395596.640
                        48.650
 15  1 27 17  9  5.0000000  0 21G30G18G13G17G15G28G24G12G05R14R05R16
                                R17R24R06R09R07R04R15E19E20
 130023417.813 7 101317038.905 6  97095509.252 7  24742600.480    24742600.380
  24742599.780          44.950          41.200
 129558750.209 7 100954876.98445                  24654203.660
  24654201.940          44.200          34.350
 106722839.650 8  83160722.37647                  20308655.160
  20308650.640          49.650          47.900
 128460514.273 7 100099159.086 6                  24445198.580    24445196.900
  24445196.200          47.300          41.650
 110668430.404 8  86235170.285 7                  21059483.160    21059480.340
  21059479.640          49.600          47.650
 117076358.209 8  91228465.39147                  22278821.480
  22278816.960          49.250          43.400
 119800120.954 7  93350822.041 7  89461220.225 8  22797178.360    22797178.920
  22797178.360          47.550          45.950
 132822959.420 6 103498454.053 6                  25275352.080    25275367.740
  25275367.200          40.450          39.050
 119590348.969 8  93187298.329 7                  22757274.600    22757272.620
  22757271.960          49.850          45.200
 127222321.894 6  98950787.156 5                  23866543.100    23866551.520
  23866551.040          38.200          31.650
 104832385.874 8  81536349.112 7                  19611049.340    19611052.280
  19611051.820          49.700          47.700
 107511037.357 8  83619752.000 7                  20126277.500    20126281.040
  20126280.280          48.000          46.600
 130626322.268 6 101598260.962 5                  24410650.880    24410654.400
  24410652.840          41.750          35.350
 128103214.749 6  99635846.697 5                  23955944.700    23955948.300
  23955946.080          41.900          32.550
 108136004.344 8  84105838.685 7                  20264626.380    20264629.120
  20264629.160          49.350          44.600
 126995437.612 7  98774197.402 4                  23782148.840    23782158.260
  23782156.280          42.250          28.500
 131303238.925 7 102124769.106 6                  24528548.060    24528553.880
  24528552.980          43.500          39.000
 123987140.179 7  96434473.170 6                  23153720.580    23153724.980
  23153723.900          45.100          41.800
 108176137.782 7  84137149.915 7                  20243631.380    20243637.400
  20243635.400          47.600          45.900
 145462469.206 7                 108624592.869 6  27680585.200
                        45.050
 117683671.704 8                                  22394456.000
                        48.500
 15  1 27 17  9 10.0000000  0 21G30G18G13G17G15G28G24G12G05R14R05R16
                                R17R24R06R09R07R04R15E19E20
 130038532.525 7 101328816.633 6  97106796.233 7  24745476.780    24745476.660
  24745476.080          44.700          41.250
 129544722.625 7 100943946.39945                  24651534.280
  24651532.600          44.250          33.400
 106724844.289 8  83162284.43447                  20309036.640
  20309032.100          49.800          47.650
 128449247.994 7 100090380.188 6                  24443054.680    24443053.000
  24443052.320          46.950          41.300
 110659560.115 8  86228258.379 7                  21057795.200    21057792.380
  21057791.640          49.600          47.700
 117086539.567 8  91236398.91947                  22280758.880
  22280754.460          49.400          43.450
 119787934.973 7  93341326.484 7  89452120.323 8  22794859.420    22794859.980
  22794859.480          47.650          45.750
 132803054.218 6 103482943.822 6                  25271564.060    25271579.600
  25271579.020          39.850          38.050
 119606744.724 8  93200074.245 7                  22760394.640    22760392.620
  22760391.980          49.900          45.200
 127240475.125 6  98964906.363 5                  23869948.580    23869957.020
  23869956.540          37.650          31.900
 104842536.439 8  81544243.987 7                  19612948.220    19612951.120
  19612950.680          49.950          47.550
 107503663.642 7  83614016.895 7                  20124897.120    20124900.680
  20124899.920          47.900          46.700
 130610618.181 7 101586046.656 5                  24407716.260    24407719.620
  24407718.200          42.200          34.700
 128098084.248 6  99631856.329 5                  23954985.240    23954988.880
  23954986.600          41.850          32.500
 108123884.490 8  84096412.138 7                  20262355.120    20262357.880
  20262357.900          49.250          44.850
 126978358.965 6  98760914.053 4                  23778950.520    23778959.700
  23778958.000          41.950          27.900
 131281808.866 7 102108101.310 6                  24524544.780    24524550.520
  24524549.680          42.700          38.900
 124008990.659 7  96451467.929 6                  23157800.960    23157805.500
  23157804.460          45.050          41.400
 108187995.958 7  84146372.946 7                  20245850.420    20245856.540
  20245854.500          47.350          46.000
 145448739.041 7                 108614339.845 6  27677972.500
                        45.250
 117677686.303 8                                  22393317.060
                        48.700
 15  1 27 17  9 15.0000000  0 21G30G18G13G17G15G28G24G12G05R14R05R16
                                R17R24R06R09R07R04R15E19E20
 130053645.555 7 101340593.012 6  97118081.928 7  24748352.720    24748352.580
  24748352.000          44.200          41.250
 129530701.371 7 100933020.74845                  24648866.080
  24648864.320          43.900          35.650
 106726858.386 8  83163853.85647                  20309419.920
  20309415.380          49.800          47.550
 128437986.056 7 100081604.662 6                  24440911.600    24440909.920
  24440909.240          46.900          41.550
 110650696.898 8  86221351.979 7                  21056108.540    21056105.760
  21056105.020          49.550          47.650
 117096730.597 8  91244339.98147                  22282698.140
  22282693.740          49.400          43.900
 119775753.176 7  93331834.172 7  89443023.534 8  22792541.280    22792541.880
  22792541.320          47.450          45.700
 132783147.794 6 103467432.624 6                  25267775.840    25267791.280
  25267790.640          39.450          38.550
 119623145.658 8  93212854.187 7                  22763515.700    22763513.620
  22763513.000          49.800          45.350
 127258624.852 6  98979022.817 5                  23873353.360    23873361.720
  23873361.360          36.200          32.750
 104852705.368 8  81552153.157 7                  19614850.520    19614853.400
  19614852.960          49.850          47.650
 107496301.721 7  83608290.952 7                  20123518.960    20123522.540
  20123521.760          47.650          46.900
 130594918.185 6 101573835.561 5                  24404782.420    24404785.760
  24404784.380          41.950          35.950
 128092970.953 6  99627879.332 5                  23954029.060    23954032.840
  23954030.320          41.750          30.950
 108111780.345 8  84086997.805 7                  20260086.780    20260089.600
  20260089.560          48.900          44.850
 126961284.966 6  98747634.341 4                  23775753.000    23775762.220
  23775760.560          40.800          28.350
 131260378.813 7 102091433.505 6                  24520541.480    24520547.160
  24520546.380          42.300          38.900
 124030844.872 7  96468465.592 6                  23161882.080    23161886.740
  23161885.720          44.900          41.550
 108199860.798 7  84155601.152 7                  20248070.740    20248076.920
  20248074.840          47.150          46.300
 145435010.566 7                 108604088.087 6  27675360.080
                        45.100
 117671709.236 8                                  22392179.700
                        48.600
 15  1 27 17  9 20.0000000  0 21G30G18G13G17G15G28G24G12G05R14R05R16
                                R17R24R06R09R07R04R15E19E20
 130068759.662 7 101352370.245 6  97129368.462 7  24751228.840    24751228.720
  24751228.080          44.600          41.050
 129516689.152 7 100922102.15145                  24646199.600
  24646197.900          43.300          34.500
 106728884.754 8  83165432.84747                  20309805.540
  20309800.980          49.850          47.500
 128426731.300 7 100072834.745 6                  24438769.880    24438768.200
  24438767.540          46.950          41.750
 110641843.567 8  86214453.287 7                  21054423.780    21054421.020
  21054420.260          49.650          47.700
 117106934.113 8  91252290.77447                  22284639.800
  22284635.420          49.650          43.250
 119763578.515 7  93322347.440 7  89433932.083 8  22790224.480    22790225.120
  22790224.540          47.250          45.600
 132763242.992 6 103451922.728 6                  25263987.840    25264003.340
  25264002.860          39.000          38.950
 119639554.583 8  93225640.358 7                  22766638.220    22766636.160
  22766635.540          49.700          45.400
 127276774.056 5  98993138.894 5                  23876758.000    23876766.520
  23876766.120          35.900          32.900
 104862895.271 8  81560078.641 7                  19616756.760    19616759.640
  19616759.180          49.700          47.750
 107488954.431 7  83602576.402 7                  20122143.520    20122147.120
  20122146.360          47.750          46.800
 130579225.114 7 101561629.822 6                  24401849.860    24401853.220
  24401851.800          42.450          37.100
 128087877.692 7  99623917.896 5                  23953076.640    23953080.360
  23953077.800          42.000          31.100
 108099694.642 8  84077597.828 7                  20257821.900    20257824.740
  20257824.720          48.850          44.950
 126944218.517 7  98734360.488 4                  23772556.980    23772566.120
  23772564.440          42.600          28.750
 131238951.961 7 102074768.180 6                  24516538.720    24516544.400
  24516543.620          42.300          38.800
 124052705.526 7  96485468.267 6                  23165964.460    23165969.100
  23165968.120          46.250          40.200
 108211735.195 7  84164836.792 7                  20250292.840    20250299.040
  20250297.000          47.100          46.150
 145421286.607 7                 108593839.673 6  27672748.520
                        45.300
 117665743.344 8                                  22391044.480
                        48.650
 15  1 27 17  9 25.0000000  0 21G30G18G13G17G15G28G24G12G05R14R05R16
                                R17R24R06R09R07R04R15E19E20
 130083873.034 7 101364146.914 6  97140654.465 7  24754104.880    24754104.740
  24754104.140          44.900          40.750
 129502684.338 7 100911189.36045                  24643534.520
  24643532.880          42.950          35.700
 106730921.608 8  83167020.00247                  20310193.120
  20310188.580          49.900          47.200
 128415481.924 7 100064069.010 6                  24436629.200    24436627.500
  24436626.880          46.900          41.600
 110632998.333 8  86207560.897 7                  21052740.560    21052737.820
  21052737.060          49.750          47.700
 117117148.299 8  91260249.87247                  22286583.520
  22286579.100          49.900          43.400
 119751408.995 7  93312864.712 7  89424844.475 8  22787908.680    22787909.300
  22787908.740          47.250          45.600
 132743337.966 6 103436412.660 6                  25260199.740    25260215.340
  25260214.800          40.350          38.300
 119655969.690 8  93238431.338 7                  22769761.940    22769759.860
  22769759.260          49.400          45.450
 127294920.808 5  99007253.032 5                  23880162.300    23880170.620
  23880170.400          35.750          33.300
 104873104.385 8  81568019.053 7                  19618666.580    19618669.460
  19618668.980          49.200          47.650
 107481619.962 7  83596871.815 7                  20120770.500    20120774.100
  20120773.320          47.850          46.750
 130563537.204 7 101549428.087 6                  24398918.260    24398921.600
  24398920.320          43.550          38.100
 128082802.439 6  99619970.450 5                  23952127.600    23952131.340
  23952128.680          41.850          32.550
 108087625.628 8  84068210.828 7                  20255560.160    20255563.020
  20255563.020          48.900          45.300
 126927157.833 7  98721086.817 4                  23769362.120    23769368.080
  23769369.440          43.000          28.850
 131217526.224 6 102058103.740 6                  24512536.160    24512541.880
  24512541.100          41.800          39.000
 124074570.753 7  96502474.540 6                  23170047.780    23170052.260
  23170051.320          46.800          40.000
 108223617.324 7  84174078.448 7                  20252516.360    20252522.620
  20252520.560          47.000          46.400
 145407565.360 7                 108583593.334 6  27670137.480
                        45.250
 117659786.840 8                                  22389911.020
                        48.700
 15  1 27 17  9 30.0000000  0 21G30G18G13G17G15G28G24G12G05R14R05R16
                                R17R24R06R09R07R04R15E19E20
 130098985.026 7 101375922.513 6  97151939.384 7  24756980.620    24756980.440
  24756979.820          43.900          40.750
 129488686.185 7 100900281.73545                  24640870.800
  24640869.200          43.400          35.300
 106732968.229 8  83168614.76747                  20310582.580
  20310578.040          49.750          47.650
 128404237.231 7 100055306.929 6                  24434489.420    24434487.700
  24434487.080          47.100          41.100
 110624160.619 8  86200674.369 7                  21051058.780    21051056.020
  21051055.300          49.600          47.700
 117127372.441 8  91268216.74047                  22288529.120
  22288524.660          49.800          43.100
 119739243.935 7  93303385.456 7  89415760.192 8  22785593.700    22785594.360
  22785593.800          47.000          45.650
 132723432.075 6 103420901.877 6                  25256411.600    25256427.120
  25256426.580          41.900          38.100
 119672390.236 8  93251226.557 7                  22772886.640    22772884.600
  22772884.040          49.150          45.550
 127313064.338 6  99021364.660 5                  23883565.900    23883574.220
  23883574.080          36.700          33.350
 104883332.027 8  81575973.881 7                  19620579.860    19620582.760
  19620582.260          49.350          47.700
 107474297.550 8  83591176.609 7                  20119399.740    20119403.320
  20119402.540          48.150          46.950
 130547853.583 7 101537229.700 6                  24395987.500    24395990.920
  24395989.560          43.350          37.900
 128077744.805 7  99616036.749 5                  23951181.820    23951185.600
  23951182.860          42.400          32.500
 108075572.532 8  84058836.200 7                  20253301.440    20253304.280
  20253304.280          49.000          45.500
 126910102.124 6  98707811.509 4                  23766168.140    23766175.300
  23766175.420          40.650          29.450
 131196101.043 7 102041439.751 6                  24508533.780    24508539.500
  24508538.680          42.900          38.700
 124096440.000 7  96519483.944 6                  23174131.740    23174136.200
  23174135.300          45.900          39.900
 108235506.555 7  84183325.626 7                  20254741.260    20254747.500
  20254745.460          46.700          46.600
 145393846.133 7                 108573348.461 6  27667526.780
                        44.950
 117653839.028 8                                  22388779.240
                        48.700
 15  1 27 17  9 35.0000000  0 21G30G18G13G17G15G28G24G12G05R14R05R16
                                R17R24R06R09R07R04R15E19E20
 130114096.730 7 101387697.864 6  97163224.090 7  24759856.200    24759856.100
  24759855.460          43.850          40.950
 129474695.843 7 100889380.16645                  24638208.500
  24638206.880          43.700          35.750
 106735025.752 8  83170218.02947                  20310974.120
  20310969.580          49.750          47.950
 128392998.363 7 100046549.394 6                  24432350.720    24432349.020
  24432348.340          47.200          41.250
 110615331.403 8  86193794.464 7                  21049378.620    21049375.880
  21049375.140          49.450          47.800
 117137607.647 8  91276192.23247                  22290476.840
  22290472.340          49.700          43.600
 119727084.624 7  93293910.683 7  89406680.183 8  22783279.860    22783280.500
  22783279.980          47.150          45.750
 132703526.406 7 103405391.242 6                  25252623.520    25252638.900
  25252638.320          42.600          38.150
 119688817.306 8  93264026.863 7                  22776012.620    22776010.600
  22776010.020          49.150          45.600
 127331205.818 6  99035474.711 5                  23886969.180    23886977.620
  23886977.360          37.600          33.250
 104893579.365 8  81583944.037 7                  19622496.840    19622499.720
  19622499.220          49.650          47.750
 107466988.347 7  83585491.670 7                  20118031.460    20118035.020
  20118034.220          47.950          47.000
 130532175.585 7 101525035.723 6                  24393057.720    24393061.100
  24393059.880          42.300          37.650
 128072705.818 7  99612117.547 5                  23950239.540    23950243.180
  23950240.460          43.050          33.700
 108063536.573 8  84049474.894 7                  20251045.880    20251048.760
  20251048.760          49.150          45.500
 126893052.486 7  98694550.754 4                  23762975.300    23762982.280
  23762982.480          42.050          28.900
 131174677.713 7 102024777.169 6                  24504531.700    24504537.440
  24504536.560          42.600          37.650
 124118314.266 7  96536497.210 6                  23178216.600    23178221.080
  23178220.220          45.750          40.050
 108247403.917 7  84192579.132 7                  20256967.680    20256973.900
  20256971.900          46.850          46.450
 145380130.036 7                 108563105.944 6  27664916.680
                        44.950
 117647900.998 8                                  22387649.300
                        48.650
 15  1 27 17  9 40.0000000  0 21G30G18G13G17G15G28G24G12G05R14R05R16
                                R17R24R06R09R07R04R15E19E20
 130129207.621 7 101399472.576 6  97174508.212 7  24762731.720    24762731.620
  24762731.000          44.400          41.100
 129460712.730 7 100878484.26045                  24635547.620
  24635546.060          44.250          35.550
 106737093.624 8  83171829.35447                  20311367.600
  20311363.100          49.800          47.600
 128381764.839 7 100037796.012 6                  24430213.040    24430211.320
  24430210.640          47.250          41.150
 110606510.148 8  86186920.765 7                  21047699.960    21047697.260
  21047696.520          49.450          47.800
 117147853.379 8  91284175.92347                  22292426.580
  22292422.020          49.800          43.700
 119714930.476 7  93284439.926 7  89397604.053 8  22780966.980    22780967.640
  22780967.100          47.550          45.800
 132683620.526 7 103389880.456 6                  25248835.420    25248850.680
  25248849.920          42.600          37.750
 119705250.369 8  93276831.843 7                  22779139.720    22779137.740
  22779137.160          49.150          45.600
 127349344.830 6  99049582.856 5                  23890371.940    23890380.640
  23890380.200          37.250          32.850
 104903845.768 8  81591929.011 7                  19624417.360    19624420.220
  19624419.720          49.550          47.650
 107459691.837 7  83579816.604 7                  20116665.560    20116669.100
  20116668.320          47.800          46.900
 130516502.672 6 101512845.677 6                  24390128.900    24390132.340
  24390131.120          40.800          38.550
 128067684.854 7  99608212.360 5                  23949300.580    23949304.240
  23949301.520          42.950          34.000
 108051517.306 8  84040126.575 7                  20248793.480    20248796.360
  20248796.360          49.250          45.400
 126876008.574 7  98681304.174 4                  23759783.560
  23759790.580          44.450          28.400
 131153255.475 6 102008115.435 6                  24500529.840    24500535.460
  24500534.660          41.600          37.650
 124140192.873 7  96553513.858 6                  23182302.240    23182306.800
  23182305.960          46.250          40.200
 108259308.746 7  84201838.443 7                  20259195.460    20259201.720
  20259199.720          47.550          46.400
 145366416.572 7                 108552865.374 6  27662307.100
                        45.250
 117641972.238 8                                  22386521.120
                        48.700
