     2.11           OBSERVATION DATA    M (MIXED)           RINEX VERSION / TYPE
teqc  2011Oct11     IGN-E (SPG)         20150127 05:01:31UTCPGM / RUN BY / DATE
Linux 2.4.21-27.ELsmp|Opteron|gcc -static|Linux x86_64|=+   COMMENT
BIT 2 OF LLI FLAGS DATA COLLECTED UNDER A/S CONDITION       COMMENT
VALE                                                        MARKER NAME
13439M001                                                   MARKER NUMBER
Programas GeodesicosInstituto Geografico Nacional           OBSERVER / AGENCY
1700071             LEICA GR10          3.03/6.214          REC # / TYPE / VERS
10190012            LEIAR25.R3      LEIT                    ANT # / TYPE
  4929534.0457   -29050.6755  4033709.9250                  APPROX POSITION XYZ
        3.0390        0.0000        0.0000                  ANTENNA: DELTA H/E/N
     1     1                                                WAVELENGTH FACT L1/2
     8    L1    L2    L5    C1    C2    P2    S1    S2      # / TYPES OF OBSERV
     5.0000                                                 INTERVAL
Forced Modulo Decimation to 5 seconds                       COMMENT
DefaultJobName                                              COMMENT
DefaultUserDiscription                                      COMMENT
Project creator:                                            COMMENT
 SNR is mapped to RINEX snr flag value [0-9]                COMMENT
  L1 & L2: min(max(int(snr_dBHz/6), 0), 9)                  COMMENT
  2015     1    27     4     0    0.0000000     GPS         TIME OF FIRST OBS
    15                                                      LEAP SECONDS
                                                            END OF HEADER
 15  1 27  4  0  0.0000000  0 23G11G08G21G07G04G16G18G22G27G19G30R11
                                R05R21R08R07R22R12R06R13R23E18E11
 130223431.145 7 101472788.48645                  24780694.060
  24780689.180          45.800          34.100
 131353802.055 6 102353574.19146                  24995809.060
  24995807.740          40.900          36.450
 125338672.276 7  97666554.16946                  23851126.820
  23851121.580          46.400          38.150
 126541077.779 7  98603402.414 6                  24079966.820    24079963.380
  24079962.820          46.900          41.350
 121858281.424 8  94954514.21146                  23188851.600
  23188848.480          48.050          37.900
 109026348.658 8  84955596.96547                  20747022.160
  20747017.280          50.200          47.750
 116654547.156 8  90899642.52847                  22198613.060
  22198606.960          50.600          42.750
 111727989.469 8  87060780.08347                  21261115.420
  21261108.260          50.950          46.650
 107781584.721 8  83985661.660 8  80486254.079 8  20510147.720    20510145.500
  20510144.840          50.850          50.400
 113866389.002 8  88727036.27447                  21668047.280
  21668040.860          49.900          46.300
 133944681.340 6 104372472.075 6 100023615.911 7  25488827.820    25488825.780
  25488825.060          40.550          36.100
 125084870.177 7  97288241.788 5                  23407930.400    23407934.380
  23407932.420          42.550          34.650
 129370978.517 7 100621894.292 6                  24201512.740    24201515.120
  24201514.440          43.650          38.800
 114424899.558 7  88997193.948 7                  21383008.760    21383010.000
  21383008.940          47.650          43.000
 130691258.115 6 101648766.197 5                  24405666.260    24405670.140
  24405668.640          41.150          33.700
 114431111.513 8  89002004.576 7                  21376686.760    21376689.220
  21376688.540          48.350          45.650
 106583692.186 8  82898458.905 7                  19966708.040    19966710.680
  19966709.700          48.350          47.050
 111966333.847 7  87084939.903 7                  20960332.300    20960336.140
  20960335.340          43.550          43.750
 112554030.068 8  87542013.585 7                  21092572.980    21092574.460
  21092574.060          49.150          42.650
 119099598.511 7  92633024.540 7                  22303526.440    22303530.760
  22303528.740          43.100          42.750
 122990058.437 7  95658954.184 6                  22991691.660    22991695.000
  22991694.800          46.100          41.900
 151963752.290 8                 113479458.852 7  28917738.220
                        49.350
 131239115.417 8                  98003343.604 8  24973919.540
                        51.650
 15  1 27  4  0  5.0000000  0 23G11G08G21G07G04G16G18G22G27G19G30R11
                                R05R21R08R07R22R12R06R13R23E18E11
 130207173.891 7 101460120.50345                  24777600.420
  24777595.500          43.850          34.050
 131371173.313 6 102367110.07545                  24999114.780
  24999113.520          39.300          30.700
 125351458.271 7  97676517.28046                  23853559.900
  23853554.680          45.600          38.650
 126540625.389 7  98603049.898 6                  24079880.760    24079877.340
  24079876.720          46.100          41.350
 121842754.654 7  94942415.44646                  23185896.960
  23185893.840          47.300          38.850
 109033818.739 8  84961417.80547                  20748443.660
  20748438.800          49.600          47.900
 116659567.068 8  90903554.14647                  22199568.340
  22199562.200          50.100          42.700
 111721557.114 8  87055767.85847                  21259891.420
  21259884.240          50.300          47.300
 107777927.757 8  83982812.082 8  80483523.230 8  20509451.800    20509449.600
  20509448.960          50.050          50.400
 113856595.852 8  88719405.25647                  21666183.740
  21666177.320          49.450          46.800
 133937147.774 6 104366601.757 5 100017990.125 7  25487394.160    25487392.220
  25487391.300          38.950          35.950
 125106519.392 7  97305080.069 5                  23411981.780    23411985.780
  23411983.760          42.500          34.550
 129388109.061 7 100635218.084 6                  24204717.340    24204719.740
  24204719.080          44.050          39.650
 114434986.098 7  89005039.046 7                  21384893.620    21384894.860
  21384893.800          47.550          43.200
 130669320.494 7 101631703.707 5                  24401569.360    24401573.400
  24401571.900          42.000          34.150
 114414852.461 8  88989358.643 7                  21373649.440    21373651.880
  21373651.200          49.050          45.800
 106581745.446 8  82896944.772 7                  19966343.320    19966346.020
  19966345.020          48.700          47.200
 111977127.476 7  87093334.944 7                  20962352.860    20962356.740
  20962355.940          44.150          43.800
 112555501.787 8  87543158.243 7                  21092848.740    21092850.240
  21092849.820          49.650          43.150
 119091186.713 7  92626482.041 7                  22301951.200    22301955.480
  22301953.480          44.100          42.900
 122977141.485 7  95648907.680 6                  22989276.960    22989280.320
  22989280.100          46.850          41.550
 151982550.663 8                 113493496.600 7  28921315.440
                        48.700
 131246590.424 8                  98008925.579 8  24975342.080
                        51.000
 15  1 27  4  0 10.0000000  0 23G11G08G21G07G04G16G18G22G27G19G30R11
                                R05R21R08R07R22R12R06R13R23E18E11
 130190922.087 7 101447456.76145                  24774507.800
  24774502.840          44.200          34.800
 131388544.526 6 102380645.94845                  25002420.500
  25002419.320          38.100          34.250
 125364248.707 7  97686483.86146                  23855993.860
  23855988.580          45.600          39.250
 126540191.184 7  98602711.553 6                  24079798.180    24079794.720
  24079794.120          46.250          41.650
 121827237.086 7  94930323.84646                  23182944.060
  23182940.940          47.250          38.700
 109041306.486 8  84967252.41648                  20749868.540
  20749863.660          49.550          48.450
 116664603.342 8  90907478.51747                  22200526.780
  22200520.600          50.300          42.550
 111715141.704 8  87050768.84147                  21258670.640
  21258663.440          50.400          47.250
 107774281.524 8  83979970.866 8  80480800.396 8  20508757.920    20508755.740
  20508755.100          50.100          50.400
 113846811.168 8  88711780.83347                  21664321.820
  21664315.340          49.650          46.450
 133929630.382 6 104360744.039 5 100012376.504 7  25485963.540    25485961.680
  25485960.860          38.600          35.000
 125128172.591 7  97321921.435 5                  23416033.920    23416037.860
  23416035.880          42.600          34.450
 129405254.321 7 100648553.270 6                  24207924.680    24207927.160
  24207926.480          44.750          38.000
 114445080.017 7  89012889.874 7                  21386779.860    21386781.100
  21386780.040          47.550          43.000
 130647382.634 7 101614640.994 5                  24397472.460    24397476.460
  24397475.080          42.800          34.850
 114398610.151 8  88976725.749 7                  21370615.260    21370617.680
  21370617.000          49.050          45.650
 106579808.173 8  82895438.008 7                  19965980.360    19965983.100
  19965982.100          48.350          47.150
 111987943.495 7  87101747.397 7                  20964377.600    20964381.480
  20964380.760          44.550          43.650
 112556999.082 8  87544322.823 7                  21093129.320    21093130.760
  21093130.380          49.600          42.900
 119082798.814 7  92619958.116 7                  22300380.380    22300384.640
  22300382.680          44.150          42.750
 122964229.558 7  95638865.072 6                  22986863.180    22986866.540
  22986866.300          46.950          41.350
 152001344.764 8                 113507531.148 7  28924891.900
                        48.800
 131254070.625 8                  98014511.446 8  24976765.600
                        51.150
 15  1 27  4  0 15.0000000  0 23G11G08G21G07G04G16G18G22G27G19G30R11
                                R05R21R08R07R22R12R06R13R23E18E11
 130174669.390 7 101434792.33045                  24771415.020
  24771410.120          44.550          34.900
 131405909.265 6 102394176.74046                  25005725.040
  25005724.020          38.850          38.000
 125377037.237 7  97696448.95746                  23858427.440
  23858422.100          45.550          38.800
 126539768.808 7  98602382.420 6                  24079717.860    24079714.340
  24079713.720          45.950          41.400
 121811722.288 7  94918234.39146                  23179991.720
  23179988.600          47.250          39.700
 109048805.401 8  84973095.71748                  20751295.540
  20751290.660          49.550          48.200
 116669649.647 8  90911410.70347                  22201487.120
  22201480.940          50.250          43.300
 111708736.890 8  87045778.07947                  21257451.860
  21257444.640          50.350          47.350
 107770639.661 8  83977133.048 8  80478080.829 8  20508064.900    20508062.720
  20508062.080          50.200          50.500
 113837028.586 8  88704158.04247                  21662460.280
  21662453.780          49.600          46.600
 133922122.863 6 104354894.047 5 100006770.310 7  25484534.780    25484532.960
  25484532.360          38.250          34.350
 125149823.276 6  97338760.842 5                  23420085.580    23420089.500
  23420087.520          41.700          34.600
 129422407.952 7 100661895.035 6                  24211133.600    24211136.080
  24211135.420          43.650          38.550
 114455174.738 7  89020741.320 7                  21388666.220    21388667.500
  21388666.420          47.550          43.250
 130625438.129 7 101597573.127 5                  24393374.400    24393378.360
  24393377.000          42.350          35.600
 114382377.663 8  88964100.481 7                  21367582.920    21367585.300
  21367584.640          49.100          45.750
 106577873.985 8  82893933.636 7                  19965617.980    19965620.780
  19965619.760          48.300          47.250
 111998775.267 7  87110172.111 7                  20966405.260    20966409.200
  20966408.540          44.400          43.750
 112558515.521 8  87545502.277 7                  21093413.480    21093414.920
  21093414.560          49.400          42.950
 119074428.208 7  92613447.653 7                  22298812.840    22298817.080
  22298815.120          44.450          42.400
 122951316.109 7  95628821.262 6                  22984449.160    22984452.500
  22984452.180          46.750          40.850
 152020128.248 8                 113521557.801 7  28928466.300
                        48.850
 131261549.649 8                  98020096.424 8  24978188.920
                        51.250
 15  1 27  4  0 20.0000000  0 23G11G08G21G07G04G16G18G22G27G19G30R11
                                R05R21R08R07R22R12R06R13R23E18E11
 130158419.924 7 101422130.38645                  24768322.880
  24768318.040          44.000          33.400
 131423271.611 6 102407705.65045                  25009029.100
  25009028.140          38.700          35.600
 125389827.907 7  97706415.71646                  23860861.380
  23860856.000          45.000          37.950
 126539362.376 7  98602065.691 6                  24079640.540    24079636.980
  24079636.360          45.700          40.950
 121796214.413 7  94906150.33246                  23177040.680
  23177037.540          47.450          39.300
 109056319.668 8  84978950.98648                  20752725.480
  20752720.580          49.650          48.150
 116674710.039 8  90915353.86347                  22202450.140
  22202443.960          50.250          42.900
 111702346.767 8  87040798.76147                  21256235.880
  21256228.660          50.400          47.200
 107767006.233 8  83974301.803 8  80475367.548 8  20507373.480    20507371.300
  20507370.660          50.400          50.450
 113827252.181 8  88696540.06647                  21660599.920
  21660593.360          49.650          46.400
 133914629.442 6 104349055.050 5 100001174.545 7  25483108.740    25483107.000
  25483106.580          39.050          34.400
 125171475.551 6  97355601.490 5                  23424137.500    23424141.380
  23424139.440          41.600          34.250
 129439573.996 7 100675246.384 6                  24214344.820    24214347.340
  24214346.760          43.650          38.400
 114465274.479 7  89028596.670 7                  21390553.520    21390554.840
  21390553.800          47.600          43.450
 130603491.078 6 101580503.296 5                  24389275.800    24389279.860
  24389278.540          41.700          35.400
 114366159.613 8  88951486.440 7                  21364553.300    21364555.640
  21364554.940          48.950          45.700
 106575946.940 8  82892434.819 7                  19965256.940    19965259.780
  19965258.760          48.300          47.300
 112009627.085 7  87118612.405 7                  20968436.720    20968440.660
  20968440.060          44.050          43.800
 112560055.250 8  87546699.840 7                  21093702.020    21093703.440
  21093703.100          49.400          43.150
 119066079.168 7  92606953.934 7                  22297249.360    22297253.560
  22297251.600          43.550          42.550
 122938405.169 7  95618779.422 6                  22982035.580    22982038.860
  22982038.520          46.950          41.000
 152038905.188 8                 113535579.526 7  28932039.480
                        49.000
 131269031.556 8                  98025683.560 8  24979612.760
                        51.300
 15  1 27  4  0 25.0000000  0 23G11G08G21G07G04G16G18G22G27G19G30R11
                                R05R21R08R07R22R12R06R13R23E18E11
 130142174.726 7 101409471.78345                  24765231.500
  24765226.700          43.350          35.050
 131440632.735 6 102421233.58945                  25012332.880
  25012332.060          40.000          35.600
 125402621.840 7  97716384.99846                  23863295.920
  23863290.600          44.900          37.900
 126538972.959 7  98601762.243 6                  24079566.480    24079562.840
  24079562.220          45.600          40.700
 121780714.530 7  94894072.51246                  23174091.160
  23174088.040          47.450          38.300
 109063850.457 8  84984819.13248                  20754158.560
  20754153.640          49.700          48.100
 116679785.717 8  90919308.93747                  22203416.060
  22203409.880          50.350          43.150
 111695972.469 8  87035831.77447                  21255022.920
  21255015.680          50.500          47.200
 107763382.389 8  83971478.033 8  80472661.433 8  20506683.880    20506681.700
  20506681.080          50.600          50.450
 113817483.109 8  88688927.80647                  21658740.960
  21658734.360          49.750          46.500
 133907151.211 6 104343227.833 5  99995590.132 7  25481685.700    25481683.920
  25481683.340          39.850          34.800
 125193130.559 6  97372444.266 5                  23428189.920    23428193.880
  23428191.900          41.750          34.900
 129456753.650 7 100688608.328 6                  24217558.620    24217561.160
  24217560.620          43.100          38.600
 114475380.376 7  89036456.808 7                  21392442.020    21392443.420
  21392442.380          47.700          43.700
 130581542.678 6 101563432.424 5                  24385176.920    24385181.040
  24385179.780          41.950          35.650
 114349956.777 8  88938884.232 7                  21361526.520    21361528.800
  21361528.120          49.100          45.700
 106574028.321 8  82890942.558 7                  19964897.420    19964900.380
  19964899.320          48.450          47.400
 112020500.035 7  87127069.133 7                  20970472.160    20970476.100
  20970475.540          44.150          43.900
 112561619.384 8  87547916.378 7                  21093995.140    21093996.540
  21093996.220          49.600          42.900
 119057752.906 7  92600477.973 7                  22295690.080    22295694.320
  22295692.380          43.200          42.450
 122925498.158 7  95608740.636 6                  22979622.720    22979625.960
  22979625.620          46.700          41.400
 152057676.742 8                 113549597.239 7  28935611.620
                        49.100
 131276517.512 8                  98031273.718 8  24981037.360
                        51.250
 15  1 27  4  0 30.0000000  0 23G11G08G21G07G04G16G18G22G27G19G30R11
                                R05R21R08R07R22R12R06R13R23E18E11
 130125928.991 7 101396812.78045                  24762139.960
  24762135.200          42.850          35.150
 131457987.707 6 102434756.77245                  25015635.560
  25015634.840          40.550          35.100
 125415414.220 7  97726353.08546                  23865730.160
  23865724.880          44.800          38.550
 126538595.742 7  98601468.312 6                  24079494.700    24079491.040
  24079490.420          46.400          41.250
 121765217.833 7  94881997.16846                  23171142.260
  23171139.100          47.600          38.950
 109071392.912 8  84990696.37448                  20755593.840
  20755588.920          49.700          48.050
 116684871.798 8  90923272.12147                  22204383.940
  22204377.800          50.300          42.900
 111689609.137 8  87030873.33447                  21253812.040
  21253804.780          50.300          47.350
 107759763.315 8  83968657.981 8  80469958.883 8  20505995.200    20505993.020
  20505992.400          50.700          50.450
 113807716.536 8  88681317.49247                  21656882.480
  21656875.840          49.800          46.550
 133899683.291 6 104337408.658 5  99990013.411 7  25480264.620    25480262.700
  25480262.200          40.350          35.500
 125214783.427 7  97389285.356 5                  23432241.960    23432245.940
  23432244.000          42.250          35.200
 129473942.030 7 100701977.102 6                  24220774.060    24220776.700
  24220776.120          43.100          38.900
 114485487.507 8  89044317.891 7                  21394330.760    21394332.180
  21394331.200          48.100          43.150
 130559588.084 7 101546356.721 6                  24381077.000    24381081.120
  24381079.860          42.400          36.450
 114333764.483 8  88926290.238 7                  21358501.680    21358503.920
  21358503.240          49.150          45.400
 106572113.041 8  82889452.906 7                  19964538.580    19964541.600
  19964540.520          48.500          47.250
 112031389.063 7  87135538.384 7                  20972510.540    20972514.580
  20972514.040          44.150          43.850
 112563202.965 8  87549148.061 7                  21094291.880    21094293.280
  21094293.000          49.400          43.050
 119049444.297 7  92594015.740 7                  22294134.080    22294138.420
  22294136.460          43.800          42.100
 122912589.925 7  95598700.920 6                  22977209.600    22977212.860
  22977212.520          47.000          40.850
 152076438.049 8                 113563607.312 7  28939181.800
                        49.100
 131284002.663 8                  98036863.295 8  24982461.800
                        51.250
 15  1 27  4  0 35.0000000  0 23G11G08G21G07G04G16G18G22G27G19G30R11
                                R05R21R08R07R22R12R06R13R23E18E11
 130109688.220 7 101384157.66245                  24759049.360
  24759044.740          43.400          33.300
 131475341.981 6 102448279.40145                  25018938.060
  25018937.420          40.100          34.450
 125428210.489 7  97736324.19346                  23868165.160
  23868159.960          45.000          38.250
 126538236.179 7  98601188.146 6                  24079426.300    24079422.600
  24079422.040          46.100          41.400
 121749729.780 7  94869928.56146                  23168195.000
  23168191.780          47.750          37.750
 109078952.457 8  84996586.93048                  20757032.400
  20757027.460          49.650          48.300
 116689973.702 8  90927247.62747                  22205354.840
  22205348.700          50.250          42.900
 111683262.220 8  87025927.69347                  21252604.280
  21252597.000          50.350          47.200
 107756154.443 8  83965845.875 8  80467263.950 8  20505308.460    20505306.260
  20505305.660          50.750          50.350
 113797957.933 8  88673713.38547                  21655025.520
  21655018.820          50.000          46.600
 133892231.120 6 104331601.775 5  99984448.470 7  25478846.520    25478844.520
  25478843.940          41.050          35.700
 125236439.562 7  97406129.013 5                  23436294.660    23436298.600
  23436296.640          42.350          34.550
 129491144.416 7 100715356.733 6                  24223992.080    24223994.780
  24223994.220          43.800          37.850
 114495601.426 7  89052184.285 7                  21396220.800    21396222.180
  21396221.260          47.850          43.350
 130537632.800 7 101529280.476 6                  24376976.920    24376981.060
  24376979.820          42.250          36.350
 114317588.184 8  88913708.662 7                  21355479.800    21355482.000
  21355481.320          49.100          45.450
 106570206.745 8  82887970.248 7                  19964181.420    19964184.480
  19964183.400          48.800          47.600
 112042299.884 7  87144024.574 7                  20974553.060    20974557.100
  20974556.620          44.200          43.800
 112564811.723 8  87550399.329 7                  21094593.360    21094594.780
  21094594.480          49.600          43.250
 119041159.072 7  92587571.683 7                  22292582.520    22292586.820
  22292584.840          44.150          42.400
 122899686.196 7  95588664.682 6                  22974797.380    22974800.560
  22974800.300          47.050          41.000
 152095194.566 8                 113577613.806 7  28942751.100
                        49.200
 131291492.474 8                  98042456.329 8  24983887.120
                        51.100
 15  1 27  4  0 40.0000000  0 23G11G08G21G07G04G16G18G22G27G19G30R11
                                R05R21R08R07R22R12R06R13R23E18E11
 130093448.899 7 101371503.64445                  24755959.040
  24755954.380          43.800          31.200
 131492692.106 6 102461798.80145                  25022239.780
  25022239.220          39.550          35.700
 125441007.199 7  97746295.66046                  23870600.220
  23870595.100          44.700          38.700
 126537890.766 7  98600918.990 6                  24079360.580    24079356.900
  24079356.380          45.850          41.750
 121734246.908 7  94857864.00046                  23165248.740
  23165245.460          47.950          38.550
 109086525.572 8  85002488.05748                  20758473.540
  20758468.540          49.600          48.400
 116695087.934 8  90931232.74247                  22206328.080
  22206321.940          50.150          43.050
 111676928.271 8  87020992.14647                  21251398.980
  21251391.680          50.300          47.350
 107752552.294 8  83963039.008 8  80464574.031 8  20504623.000    20504620.800
  20504620.200          50.650          50.350
 113788203.799 8  88666112.76147                  21653169.400
  21653162.680          50.050          46.300
 133884791.272 6 104325804.475 5  99978892.698 7  25477430.820    25477428.740
  25477428.080          40.200          35.650
 125258095.428 7  97422972.452 5                  23440347.260    23440351.100
  23440349.260          42.300          35.250
 129508357.522 7 100728744.731 6                  24227212.120    24227214.840
  24227214.280          44.100          37.650
 114505718.607 7  89060053.203 7                  21398111.440    21398112.860
  21398111.940          47.700          43.550
 130515673.296 7 101512200.945 6                  24372876.020    24372880.280
  24372879.000          42.250          37.700
 114301424.463 8  88901136.889 7                  21352460.300    21352462.440
  21352461.720          48.850          45.250
 106568305.827 8  82886491.737 7                  19963825.260    19963828.360
  19963827.300          49.000          47.050
 112053228.768 7  87152524.815 7                  20976598.920    20976603.040
  20976602.560          44.350          43.850
 112566441.954 8  87551667.286 7                  21094898.880    21094900.280
  21094900.000          49.600          43.500
 119032893.639 7  92581143.009 7                  22291034.700    22291038.920
  22291036.940          44.200          42.300
 122886783.291 7  95578629.078 6                  22972385.280    22972388.520
  22972388.180          46.950          40.950
 152113942.809 8                 113591614.102 7  28946318.760
                        49.150
 131298983.424 8                  98048050.219 8  24985312.640
                        51.050
 15  1 27  4  0 45.0000000  0 23G11G08G21G07G04G16G18G22G27G19G30R11
                                R05R21R08R07R22R12R06R13R23E18E11
 130077211.817 7 101358851.35845                  24752869.180
  24752864.580          43.750          33.750
 131510038.810 6 102475315.51445                  25025540.820
  25025540.280          40.200          34.700
 125453805.087 7  97756268.04846                  23873035.500
  23873030.480          44.550          37.800
 126537560.300 7  98600661.483 6                  24079297.700    24079294.060
  24079293.600          45.700          41.700
 121718769.967 8  94845804.05246                  23162303.600
  23162300.300          48.000          38.050
 109094113.021 8  85008400.35948                  20759917.400
  20759912.400          49.700          48.100
 116700215.377 8  90935228.15747                  22207303.800
  22207297.680          50.150          43.100
 111670608.066 8  87016067.32047                  21250196.280
  21250188.980          50.350          47.450
 107748957.658 8  83960237.999 8  80461889.736 8  20503938.980    20503936.780
  20503936.160          50.600          50.300
 113778454.912 8  88658516.22247                  21651314.260
  21651307.540          49.950          46.200
 133877364.488 6 104320017.348 6  99973346.727 7  25476017.600    25476015.500
  25476014.700          40.050          36.000
 125279751.791 7  97439816.268 5                  23444400.000    23444403.900
  23444402.040          42.550          35.350
 129525581.974 7 100742141.555 6                  24230434.300    24230437.060
  24230436.480          43.550          38.400
 114515839.769 8  89067925.206 7                  21400002.840    21400004.260
  21400003.400          48.200          44.000
 130493710.356 6 101495118.742 6                  24368774.480    24368778.820
  24368777.600          41.750          38.600
 114285274.118 8  88888575.506 7                  21349443.280    21349445.380
  21349444.620          48.500          45.300
 106566411.128 8  82885018.105 7                  19963470.300    19963473.460
  19963472.380          48.900          47.550
 112064176.672 7  87161039.849 7                  20978648.380    20978652.560
  20978652.060          44.150          44.000
 112568094.561 8  87552952.654 7                  21095208.540    21095209.980
  21095209.740          49.300          43.400
 119024648.920 7  92574730.443 7                  22289490.760    22289494.920
  22289492.960          44.450          42.350
 122873882.009 7  95568594.754 6                  22969973.520    22969976.740
  22969976.420          47.000          41.300
 152132683.561 8                 113605608.831 7  28949884.980
                        48.900
 131306476.332 8                  98053645.574 8  24986738.520
                        50.900
 15  1 27  4  0 50.0000000  0 23G11G08G21G07G04G16G18G22G27G19G30R11
                                R05R21R08R07R22R12R06R13R23E18E11
 130060976.330 7 101346200.33145                  24749779.640
  24749775.100          42.750          33.200
 131527381.452 6 102488829.11045                  25028841.220
  25028840.640          40.700          33.000
 125466603.445 7  97766240.78646                  23875470.860
  23875465.880          44.400          40.050
 126537244.129 7  98600415.109 6                  24079237.540    24079233.920
  24079233.540          46.200          41.950
 121703298.344 8  94833748.24446                  23159359.500
  23159356.140          48.250          38.550
 109101714.207 8  85014323.35647                  20761363.880
  20761358.840          49.950          47.650
 116705355.325 8  90939233.32147                  22208281.900
  22208275.780          50.100          43.000
 111664300.975 8  87011152.70547                  21248996.080
  21248988.780          50.450          47.300
 107745369.888 8  83957442.334 8  80459210.551 8  20503256.260    20503254.040
  20503253.420          50.450          50.350
 113768710.618 8  88650923.27047                  21649459.980
  21649453.260          49.950          46.750
 133869950.159 6 104314239.922 6  99967810.023 7  25474606.720    25474604.660
  25474603.720          40.850          36.100
 125301407.886 7  97456659.875 5                  23448452.640    23448456.540
  23448454.700          42.700          35.000
 129542817.147 7 100755546.670 6                  24233658.480    24233661.260
  24233660.660          43.350          37.750
 114525964.323 8  89075799.851 7                  21401894.900    21401896.240
  21401895.480          48.500          43.950
 130471743.412 6 101478033.457 6                  24364672.200    24364676.720
  24364675.460          41.750          38.000
 114269136.448 8  88876023.987 7                  21346428.640    21346430.700
  21346429.920          48.950          45.250
 106564521.948 8  82883548.733 7                  19963116.360    19963119.540
  19963118.480          48.800          47.200
 112075142.823 7  87169569.084 7                  20980701.220    20980705.500
  20980704.980          44.150          43.950
 112569768.642 8  87554254.721 7                  21095522.240    21095523.720
  21095523.500          49.250          43.400
 119016424.124 7  92568333.380 7                  22287950.620    22287954.680
  22287952.740          44.100          43.000
 122860981.869 7  95558561.317 6                  22967561.960    22967565.220
  22967564.900          47.000          41.700
 152151416.165 8                 113619597.452 7  28953449.660
                        48.950
 131313970.533 8                  98059241.887 8  24988164.620
                        50.900
 15  1 27  4  0 55.0000000  0 23G11G08G21G07G04G16G18G22G27G19G30R11
                                R05R21R08R07R22R12R06R13R23E18E11
 130044742.960 7 101333550.96446                  24746690.500
  24746685.960          42.100          36.250
 131544720.575 6 102502339.91645                  25032140.900
  25032140.240          40.600          34.000
 125479402.830 7  97776214.31646                  23877906.460
  23877901.560          45.000          37.300
 126536942.776 7  98600180.285 6                  24079180.180    24079176.660
  24079176.260          45.950          41.550
 121687832.583 8  94821696.99546                  23156416.480
  23156413.040          48.250          38.750
 109109329.623 8  85020257.43747                  20762813.060
  20762808.000          50.150          47.600
 116710508.300 8  90943248.62447                  22209262.460
  22209256.360          49.900          42.950
 111658007.573 8  87006248.75647                  21247798.480
  21247791.180          50.550          46.900
 107741789.540 8  83954652.447 8  80456536.915 8  20502574.940    20502572.720
  20502572.080          50.550          50.350
 113758971.495 8  88643334.34147                  21647606.700
  21647599.980          50.000          46.900
 133862548.838 6 104308472.640 5  99962283.037 7  25473198.340    25473196.360
  25473195.220          40.550          35.700
 125323064.537 7  97473503.933 5                  23452505.440    23452509.240
  23452507.480          42.950          35.250
 129560063.521 7 100768960.548 6                  24236884.760    24236887.540
  24236886.900          43.200          37.550
 114536092.797 8  89083677.555 7                  21403787.660    21403789.020
  21403788.280          48.950          43.650
 130449772.946 6 101460945.409 6                  24360569.380    24360573.840
  24360572.640          41.600          37.700
 114253012.009 8  88863482.753 7                  21343416.460    21343418.500
  21343417.680          48.750          44.950
 106562638.939 8  82882084.177 7                  19962763.560    19962766.820
  19962765.720          48.350          47.050
 112086127.694 7  87178112.875 7                  20982757.620    20982761.900
  20982761.360          44.400          43.850
 112571465.001 8  87555574.099 7                  21095840.140    21095841.620
  21095841.480          49.450          43.250
 119008219.791 7  92561952.263 7                  22286414.240    22286418.300
  22286416.360          44.600          42.400
 122848083.123 7  95548528.944 6                  22965150.680    22965153.880
  22965153.620          47.050          41.350
 152170141.170 8                 113633580.398 7  28957012.920
                        49.300
 131321466.571 8                  98064839.579 8  24989591.060
                        50.900
 15  1 27  4  1  0.0000000  0 23G11G08G21G07G04G16G18G22G27G19G30R11
                                R05R21R08R07R22R12R06R13R23E18E11
 130028514.123 7 101320905.11745                  24743602.200
  24743597.780          43.100          34.600
 131562058.477 6 102515849.76745                  25035440.380
  25035439.680          41.950          34.050
 125492205.607 7  97786190.50246                  23880342.740
  23880337.880          45.300          37.950
 126536658.639 7  98599958.877 6                  24079126.140    24079122.640
  24079122.260          46.700          40.900
 121672375.027 8  94809652.14546                  23153475.060
  23153471.540          48.300          39.250
 109116961.611 8  85026204.44647                  20764265.400
  20764260.300          50.100          47.450
 116715676.653 8  90947275.91147                  22210245.900
  22210239.900          49.850          42.750
 111651730.197 8  87001357.29647                  21246603.920
  21246596.640          50.550          47.050
 107738218.972 8  83951870.184 8  80453870.576 8  20501895.500    20501893.280
  20501892.620          50.650          50.200
 113749239.873 8  88635751.26347                  21645754.840
  21645748.140          50.050          46.350
 133855162.859 6 104302717.332 6  99956767.526 7  25471792.820    25471790.760
  25471789.840          39.200          36.400
 125344723.903 7  97490350.092 5                  23456558.700    23456562.580
  23456560.820          43.500          35.550
 129577323.639 7 100782385.068 6                  24240113.640    24240116.380
  24240115.740          43.700          37.800
 114546227.588 8  89091560.179 7                  21405681.600    21405683.000
  21405682.240          48.650          43.350
 130427801.556 7 101443856.617 6                  24356466.380    24356470.660
  24356469.620          42.000          38.050
 114236903.240 8  88850953.710 7                  21340407.240    21340409.220
  21340408.360          48.700          45.250
 106560764.437 8  82880626.232 7                  19962412.360    19962415.660
  19962414.560          48.400          47.350
 112097133.736 7  87186673.117 7                  20984817.980    20984822.240
  20984821.740          44.650          43.300
 112573185.937 8  87556912.609 7                  21096162.640    21096164.180
  21096164.060          49.500          43.200
 119000038.391 7  92555588.933 7                  22284882.160    22284886.200
  22284884.260          44.250          42.600
 122835188.408 7  95538499.708 6                  22962740.140    22962743.400
  22962743.080          47.150          41.550
 152188860.910 8                 113647559.427 7  28960575.200
                        49.400
 131328966.810 8                  98070440.399 8  24991018.280
                        50.900
 15  1 27  4  1  5.0000000  0 23G11G08G21G07G04G16G18G22G27G19G30R11
                                R05R21R08R07R22R12R06R13R23E18E11
 130012285.959 7 101308259.80845                  24740514.060
  24740509.820          43.350          31.500
 131579391.271 7 102529355.67445                  25038738.820
  25038738.240          42.550          34.100
 125505007.882 7  97796166.29146                  23882778.900
  23882774.080          45.450          38.150
 126536387.810 7  98599747.835 6                  24079074.660    24079071.120
  24079070.740          46.600          40.900
 121656921.778 8  94797610.65846                  23150534.440
  23150530.920          48.250          38.100
 109124606.345 8  85032161.38447                  20765720.180
  20765715.040          50.050          47.500
 116720856.481 8  90951312.14647                  22211231.520
  22211225.600          49.850          42.600
 111645464.960 8  86996475.29747                  21245411.680
  21245404.400          50.650          46.900
 107734654.287 8  83949092.511 8  80451208.642 8  20501217.160    20501214.940
  20501214.280          50.650          50.200
 113739511.886 8  88628171.01747                  21643903.680
  21643897.000          50.050          46.550
 133847788.418 6 104296970.990 6  99951260.622 7  25470389.500    25470387.480
  25470386.780          39.200          36.050
 125366382.066 7  97507195.310 5                  23460611.720    23460615.640
  23460613.900          43.400          35.350
 129594593.323 7 100795817.058 6                  24243344.280    24243347.020
  24243346.320          43.900          37.250
 114556364.734 8  89099444.632 7                  21407575.980    21407577.380
  21407576.640          48.550          43.150
 130405825.109 6 101426763.898 6                  24352362.400    24352366.700
  24352365.640          39.900          38.550
 114220806.156 8  88838433.766 7                  21337400.200    21337402.100
  21337401.260          48.750          45.200
 106558894.509 7  82879171.842 7                  19962062.040    19962065.400
  19962064.260          47.800          46.800
 112108157.004 7  87195246.770 7                  20986881.560    20986885.800
  20986885.320          44.300          43.200
 112574927.549 8  87558267.196 7                  21096489.020    21096490.560
  21096490.480          49.550          43.250
 118991875.971 7  92549240.397 7                  22283353.620    22283357.680
  22283355.720          45.000          42.400
 122822293.553 7  95528470.379 6                  22960329.600    22960332.880
  22960332.560          47.200          41.250
 152207571.524 8                 113661531.636 7  28964135.720
                        49.350
 131336467.356 8                  98076041.453 8  24992445.540
                        50.950
 15  1 27  4  1 10.0000000  0 23G11G08G21G07G04G16G18G22G27G19G30R11
                                R05R21R08R07R22R12R06R13R23E18E11
 129996060.096 7 101295616.25745                  24737426.380
  24737422.140          42.900          33.350
 131596720.673 6 102542858.88545                  25042036.620
  25042036.040          41.600          35.650
 125517811.492 7  97806143.12446                  23885215.320
  23885210.500          45.900          38.400
 126536131.995 7  98599548.487 6                  24079026.000    24079022.460
  24079022.100          46.700          40.850
 121641474.583 8  94785573.88346                  23147594.980
  23147591.400          48.250          38.600
 109132265.546 8  85038129.58447                  20767177.700
  20767172.500          49.950          47.650
 116726049.502 8  90955358.64847                  22212219.600
  22212213.780          49.600          42.850
 111639213.604 8  86991604.11147                  21244222.080
  21244214.800          50.650          47.000
 107731097.243 8  83946320.787 8  80448552.401 8  20500540.280    20500538.060
  20500537.400          50.650          50.250
 113729789.250 8  88620594.94047                  21642053.540
  21642046.840          50.050          46.550
 133840427.162 6 104291234.905 6  99945763.529 7  25468988.720    25468986.680
  25468985.980          38.950          36.300
 125388040.655 7  97524040.872 5                  23464664.860    23464668.700
  23464667.060          43.800          35.200
 129611874.443 7 100809257.957 6                  24246577.080    24246579.820
  24246579.020          43.400          37.400
 114566506.054 8  89107332.323 7                  21409471.120    21409472.520
  21409471.800          48.400          43.100
 130383845.385 6 101409668.671 6                  24348257.760    24348262.060
  24348261.060          39.000          38.050
 114204722.918 8  88825924.585 7                  21334395.700    21334397.620
  21334396.760          48.650          45.250
 106557030.829 8  82877722.319 7                  19961712.920    19961716.260
  19961715.140          48.200          47.350
 112119199.202 7  87203835.146 7                  20988948.700    20988952.920
  20988952.460          44.000          43.550
 112576691.489 8  87559639.137 7                  21096819.580    21096821.160
  21096821.040          49.350          43.300
 118983734.310 7  92542907.986 7                  22281829.040    22281833.000
  22281831.060          44.550          42.450
 122809400.659 7  95518442.568 6                  22957919.420    22957922.660
  22957922.380          46.950          41.350
 152226274.744 8                 113675498.317 7  28967694.840
                        49.600
 131343969.944 8                  98081644.019 8  24993873.200
                        50.950
 15  1 27  4  1 15.0000000  0 23G11G08G21G07G04G16G18G22G27G19G30R11
                                R05R21R08R07R22R12R06R13R23E18E11
 129979836.335 7 101282974.35546                  24734339.100
  24734334.820          42.800          37.900
 131614046.430 6 102556359.26645                  25045333.760
  25045333.160          40.550          33.600
 125530616.335 7  97816120.91746                  23887652.020
  23887647.180          46.150          38.200
 126535890.988 7  98599360.683 6                  24078980.160    24078976.580
  24078976.220          46.700          41.000
 121626033.294 8  94773541.71446                  23144656.660
  23144653.020          48.350          38.850
 109139938.927 8  85044108.84347                  20768637.920
  20768632.680          49.900          47.750
 116731255.492 8  90959415.26447                  22213210.140
  22213204.420          49.400          42.950
 111632975.900 8  86986743.56547                  21243035.060
  21243027.800          50.550          47.050
 107727547.569 8  83943554.811 8  80445901.675 8  20499864.820    20499862.600
  20499861.920          50.600          50.350
 113720071.707 8  88613022.83247                  21640204.380
  21640197.680          49.900          46.650
 133833078.783 6 104285508.867 5  99940276.137 7  25467590.300    25467588.340
  25467587.480          37.600          35.700
 125409699.510 7  97540886.661 5                  23468718.040    23468721.880
  23468720.260          43.100          35.750
 129629166.691 7 100822707.495 6                  24249811.860    24249814.700
  24249813.880          43.150          37.450
 114576651.259 8  89115223.027 7                  21411367.000    21411368.380
  21411367.640          48.200          43.150
 130361862.193 6 101392570.706 6                  24344152.480    24344156.780
  24344155.840          39.650          38.500
 114188652.634 8  88813425.480 7                  21331393.640    21331395.540
  21331394.660          48.550          45.600
 106555173.321 8  82876277.574 7                  19961364.920    19961368.280
  19961367.180          48.650          47.250
 112130260.037 7  87212438.009 7                  20991019.340    20991023.520
  20991023.100          44.700          43.850
 112578477.592 8  87561028.339 7                  21097154.320    21097155.840
  21097155.760          49.250          43.150
 118975613.072 7  92536591.477 7                  22280308.240    22280312.180
  22280310.240          45.000          42.850
 122796509.183 7  95508415.871 6                  22955509.520    22955512.820
  22955512.440          47.150          41.900
 152244970.308 8                 113689459.300 7  28971252.560
                        49.700
 131351474.318 8                  98087247.933 8  24995301.200
                        51.000
 15  1 27  4  1 20.0000000  0 23G11G08G21G07G04G16G18G22G27G19G30R11
                                R05R21R08R07R22R12R06R13R23E18E11
 129963615.405 7 101270334.67145                  24731252.340
  24731247.880          42.300          35.300
 131631369.247 6 102569857.39845                  25048630.280
  25048629.800          41.050          34.900
 125543422.780 7  97826099.96146                  23890089.040
  23890084.160          45.800          39.250
 126535665.413 7  98599184.906 6                  24078937.240    24078933.620
  24078933.260          46.750          40.450
 121610598.509 8  94761514.59846                  23141719.560
  23141715.900          48.000          38.800
 109147627.181 8  85050099.68647                  20770100.960
  20770095.680          49.900          47.700
 116736475.101 8  90963482.47747                  22214203.280
  22214197.680          49.450          43.050
 111626752.483 8  86981894.14647                  21241850.780
  21241843.520          50.400          47.050
 107724005.975 8  83940795.123 8  80443256.980 8  20499190.880    20499188.640
  20499187.980          50.450          50.350
 113710359.960 8  88605455.23547                  21638356.340
  21638349.600          49.650          47.200
 133825744.025 6 104279793.488 6  99934798.927 7  25466194.380    25466192.560
  25466191.600          36.850          36.100
 125431359.333 7  97557733.159 5                  23472771.420    23472775.320
  23472773.700          43.100          35.300
 129646470.714 7 100836166.164 6                  24253048.880    24253051.800
  24253050.920          42.200          37.100
 114586800.993 8  89123117.255 7                  21413263.740    21413265.140
  21413264.320          48.300          43.600
 130339876.177 6 101375470.542 6                  24340046.640    24340051.000
  24340050.080          39.150          38.150
 114172596.357 8  88800937.264 7                  21328394.160    21328396.160
  21328395.220          48.450          45.700
 106553322.463 8  82874838.026 7                  19961018.160    19961021.540
  19961020.460          48.600          47.150
 112141340.236 7  87221055.931 7                  20993093.620    20993097.760
  20993097.360          45.350          43.950
 112580286.516 8  87562435.279 7                  21097493.320    21097494.800
  21097494.740          49.600          43.150
 118967513.079 7  92530291.474 7                  22278791.460    22278795.340
  22278793.380          44.650          42.950
 122783619.830 7  95498390.812 6                  22953100.000    22953103.400
  22953102.880          47.150          41.850
 152263658.883 8                 113703415.064 7  28974808.940
                        49.450
 131358981.171 8                  98092853.691 8  24996729.680
                        51.050
 15  1 27  4  1 25.0000000  0 23G11G08G21G07G04G16G18G22G27G19G30R11
                                R05R21R08R07R22R12R06R13R23E18E11
 129947396.539 7 101257696.59445                  24728165.960
  24728161.520          42.000          33.650
 131648688.386 6 102583352.67545                  25051926.160
  25051925.520          41.150          34.300
 125556230.153 7  97836079.73246                  23892526.240
  23892521.340          45.800          38.350
 126535454.560 7  98599020.599 6                  24078897.120    24078893.460
  24078893.120          46.900          40.300
 121595169.525 7  94749492.03846                  23138783.520
  23138779.940          47.850          38.700
 109155329.568 8  85056101.55047                  20771566.680
  20771561.380          49.850          47.800
 116741707.655 8  90967559.79047                  22215198.900
  22215193.380          49.600          42.400
 111620542.720 8  86977055.37847                  21240669.100
  21240661.840          50.300          47.150
 107720471.751 8  83938041.190 8  80440617.790 8  20498518.340    20498516.120
  20498515.440          50.400          50.250
 113700653.339 8  88597891.64747                  21636509.280
  21636502.500          49.550          47.150
 133818422.439 6 104274088.370 6  99929331.429 7  25464800.920    25464799.300
  25464798.480          36.650          36.900
 125453019.391 7  97574579.876 5                  23476824.840    23476828.760
  23476827.100          42.800          35.600
 129663785.862 6 100849633.524 6                  24256288.080    24256290.920
  24256290.040          41.950          37.000
 114596954.618 8  89131014.519 7                  21415161.220    21415162.620
  21415161.760          48.150          43.400
 130317886.811 6 101358367.785 6                  24335940.320    24335944.500
  24335943.640          38.600          37.550
 114156553.674 8  88788459.634 7                  21325397.240    21325399.320
  21325398.340          48.450          45.450
 106551477.691 8  82873403.207 7                  19960672.580    19960675.940
  19960674.860          48.700          47.400
 112152439.011 7  87229688.318 7                  20995171.400    20995175.480
  20995175.100          45.450          43.900
 112582117.710 8  87563859.539 7                  21097836.480    21097837.960
  21097837.880          49.450          42.900
 118959433.669 7  92524007.495 7                  22277278.480    22277282.280
  22277280.400          44.800          42.950
 122770732.088 7  95488367.017 6                  22950690.800    22950694.180
  22950693.620          47.050          41.500
 152282339.809 8                 113717365.111 7  28978363.840
                        48.950
 131366489.796 8                  98098460.780 8  24998158.500
                        51.100
 15  1 27  4  1 30.0000000  0 23G11G08G21G07G04G16G18G22G27G19G30R11
                                R05R21R08R07R22R12R06R13R23E18E11
 129931180.330 7 101245060.57646                  24725080.100
  24725075.680          42.350          36.250
 131666004.363 6 102596845.42544                  25055221.460
  25055220.800          40.700          28.400
 125569038.923 7  97846060.58446                  23894963.700
  23894958.780          45.800          37.150
 126535259.007 7  98598868.210 6                  24078859.900    24078856.240
  24078855.880          46.600          40.050
 121579746.916 7  94737474.41446                  23135848.680
  23135845.140          47.600          39.100
 109163046.653 8  85062114.86747                  20773035.180
  20773029.860          49.750          47.600
 116746953.678 8  90971647.59647                  22216197.080
  22216191.640          49.650          42.800
 111614347.110 8  86972227.62647                  21239490.100
  21239482.840          50.400          46.950
 107716945.435 8  83935293.410 8  80437984.505 8  20497847.320    20497845.080
  20497844.420          50.450          50.100
 113690952.352 8  88590332.44247                  21634663.280
  21634656.460          49.600          47.250
 133811114.164 6 104268393.600 6  99923873.988 7  25463410.100    25463408.720
  25463407.920          36.950          36.950
 125474680.103 7  97591427.097 5                  23480878.300    23480882.300
  23480880.640          42.250          35.350
 129681112.476 7 100863109.775 6                  24259529.360    24259532.180
  24259531.360          42.350          36.900
 114607112.575 8  89138915.145 7                  21417059.540    21417060.900
  21417060.000          48.350          43.400
 130295894.572 6 101341262.814 6                  24331833.360    24331837.540
  24331836.700          40.300          37.000
 114140524.735 8  88775992.683 7                  21322402.880    21322405.000
  21322404.020          48.800          45.900
 106549639.431 8  82871973.441 7                  19960328.180    19960331.560
  19960330.480          48.550          46.700
 112163556.883 7  87238335.550 7                  20997252.780    20997256.720
  20997256.380          45.650          43.600
 112583971.482 8  87565301.364 7                  21098183.880    21098185.340
  21098185.260          49.500          43.050
 118951375.351 7  92517739.914 7                  22275769.440    22275773.200
  22275771.400          44.600          42.850
 122757846.327 7  95478344.761 6                  22948281.920    22948285.340
  22948284.780          47.150          41.950
 152301013.601 8                 113731309.817 7  28981917.300
                        48.700
 131374000.708 8                  98104069.586 8  24999587.780
                        51.100
 15  1 27  4  1 35.0000000  0 23G11G08G21G07G04G16G18G22G27G19G30R11
                                R05R21R08R07R22R12R06R13R23E18E11
 129914965.248 7 101232425.43745                  24721994.460
  24721990.100          42.600          35.600
 131683315.756 6 102610334.67145                  25058515.920
  25058515.200          41.550          32.000
 125581847.712 7  97856041.46146                  23897401.180
  23897396.220          46.150          36.750
 126535077.272 7  98598726.592 6                  24078825.340    24078821.620
  24078821.200          46.350          39.850
 121564329.230 7  94725460.64146                  23132914.780
  23132911.280          47.450          39.650
 109170776.981 8  85068138.50147                  20774506.200
  20774500.900          49.600          47.400
 116752211.725 8  90975744.76546                  22217197.600
  22217192.180          49.750          41.950
 111608164.229 8  86967409.79547                  21238313.520
  21238306.280          50.400          46.900
 107713425.592 8  83932550.670 8  80435356.050 8  20497177.520    20497175.280
  20497174.600          50.550          50.050
 113681255.577 8  88582776.51747                  21632818.100
  21632811.220          49.750          46.750
 133803818.018 6 104262708.277 6  99918425.540 7  25462021.720    25462020.280
  25462019.320          38.300          36.550
 125496340.091 7  97608273.722 5                  23484931.700    23484935.640
  23484934.080          42.700          35.100
 129698449.335 7 100876593.988 6                  24262772.540    24262775.260
  24262774.580          42.900          36.100
 114617273.501 8  89146818.080 7                  21418958.420    21418959.740
  21418958.780          48.900          43.200
 130273897.987 6 101324154.399 6                  24327725.640    24327729.600
  24327728.820          40.350          36.350
 114124508.233 8  88763535.409 7                  21319410.860    21319413.020
  21319412.020          48.950          45.900
 106547806.314 8  82870547.709 7                  19959984.800    19959988.140
  19959987.040          48.350          47.150
 112174692.514 7  87246996.597 7                  20999337.440    20999341.360
  20999340.980          45.450          43.350
 112585846.422 8  87566759.657 7                  21098535.280    21098536.680
  21098536.620          49.600          42.900
 118943336.588 7  92511487.550 7                  22274264.040    22274267.880
  22274266.100          44.800          43.050
 122744961.181 7  95468322.975 6                  22945873.180    22945876.560
  22945876.020          47.050          41.800
 152319678.809 8                 113745248.123 7  28985469.080
                        48.450
 131381512.503 8                  98109679.037 8  25001017.260
                        51.150
 15  1 27  4  1 40.0000000  0 23G11G08G21G07G04G16G18G22G27G19G30R11
                                R05R21R08R07R22R12R06R13R23E18E11
 129898753.763 7 101219793.09545                  24718909.500
  24718905.200          42.750          34.050
 131700624.918 7 102623822.18245                  25061809.900
  25061809.160          42.450          33.400
 125594658.908 7  97866024.21946                  23899839.100
  23899834.100          46.250          37.850
 126534911.720 7  98598597.589 6                  24078793.840    24078790.060
  24078789.560          46.950          39.550
 121548918.831 7  94713452.54646                  23129982.280
  23129978.800          47.750          39.050
 109178522.901 8  85074174.28347                  20775980.200
  20775974.880          49.550          47.750
 116757484.094 8  90979853.11147                  22218200.860
  22218195.440          49.850          42.250
 111601996.452 8  86962603.74147                  21237139.820
  21237132.600          50.250          47.000
 107709914.600 8  83929814.837 8  80432734.200 8  20496509.400    20496507.160
  20496506.480          50.550          50.150
 113671565.394 8  88575225.73147                  21630974.140
  21630967.240          49.850          46.600
 133796536.312 6 104257034.184 6  99912987.879 7  25460636.000    25460634.560
  25460633.920          38.850          37.200
 125518001.726 6  97625121.668 5                  23488985.380    23488989.340
  23488987.740          41.700          34.800
 129715798.561 7 100890087.885 6                  24266018.060    24266020.720
  24266020.120          42.400          37.600
 114627439.771 8  89154725.191 7                  21420858.300    21420859.560
  21420858.560          49.050          43.250
 130251899.521 6 101307044.527 6                  24323617.580    24323621.380
  24323620.600          38.500          36.750
 114108506.584 8  88751089.690 7                  21316421.620    21316423.800
  21316422.800          49.200          45.900
 106545980.743 8  82869127.808 7                  19959642.860    19959646.120
  19959645.040          48.650          47.100
 112185848.116 7  87255673.169 7                  21001425.880    21001429.680
  21001429.300          45.300          43.250
 112587744.948 8  87568236.291 7                  21098891.100    21098892.520
  21098892.460          49.450          43.450
 118935319.768 7  92505252.253 7                  22272762.720    22272766.580
  22272764.920          44.400          43.400
 122732078.935 7  95458303.458 7                  22943465.000    22943468.400
  22943467.800          47.100          42.000
 152338337.811 8                 113759181.786 7  28989019.640
                        48.400
 131389027.522 8                  98115290.896 8  25002447.360
                        51.250
 15  1 27  4  1 45.0000000  0 23G11G08G21G07G04G16G18G22G27G19G30R11
                                R05R21R08R07R22R12R06R13R23E18E11
 129882543.757 7 101207161.92045                  24715824.840
  24715820.480          43.950          33.000
 131717929.726 7 102637306.31345                  25065103.040
  25065102.400          42.050          32.300
 125607470.469 7  97876007.25346                  23902277.080
  23902272.020          46.050          37.200
 126534760.331 7  98598479.629 6                  24078765.060    24078761.180
  24078760.660          46.700          39.700
 121533513.613 7  94701448.48646                  23127050.780
  23127047.260          47.900          39.050
 109186282.305 8  85080220.56347                  20777456.740
  20777451.440          49.600          47.650
 116762768.750 8  90983971.02447                  22219206.500
  22219201.040          49.850          42.550
 111595841.773 8  86957807.89147                  21235968.600
  21235961.400          50.200          47.150
 107706410.387 8  83927084.286 8  80430117.423 8  20495842.560    20495840.320
  20495839.660          50.600          50.200
 113661879.717 8  88567678.45747                  21629131.060
  21629124.100          50.000          46.750
 133789267.016 6 104251369.793 6  99907559.444 7  25459252.720    25459251.280
  25459250.680          39.750          37.000
 125539662.809 6  97641969.171 5                  23493038.960    23493043.140
  23493041.300          41.900          35.000
 129733158.251 7 100903589.864 6                  24269265.540    24269268.240
  24269267.720          42.750          38.150
 114637609.308 8  89162634.837 7                  21422758.760    21422760.000
  21422758.940          49.000          43.350
 130229896.925 6 101289931.499 6                  24319508.660    24319512.420
  24319511.680          39.000          37.850
 114092517.742 8  88738653.926 7                  21313434.800    21313436.940
  21313435.960          49.300          45.900
 106544160.590 8  82867712.135 7                  19959301.940    19959305.160
  19959304.040          49.100          47.100
 112197021.669 7  87264363.710 7                  21003517.620    21003521.360
  21003520.960          45.150          43.350
 112589665.070 8  87569729.714 7                  21099250.980    21099252.400
  21099252.360          49.600          43.650
 118927322.945 7  92499032.508 7                  22271265.140    22271269.100
  22271267.440          44.250          43.100
 122719197.596 7  95448284.647 7                  22941056.980    22941060.340
  22941059.760          47.150          42.200
 152356988.528 8                 113773109.271 7  28992568.600
                        48.150
 131396543.704 8                  98120903.631 8  25003877.680
                        51.250
 15  1 27  4  1 50.0000000  0 23G11G08G21G07G04G16G18G22G27G19G30R11
                                R05R21R08R07R22R12R06R13R23E18E11
 129866336.584 7 101194532.94545                  24712740.760
  24712736.360          44.650          33.050
 131735231.528 7 102650788.06345                  25068395.620
  25068395.120          42.850          32.650
 125620283.623 7  97885991.51845                  23904715.360
  23904710.300          46.050          35.850
 126534624.357 7  98598373.677 6                  24078739.220    24078735.220
  24078734.680          46.800          39.200
 121518114.932 7  94689449.51546                  23124120.540
  23124116.920          47.950          39.000
 109194056.549 8  85086278.41247                  20778936.120
  20778930.840          49.700          47.850
 116768067.000 8  90988099.52547                  22220214.720
  22220209.240          49.800          42.400
 111589701.453 8  86953023.22847                  21234800.120
  21234792.940          50.200          47.050
 107702914.278 8  83924360.043 8  80427506.696 8  20495177.280    20495175.020
  20495174.360          50.600          50.200
 113652199.863 8  88560135.70947                  21627289.040
  21627282.080          50.200          46.250
 133782011.341 6 104245716.004 5  99902141.243 7  25457872.140    25457870.720
  25457869.820          39.900          35.800
 125561324.617 6  97658817.229 5                  23497092.620    23497096.960
  23497095.000          41.550          34.300
 129750529.584 7 100917100.900 6                  24272515.200    24272517.960
  24272517.460          42.450          37.400
 114647783.393 8  89170548.006 7                  21424660.120    21424661.300
  21424660.220          48.750          43.600
 130207891.773 6 101272816.472 6                  24315399.320    24315402.980
  24315402.260          39.950          38.600
 114076543.185 8  88726229.266 7                  21310450.660    21310452.780
  21310451.780          49.450          45.800
 106542347.155 8  82866301.684 7                  19958962.260    19958965.420
  19958964.320          49.050          47.400
 112208214.407 7  87273069.161 7                  21005613.000    21005616.700
  21005616.200          45.600          43.350
 112591607.839 8  87571240.763 7                  21099615.080    21099616.520
  21099616.500          49.700          43.800
 118919347.290 7  92492829.231 7                  22269771.560    22269775.560
  22269773.860          44.600          42.900
 122706318.458 7  95438267.546 7                  22938649.360    22938652.740
  22938652.100          47.150          42.050
 152375632.296 8                 113787031.557 7  28996116.260
                        48.600
 131404062.365 8                  98126518.219 8  25005308.460
                        51.200
 15  1 27  4  1 55.0000000  0 23G11G08G21G07G04G16G18G22G27G19G30R11
                                R05R21R08R07R22R12R06R13R23E18E11
 129850131.813 7 101181905.85745                  24709657.120
  24709652.760          44.600          32.450
 131752529.836 7 102664267.08745                  25071687.580
  25071687.120          42.600          32.800
 125633098.021 7  97895976.76846                  23907153.860
  23907148.780          46.000          37.050
 126534503.444 7  98598279.457 6                  24078716.220    24078712.160
  24078711.600          46.600          39.650
 121502722.445 7  94677455.37046                  23121191.440
  23121187.820          47.700          38.200
 109201845.250 8  85092347.53647                  20780418.220
  20780412.960          49.550          47.650
 116773378.490 8  90992238.35847                  22221225.460
  22221219.960          49.850          42.350
 111583575.093 8  86948249.44447                  21233634.280
  21233627.140          50.200          47.250
 107699425.877 8  83921641.809 8  80424901.722 8  20494513.460    20494511.200
  20494510.540          50.450          50.150
 113642525.458 8  88552597.21247                  21625448.080
  21625441.100          50.150          46.250
 133774769.025 6 104240072.596 6  99896732.965 7  25456494.040    25456492.600
  25456491.720          39.000          36.750
 125582986.919 6  97675665.666 5                  23501146.320    23501150.800
  23501148.840          41.950          34.550
 129767912.275 7 100930620.771 5                  24275767.020    24275769.640
  24275769.200          42.850          35.550
 114657961.652 8  89178464.430 7                  21426562.180    21426563.340
  21426562.280          48.650          43.850
 130185883.525 6 101255699.034 6                  24311289.420    24311292.960
  24311292.340          39.700          38.900
 114060582.316 8  88713815.259 7                  21307469.080    21307471.140
  21307470.160          49.200          45.800
 106540540.091 8  82864896.183 7                  19958623.780    19958626.880
  19958625.780          49.200          47.100
 112219426.052 7  87281789.321 7                  21007711.900    21007715.500
  21007715.020          45.450          43.850
 112593573.033 8  87572769.253 7                  21099983.380    21099984.860
  21099984.840          49.750          43.550
 118911392.559 7  92486642.212 7                  22268281.880    22268285.900
  22268284.180          44.750          42.850
 122693441.176 7  95428251.886 7                  22936242.100    22936245.460
  22936244.780          47.000          42.350
 152394268.688 8                 113800948.346 7  28999662.600
                        48.700
 131411583.122 8                  98132134.377 8  25006739.660
                        51.050
 15  1 27  4  2  0.0000000  0 23G11G08G21G07G04G16G18G22G27G19G30R11
                                R05R21R08R07R22R12R06R13R23E18E11
 129833928.421 7 101169279.84545                  24706573.720
  24706569.260          44.100          34.000
 131769823.640 7 102677742.66045                  25074978.640
  25074978.220          43.300          32.150
 125645912.586 7  97905962.15546                  23909592.400
  23909587.320          45.800          36.400
 126534396.509 7  98598196.129 6                  24078695.860    24078691.780
  24078691.220          46.750          39.550
 121487335.057 7  94665465.21346                  23118263.340
  23118259.700          47.800          39.850
 109209647.380 8  85098427.11847                  20781902.900
  20781897.660          49.400          47.800
 116778702.209 8  90996386.71347                  22222238.520
  22222232.980          50.000          42.300
 111577461.698 8  86943485.76147                  21232470.900
  21232463.820          50.200          47.400
 107695944.172 8  83918928.795 8  80422301.749 8  20493850.900    20493848.660
  20493848.000          50.500          50.250
 113632855.510 8  88545062.19447                  21623607.960
  21623600.960          50.350          45.850
 133767538.934 6 104234438.765 6  99891333.871 7  25455118.280    25455116.860
  25455115.840          39.150          36.100
 125604648.514 6  97692513.566 5                  23505200.020    23505204.580
  23505202.480          41.200          33.950
 129785305.193 7 100944148.648 6                  24279020.700    24279023.300
  24279022.900          42.700          37.000
 114668143.004 8  89186383.263 7                  21428464.840    21428465.940
  21428464.940          48.650          44.050
 130163871.253 6 101238578.494 6                  24307178.760    24307182.280
  24307181.660          40.600          37.800
 114044634.165 8  88701411.150 7                  21304489.880    21304491.880
  21304490.920          49.050          45.750
 106538738.346 8  82863494.826 7                  19958286.280    19958289.320
  19958288.240          49.100          47.250
 112230655.435 7  87290523.294 7                  21009814.080    21009817.660
  21009817.140          45.350          43.750
 112595559.782 8  87574314.501 7                  21100355.720    21100357.240
  21100357.220          49.150          43.750
 118903457.800 7  92480470.743 7                  22266795.960    22266800.000
  22266798.200          44.950          42.800
 122680564.624 7  95418236.790 6                  22933834.940    22933838.320
  22933837.580          46.900          41.900
 152412896.685 8                 113814858.871 7  29003207.380
                        49.200
 131419104.922 8                  98137751.298 8  25008171.080
                        51.150
 15  1 27  4  2  5.0000000  0 23G11G08G21G07G04G16G18G22G27G19G30R11
                                R05R21R08R07R22R12R06R13R23E18E11
 129817728.662 7 101156656.64545                  24703491.040
  24703486.600          44.000          33.350
 131787115.269 7 102691216.54844                  25078269.280
  25078268.840          43.150          29.150
 125658729.612 7  97915949.43246                  23912031.400
  23912026.340          46.150          37.250
 126534305.831 7  98598125.461 6                  24078678.600    24078674.500
  24078673.960          46.400          39.800
 121471955.082 7  94653480.81646                  23115336.620
  23115332.920          47.650          38.550
 109217465.157 8  85104518.88448                  20783390.560
  20783385.340          49.450          48.000
 116784040.353 8  91000546.30146                  22223254.340
  22223248.780          50.050          41.950
 111571363.497 8  86938733.91647                  21231310.440
  21231303.360          50.250          47.150
 107692471.406 8  83916222.740 8  80419708.446 8  20493190.060    20493187.820
  20493187.160          50.400          50.200
 113623192.251 8  88537532.37547                  21621769.100
  21621762.060          50.450          45.800
 133760323.500 6 104228816.324 6  99885945.650 7  25453745.300    25453743.820
  25453742.960          39.050          36.300
 125626311.705 6  97709362.711 5                  23509253.980    23509258.540
  23509256.420          40.850          33.550
 129802710.633 7 100957686.192 6                  24282276.760    24282279.440
  24282278.880          42.900          36.600
 114678329.812 8  89194306.311 7                  21430368.480    21430369.600
  21430368.620          48.150          43.800
 130141857.244 6 101221456.529 6                  24303067.780    24303071.240
  24303070.640          41.400          37.750
 114028701.076 8  88689018.739 7                  21301513.480    21301515.420
  21301514.460          49.250          45.750
 106536944.174 8  82862099.348 7                  19957950.220    19957953.200
  19957952.100          48.900          47.300
 112241904.862 7  87299272.845 7                  21011920.060    21011923.540
  21011923.000          45.100          43.800
 112597570.136 8  87575878.101 7                  21100732.480    21100734.020
  21100733.980          49.300          43.700
 118895545.126 7  92474316.433 7                  22265314.180    22265318.140
  22265316.360          44.950          42.850
 122667691.076 7  95408224.033 7                  22931428.360    22931431.720
  22931430.980          46.650          42.300
 152431518.552 8                 113828764.797 7  29006751.060
                        49.350
 131426630.036 8                  98143370.697 8  25009603.100
                        51.100
 15  1 27  4  2 10.0000000  0 23G11G08G21G07G04G16G18G22G27G19G30R11
                                R05R21R08R07R22R12R06R13R23E18E11
 129801530.478 7 101144034.69145                  24700408.600
  24700404.280          44.500          32.000
 131804402.570 6 102704687.00845                  25081559.040
  25081558.800          41.000          31.750
 125671546.995 7  97925937.00646                  23914470.500
  23914465.420          45.900          36.950
 126534229.304 7  98598065.828 6                  24078664.040    24078659.940
  24078659.380          46.050          39.750
 121456580.456 7  94641500.58846                  23112410.900
  23112407.200          47.800          39.400
 109225296.519 8  85110621.24147                  20784880.800
  20784875.600          49.600          47.700
 116789390.817 8  91004715.49647                  22224272.520
  22224266.880          50.000          42.000
 111565278.445 8  86933992.32147                  21230152.500
  21230145.420          50.350          47.150
 107689005.502 8  83913522.031 8  80417120.275 8  20492530.500    20492528.280
  20492527.620          50.400          50.250
 113613533.567 8  88530006.12847                  21619931.120
  21619924.040          50.450          45.850
 133753120.462 6 104223203.522 6  99880566.742 7  25452374.700    25452372.980
  25452372.300          38.250          36.650
 125647974.414 6  97726211.463 5                  23513307.840    23513312.400
  23513310.180          41.700          32.800
 129820126.283 7 100971231.729 6                  24285534.760    24285537.280
  24285536.720          43.300          36.200
 114688519.881 8  89202231.918 7                  21432272.720    21432273.900
  21432272.880          48.600          43.550
 130119839.400 6 101204331.591 6                  24298956.100    24298959.460
  24298958.900          40.500          36.650
 114012780.946 8  88676636.412 7                  21298539.520    21298541.400
  21298540.400          49.150          45.850
 106535155.510 8  82860708.169 7                  19957615.200    19957618.100
  19957617.000          49.050          47.150
 112253172.212 7  87308036.333 7                  21014029.340    21014032.800
  21014032.220          45.300          43.400
 112599602.212 8  87577458.594 7                  21101113.280    21101114.780
  21101114.840          49.350          43.900
 118887652.446 7  92468177.678 7                  22263836.140    22263840.060
  22263838.240          44.600          42.700
 122654818.528 7  95398212.074 7                  22929021.940    22929025.280
  22929024.580          46.650          42.350
 152450132.203 8                 113842664.609 7  29010293.200
                        49.450
 131434156.384 8                  98148991.024 8  25011035.360
                        51.050
 15  1 27  4  2 15.0000000  0 23G11G08G21G07G04G16G18G22G27G19G30R11
                                R05R21R08R07R22R12R06R13R23E18E11
 129785335.633 7 101131415.35045                  24697326.840
  24697322.680          44.700          35.650
 131821687.167 6 102718155.36845                  25084848.180
  25084848.100          40.950          32.800
 125684366.468 7  97935926.20946                  23916909.980
  23916904.860          45.850          37.200
 126534168.669 7  98598018.598 6                  24078652.480    24078648.440
  24078647.880          46.250          40.200
 121441212.809 7  94629525.80946                  23109486.540
  23109482.800          47.650          38.550
 109233143.043 8  85116735.41247                  20786373.940
  20786368.760          49.800          47.650
 116794755.289 8  91008895.61046                  22225293.340
  22225287.660          50.050          41.850
 111559208.256 8  86929262.30647                  21228997.400
  21228990.280          50.450          47.100
 107685548.188 8  83910828.022 8  80414538.516 8  20491872.600    20491870.400
  20491869.720          50.450          50.250
 113603881.202 8  88522484.80347                  21618094.340
  21618087.240          50.300          45.800
 133745931.587 6 104217601.810 6  99875198.434 7  25451006.820    25451005.060
  25451004.480          39.400          36.900
 125669638.145 6  97743061.053 5                  23517361.880    23517366.260
  23517364.220          41.500          33.650
 129837554.086 7 100984786.708 6                  24288795.020    24288797.400
  24288796.880          43.100          37.450
 114698714.999 8  89210161.459 7                  21434177.880    21434179.060
  21434178.100          48.650          43.550
 130097819.479 6 101187205.040 6                  24294843.940    24294847.240
  24294846.720          40.000          37.600
 113996875.476 8  88664265.499 7                  21295568.240    21295570.100
  21295569.100          48.950          45.900
 106533374.199 8  82859322.714 7                  19957281.520    19957284.420
  19957283.280          48.700          47.450
 112264459.233 7  87316815.118 7                  21016142.300    21016145.760
  21016145.100          44.900          43.400
 112601657.390 8  87579057.076 7                  21101498.400    21101499.920
  21101499.980          49.200          43.650
 118879781.515 7  92462055.855 7                  22262362.200    22262366.140
  22262364.260          45.300          43.100
 122641948.604 7  95388202.139 7                  22926616.040    22926619.400
  22926618.700          46.350          42.550
 152468739.343 8                 113856559.549 7  29013834.080
                        49.300
 131441685.670 8                  98154613.549 8  25012468.160
                        51.050
 15  1 27  4  2 20.0000000  0 23G11G08G21G07G04G16G18G22G27G19G30R11
                                R05R21R08R07R22R12R06R13R23E18E11
 129769142.302 7 101118797.15945                  24694245.380
  24694241.240          44.900          32.650
 131838967.311 6 102731620.28444                  25088136.540
  25088136.460          41.750          26.800
 125697186.203 7  97945915.60546                  23919349.520
  23919344.380          45.900          37.050
 126534122.172 7  98597982.369 6                  24078643.620    24078639.600
  24078639.020          46.350          39.900
 121425850.441 7  94617555.13846                  23106563.160
  23106559.420          47.700          38.600
 109241003.092 8  85122860.12547                  20787869.640
  20787864.480          49.950          47.500
 116800132.026 8  91013085.28146                  22226316.520
  22226310.800          50.100          41.750
 111553151.158 8  86924542.48947                  21227844.780
  21227837.640          50.600          47.000
 107682097.666 8  83908139.304 8  80411961.832 8  20491216.000    20491213.780
  20491213.120          50.450          50.300
 113594233.380 8  88514967.02347                  21616258.420
  21616251.300          50.250          46.100
 133738755.171 6 104212009.793 5  99869839.420 7  25449641.220    25449639.440
  25449638.980          38.850          35.650
 125691301.348 6  97759910.182 5                  23521415.840    23521420.160
  23521418.160          41.750          33.750
 129854992.126 7 100998349.621 6                  24292057.120    24292059.460
  24292059.020          43.150          36.550
 114708913.403 7  89218093.544 7                  21436083.680    21436084.920
  21436083.920          47.650          43.600
 130075795.555 6 101170075.433 6                  24290731.080    24290734.300
  24290733.820          39.750          37.950
 113980983.021 8  88651904.705 7                  21292599.400    21292601.240
  21292600.240          48.850          46.000
 106531598.227 8  82857941.392 7                  19956948.860    19956951.720
  19956950.560          48.650          47.050
 112275763.946 7  87325607.667 7                  21018258.560    21018262.020
  21018261.320          44.650          43.550
 112603733.929 8  87580672.162 7                  21101887.500    21101889.100
  21101889.120          48.600          43.550
 118871930.684 7  92455949.659 7                  22260892.020    22260895.900
  22260894.040          44.550          43.100
 122629079.571 7  95378192.891 7                  22924210.280    22924213.660
  22924213.000          46.400          42.900
 152487338.201 8                 113870448.319 7  29017373.360
                        49.250
 131449216.139 8                  98160236.945 8  25013901.140
                        51.100
 15  1 27  4  2 25.0000000  0 23G11G08G21G07G04G16G18G22G27G19G30R11
                                R05R21R08R07R22R12R06R13R23E18E11
 129752951.406 7 101106180.87345                  24691164.380
  24691160.300          44.550          33.800
 131856243.915 7 102745082.45444                  25091424.260
  25091424.260          44.600          27.750
 125710007.150 7  97955905.94146                  23921789.320
  23921784.140          46.000          37.500
 126534090.676 7  98597957.830 6                  24078637.640    24078633.640
  24078633.080          46.400          40.600
 121410494.239 7  94605589.26346                  23103640.940
  23103637.200          47.600          38.550
 109248877.550 8  85128996.07147                  20789368.100
  20789362.940          49.800          47.550
 116805521.916 8  91017285.19647                  22227342.200
  22227336.440          49.950          42.250
 111547108.040 8  86919833.56847                  21226694.840
  21226687.660          50.600          47.150
 107678654.869 8  83905456.607 8  80409390.914 8  20490560.860    20490558.660
  20490557.980          50.400          50.400
 113584591.002 8  88507453.48047                  21614423.520
  21614416.380          50.100          46.250
 133731592.045 6 104206428.131 5  99864490.288 7  25448278.180    25448276.340
  25448275.940          38.550          35.350
 125712964.802 6  97776759.553 5                  23525469.800    23525474.180
  23525472.160          41.550          33.850
 129872441.365 7 101011921.277 6                  24295321.340    24295323.620
  24295323.200          43.650          36.450
 114719115.895 7  89226028.807 7                  21437990.240    21437991.500
  21437990.520          47.800          44.000
 130053768.790 6 101152943.607 6                  24286617.680    24286620.900
  24286620.420          41.550          37.750
 113965104.431 8  88639554.699 7                  21289633.120    21289635.000
  21289633.980          48.900          45.850
 106529828.601 8  82856565.029 7                  19956617.400    19956620.180
  19956619.040          48.800          47.400
 112287087.439 7  87334414.817 7                  21020378.340    21020381.760
  21020381.060          44.850          43.500
 112605832.973 8  87582304.746 7                  21102280.780    21102282.500
  21102282.480          48.600          43.250
 118864100.777 7  92449859.740 7                  22259425.740    22259429.620
  22259427.740          45.650          42.900
 122616212.345 7  95368185.056 7                  22921804.880    22921808.300
  22921807.600          46.000          42.450
 152505929.686 8                 113884331.563 7  29020911.180
                        49.050
 131456748.659 8                  98165861.873 8  25015334.500
                        50.950
 15  1 27  4  2 30.0000000  0 23G11G08G21G07G04G16G18G22G27G19G30R11
                                R05R21R08R07R22R12R06R13R23E18E11
 129736762.912 7 101093566.46445                  24688083.860
  24688079.800          44.750          33.750
 131873516.920 7 102758541.77744                  25094711.300
  25094711.320          43.850          29.100
 125722829.315 7  97965897.23946                  23924229.340
  23924224.180          46.050          38.050
 126534074.191 7  98597944.969 6                  24078634.480    24078630.480
  24078629.980          46.600          39.800
 121395144.133 7  94593628.14346                  23100719.880
  23100716.140          47.800          38.550
 109256766.414 8  85135143.24047                  20790869.300
  20790864.140          49.700          47.750
 116810924.967 8  91021495.37246                  22228370.380
  22228364.580          49.950          41.800
 111541078.914 8  86915135.55047                  21225547.560
  21225540.360          50.650          47.050
 107675219.768 8  83902779.913 8  80406825.741 8  20489907.180    20489904.980
  20489904.320          50.550          50.400
 113574954.078 8  88499944.19147                  21612589.660
  21612582.520          50.000          46.400
 133724442.204 6 104200856.812 5  99859151.150 7  25446917.620    25446915.680
  25446915.300          37.850          34.850
 125734628.472 6  97793609.074 5                  23529523.760    23529528.360
  23529526.200          40.900          34.300
 129889901.656 7 101025501.532 6                  24298587.740    24298589.940
  24298589.540          42.050          36.750
 114729322.542 7  89233967.296 7                  21439897.560    21439898.880
  21439897.880          47.400          43.600
 130031739.074 7 101135809.434 6                  24282503.740    24282506.900
  24282506.400          42.150          37.500
 113949239.660 8  88627215.437 7                  21286669.440    21286671.300
  21286670.280          48.800          45.750
 106528065.309 8  82855193.561 7                  19956287.100    19956289.860
  19956288.720          49.100          47.000
 112298429.566 7  87343236.463 7                  21022501.600    21022505.000
  21022504.340          45.100          43.850
 112607954.371 8  87583954.730 7                  21102678.260    21102680.060
  21102680.020          48.550          43.200
 118856291.640 7  92443785.948 7                  22257963.380    22257967.240
  22257965.300          44.850          42.750
 122603346.926 7  95358178.628 7                  22919399.800    22919403.260
  22919402.500          46.050          42.250
 152524513.762 8                 113898209.287 7  29024447.600
                        49.150
 131464283.229 8                  98171488.334 8  25016768.240
                        50.900
 15  1 27  4  2 35.0000000  0 23G11G08G21G07G04G16G18G22G27G19G30R11
                                R05R21R08R07R22R12R06R13R23E18E11
 129720576.693 7 101080953.83445                  24685003.720
  24684999.700          45.000          33.550
 131890786.172 7 102771998.16545                  25097997.660
  25097997.740          44.250          33.400
 125735652.498 7  97975889.33946                  23926669.560
  23926664.400          46.200          36.950
 126534072.560 7  98597943.705 6                  24078634.160    24078630.200
  24078629.680          46.650          40.150
 121379800.084 7  94581671.75446                  23097799.980
  23097796.260          47.600          38.900
 109264669.493 8  85141301.47947                  20792373.200
  20792368.040          49.800          47.600
 116816341.022 8  91025715.67747                  22229401.000
  22229395.200          50.050          42.350
 111535063.649 8  86910448.34047                  21224402.920
  21224395.700          50.750          47.050
 107671792.245 8  83900109.124 8  80404266.242 8  20489254.940    20489252.740
  20489252.100          50.550          50.500
 113565322.429 8  88492439.01247                  21610756.800
  21610749.640          49.950          46.550
 133717305.580 6 104195295.783 5  99853821.845 7  25445559.520    25445557.560
  25445557.160          37.400          34.100
 125756292.171 6  97810458.589 5                  23533577.840    23533582.480
  23533580.280          41.550          34.250
 129907372.999 7 101039090.344 6                  24301856.100    24301858.240
  24301857.880          42.950          36.350
 114739533.195 7  89241908.911 7                  21441805.680    21441807.000
  21441805.960          47.750          43.400
 130009706.261 7 101118672.839 6                  24278389.260    24278392.280
  24278391.820          42.350          37.600
 113933388.663 8  88614886.885 7                  21283708.320    21283710.200
  21283709.180          48.350          45.650
 106526308.249 8  82853826.969 7                  19955957.980    19955960.700
  19955959.580          49.050          47.250
 112309790.237 7  87352072.545 7                  21024628.380    21024631.720
  21024631.100          45.350          43.650
 112610098.015 8  87585622.009 7                  21103079.900    21103081.740
  21103081.700          48.600          43.000
 118848503.400 7  92437728.449 7                  22256504.920    22256508.780
  22256506.800          45.450          42.900
 122590483.129 7  95348173.460 7                  22916995.020    22916998.520
  22916997.720          45.950          42.400
 152543090.304 8                 113912081.373 7  29027982.600
                        49.250
 131471819.704 8                  98177116.231 8  25018202.280
                        50.900
 15  1 27  4  2 40.0000000  0 23G11G08G21G07G04G16G18G22G27G19G30R11
                                R05R21R08R07R22R12R06R13R23E18E11
 129704392.776 7 101068343.00845                  24681924.020
  24681920.040          45.000          35.650
 131908051.718 7 102785451.75145                  25101283.340
  25101283.340          45.500          32.250
 125748476.744 7  97985882.25746                  23929109.980
  23929104.820          46.100          38.300
 126534085.768 7  98597954.000 6                  24078636.700    24078632.700
  24078632.180          46.800          39.800
 121364462.052 7  94569720.05246                  23094881.260
  23094877.520          47.700          38.850
 109272586.803 8  85147470.81447                  20793879.820
  20793874.660          49.850          47.750
 116821770.034 8  91029946.08347                  22230434.080
  22230428.300          49.900          42.050
 111529062.240 8  86905771.92447                  21223260.900
  21223253.660          50.700          47.250
 107668372.288 8  83897444.229 8  80401712.373 8  20488604.120    20488601.960
  20488601.320          50.550          50.550
 113555696.060 8  88484937.95847                  21608924.940
  21608917.800          49.850          46.900
 133710182.119 6 104189745.022 5  99848502.387 7  25444203.880    25444201.880
  25444201.360          37.700          32.200
 125777956.010 6  97827308.250 5                  23537631.880    23537636.600
  23537634.340          41.150          34.550
 129924855.244 7 101052687.654 6                  24305126.580    24305128.600
  24305128.200          43.200          36.800
 114749747.821 8  89249853.611 7                  21443714.460    21443715.820
  21443714.800          48.250          43.050
 129987670.398 6 101101533.903 6                  24274274.160    24274277.080
  24274276.680          41.650          37.650
 113917551.337 8  88602568.978 7                  21280749.740    21280751.640
  21280750.640          48.500          45.700
 106524557.235 8  82852465.073 7                  19955629.960    19955632.680
  19955631.540          49.100          47.400
 112321169.397 7  87360923.005 7                  21026758.600    21026761.920
  21026761.320          45.100          43.800
 112612263.980 8  87587306.647 7                  21103485.720    21103487.600
  21103487.560          48.650          43.150
 118840735.955 7  92431687.105 7                  22255050.360    22255054.220
  22255052.220          45.100          42.750
 122577620.914 7  95338169.527 7                  22914590.580    22914594.060
  22914593.260          46.050          42.800
 152561659.316 8                 113925947.847 7  29031516.180
                        49.250
 131479358.108 8                  98182745.552 8  25019636.680
                        50.700
 15  1 27  4  2 45.0000000  0 23G11G08G21G07G04G16G18G22G27G19G30R11
                                R05R21R08R07R22R12R06R13R23E18E11
 129688211.716 7 101055734.38345                  24678844.900
  24678840.920          44.750          33.300
 131925314.107 7 102798902.78944                  25104568.360
  25104568.460          43.250          27.750
 125761302.644 7  97995876.46846                  23931550.720
  23931545.560          46.100          37.900
 126534114.445 7  98597976.351 6                  24078642.220    24078638.160
  24078637.580          47.150          39.700
 121349130.617 7  94557773.47246                  23091963.780
  23091960.040          47.700          39.850
 109280518.941 8  85153651.69847                  20795389.260
  20795384.100          50.000          47.550
 116827212.692 8  91034187.11046                  22231469.740
  22231464.020          49.650          41.900
 111523075.310 8  86901106.78647                  21222121.660
  21222114.380          50.650          47.200
 107664960.520 8  83894785.706 8  80399164.624 8  20487954.880    20487952.720
  20487952.100          50.550          50.600
 113546075.601 8  88477441.49647                  21607094.240
  21607087.080          49.750          46.550
 133703072.440 6 104184205.016 5  99843193.221 7  25442850.880    25442848.920
  25442848.300          37.600          33.350
 125799620.463 6  97844158.351 5                  23541686.080    23541690.860
  23541688.540          41.750          34.300
 129942348.945 7 101066293.872 6                  24308399.180    24308401.240
  24308400.700          43.250          37.650
 114759967.089 8  89257801.919 7                  21445624.160    21445625.480
  21445624.480          48.100          42.950
 129965632.066 6 101084393.059 6                  24270158.600    24270161.480
  24270161.080          41.400          37.650
 113901728.446 8  88590262.280 7                  21277793.880    21277795.780
  21277794.780          48.600          46.000
 106522813.160 8  82851108.568 7                  19955303.260    19955305.940
  19955304.820          49.000          47.150
 112332567.576 7  87369788.249 7                  21028892.380    21028895.720
  21028895.120          45.000          43.750
 112614452.705 8  87589008.988 7                  21103895.840    21103897.780
  21103897.720          48.550          43.100
 118832989.813 7  92425662.332 7                  22253599.760    22253603.620
  22253601.660          45.250          43.150
 122564760.910 7  95328167.295 7                  22912186.520    22912190.040
  22912189.260          45.750          43.000
 152580221.381 8                 113939809.119 7  29035048.440
                        48.950
 131486899.021 8                  98188376.747 8  25021071.540
                        50.600
 15  1 27  4  2 50.0000000  0 23G11G08G21G07G04G16G18G22G27G19G30R11
                                R05R21R08R07R22R12R06R13R23E18E11
 129672032.946 7 101043127.55445                  24675766.160
  24675762.160          44.800          34.200
 131942572.800 7 102812351.04544                  25107852.700
  25107852.820          43.850          28.700
 125774129.618 7  98005871.50146                  23933991.620
  23933986.520          46.050          36.950
 126534157.912 7  98598010.230 6                  24078650.540    24078646.400
  24078645.820          46.850          39.050
 121333805.255 7  94545831.61946                  23089047.460
  23089043.720          47.800          38.950
 109288465.292 8  85159843.65647                  20796901.400
  20796896.240          50.000          47.200
 116832668.320 8  91038438.24047                  22232507.820
  22232502.220          49.150          42.550
 111517102.263 8  86896452.45847                  21220985.060
  21220977.740          50.650          47.100
 107661556.318 8  83892133.082 8  80396622.529 8  20487307.060    20487304.920
  20487304.320          50.600          50.400
 113536460.437 8  88469949.16447                  21605264.560
  21605257.380          49.700          46.550
 133695975.953 6 104178675.286 5  99837893.892 7  25441500.460    25441498.580
  25441498.320          38.550          34.800
 125821284.801 6  97861008.394 5                  23545740.280    23545745.020
  23545742.760          41.550          35.000
 129959853.695 7 101079908.677 5                  24311673.860    24311675.780
  24311675.300          42.750          35.700
 114770190.298 8  89265753.293 7                  21447534.640    21447535.900
  21447534.880          48.250          43.100
 129943590.725 7 101067249.865 6                  24266042.460    24266045.340
  24266044.900          42.100          37.300
 113885919.361 8  88577966.329 7                  21274840.600    21274842.520
  21274841.540          48.850          45.950
 106521075.125 8  82849756.774 7                  19954977.660    19954980.320
  19954979.220          48.700          47.200
 112343984.267 7  87378667.891 7                  21031029.640    21031033.020
  21031032.360          45.600          43.750
 112616663.622 8  87590728.584 7                  21104310.120    21104312.160
  21104312.020          48.850          43.000
 118825264.599 7  92419653.826 7                  22252153.060    22252157.000
  22252155.060          45.200          43.350
 122551902.621 7  95318166.424 7                  22909782.740    22909786.380
  22909785.560          45.800          42.800
 152598775.913 8                 113953664.784 7  29038579.240
                        49.000
 131494441.838 8                  98194009.373 8  25022506.780
                        50.600
 15  1 27  4  2 55.0000000  0 23G11G08G21G07G04G16G18G22G27G19G30R11
                                R05R21R08R07R22R12R06R13R23E18E11
 129655856.092 7 101030522.22145                  24672687.800
  24672683.720          44.750          34.150
 131959827.351 7 102825795.99344                  25111136.260
  25111136.680          42.400          29.500
 125786957.209 7  98015867.02846                  23936432.640
  23936427.560          46.200          36.750
 126534215.870 7  98598055.400 6                  24078661.620    24078657.400
  24078656.840          47.550          40.550
 121318485.565 7  94533894.20246                  23086132.240
  23086128.500          47.900          39.100
 109296425.491 8  85166046.40947                  20798416.200
  20798411.020          49.900          47.650
 116838136.584 8  91042699.22347                  22233548.280
  22233542.860          49.050          42.750
 111511142.756 8  86891808.68647                  21219851.020
  21219843.680          50.450          47.300
 107658159.358 8  83889486.102 8  80394085.842 8  20486660.620    20486658.500
  20486657.920          50.550          50.500
 113526850.246 8  88462460.71447                  21603435.800
  21603428.620          49.550          46.950
 133688892.320 6 104173155.548 5  99832604.192 7  25440152.480    25440150.720
  25440150.520          39.550          35.400
 125842948.792 7  97877858.141 5                  23549794.340    23549799.220
  23549797.000          42.300          35.050
 129977368.917 7 101093531.655 5                  24314950.440    24314952.280
  24314951.840          42.050          35.800
 114780417.127 8  89273707.492 7                  21449445.760    21449446.980
  21449445.980          48.100          43.000
 129921546.005 7 101050104.051 6                  24261925.700    24261928.560
  24261928.060          42.700          36.800
 113870123.644 8  88565680.778 7                  21271889.840    21271891.760
  21271890.800          48.850          45.900
 106519342.909 8  82848409.499 7                  19954653.180    19954655.800
  19954654.700          48.900          47.200
 112355419.021 7  87387561.591 7                  21033170.240    21033173.680
  21033172.980          45.300          43.550
 112618896.546 8  87592465.307 7                  21104728.540    21104730.640
  21104730.460          49.100          43.200
 118817559.705 7  92413661.141 7                  22250710.180    22250714.080
  22250712.220          45.400          43.450
 122539045.658 7  95308166.573 7                  22907379.240    22907382.920
  22907382.120          45.950          43.150
 152617322.565 8                 113967514.559 7  29042108.560
                        49.000
 131501986.222 8                  98199643.160 8  25023942.320
                        50.600
 15  1 27  4  3  0.0000000  0 23G11G08G21G07G04G16G18G22G27G19G30R11
                                R05R21R08R07R22R12R06R13R23E18E11
 129639681.799 7 101017918.87045                  24669609.900
  24669605.920          44.100          35.400
 131977078.419 7 102839238.27344                  25114419.120
  25114419.460          43.150          29.950
 125799786.088 7  98025863.55346                  23938873.900
  23938868.880          45.850          37.600
 126534288.944 7  98598112.335 6                  24078675.580    24078671.280
  24078670.720          47.450          40.150
 121303172.187 7  94521961.69646                  23083218.180
  23083214.480          47.800          39.200
 109304400.144 8  85172260.42047                  20799933.740
  20799928.540          49.800          47.900
 116843618.122 8  91046970.54547                  22234591.260
  22234586.020          49.200          42.400
 111505197.414 8  86887175.95247                  21218719.660
  21218712.320          50.400          47.350
 107654770.244 8  83886845.229 8  80391555.010 8  20486015.680    20486013.580
  20486013.000          50.650          50.650
 113517245.659 8  88454976.62147                  21601608.120
  21601600.920          49.650          47.050
 133681822.172 6 104167646.342 5  99827324.518 7  25438807.080    25438805.380
  25438805.200          41.100          35.850
 125864613.055 6  97894708.118 5                  23553848.500    23553853.460
  23553851.220          41.800          35.250
 129994895.303 6 101107163.307 6                  24318229.140    24318231.020
  24318230.440          41.750          36.200
 114790648.278 8  89281665.049 7                  21451357.720    21451358.900
  21451357.840          48.500          42.750
 129899498.537 6 101032956.054 6                  24257808.380    24257811.140
  24257810.580          41.750          36.250
 113854342.266 8  88553406.375 7                  21268941.720    21268943.700
  21268942.720          48.800          46.250
 106517617.218 8  82847067.295 7                  19954329.920    19954332.500
  19954331.400          48.800          47.200
 112366872.555 7  87396469.889 7                  21035314.360    21035317.820
  21035317.100          45.350          43.800
 112621151.925 8  87594219.482 7                  21105151.160    21105153.340
  21105153.120          48.950          43.450
 118809876.065 7  92407684.974 7                  22249271.240    22249275.220
  22249273.340          45.100          43.550
 122526190.504 7  95298168.117 7                  22904976.100    22904979.760
  22904978.980          45.750          43.300
 152635861.941 8                 113981358.890 7  29045636.500
                        49.300
 131509532.789 8                  98205278.572 8  25025378.280
                        50.550
 15  1 27  4  3  5.0000000  0 23G11G08G21G07G04G16G18G22G27G19G30R11
                                R05R21R08R07R22R12R06R13R23E18E11
 129623511.937 7 101005318.99445                  24666532.820
  24666528.900          44.450          34.300
 131994327.823 7 102852679.24645                  25117701.680
  25117702.040          44.750          31.350
 125812618.060 7  98035862.48846                  23941315.740
  23941310.720          45.700          37.650
 126534378.968 7  98598182.495 6                  24078692.780    24078688.440
  24078687.840          47.250          40.000
 121287866.933 8  94510035.53446                  23080305.680
  23080302.000          48.000          38.650
 109312391.106 8  85178487.14647                  20801454.400
  20801449.180          49.750          47.950
 116849114.739 8  91051253.62247                  22235637.080
  22235632.040          49.200          42.750
 111499268.068 8  86882555.68847                  21217591.360
  21217584.000          50.450          47.250
 107651390.873 8  83884211.961 8  80389031.454 8  20485372.600    20485370.520
  20485369.940          50.550          50.550
 113507648.520 8  88447498.33447                  21599781.860
  21599774.620          49.550          46.850
 133674767.387 6 104162149.073 5  99822056.287 7  25437464.640    25437463.000
  25437462.840          40.850          35.700
 125886279.432 6  97911559.738 5                  23557903.080    23557908.040
  23557905.840          41.200          35.350
 130012434.759 6 101120805.100 6                  24321510.260    24321512.040
  24321511.560          41.900          36.800
 114800885.584 8  89289627.413 7                  21453270.820    21453271.940
  21453270.840          48.450          42.750
 129877450.232 6 101015807.453 5                  24253691.000    24253693.760
  24253693.060          41.000          35.800
 113838576.731 8  88541144.294 7                  21265996.560    21265998.540
  21265997.580          48.750          46.300
 106515899.919 8  82845731.613 7                  19954008.200    19954010.800
  19954009.680          49.000          47.150
 112378346.649 7  87405394.182 7                  21037462.360    21037465.820
  21037465.080          45.350          43.550
 112623431.784 8  87595992.701 7                  21105578.380    21105580.580
  21105580.380          49.050          43.300
 118802215.352 7  92401726.648 7                  22247836.580    22247840.600
  22247838.720          44.700          43.050
 122513339.171 7  95288172.643 7                  22902573.640    22902577.400
  22902576.600          45.600          43.300
 152654395.928 8                 113995199.190 7  29049163.420
                        49.250
 131517083.403 8                  98210917.011 8  25026815.020
                        50.200
 15  1 27  4  3 10.0000000  0 23G11G08G21G07G04G16G18G22G27G19G30R11
                                R05R21R08R07R22R12R06R13R23E18E11
 129607342.566 7 100992719.48645                  24663455.860
  24663451.940          44.750          33.900
 132011571.628 7 102866115.84645                  25120983.140
  25120983.720          43.450          31.650
 125825449.256 7  98045860.83546                  23943757.440
  23943752.460          45.350          38.300
 126534482.040 7  98598262.807 6                  24078712.420    24078708.000
  24078707.440          47.350          39.850
 121272565.967 7  94498112.71846                  23077394.000
  23077390.320          47.900          39.700
 109320394.465 8  85184723.53147                  20802977.400
  20802972.180          49.750          47.800
 116854622.550 8  91055545.42447                  22236685.040
  22236680.220          49.050          42.750
 111493350.840 8  86877944.86847                  21216465.340
  21216458.000          50.600          47.150
 107648017.308 8  83881583.220 8  80386512.241 8  20484730.620    20484728.540
  20484727.980          50.600          50.450
 113498054.916 8  88440022.80747                  21597956.240
  21597949.020          49.550          46.950
 133667724.042 6 104156660.755 5  99816796.631 7  25436124.460    25436122.780
  25436122.640          41.250          35.500
 125907943.943 6  97928409.895 6                  23561957.220    23561962.320
  23561960.140          41.550          36.000
 130029983.142 7 101134453.836 6                  24324793.140    24324794.800
  24324794.300          42.650          36.000
 114811125.085 8  89297591.492 7                  21455184.300    21455185.360
  21455184.300          48.300          43.000
 129855397.182 6 100998655.137 5                  24249572.660    24249575.460
  24249574.640          41.350          35.050
 113822823.210 8  88528891.562 7                  21263053.660    21263055.660
  21263054.700          48.650          46.150
 106514186.944 8  82844399.295 7                  19953687.300    19953689.880
  19953688.780          49.050          47.250
 112389837.308 7  87414331.363 7                  21039613.480    21039616.920
  21039616.180          45.050          43.650
 112625732.050 8  87597781.812 7                  21106009.440    21106011.660
  21106011.480          49.150          43.550
 118794573.731 7  92395783.184 7                  22246405.520    22246409.500
  22246407.660          44.900          42.950
 122500487.711 7  95278177.096 7                  22900171.160    22900174.900
  22900174.180          46.000          43.150
 152672920.593 8                 114009032.557 7  29052688.600
                        48.950
 131524634.161 8                  98216555.559 8  25028251.820
                        50.400
 15  1 27  4  3 15.0000000  0 23G11G08G21G07G04G16G18G22G27G19G30R11
                                R05R21R08R07R22R12R06R13R23E18E11
 129591175.242 7 100980121.56345                  24660379.280
  24660375.440          44.550          33.300
 132028811.453 6 102879549.34145                  25124263.900
  25124264.560          41.800          31.000
 125838281.275 7  98055859.79746                  23946199.240
  23946194.300          44.900          39.100
 126534599.703 7  98598354.503 6                  24078734.840    24078730.360
  24078729.820          47.100          39.950
 121257270.802 7  94486194.38946                  23074483.420
  23074479.760          47.650          39.550
 109328411.823 8  85190970.82347                  20804503.080
  20804497.840          49.850          47.650
 116860143.122 8  91059847.15447                  22237735.460
  22237730.780          48.950          42.550
 111487447.294 8  86873344.70447                  21215341.960
  21215334.600          50.550          47.250
 107644651.166 8  83878960.252 8  80383998.568 8  20484090.060    20484088.000
  20484087.440          50.650          50.400
 113488466.426 8  88432551.25847                  21596131.580
  21596124.380          49.850          46.150
 133660693.674 6 104151182.552 5  99811546.685 7  25434786.680    25434784.960
  25434784.700          41.000          34.900
 125929608.070 6  97945259.753 5                  23566011.360    23566016.420
  23566014.320          41.950          35.100
 130047542.238 7 101148110.923 5                  24328077.980    24328079.560
  24328078.960          42.250          35.700
 114821368.415 8  89305558.518 7                  21457098.480    21457099.500
  21457098.460          48.100          42.900
 129833341.005 6 100981500.400 5                  24245453.820    24245456.540
  24245455.660          41.250          34.250
 113807083.605 8  88516649.641 7                  21260113.380    21260115.320
  21260114.400          48.650          46.050
 106512480.094 8  82843071.739 7                  19953367.520    19953370.120
  19953369.040          48.850          47.100
 112401346.100 7  87423282.644 7                  21041767.940    21041771.420
  21041770.680          45.000          43.950
 112628054.284 8  87599587.981 7                  21106444.640    21106446.820
  21106446.680          49.100          43.600
 118786952.635 7  92389855.652 7                  22244978.300    22244982.340
  22244980.460          44.750          43.100
 122487637.571 7  95268182.555 7                  22897768.920    22897772.720
  22897771.960          45.850          43.000
 152691437.525 8                 114022860.132 7  29056212.260
                        48.650
 131532186.627 8                  98222195.389 8  25029688.980
                        50.450
 15  1 27  4  3 20.0000000  0 23G11G08G21G07G04G16G18G22G27G19G30R11
                                R05R21R08R07R22R12R06R13R23E18E11
 129575009.972 7 100967525.25345                  24657303.080
  24657299.260          44.050          33.600
 132046047.231 7 102892979.77044                  25127543.940
  25127544.500          42.350          29.750
 125851114.180 7  98065859.44846                  23948641.220
  23948636.360          44.400          38.150
 126534731.914 7  98598457.519 6                  24078760.040    24078755.520
  24078754.960          47.400          39.800
 121241981.434 7  94474280.59646                  23071573.960
  23071570.280          47.750          39.600
 109336443.086 8  85197228.94847                  20806031.380
  20806026.140          49.750          47.800
 116865676.396 8  91064158.79447                  22238788.300
  22238783.760          49.050          42.250
 111481557.392 8  86868755.17247                  21214221.160
  21214213.780          50.450          47.150
 107641292.363 8  83876343.003 8  80381490.367 8  20483450.880    20483448.840
  20483448.280          50.650          50.300
 113478883.031 8  88425083.67447                  21594307.900
  21594300.720          50.000          46.150
 133653676.310 6 104145714.466 5  99806306.410 7  25433451.340    25433449.560
  25433449.220          40.250          35.550
 125951271.855 6  97962109.351 5                  23570065.460    23570070.620
  23570068.480          41.600          35.850
 130065111.819 7 101161776.143 5                  24331364.760    24331366.300
  24331365.620          42.300          35.600
 114831615.413 7  89313528.397 7                  21459013.360    21459014.380
  21459013.320          47.550          43.050
 129811281.583 6 100964343.140 5                  24241334.320    24241336.960
  24241336.100          41.250          33.500
 113791357.551 8  88504418.278 7                  21257175.580    21257177.580
  21257176.660          48.650          45.650
 106510779.004 8  82841748.673 7                  19953048.860    19953051.420
  19953050.340          48.900          47.150
 112412873.036 7  87432248.036 7                  21043925.800    21043929.340
  21043928.560          44.700          43.900
 112630398.534 8  87601411.285 7                  21106883.960    21106886.140
  21106886.000          49.150          43.400
 118779352.194 7  92383944.198 7                  22243554.920    22243559.020
  22243557.120          44.700          42.750
 122474788.873 7  95258189.121 7                  22895366.980    22895370.740
  22895370.040          45.800          43.200
 152709946.659 8                 114036681.878 7  29059734.400
                        48.450
 131539740.749 8                  98227836.438 8  25031126.460
                        50.650
 15  1 27  4  3 25.0000000  0 23G11G08G21G07G04G16G18G22G27G19G30R11
                                R05R21R08R07R22R12R06R13R23E18E11
 129558848.187 7 100954931.65845                  24654227.580
  24654223.860          43.850          34.800
 132063280.292 6 102906408.06244                  25130823.380
  25130824.140          41.600          28.750
 125863949.233 7  98075860.77646                  23951083.580
  23951078.820          44.100          37.200
 126534880.125 7  98598573.005 6                  24078788.240    24078783.760
  24078783.140          47.150          40.200
 121226699.358 7  94462372.48046                  23068665.860
  23068662.240          47.550          39.800
 109344489.706 8  85203499.03648                  20807562.620
  20807557.360          49.550          48.150
 116871223.782 8  91068481.42747                  22239843.880
  22239839.400          49.200          42.450
 111475682.586 8  86864177.40147                  21213103.260
  21213095.820          50.350          47.250
 107637942.367 8  83873732.617 8  80378988.742 8  20482813.400    20482811.360
  20482810.780          50.650          50.350
 113469306.194 8  88417621.19947                  21592485.480
  21592478.300          50.150          46.100
 133646673.318 6 104140257.604 5  99801076.929 7  25432118.660    25432116.980
  25432116.700          39.400          35.650
 125972936.803 6  97978959.814 5                  23574119.780    23574124.920
  23574122.860          41.900          35.500
 130082693.337 6 101175450.713 5                  24334653.760    24334655.240
  24334654.500          41.950          35.250
 114841867.604 8  89321502.311 7                  21460929.220    21460930.240
  21460929.200          48.050          43.200
 129789220.463 6 100947184.520 5                  24237214.520    24237217.120
  24237216.280          40.850          33.750
 113775646.702 8  88492198.731 7                  21254240.620    21254242.620
  21254241.720          48.900          45.800
 106509085.398 8  82840431.424 7                  19952731.620    19952734.120
  19952733.060          48.450          46.950
 112424419.487 7  87441228.604 7                  21046087.320    21046090.880
  21046090.080          44.900          43.750
 112632766.408 8  87603252.965 7                  21107327.700    21107329.900
  21107329.760          49.100          43.250
 118771773.833 7  92378049.905 7                  22242135.720    22242139.780
  22242137.900          44.800          42.450
 122461942.978 7  95248197.887 7                  22892965.540    22892969.340
  22892968.640          45.900          43.050
 152728449.449 8                 114050498.893 7  29063255.360
                        48.450
 131547297.968 8                  98233479.814 8  25032564.560
                        50.750
 15  1 27  4  3 30.0000000  0 23G11G08G21G07G04G16G18G22G27G19G30R11
                                R05R21R08R07R22R12R06R13R23E18E11
 129542690.059 7 100942340.91945                  24651152.780
  24651149.120          43.750          32.400
 132080510.972 7 102919834.50544                  25134102.320
  25134103.020          42.250          29.950
 125876786.557 7  98085863.86946                  23953526.340
  23953521.640          44.050          38.850
 126535044.434 7  98598701.039 6                  24078819.520    24078815.080
  24078814.400          47.050          40.250
 121211424.675 7  94450470.12646                  23065759.180
  23065755.600          47.400          39.550
 109352551.819 8  85209781.20147                  20809096.780
  20809091.520          49.400          47.850
 116876785.439 8  91072815.18347                  22240902.200
  22240897.760          49.350          42.300
 111469823.022 8  86859611.50747                  21211988.220
  21211980.800          50.350          47.200
 107634601.292 8  83871129.181 8  80376493.782 8  20482177.620    20482175.580
  20482175.020          50.600          50.350
 113459735.991 8  88410163.89647                  21590664.320
  21590657.160          50.150          45.950
 133639684.936 6 104134812.121 5  99795858.300 7  25430788.840    25430787.100
  25430786.860          38.950          34.550
 125994602.920 6  97995811.240 5                  23578174.320    23578179.500
  23578177.420          41.300          35.200
 130100286.981 6 101189134.658 5                  24337945.020    24337946.420
  24337945.640          41.400          34.850
 114852125.139 8  89329480.394 7                  21462846.060    21462847.120
  21462846.080          48.350          43.250
 129767157.842 6 100930024.762 5                  24233094.460    24233096.880
  24233096.240          40.400          33.750
 113759951.025 8  88479990.984 7                  21251308.540    21251310.540
  21251309.620          48.950          46.100
 106507399.230 8  82839119.973 7                  19952415.760    19952418.240
  19952417.160          48.750          47.200
 112435985.728 7  87450224.571 7                  21048252.560    21048256.120
  21048255.280          45.050          43.650
 112635157.531 8  87605112.723 7                  21107775.800    21107777.980
  21107777.880          49.000          43.450
 118764217.649 7  92372172.869 7                  22240720.680    22240724.760
  22240722.780          45.100          42.600
 122449100.066 7  95238208.946 7                  22890564.700    22890568.540
  22890567.840          45.700          43.600
 152746946.007 8                 114064311.268 7  29066775.140
                        48.650
 131554858.414 8                  98239125.604 8  25034003.300
                        50.800
 15  1 27  4  3 35.0000000  0 23G11G08G21G07G04G16G18G22G27G19G30R11
                                R05R21R08R07R22R12R06R13R23E18E11
 129526533.232 7 100929751.17245                  24648078.200
  24648074.540          43.850          35.000
 132097736.829 7 102933257.38746                  25137380.380
  25137381.140          46.400          36.200
 125889623.852 7  98095866.95846                  23955969.140
  23955964.460          44.550          38.350
 126535222.561 7  98598839.831 6                  24078853.400    24078849.040
  24078848.360          46.900          40.600
 121196155.039 8  94438571.71146                  23062853.440
  23062849.900          48.050          39.900
 109360627.072 8  85216073.60847                  20810633.460
  20810628.200          49.550          47.800
 116882358.953 8  91077158.17747                  22241962.820
  22241958.380          49.600          42.550
 111463976.367 8  86855055.67147                  21210875.640
  21210868.240          50.450          47.400
 107631266.827 8  83868530.897 8  80374003.771 8  20481543.080    20481541.060
  20481540.480          50.600          50.350
 113450170.106 8  88402709.95947                  21588843.980
  21588836.860          50.200          46.000
 133632708.721 6 104129376.114 5  99790648.803 7  25429461.300    25429459.640
  25429459.240          38.150          34.650
 126016267.809 6  98012661.680 5                  23582228.560    23582233.860
  23582231.760          41.200          35.550
 130117890.402 6 101202826.189 5                  24341238.040    24341239.380
  24341238.520          40.750          34.300
 114862385.646 8  89337460.778 7                  21464763.540    21464764.540
  21464763.540          48.650          43.700
 129745091.257 6 100912861.919 5                  24228973.640    24228976.060
  24228975.440          39.100          34.300
 113744268.357 8  88467793.364 7                  21248378.880    21248380.900
  21248379.960          49.100          46.050
 106505718.310 8  82837812.580 7                  19952100.880    19952103.360
  19952102.260          49.050          47.250
 112447569.151 7  87459233.899 7                  21050420.980    21050424.560
  21050423.740          45.350          43.550
 112637569.847 8  87606988.967 7                  21108227.860    21108230.080
  21108229.940          48.700          43.600
 118756681.204 7  92366311.200 7                  22239309.380    22239313.420
  22239311.380          44.850          42.550
 122436257.694 7  95228220.439 7                  22888163.940    22888167.820
  22888167.140          45.750          43.250
 152765434.016 8                 114078117.248 7  29070293.300
                        48.850
 131562419.761 8                  98244772.074 8  25035442.220
                        50.900
 15  1 27  4  3 40.0000000  0 23G11G08G21G07G04G16G18G22G27G19G30R11
                                R05R21R08R07R22R12R06R13R23E18E11
 129510378.254 7 100917162.87745                  24645004.000
  24645000.440          43.250          34.000
 132114958.363 5                                  25140657.600
                        32.150
 125902461.630 7  98105870.42446                  23958412.040
  23958407.400          44.750          37.300
 126535415.074 7  98598989.839 6                  24078890.020    24078885.720
  24078885.040          46.900          40.550
 121180891.035 8  94426677.67146                  23059948.800
  23059945.280          48.000          39.050
 109368716.061 8  85222376.71247                  20812172.720
  20812167.480          49.600          47.550
 116887944.958 8  91081510.90646                  22243025.840
  22243021.340          49.900          41.900
 111458143.167 8  86850510.32147                  21209765.620
  21209758.220          50.550          47.300
 107627939.544 8  83865938.207 8  80371519.100 8  20480909.920    20480907.900
  20480907.340          50.550          50.300
 113440609.118 8  88395259.83947                  21587024.560
  21587017.460          50.150          45.950
 133625745.326 6 104123950.120 5  99785448.832 7  25428136.180    25428134.580
  25428134.140          38.650          34.900
 126037932.107 6  98029511.671 5                  23586282.860    23586287.940
  23586286.020          41.550          35.200
 130135504.063 7 101216525.726 5                  24344533.000    24344534.380
  24344533.420          42.250          35.150
 114872649.690 8  89345443.919 7                  21466681.640    21466682.600
  21466681.700          48.450          43.450
 129723021.460 6 100895696.619 5                  24224852.180    24224854.740
  24224854.100          40.050          34.750
 113728599.207 8  88455606.243 7                  21245451.780    21245453.760
  21245452.840          49.050          46.150
 106504043.115 8  82836509.650 7                  19951787.060    19951789.520
  19951788.440          48.900          47.300
 112459170.354 7  87468257.066 7                  21052592.760    21052596.340
  21052595.520          45.000          43.750
 112640004.007 8  87608882.206 7                  21108684.000    21108686.200
  21108686.100          48.600          43.500
 118749165.302 7  92360465.503 7                  22237901.860    22237905.920
  22237903.840          44.550          42.850
 122423416.522 7  95218232.853 7                  22885763.400    22885767.280
  22885766.620          45.700          43.500
 152783914.029 8                 114091917.246 7  29073809.960
                        48.750
 131569982.579 8                  98250419.621 8  25036881.420
                        51.050
 15  1 27  4  3 45.0000000  0 22G11G21G07G04G16G18G22G27G19G30R11R05
                                R21R08R07R22R12R06R13R23E18E11
 129494226.669 7 100904577.22945                  24641930.360
  24641926.940          42.700          33.400
 125915301.427 7  98115875.45846                  23960855.340
  23960850.620          45.000          37.850
 126535623.436 7  98599152.195 6                  24078929.660    24078925.340
  24078924.700          46.900          40.550
 121165634.211 8  94414789.24946                  23057045.480
  23057042.000          48.150          39.300
 109376820.269 8  85228691.68647                  20813714.900
  20813709.660          49.600          47.450
 116893544.987 8  91085874.57547                  22244091.540
  22244086.960          50.000          42.250
 111452324.975 8  86845976.67347                  21208658.480
  21208651.060          50.450          47.000
 107624620.952 8  83863352.297 8  80369040.940 8  20480278.400    20480276.420
  20480275.840          50.300          50.200
 113431054.533 8  88387814.70647                  21585206.360
  21585199.300          50.000          45.800
 133618796.262 6 104118535.263 5  99780259.599 7  25426813.880    25426812.340
  25426811.960          39.450          34.350
 126059597.300 6  98046362.364 5                  23590337.220    23590342.160
  23590340.400          41.200          34.350
 130153129.508 7 101230234.424 5                  24347830.160    24347831.540
  24347830.640          42.100          35.250
 114882918.813 8  89353431.002 7                  21468600.720    21468601.680
  21468600.760          48.050          43.550
 129700949.879 6 100878529.886 5                  24220730.360    24220732.820
  24220732.400          40.950          35.400
 113712945.141 8  88443430.860 7                  21242527.500    21242529.480
  21242528.560          49.100          46.200
 106502375.147 8  82835212.338 7                  19951474.600    19951477.020
  19951476.000          48.950          47.250
 112470790.870 7  87477295.243 7                  21054768.120    21054771.720
  21054770.920          44.600          43.750
 112642461.481 8  87610793.575 7                  21109144.520    21109146.660
  21109146.600          48.700          43.350
 118741671.401 7  92354636.915 7                  22236498.500    22236502.540
  22236500.500          45.150          43.150
 122410578.146 7  95208247.463 7                  22883363.340    22883367.260
  22883366.660          45.650          43.350
 152802387.593 8                 114105712.458 7  29077325.380
                        48.750
 131577548.385 8                  98256069.413 8  25038321.200
                        51.150
 15  1 27  4  3 50.0000000  0 23G11G08G21G07G04G16G18G22G27G19G30R11
                                R05R21R08R07R22R12R06R13R23E18E11
 129478075.751 7 100891992.11245                  24638856.880
  24638853.560          42.350          30.850
 132149470.724 6                                  25147208.860
                        40.700
 125928140.498 7  98125879.91946                  23963298.500
  23963293.800          45.350          38.300
 126535844.954 7  98599324.817 6                  24078971.800    24078967.460
  24078966.840          46.700          40.250
 121150381.818 8  94402904.27546                  23054143.020
  23054139.580          48.000          39.550
 109384936.979 8  85235016.39947                  20815259.440
  20815254.200          49.450          47.750
 116899156.319 8  91090247.04847                  22245159.400
  22245154.760          49.900          42.400
 111446519.057 8  86841452.58847                  21207553.660
  21207546.260          50.350          47.150
 107621308.338 8  83860771.044 8  80366567.231 8  20479648.040    20479646.060
  20479645.460          50.250          50.250
 113421503.656 8  88380372.47247                  21583388.860
  21583381.860          49.700          46.050
 133611858.805 6 104113129.426 5  99775079.035 7  25425493.780    25425492.260
  25425491.760          39.350          33.800
 126081260.593 6  98063211.588 5                  23594391.240    23594396.200
  23594394.480          41.200          34.800
 130170763.947 6 101243950.103 6                  24351128.980    24351130.360
  24351129.560          41.700          36.600
 114893190.252 8  89361419.899 7                  21470520.260    21470521.140
  21470520.260          48.250          43.250
 129678873.683 6 100861359.580 5                  24216607.760    24216610.260
  24216609.880          41.200          35.500
 113697303.489 8  88431265.139 7                  21239605.520    21239607.520
  21239606.600          49.200          46.200
 106500711.699 8  82833918.541 7                  19951163.000    19951165.420
  19951164.380          49.200          47.150
 112482428.114 7  87486346.431 7                  21056946.600    21056950.220
  21056949.480          44.550          43.850
 112644939.480 8  87612720.906 7                  21109608.840    21109611.000
  21109610.920          48.450          43.150
 118734196.635 7  92348823.206 7                  22235098.700    22235102.780
  22235100.760          44.950          43.150
 122397739.633 7  95198261.970 7                  22880963.280    22880967.260
  22880966.640          45.600          43.350
 152820851.959 8                 114119500.795 7  29080839.080
                        49.000
 131585114.456 8                  98261719.406 8  25039761.040
                        51.100
 15  1 27  4  3 55.0000000  0 23G11G08G21G07G04G16G18G22G27G19G30R11
                                R05R21R08R07R22R12R06R13R23E18E11
 129461929.389 7 100879410.54045                  24635784.280
  24635780.960          43.000          33.350
 132166681.788 5 102987035.30454                  25150483.640
  25150485.960          34.050          27.850
 125940982.706 7  98135886.83546                  23965742.300
  23965737.560          45.700          37.250
 126536083.499 7  98599510.691 6                  24079017.200    24079012.880
  24079012.180          47.050          39.900
 121135137.622 7  94391025.67746                  23051242.140
  23051238.720          47.850          39.950
 109393070.047 8  85241353.84147                  20816807.120
  20816801.860          49.450          47.800
 116904782.796 8  91094631.31247                  22246230.180
  22246225.420          50.000          42.600
 111440729.264 8  86836941.05447                  21206451.900
  21206444.500          50.450          47.000
 107618005.564 8  83858197.447 8  80364100.882 8  20479019.540    20479017.540
  20479016.980          50.250          50.200
 113411960.356 8  88372936.13747                  21581572.800
  21581565.840          49.450          46.100
 133604936.849 6 104107735.672 5  99769910.003 7  25424176.660    25424175.140
  25424174.680          39.600          33.750
 126102925.781 6  98080062.263 5                  23598445.600    23598450.500
  23598448.920          40.800          34.750
 130188411.301 7 101257675.812 6                  24354430.260    24354431.780
  24354430.940          42.450          37.200
 114903467.937 8  89369413.648 7                  21472440.940    21472441.760
  21472440.920          48.600          43.550
 129656797.031 7 100844188.909 5                  24212484.960    24212487.720
  24212487.200          42.300          34.200
 113681678.169 8  88419112.109 7                  21236686.620    21236688.580
  21236687.660          49.200          46.250
 106499056.729 8  82832631.340 7                  19950852.960    19950855.400
  19950854.360          49.250          47.350
 112494085.716 7  87495413.448 7                  21059128.920    21059132.540
  21059131.840          44.600          43.850
 112647441.796 8  87614667.145 7                  21110077.760    21110079.940
  21110079.780          48.700          42.900
 118726745.263 7  92343027.705 7                  22233703.280    22233707.380
  22233705.380          44.900          43.150
 122384905.036 7  95188279.514 7                  22878563.940    22878567.980
  22878567.380          45.200          43.500
 152839310.983 8                 114133285.133 7  29084351.760
                        48.950
 131592684.637 8                  98267372.459 8  25041201.660
                        51.050
 15  1 27  4  4  0.0000000  0 22G11G21G07G04G16G18G22G27G19G30R11R05
                                R21R08R07R22R12R06R13R23E18E11
 129445782.817 7 100866828.78545                  24632711.660
  24632708.260          42.900          34.700
 125953823.349 7  98145892.54246                  23968185.840
  23968181.000          45.650          37.750
 126536334.264 7  98599706.103 6                  24079064.920    24079060.540
  24079059.860          46.800          40.200
 121119897.039 7  94379149.90446                  23048341.920
  23048338.520          47.950          39.800
 109401214.701 8  85247700.32647                  20818356.980
  20818351.740          49.600          47.750
 116910419.634 8  91099023.66147                  22247302.940
  22247298.040          50.100          42.050
 111434950.885 8  86832438.42947                  21205352.300
  21205344.900          50.300          47.000
 107614707.895 8  83855627.841 8  80361638.339 8  20478392.000    20478390.040
  20478389.440          50.250          50.300
 113402419.871 8  88365502.00947                  21579757.240
  21579750.340          49.200          46.450
 133598025.584 6 104102350.242 5  99764748.997 7  25422861.540    25422859.840
  25422859.200          39.450          34.700
 126124588.137 6  98096910.743 5                  23602499.420    23602504.460
  23602502.820          40.900          33.650
 130206066.764 6 101271407.847 6                  24357733.080    24357734.600
  24357733.860          41.350          37.400
 114913746.986 8  89377408.455 7                  21474361.880    21474362.640
  21474361.840          49.100          43.600
 129634714.938 7 100827013.965 5                  24208361.220    24208363.900
  24208363.480          42.050          34.350
 113666064.380 8  88406968.053 7                  21233769.900    21233771.800
  21233770.900          49.350          46.200
 106497405.414 8  82831346.992 7                  19950543.640    19950546.080
  19950545.060          49.450          47.350
 112505758.926 7  87504492.616 7                  21061314.140    21061317.820
  21061317.140          45.200          43.800
 112649963.801 8  87616628.719 7                  21110550.360    21110552.560
  21110552.340          49.000          42.650
 118719311.992 7  92337246.278 7                  22232311.260    22232315.320
  22232313.400          45.050          43.400
 122372069.484 7  95178296.322 7                  22876164.440    22876168.540
  22876167.920          45.350          43.650
 152857759.936 8                 114147061.950 7  29087862.520
                        48.650
 131600254.195 8                  98273025.059 8  25042642.180
                        51.100
 15  1 27  4  4  5.0000000  0 22G11G21G07G04G16G18G22G27G19G30R11R05
                                R21R08R07R22R12R06R13R23E18E11
 129429640.163 7 100854250.11445                  24629639.720
  24629636.480          42.850          35.650
 125966666.529 7  98155900.21346                  23970629.840
  23970624.960          45.300          36.800
 126536601.430 7  98599914.272 6                  24079115.760    24079111.360
  24079110.680          46.850          39.800
 121104664.144 7  94367280.11246                  23045443.160
  23045439.760          47.400          39.100
 109409374.985 8  85254058.99347                  20819909.820
  20819904.600          49.750          47.700
 116916070.978 8  91103427.31247                  22248378.440
  22248373.440          50.150          42.350
 111429188.055 8  86827947.91747                  21204255.680
  21204248.280          50.200          47.600
 107611419.483 8  83853065.444 8  80359182.708 8  20477766.260    20477764.280
  20477763.680          50.200          50.400
 113392886.362 8  88358073.30747                  21577943.040
  21577936.160          49.000          46.600
 133591129.196 6 104096976.429 6  99759599.103 7  25421549.160    25421547.440
  25421546.920          39.250          36.250
 126146251.834 6  98113760.273 5                  23606553.500    23606558.560
  23606556.920          41.600          32.550
 130223734.407 7 101285149.368 6                  24361038.100    24361039.780
  24361039.020          42.050          37.350
 114924031.670 8  89385407.658 7                  21476283.880    21476284.660
  21476283.800          48.900          43.100
 129612631.743 7 100809838.202 6                  24204237.300    24204240.020
  24204239.580          42.050          36.300
 113650466.310 8  88394836.225 7                  21230856.080    21230857.940
  21230857.080          49.450          46.250
 106495761.906 8  82830068.720 7                  19950235.800    19950238.220
  19950237.200          49.450          47.200
 112517452.008 7  87513587.231 7                  21063503.100    21063506.740
  21063506.140          45.050          43.700
 112652509.692 8  87618608.855 7                  21111027.460    21111029.620
  21111029.360          49.050          42.800
 118711901.324 7  92331482.442 7                  22230923.460    22230927.540
  22230925.660          45.250          43.100
 122359237.182 7  95168315.661 7                  22873765.540    22873769.680
  22873769.080          45.050          43.350
 152876202.972 8                 114160834.347 7  29091372.120
                        48.650
 131607827.277 8                  98278680.288 8  25044083.360
                        51.100
 15  1 27  4  4 10.0000000  0 23G11G08G21G07G04G16G18G22G27G19G30R11
                                R05R21R08R07R22R12R06R13R23E18E11
 129413499.589 7 100841673.04345                  24626568.200
  24626565.020          43.100          34.050
 132218301.226 6                                  25160304.620
                        40.000
 125979510.435 7  98165908.45646                  23973073.940
  23973069.060          45.000          38.050
 126536883.200 7  98600133.823 6                  24079169.360    24079164.960
  24079164.260          46.900          40.000
 121089437.161 7  94355414.93346                  23042545.540
  23042542.160          47.400          39.800
 109417549.203 8  85260428.51047                  20821465.300
  20821460.100          49.750          47.750
 116921735.049 8  91107840.87647                  22249456.380
  22249451.240          50.100          42.000
 111423438.968 8  86823468.10647                  21203161.640
  21203154.260          50.250          47.600
 107608138.507 8  83850508.836 8  80356732.633 8  20477141.920    20477139.940
  20477139.360          50.200          50.400
 113383358.018 8  88350648.62547                  21576129.800
  21576122.940          49.050          46.950
 133584245.896 6 104091612.824 6  99754458.984 7  25420239.260    25420237.600
  25420237.140          40.100          36.250
 126167915.047 6  98130609.453 5                  23610607.460    23610612.420
  23610610.900          41.300          32.100
 130241412.517 6 101298898.997 6                  24364345.140    24364346.860
  24364346.080          41.700          37.050
 114934320.129 8  89393409.799 7                  21478206.560    21478207.260
  21478206.460          48.800          43.150
 129590545.530 7 100792660.136 6                  24200112.740    24200115.460
  24200115.140          42.100          36.250
 113634882.121 8  88382715.197 7                  21227944.840    21227946.680
  21227945.840          49.400          46.050
 106494124.379 8  82828795.092 7                  19949929.060    19949931.480
  19949930.440          49.000          47.300
 112529163.154 7  87522695.902 7                  21065695.420    21065699.100
  21065698.520          44.750          43.750
 112655077.598 8  87620606.113 7                  21111508.680    21111510.740
  21111510.500          49.100          42.350
 118704511.471 7  92325734.770 7                  22229539.600    22229543.660
  22229541.820          45.400          42.900
 122346406.316 7  95158336.096 7                  22871366.920    22871371.060
  22871370.480          45.050          43.750
 152894638.259 8                 114174600.940 7  29094880.240
                        48.800
 131615402.066 8                  98284336.790 8  25045524.860
                        50.950
 15  1 27  4  4 15.0000000  0 23G11G08G21G07G04G16G18G22G27G19G30R11
                                R05R21R08R07R22R12R06R13R23E18E11
 129397361.617 7 100829098.02145                  24623497.220
  24623494.120          42.900          34.700
 132235496.223 6                                  25163576.500
                        40.850
 125992355.499 7  98175917.60346                  23975518.300
  23975513.400          44.900          38.700
 126537179.986 7  98600365.084 6                  24079225.820    24079221.480
  24079220.660          46.300          39.400
 121074216.537 7  94343554.71246                  23039649.120
  23039645.800          47.650          38.650
 109425737.828 8  85266809.25647                  20823023.560
  20823018.320          49.650          47.600
 116927412.259 8  91112264.67647                  22250536.800
  22250531.540          50.050          42.450
 111417704.069 8  86818999.35447                  21202070.300
  21202062.940          50.300          47.250
 107604865.411 8  83847958.373 8  80354288.439 8  20476519.080    20476517.080
  20476516.520          50.250          50.350
 113373835.290 8  88343228.32147                  21574317.660
  21574310.780          49.000          46.900
 133577376.119 6 104086259.743 6  99749328.932 7  25418932.000    25418930.340
  25418930.000          39.750          36.800
 126189578.199 6  98147458.559 5                  23614661.460    23614666.320
  23614664.920          41.500          31.900
 130259101.427 6 101312657.055 6                  24367654.180    24367655.980
  24367655.180          41.050          37.000
 114944612.855 8  89401415.255 7                  21480130.040    21480130.720
  21480129.860          48.600          43.150
 129568456.875 7 100775480.140 5                  24195987.880    24195990.560
  24195990.180          42.950          35.900
 113619312.345 8  88370605.369 7                  21225036.280    21225038.120
  21225037.280          49.350          46.150
 106492493.228 8  82827526.411 7                  19949623.520    19949625.920
  19949624.880          49.200          47.100
 112540892.630 7  87531818.824 7                  21067891.200    21067894.880
  21067894.320          44.800          44.050
 112657667.949 8  87622620.838 7                  21111994.140    21111996.100
  21111995.860          49.250          42.600
 118697142.805 7  92320003.581 7                  22228159.680    22228163.720
  22228161.940          45.250          43.000
 122333577.293 7  95148357.978 7                  22868968.720    22868972.840
  22868972.300          45.400          44.000
 152913066.234 8                 114188362.096 7  29098386.980
                        48.900
 131622979.015 8                  98289994.888 8  25046966.760
                        50.900
 15  1 27  4  4 20.0000000  0 22G11G21G07G04G16G18G22G27G19G30R11R05
                                R21R08R07R22R12R06R13R23E18E11
 129381226.511 7 100816525.22745                  24620426.840
  24620423.600          42.600          35.200
 126005201.980 7  98185927.83146                  23977962.920
  23977957.980          45.050          37.250
 126537492.019 7  98600608.238 6                  24079285.180    24079280.880
  24079280.080          46.400          40.150
 121059002.424 7  94331699.56346                  23036753.900
  23036750.640          47.700          39.050
 109433941.070 8  85273201.39547                  20824584.560
  20824579.340          49.600          47.700
 116933102.837 8  91116698.89246                  22251619.760
  22251614.360          50.000          41.950
 111411983.658 8  86814541.89347                  21200981.720
  21200974.380          50.300          47.200
 107601600.468 8  83845414.268 8  80351850.333 8  20475897.780    20475895.780
  20475895.220          50.200          50.350
 113364318.452 8  88335812.60847                  21572506.620
  21572499.740          48.950          46.800
 133570520.114 6 104080917.373 6  99744209.198 7  25417627.360    25417625.720
  25417625.320          40.000          37.050
 126211241.465 6  98164307.747 5                  23618715.360    23618720.260
  23618718.880          41.950          32.200
 130276801.539 6 101326423.811 6                  24370965.300    24370967.040
  24370966.340          41.800          36.600
 114954910.040 8  89409424.162 7                  21482054.340    21482055.020
  21482054.120          48.400          42.900
 129546366.011 6 100758298.386 5                  24191862.500    24191865.160
  24191864.740          41.900          35.600
 113603757.228 8  88358506.945 7                  21222130.480    21222132.300
  21222131.460          49.250          46.100
 106490868.763 8  82826262.945 7                  19949319.220    19949321.600
  19949320.540          48.950          47.150
 112552640.784 7  87540956.279 7                  21070090.480    21070094.120
  21070093.640          44.800          43.950
 112660280.908 8  87624653.142 7                  21112483.800    21112485.760
  21112485.440          49.100          42.800
 118689795.672 7  92314289.150 7                  22226783.760    22226787.860
  22226786.040          45.100          43.050
 122320750.474 7  95138381.577 7                  22866570.880    22866575.040
  22866574.520          45.350          44.100
 152931487.143 8                 114202117.966 7  29101892.400
                        48.900
 131630558.361 8                  98295654.795 8  25048409.080
                        50.850
 15  1 27  4  4 25.0000000  0 23G11G08G21G07G04G16G18G22G27G19G30R11
                                R05R21R08R07R22R12R06R13R23E18E11
 129365092.478 7 100803953.22045                  24617356.640
  24617353.400          42.800          34.400
 132269864.14116                                  25170119.260
                        38.000
 126018048.195 7  98195937.87146                  23980407.500
  23980402.540          44.950          38.900
 126537817.574 7  98600861.923 6                  24079347.120    24079342.840
  24079342.080          46.400          40.250
 121043793.208 7  94319848.23946                  23033859.660
  23033856.420          47.700          39.550
 109442157.181 8  85279603.55147                  20826148.020
  20826142.840          49.650          47.700
 116938805.044 8  91121142.17147                  22252704.920
  22252699.420          50.100          42.700
 111406275.954 8  86810094.33947                  21199895.540
  21199888.240          50.350          47.250
 107598341.910 8  83842875.140 8  80349417.007 8  20475277.700    20475275.700
  20475275.140          50.250          50.450
 113354805.679 8  88328400.06447                  21570696.360
  21570689.500          49.200          46.600
 133563676.129 6 104075584.391 6  99739098.441 7  25416325.060    25416323.400
  25416322.960          40.300          36.800
 126232903.097 7  98181155.679 5                  23622769.040    23622773.960
  23622772.560          42.100          31.100
 130294510.757 7 101340197.663 6                  24374278.220    24374279.900
  24374279.220          42.300          37.550
 114965209.950 8  89417435.214 7                  21483979.140    21483979.840
  21483978.880          48.350          43.250
 129524271.080 7 100741113.471 6                  24187736.480    24187739.040
  24187738.520          42.750          36.400
 113588214.996 8  88346418.544 7                  21219227.100    21219228.880
  21219228.060          49.250          46.000
 106489249.220 8  82825003.288 7                  19949015.860    19949018.200
  19949017.140          49.150          47.000
 112564405.772 7  87550106.821 7                  21072292.880    21072296.560
  21072296.100          44.550          43.900
 112662914.836 8  87626701.749 7                  21112977.400    21112979.240
  21112978.980          49.000          42.700
 118682468.165 7  92308589.985 7                  22225411.540    22225415.660
  22225413.840          44.850          43.150
 122307923.821 7  95128405.308 7                  22864173.100    22864177.260
  22864176.760          45.900          44.150
 152949899.258 8                 114215867.269 7  29105396.180
                        49.100
 131638138.353 8                  98301315.182 8  25049851.520
                        50.700
 15  1 27  4  4 30.0000000  0 23G11G08G21G07G04G16G18G22G27G19G30R11
                                R05R21R08R07R22R12R06R13R23E18E11
 129348963.408 7 100791385.13645                  24614287.300
  24614284.260          42.850          34.350
 132287048.428 6                                  25173388.460
                        37.500
 126030897.987 7  98205950.69046                  23982852.760
  23982847.800          44.950          37.750
 126538160.486 7  98601129.131 6                  24079412.340    24079408.100
  24079407.340          46.350          40.350
 121028592.753 7  94308003.73846                  23030967.100
  23030963.840          47.850          39.850
 109450390.001 8  85286018.72747                  20827714.680
  20827709.480          49.750          47.750
 116944522.738 8  91125597.51347                  22253793.000
  22253787.420          49.800          42.750
 111400584.842 8  86805659.71147                  21198812.540
  21198805.260          50.350          47.250
 107595093.620 8  83840344.005 8  80346991.331 8  20474659.580    20474657.580
  20474657.020          50.350          50.400
 113345300.941 8  88320993.77647                  21568887.620
  21568880.780          49.400          46.300
 133556848.059 6 104070263.813 6  99733999.533 6  25415025.780    25415024.140
  25415023.480          39.750          36.400
 126254566.965 7  98198005.345 5                  23626823.120    23626827.960
  23626826.620          42.200          31.650
 130312233.294 7 101353981.842 6                  24377593.600    24377595.220
  24377594.620          43.200          37.500
 114975516.472 8  89425451.391 7                  21485905.120    21485905.860
  21485904.880          48.400          43.200
 129502176.083 6 100723928.534 6                  24183610.360    24183612.880
  24183612.300          41.850          37.550
 113572689.599 8  88334343.234 7                  21216326.840    21216328.580
  21216327.780          49.350          45.900
 106487638.632 8  82823750.606 7                  19948714.160    19948716.500
  19948715.380          49.000          46.800
 112576191.508 7  87559273.494 7                  21074499.180    21074502.880
  21074502.460          44.800          43.750
 112665573.580 8  87628769.652 7                  21113475.660    21113477.480
  21113477.180          49.250          42.950
 118675164.216 7  92302909.134 7                  22224043.740    22224047.880
  22224046.060          44.800          43.350
 122295101.511 7  95118432.397 7                  22861776.080    22861780.320
  22861779.840          45.850          44.100
 152968306.423 8                 114229612.871 7  29108898.980
                        49.200
 131645722.888 8                  98306978.943 8  25051294.740
                        50.650
 15  1 27  4  4 35.0000000  0 23G11G08G21G07G04G16G18G22G27G19G30R11
                                R05R21R08R07R22R12R06R13R23E18E11
 129332834.808 7 100778817.38445                  24611218.120
  24611215.000          43.600          33.900
 132304226.064 7 103094213.58955                  25176657.760
  25176660.060          43.200          33.600
 126043746.796 7  98215962.73446                  23985297.820
  23985292.900          45.000          38.250
 126538516.346 7  98601406.423 6                  24079480.020    24079475.840
  24079475.080          46.350          40.350
 121013396.527 7  94296162.52446                  23028075.360
  23028072.120          47.950          40.550
 109458635.026 8  85292443.42647                  20829283.640
  20829278.460          49.700          47.650
 116950251.447 8  91130061.44347                  22254883.160
  22254877.560          49.550          42.550
 111394905.833 8  86801234.51747                  21197731.820
  21197724.580          50.250          47.250
 107591851.137 8  83837817.395 8  80344569.998 8  20474042.540    20474040.560
  20474040.000          50.400          50.400
 113335799.713 8  88313590.22447                  21567079.560
  21567072.760          49.450          45.950
 133550031.390 6 104064952.105 6  99728909.175 7  25413728.560    25413727.020
  25413726.200          39.250          36.250
 126276228.572 7  98214853.246 5                  23630876.800    23630881.720
  23630880.260          42.150          30.900
 130329964.421 7 101367772.735 6                  24380910.620    24380912.160
  24380911.600          43.250          37.050
 114985825.076 7  89433469.190 7                  21487831.480    21487832.320
  21487831.260          47.850          43.150
 129480076.512 7 100706740.070 6                  24179483.400    24179485.920
  24179485.260          42.300          38.500
 113557176.544 8  88322277.524 7                  21213428.920    21213430.580
  21213429.820          49.250          46.150
 106486032.255 8  82822501.206 7                  19948413.240    19948415.600
  19948414.420          49.150          47.100
 112587993.459 7  87568452.785 7                  21076708.460    21076712.260
  21076711.820          44.650          43.650
 112668252.714 8  87630853.425 7                  21113977.720    21113979.560
  21113979.220          49.300          43.050
 118667879.438 7  92297243.201 7                  22222679.520    22222683.680
  22222681.860          44.850          43.250
 122282279.068 7  95108459.387 7                  22859379.080    22859383.340
  22859382.860          46.200          44.350
 152986704.210 8                 114243351.472 7  29112400.000
                        49.100
 131653307.462 8                  98312642.746 8  25052737.980
                        50.600
 15  1 27  4  4 40.0000000  0 22G11G21G07G04G16G18G22G27G19G30R11R05
                                R21R08R07R22R12R06R13R23E18E11
 129316707.939 7 100766250.97545                  24608149.260
  24608146.200          43.450          34.650
 126056595.906 7  98225975.04746                  23987742.940
  23987738.060          44.800          38.400
 126538886.406 7  98601694.777 6                  24079550.400    24079546.280
  24079545.500          46.400          40.250
 120998205.867 7  94284325.65446                  23025184.680
  23025181.480          47.900          39.450
 109466893.474 8  85298878.58247                  20830855.160
  20830849.980          49.650          47.800
 116955992.405 8  91134534.91147                  22255975.640
  22255970.020          49.450          42.550
 111389240.237 8  86796819.76147                  21196653.680
  21196646.440          50.200          47.250
 107588615.735 8  83835296.300 8  80342153.949 8  20473426.880    20473424.880
  20473424.320          50.450          50.400
 113326303.286 8  88306190.41147                  21565272.380
  21565265.640          49.550          46.250
 133543227.483 6 104059650.369 6  99723828.319 6  25412433.780    25412432.280
  25412431.480          40.550          36.600
 126297889.250 7  98231700.442 5                  23634930.280    23634935.100
  23634933.640          42.600          30.300
 130347705.464 7 101381571.341 6                  24384229.420    24384230.900
  24384230.420          42.100          37.350
 114996137.115 7  89441489.655 7                  21489758.480    21489759.360
  21489758.300          47.750          43.350
 129457973.728 7 100689549.078 6                  24175355.840    24175358.280
  24175357.620          42.250          38.100
 113541677.100 8  88310222.413 7                  21210533.520    21210535.160
  21210534.420          49.300          46.250
 106484431.446 8  82821256.126 7                  19948113.360    19948115.720
  19948114.500          49.450          47.100
 112599812.758 7  87577645.565 7                  21078921.060    21078924.940
  21078924.420          45.100          43.800
 112670953.521 8  87632954.048 7                  21114483.860    21114485.620
  21114485.360          49.050          43.100
 118660614.948 7  92291593.045 7                  22221319.160    22221323.320
  22221321.420          45.450          43.050
 122269457.552 7  95098487.106 7                  22856982.280    22856986.520
  22856986.100          46.400          44.550
 153005093.834 8                 114257083.985 7  29115899.460
                        49.200
 131660893.355 8                  98318307.531 8  25054181.460
                        50.550
 15  1 27  4  4 45.0000000  0 22G11G21G07G04G16G18G22G27G19G30R11R05
                                R21R08R07R22R12R06R13R23E18E11
 129300584.855 7 100753687.53846                  24605081.160
  24605078.040          43.250          36.400
 126069447.400 7  98235989.17546                  23990188.480
  23990183.640          44.950          38.900
 126539272.677 7  98601995.764 6                  24079623.900    24079619.800
  24079619.080          46.100          40.300
 120983022.761 7  94272494.67046                  23022295.460
  23022292.260          47.800          40.100
 109475167.488 8  85305325.86647                  20832429.640
  20832424.460          49.450          47.750
 116961747.709 8  91139019.56447                  22257070.820
  22257065.240          49.300          42.550
 111383590.128 8  86792417.07747                  21195578.500
  21195571.240          50.100          47.250
 107585389.485 8  83832782.339 8  80339744.732 8  20472812.940    20472810.940
  20472810.380          50.450          50.400
 113316813.720 8  88298795.94847                  21563466.540
  21563459.860          49.700          45.950
 133536438.358 6 104054360.136 5  99718758.496 6  25411141.840    25411140.480
  25411139.620          39.450          35.050
 126319550.932 7  98248548.435 5                  23638983.980    23638988.620
  23638987.240          42.700          30.250
 130365458.398 7 101395379.160 6                  24387550.420    24387551.900
  24387551.460          42.300          36.900
 115006454.647 8  89449514.398 7                  21491686.500    21491687.480
  21491686.420          48.000          43.250
 129435869.747 6 100672357.129 6                  24171227.960    24171230.380
  24171229.700          41.400          37.300
 113526193.412 8  88298179.557 7                  21207641.040    21207642.680
  21207641.920          49.250          46.000
 106482838.342 8  82820017.043 7                  19947814.940    19947817.280
  19947816.040          49.700          47.250
 112611651.704 7  87586853.636 7                  21081137.300    21081141.220
  21081140.700          45.200          43.750
 112673677.873 8  87635072.996 7                  21114994.380    21114996.160
  21114995.920          48.950          43.200
 118653373.055 7  92285960.459 7                  22219963.020    22219967.220
  22219965.200          44.950          42.950
 122256639.060 7  95088517.167 7                  22854586.040    22854590.240
  22854589.860          46.650          44.300
 153023477.396 8                 114270811.968 7  29119397.760
                        48.900
 131668482.641 8                  98323974.848 8  25055625.540
                        50.350
 15  1 27  4  4 50.0000000  0 22G11G21G07G04G16G18G22G27G19G30R11R05
                                R21R08R07R22R12R06R13R23E18E11
 129284465.252 7 100741126.79845                  24602013.700
  24602010.600          43.700          35.550
 126082300.865 7  98246004.85446                  23992634.400
  23992629.600          45.450          37.000
 126539674.824 7  98602309.131 6                  24079700.420    24079696.380
  24079695.620          45.800          40.350
 120967846.907 7  94260669.32746                  23019407.600
  23019404.480          47.850          39.600
 109483456.744 8  85311785.02547                  20834007.040
  20834001.840          49.550          47.750
 116967516.984 8  91143515.09247                  22258168.620
  22258163.120          49.350          43.050
 111377955.151 8  86788026.18647                  21194506.180
  21194498.920          50.150          47.350
 107582172.045 8  83830275.241 8  80337342.098 8  20472200.680    20472198.680
  20472198.120          50.550          50.350
 113307330.680 8  88291406.55847                  21561661.940
  21561655.300          49.700          45.750
 133529663.658 6 104049081.139 5  99713699.465 7  25409852.620    25409851.320
  25409850.400          39.100          35.750
 126341213.322 7  98265396.955 5                  23643037.800    23643042.540
  23643041.100          42.600          32.500
 130383223.004 7 101409196.097 6                  24390873.700    24390875.100
  24390874.660          43.050          36.100
 115016777.279 8  89457543.109 7                  21493615.480    21493616.580
  21493615.500          48.000          43.450
 129413764.280 6 100655164.044 6                  24167099.780    24167102.280
  24167101.620          41.150          37.850
 113510725.178 8  88286148.698 7                  21204751.440    21204753.080
  21204752.340          49.150          46.250
 106481252.602 8  82818783.688 7                  19947517.920    19947520.220
  19947518.980          49.350          47.300
 112623509.899 7  87596076.675 7                  21083357.240    21083361.100
  21083360.580          44.950          43.800
 112676425.428 8  87637209.986 7                  21115509.260    21115511.100
  21115510.820          48.800          42.900
 118646153.295 7  92280345.092 7                  22218611.000    22218615.180
  22218613.080          45.050          42.550
 122243823.415 7  95078549.446 7                  22852190.300    22852194.480
  22852194.140          46.550          44.100
 153041854.557 8                 114284535.159 7  29122894.820
                        48.700
 131676074.964 8                  98329644.440 8  25057070.200
                        50.600
 15  1 27  4  4 55.0000000  0 22G11G21G07G04G16G18G22G27G19G30R11R05
                                R21R08R07R22R12R06R13R23E18E11
 129268347.548 7 100728567.55746                  24598946.660
  24598943.480          44.200          37.300
 126095154.782 7  98256020.89746                  23995080.480
  23995075.620          45.050          38.900
 126540091.228 7  98602633.607 6                  24079779.640    24079775.640
  24079774.900          45.050          40.600
 120952676.734 8  94248848.41346                  23016520.820
  23016517.700          48.000          39.400
 109491759.634 8  85318254.80747                  20835587.020
  20835581.820          49.650          47.650
 116973298.658 8  91148020.28947                  22259268.780
  22259263.360          49.250          42.900
 111372333.714 8  86783645.84747                  21193436.440
  21193429.200          50.250          47.250
 107578961.820 8  83827773.769 8  80334944.860 8  20471589.800    20471587.800
  20471587.240          50.450          50.400
 113297852.564 8  88284021.01147                  21559858.280
  21559851.680          49.650          45.900
 133522901.844 6 104043812.194 6  99708650.059 7  25408565.880    25408564.620
  25408563.840          39.550          36.100
 126362874.721 7  98282244.693 5                  23647091.440    23647096.020
  23647094.680          42.650          32.700
 130400997.628 7 101423020.835 6                  24394198.860    24394200.300
  24394199.720          42.850          37.000
 115027103.451 7  89465574.564 7                  21495545.100    21495546.280
  21495545.260          47.700          43.650
 129391655.740 6 100637968.583 6                  24162971.060    24162973.700
  24162973.060          41.950          39.300
 113495270.691 8  88274128.556 7                  21201864.420    21201866.060
  21201865.300          49.000          46.000
 106479672.619 8  82817554.812 7                  19947221.960    19947224.220
  19947223.020          49.250          47.300
 112635385.562 7  87605313.305 7                  21085580.420    21085584.240
  21085583.680          44.200          43.650
 112679194.837 8  87639363.977 7                  21116028.220    21116030.120
  21116029.820          48.700          42.950
 118638953.996 7  92274745.631 7                  22217262.800    22217266.960
  22217264.840          44.700          42.750
 122231008.867 7  95068582.577 7                  22849794.780    22849798.920
  22849798.620          46.700          43.900
 153060223.699 8                 114298252.391 7  29126390.340
                        48.550
 131683668.755 8                  98335315.121 8  25058515.180
                        50.550
 15  1 27  4  5  0.0000000  0 23G11G08G21G07G04G16G18G22G27G19G30R11
                                R05R21R08R07R22R12R06R13R23E18E11
 129252230.444 7 100716008.77045                  24595879.720
  24595876.400          44.550          33.600
                                                  25192992.120
                        45.150
 126108007.816 7  98266036.25446                  23997526.360
  23997521.500          45.350          37.550
 126540520.593 7  98602968.170 6                  24079861.320    24079857.380
  24079856.660          45.950          40.400
 120937510.967 7  94237030.93446                  23013634.880
  23013631.740          47.850          39.950
 109500074.843 8  85324734.18647                  20837169.380
  20837164.160          49.850          47.350
 116979091.423 8  91152534.12847                  22260371.060
  22260365.720          49.150          42.950
 111366724.497 8  86779275.03447                  21192369.040
  21192361.800          50.400          47.300
 107575757.517 8  83825276.912 8  80332552.029 8  20470980.020    20470978.040
  20470977.480          50.350          50.550
 113288378.087 8  88276638.30847                  21558055.320
  21558048.740          49.600          46.100
 133516151.580 6 104038552.285 5  99703609.261 7  25407281.380    25407280.180
  25407279.240          39.950          35.150
 126384533.839 7  98299090.673 5                  23651144.680    23651149.180
  23651147.840          42.300          32.600
 130418780.877 7 101436852.268 6                  24397525.520    24397527.040
  24397526.380          43.400          38.100
 115037431.819 7  89473607.716 7                  21497475.160    21497476.400
  21497475.400          47.750          43.300
 129369542.878 7 100620769.760 6                  24158841.540    24158844.280
  24158843.640          42.650          38.950
 113479828.779 8  88262118.178 7                  21198979.720    21198981.360
  21198980.600          49.200          46.050
 106478097.022 8  82816329.362 7                  19946926.780    19946929.080
  19946927.860          49.050          47.350
 112647277.533 7  87614562.617 7                  21087806.640    21087810.460
  21087809.860          44.350          43.600
 112681984.576 8  87641533.771 7                  21116550.980    21116552.920
  21116552.640          48.750          42.850
 118631773.944 7  92269161.149 7                  22215918.180    22215922.300
  22215920.200          44.850          43.100
 122218194.175 7  95058615.609 7                  22847399.180    22847403.340
  22847403.060          46.750          43.650
 153078583.532 8                 114311962.654 7  29129884.080
                        48.450
 131691262.676 8                  98340985.906 8  25059960.180
                        50.600
 15  1 27  4  5  5.0000000  0 23G11G08G21G07G04G16G18G22G27G19G30R11
                                R05R21R08R07R22R12R06R13R23E18E11
 129236118.116 7 100703453.72245                  24592813.640
  24592810.400          45.000          34.850
 132407224.518 6                                  25196255.720
                        40.100
 126120864.186 7  98276054.19346                  23999972.840
  23999967.960          45.300          36.650
 126540967.111 7  98603316.114 6                  24079946.240    24079942.380
  24079941.700          45.700          40.550
 120922353.784 7  94225220.15946                  23010750.520
  23010747.440          47.950          38.650
 109508406.536 8  85331226.41747                  20838754.840
  20838749.620          50.050          47.100
 116984899.435 8  91157059.84747                  22261476.260
  22261471.000          49.350          42.800
 111361131.686 8  86774917.00447                  21191304.760
  21191297.520          50.350          47.250
 107572563.325 8  83822787.937 8  80330166.762 8  20470372.180    20470370.200
  20470369.640          50.300          50.400
 113278911.461 8  88269261.72247                  21556253.860
  21556247.320          49.550          46.250
 133509417.036 6 104033304.579 5  99698580.219 7  25405999.860    25405998.500
  25405997.800          39.850          34.600
 126406194.888 7  98315938.141 5                  23655198.260    23655202.880
  23655201.400          42.250          33.950
 130436577.049 7 101450693.735 6                  24400854.620    24400856.200
  24400855.540          42.900          37.850
 115047766.606 7  89481645.884 7                  21499406.460    21499407.740
  21499406.700          47.850          43.100
 129347429.807 7 100603570.757 6                  24154712.040    24154714.860
  24154714.240          42.850          39.100
 113464403.600 8  88250120.827 7                  21196098.140    21196099.840
  21196099.040          49.000          45.950
 106476530.027 8  82815110.584 7                  19946633.260    19946635.520
  19946634.340          49.050          47.300
 112659189.921 7  87623827.811 7                  21090036.660    21090040.500
  21090039.860          44.600          43.600
 112684798.948 8  87643722.728 7                  21117078.400    21117080.280
  21117080.100          48.800          43.100
 118624617.394 7  92263594.959 7                  22214577.980    22214582.140
  22214579.980          44.750          43.000
 122205383.666 7  95048651.896 7                  22845004.380    22845008.500
  22845008.280          47.000          43.550
 153096938.254 8                 114325669.110 7  29133376.820
                        48.650
 131698860.945 8                  98346659.932 8  25061406.060
                        50.700
 15  1 27  4  5 10.0000000  0 23G11G08G21G07G04G16G18G22G27G19G30R11
                                R05R21R08R07R22R12R06R13R23E18E11
 129220008.140 7 100690900.49045                  24589748.060
  24589744.740          45.250          34.500
 132424376.404 6 103187828.86555                  25199520.060
  25199521.900          37.950          30.600
 126133721.576 7  98286072.93546                  24002419.540
  24002414.660          45.600          37.500
 126541428.377 7  98603675.536 6                  24080033.960    24080030.200
  24080029.500          45.250          40.850
 120907202.694 7  94213414.11746                  23007867.340
  23007864.240          47.750          39.100
 109516752.318 8  85337729.61947                  20840343.000
  20840337.760          49.900          47.450
 116990720.309 8  91161595.59147                  22262583.920
  22262578.720          49.550          43.050
 111355552.927 8  86770569.91547                  21190243.140
  21190235.900          50.150          47.200
 107569376.861 8  83820304.974 8  80327787.261 8  20469765.820    20469763.820
  20469763.280          50.200          50.450
 113269450.269 8  88261889.35947                  21554453.460
  21554446.900          49.350          46.050
 133502695.891 6 104028067.290 5  99693561.160 7  25404720.880    25404719.500
  25404718.920          38.500          35.400
 126427855.566 7  98332785.314 5                  23659251.800    23659256.500
  23659254.920          42.300          34.500
 130454383.573 7 101464543.239 6                  24404185.720    24404187.340
  24404186.620          42.350          37.700
 115058105.471 7  89489687.211 7                  21501338.500    21501339.820
  21501338.740          47.800          42.950
 129325314.235 6 100586369.811 6                  24150582.040    24150584.920
  24150584.320          41.900          38.500
 113448992.869 8  88238134.697 7                  21193219.260    21193221.000
  21193220.160          48.900          46.150
 106474969.304 8  82813896.680 7                  19946340.900    19946343.140
  19946341.980          49.200          47.200
 112671120.268 7  87633106.966 7                  21092270.080    21092273.860
  21092273.240          44.650          43.650
 112687635.534 8  87645928.962 7                  21117609.980    21117611.860
  21117611.720          48.800          43.350
 118617481.939 7  92258045.165 7                  22213241.720    22213245.840
  22213243.700          44.700          42.900
 122192574.647 7  95038689.320 7                  22842609.840    22842613.960
  22842613.780          46.600          43.450
 153115285.446 8                 114339369.937 7  29136868.140
                        48.100
 131706461.145 8                  98352335.406 8  25062852.340
                        50.700
 15  1 27  4  5 15.0000000  0 23G11G08G21G07G04G16G18G22G27G19G30R11
                                R05R21R08R07R22R12R06R13R23E18E11
 129203899.948 7 100678348.64245                  24586682.800
  24586679.440          45.150          34.950
 132441523.966 6 103201190.57144                  25202783.220
  25202784.060          39.350          29.200
 126146579.287 7  98296091.92246                  24004866.320
  24004861.420          45.900          37.050
 126541903.789 7  98604045.977 6                  24080124.340    24080120.700
  24080120.020          44.800          40.600
 120892057.188 7  94201612.43246                  23004985.200
  23004982.100          47.700          39.300
 109525111.592 8  85344243.33147                  20841933.720
  20841928.480          49.650          47.550
 116996553.399 8  91166140.84847                  22263693.920
  22263688.780          49.700          43.100
 111349987.611 8  86766233.30347                  21189184.060
  21189176.840          50.200          47.300
 107566197.494 8  83817827.543 8  80325413.058 8  20469160.800    20469158.820
  20469158.280          50.200          50.550
 113259993.893 8  88254520.75447                  21552653.960
  21552647.400          49.300          46.100
 133495987.473 6 104022839.951 5  99688551.618 7  25403444.260    25403443.000
  25403442.340          39.200          35.200
 126449515.044 7  98349631.567 5                  23663305.080    23663309.820
  23663308.180          42.550          34.900
 130472199.906 7 101478400.380 6                  24407518.620    24407520.280
  24407519.620          42.350          38.350
 115068447.662 7  89497731.137 7                  21503271.180    21503272.460
  21503271.380          47.800          42.550
 129303195.512 6 100569166.393 6                  24146451.420    24146454.400
  24146453.700          41.750          37.250
 113433595.847 8  88226159.242 7                  21190342.940    21190344.740
  21190343.860          49.000          45.950
 106473414.149 8  82812687.109 7                  19946049.580    19946051.800
  19946050.660          49.300          47.100
 112683067.904 7  87642399.564 7                  21094506.700    21094510.440
  21094509.880          44.650          43.800
 112690493.750 8  87648152.004 7                  21118145.660    21118147.480
  21118147.400          49.100          43.250
 118610366.906 7  92252511.243 7                  22211909.320    22211913.420
  22211911.280          44.700          43.150
 122179766.869 7  95028727.714 7                  22840215.560    22840219.640
  22840219.500          46.400          43.250
 153133624.529 7                 114353064.689 7  29140357.900
                        47.800
 131714062.680 8                  98358011.863 8  25064298.900
                        50.850
 15  1 27  4  5 20.0000000  0 23G11G08G21G07G04G16G18G22G27G19G30R11
                                R05R21R08R07R22R12R06R13R23E18E11
 129187793.538 7 100665798.19845                  24583617.880
  24583614.560          44.900          33.950
 132458666.559 6                                  25206045.660
                        39.300
 126159437.311 7  98306111.17145                  24007313.140
  24007308.200          45.950          35.700
 126542393.304 7  98604427.406 6                  24080217.420    24080213.900
  24080213.240          45.250          40.650
 120876917.276 7  94189815.10846                  23002104.120
  23002101.040          47.650          40.050
 109533484.306 8  85350767.52247                  20843527.000
  20843521.740          49.750          47.700
 117002398.706 8  91170695.63747                  22264806.300
  22264801.160          49.900          42.800
 111344435.687 8  86761907.13147                  21188127.560
  21188120.320          50.200          47.050
 107563025.234 8  83815355.656 8  80323044.163 8  20468557.140    20468555.160
  20468554.620          50.200          50.550
 113250542.320 8  88247155.89847                  21550855.420
  21550848.820          49.150          46.600
 133489291.780 6 104017622.516 5  99683551.595 7  25402170.120    25402168.740
  25402167.880          40.200          35.350
 126471173.250 6  98366476.836 5                  23667358.120    23667362.880
  23667361.260          41.950          35.100
 130490026.013 7 101492265.101 6                  24410853.300    24410855.060
  24410854.440          42.800          37.550
 115078793.264 8  89505777.724 7                  21505204.480    21505205.800
  21505204.700          48.100          42.950
 129281073.568 6 100551960.459 6                  24142320.280    24142323.180
  24142322.540          41.000          38.150
 113418212.639 8  88214194.531 7                  21187469.200    21187471.000
  21187470.120          48.750          45.900
 106471864.539 8  82811481.863 7                  19945759.320    19945761.500
  19945760.360          48.950          47.100
 112695032.834 7  87651705.614 7                  21096746.580    21096750.300
  21096749.780          44.550          43.800
 112693373.466 8  87650391.788 7                  21118685.360    21118687.200
  21118687.100          48.950          42.950
 118603272.291 7  92246993.227 7                  22210580.700    22210584.840
  22210582.700          44.700          43.300
 122166960.027 7  95018766.843 7                  22837821.440    22837825.500
  22837825.380          46.050          42.950
 153151955.446 7                 114366753.353 7  29143846.060
                        47.950
 131721665.510 8                  98363689.305 8  25065745.740
                        51.050
 15  1 27  4  5 25.0000000  0 22G11G21G07G04G16G18G22G27G19G30R11R05
                                R21R08R07R22R12R06R13R23E18E11
 129171690.677 7 100653250.52145                  24580553.640
  24580550.200          45.000          34.650
 126172297.323 7  98316131.95846                  24009760.340
  24009755.400          45.900          36.750
 126542898.717 7  98604821.235 6                  24080313.560    24080310.020
  24080309.420          45.800          40.400
 120861784.616 7  94178023.42546                  22999224.460
  22999221.360          47.650          39.900
 109541872.207 8  85357303.55347                  20845123.180
  20845117.900          49.950          47.400
 117008257.976 8  91175261.30847                  22265921.380
  22265916.240          50.100          42.850
 111338898.987 8  86757592.82547                  21187073.920
  21187066.700          50.200          47.000
 107559861.815 8  83812890.661 8  80320681.870 8  20467955.140    20467953.180
  20467952.660          50.400          50.400
 113241097.340 8  88239796.18547                  21549058.120
  21549051.500          49.300          46.200
 133482610.651 6 104012416.437 5  99678562.409 7  25400898.740    25400897.300
  25400896.460          40.200          35.200
 126492832.036 7  98383322.550 5                  23671411.260    23671416.000
  23671414.440          42.000          35.550
 130507863.567 7 101506138.771 6                  24414190.180    24414191.940
  24414191.360          43.250          37.600
 115089144.011 8  89513828.307 7                  21507138.720    21507140.100
  21507139.020          48.250          43.150
 129258950.369 6 100534753.603 6                  24138188.820    24138191.780
  24138191.160          41.300          38.300
 113402845.078 8  88202242.000 7                  21184598.380    21184600.200
  21184599.300          48.950          45.850
 106470322.334 8  82810282.373 7                  19945470.380    19945472.600
  19945471.440          49.200          46.900
 112707016.955 7  87661026.605 7                  21098990.060    21098993.760
  21098993.240          44.550          43.850
 112696276.568 8  87652649.754 7                  21119229.440    21119231.340
  21119231.160          49.300          42.900
 118596199.930 7  92241492.502 7                  22209256.280    22209260.360
  22209258.300          44.950          43.150
 122154155.870 7  95008808.067 7                  22835427.800    22835431.840
  22835431.780          46.550          43.150
 153170279.962 8                 114380437.229 7  29147333.020
                        48.050
 131729271.409 8                  98369369.027 8  25067193.160
                        51.100
 15  1 27  4  5 30.0000000  0 22G11G21G07G04G16G18G22G27G19G30R11R05
                                R21R08R07R22R12R06R13R23E18E11
 129155588.949 7 100640703.68545                  24577489.620
  24577486.140          44.600          34.500
 126185156.957 7  98326152.44846                  24012207.480
  24012202.500          46.100          36.050
 126543417.642 7  98605225.592 6                  24080412.240    24080408.860
  24080408.220          45.700          40.100
 120846656.893 7  94166235.59346                  22996345.740
  22996342.620          47.700          39.450
 109550272.881 8  85363849.53047                  20846721.760
  20846716.500          50.000          47.200
 117014128.833 8  91179835.99647                  22267038.680
  22267033.500          50.400          42.450
 111333375.122 8  86753288.51347                  21186022.740
  21186015.540          50.400          46.850
 107556704.884 8  83810430.717 8  80318324.429 8  20467354.400    20467352.440
  20467351.900          50.450          50.400
 113231656.545 8  88232439.72247                  21547261.580
  21547254.920          49.450          46.450
 133475941.609 6 104007219.751 5  99673582.282 7  25399629.680    25399628.080
  25399627.160          39.750          35.500
 126514488.959 6  98400166.808 5                  23675464.120    23675468.920
  23675467.320          41.750          35.750
 130525710.242 7 101520019.549 6                  24417528.760    24417530.480
  24417529.880          42.900          36.850
 115099497.508 8  89521881.007 7                  21509073.460    21509074.900
  21509073.860          48.000          43.800
 129236823.372 6 100517543.771 6                  24134056.740    24134059.560
  24134059.060          41.050          37.800
 113387490.630 8  88190299.649 7                  21181730.000    21181731.840
  21181730.920          48.850          45.650
 106468785.104 8  82809086.743 7                  19945182.380    19945184.640
  19945183.460          49.150          47.050
 112719017.609 7  87670360.445 7                  21101236.600    21101240.280
  21101239.780          44.350          43.400
 112699200.496 8  87654923.918 7                  21119777.400    21119779.300
  21119779.120          49.400          43.050
 118589147.469 7  92236007.244 7                  22207935.600    22207939.700
  22207937.620          44.850          43.200
 122141352.190 7  94998849.649 7                  22833034.300    22833038.340
  22833038.280          46.400          43.000
 153188595.697 8                 114394114.568 7  29150818.320
                        48.150
 131736877.989 8                  98375049.271 8  25068640.760
                        51.300
 15  1 27  4  5 35.0000000  0 23G11G08G21G07G04G16G18G22G27G19G30R11
                                R05R21R08R07R22R12R06R13R23E18E11
 129139489.246 7 100628158.47446                  24574425.980
  24574422.440          44.250          36.050
                                                  25215827.660
                        40.050
 126198017.130 7  98336173.36246                  24014654.720
  24014649.740          46.050          36.250
 126543950.836 7  98605641.090 6                  24080513.660    24080510.380
  24080509.720          45.950          40.400
 120831535.005 7  94154452.29846                  22993468.140
  22993465.040          47.850          39.900
 109558687.212 8  85370406.15447                  20848322.960
  20848317.680          50.000          47.400
 117020012.135 8  91184420.38847                  22268158.340
  22268153.120          50.600          43.000
 111327864.941 8  86748994.86447                  21184974.160
  21184966.960          50.300          47.050
 107553555.313 8  83807976.503 8  80315972.481 8  20466755.060    20466753.100
  20466752.580          50.550          50.450
 113222220.798 8  88225087.19647                  21545466.040
  21545459.320          49.550          46.650
 133469285.560 6 104002033.180 6  99668611.854 7  25398363.120    25398361.380
  25398360.720          39.450          36.950
 126536144.881 6  98417010.286 5                  23679516.760    23679521.560
  23679519.960          40.700          35.950
 130543566.722 7 101533907.940 6                  24420869.240    24420870.860
  24420870.300          43.650          37.350
 115109854.586 7  89529936.505 7                  21511008.880    21511010.400
  21511009.400          47.900          44.100
 129214693.519 6 100500331.705 6                  24129924.100    24129926.900
  24129926.400          41.100          37.400
 113372150.198 8  88178368.202 7                  21178864.280    21178866.080
  21178865.140          48.750          45.650
 106467253.687 8  82807895.647 7                  19944895.460    19944897.760
  19944896.560          48.850          47.200
 112731035.799 7  87679707.926 7                  21103486.400    21103490.120
  21103489.620          44.100          43.600
 112702146.178 8  87657215.008 7                  21120329.460    21120331.340
  21120331.140          49.350          43.350
 118582115.544 7  92230537.986 7                  22206618.740    22206622.820
  22206620.780          44.950          42.750
 122128549.664 7  94988892.125 7                  22830641.020    22830644.960
  22830645.000          46.100          42.950
 153206903.534 8                 114407786.003 7  29154302.120
                        48.200
 131744486.124 8                  98380730.671 8  25070088.660
                        51.350
 15  1 27  4  5 40.0000000  0 23G11G08G21G07G04G16G18G22G27G19G30R11
                                R05R21R08R07R22R12R06R13R23E18E11
 129123394.250 7 100615616.91445                  24571363.260
  24571359.600          44.550          34.500
 132527194.061 5                                  25219085.500
                        35.950
 126210880.442 7  98346196.72846                  24017102.540
  24017097.560          45.300          37.850
 126544501.093 7  98606069.846 6                  24080618.360    24080615.080
  24080614.440          45.800          40.850
 120816421.620 7  94142675.63246                  22990592.180
  22990589.060          47.750          40.500
 109567117.918 8  85376975.53147                  20849927.260
  20849921.980          49.950          47.650
 117025910.578 8  91189016.58047                  22269280.920
  22269275.600          50.550          43.150
 111322371.141 8  86744713.98247                  21183928.700
  21183921.500          50.200          47.150
 107550415.773 8  83805530.113 8  80313628.023 8  20466157.600    20466155.660
  20466155.140          50.350          50.650
 113212792.825 8  88217740.73047                  21543671.960
  21543665.220          49.700          46.200
 133462645.226 6 103996858.915 6  99663653.146 7  25397099.580    25397097.780
  25397097.020          40.500          37.150
 126557802.572 6  98433855.131 6                  23683569.700    23683574.520
  23683572.960          41.550          36.500
 130561436.150 7 101547806.396 6                  24424212.120    24424213.720
  24424213.140          44.200          38.300
 115120218.029 7  89537996.948 7                  21512945.500    21512947.080
  21512946.100          47.400          43.800
 129192563.591 6 100483119.582 6                  24125791.440    24125794.260
  24125793.740          41.000          37.850
 113356826.530 8  88166449.791 7                  21176001.680    21176003.420
  21176002.500          48.900          46.000
 106465730.811 8  82806711.186 7                  19944610.120    19944612.440
  19944611.260          49.100          47.200
 112743074.281 7  87689071.190 7                  21105740.040    21105743.760
  21105743.260          44.300          43.700
 112705116.508 8  87659525.263 7                  21120886.160    21120887.980
  21120887.800          49.450          43.550
 118575107.143 7  92225086.998 7                  22205306.280    22205310.360
  22205308.300          44.650          42.750
 122115751.213 7  94978937.782 7                  22828248.520    22828252.380
  22828252.380          46.800          42.850
 153225206.142 8                 114421453.532 7  29157784.920
                        48.050
 131752098.498 8                  98386415.232 8  25071537.380
                        51.350
 15  1 27  4  5 45.0000000  0 23G11G08G21G07G04G16G18G22G27G19G30R11
                                R05R21R08R07R22R12R06R13R23E18E11
 129107300.835 7 100603076.61445                  24568300.820
  24568297.060          44.850          33.900
 132544316.490 6 103281308.69055                  25222344.240
  25222350.520          39.750          34.350
 126223743.789 7  98356220.11746                  24019550.380
  24019545.320          45.000          36.450
 126545065.271 7  98606509.473 6                  24080725.720    24080722.460
  24080721.820          46.050          40.750
 120801313.593 7  94130903.16246                  22987717.220
  22987714.100          47.850          40.650
 109575561.866 8  85383555.24047                  20851534.100
  20851528.820          49.850          47.750
 117031821.014 8  91193622.12747                  22270405.800
  22270400.360          50.450          42.900
 111316890.625 8  86740443.46747                  21182885.760
  21182878.580          50.250          47.050
 107547283.170 8  83803089.136 8  80311288.744 8  20465561.480    20465559.560
  20465559.020          50.300          50.600
 113203369.483 8  88210397.87647                  21541878.800
  21541872.000          49.950          46.550
 133456017.423 6 103991694.403 6  99658703.822 7  25395838.400    25395836.640
  25395835.880          39.850          36.950
 126579458.726 6  98450698.805 6                  23687622.360    23687627.220
  23687625.660          41.300          36.250
 130579314.810 7 101561712.047 6                  24427556.640    24427558.220
  24427557.700          42.800          38.550
 115130584.634 7  89546059.864 7                  21514882.740    21514884.380
  21514883.420          47.300          43.400
 129170430.418 6 100465904.963 6                  24121658.220    24121660.920
  24121660.460          40.650          36.650
 113341516.667 8  88154542.127 7                  21173141.680    21173143.400
  21173142.480          49.050          46.250
 106464213.305 8  82805530.916 7                  19944325.820    19944328.160
  19944326.960          49.050          47.000
 112755129.846 7  87698447.748 7                  21107996.860    21108000.600
  21108000.080          44.700          43.700
 112708108.214 8  87661852.152 7                  21121446.820    21121448.600
  21121448.420          49.400          42.800
 118568119.094 7  92219651.879 7                  22203997.600    22204001.660
  22203999.660          44.400          42.900
 122102953.633 7  94968984.128 7                  22825856.200    22825860.020
  22825859.940          46.750          42.200
 153243500.402 7                 114435114.843 7  29161266.140
                        47.950
 131759711.980 8                  98392100.634 8  25072986.320
                        51.300
 15  1 27  4  5 50.0000000  0 23G11G08G21G07G04G16G18G22G27G19G30R11
                                R05R21R08R07R22R12R06R13R23E18E11
 129091209.060 7 100590537.54645                  24565238.720
  24565234.720          45.000          34.400
 132561434.069 5 103294647.03945                  25225602.620
  25225599.040          34.800          33.650
 126236607.178 7  98366243.53346                  24021998.200
  24021993.140          45.100          36.650
 126545643.373 7  98606959.927 6                  24080835.720    24080832.420
  24080831.780          46.300          40.600
 120786210.950 7  94119134.85846                  22984843.260
  22984840.160          47.800          40.250
 109584019.039 8  85390145.23247                  20853143.440
  20853138.160          49.900          47.500
 117037743.476 8  91198237.02847                  22271532.940
  22271527.380          50.600          43.100
 111311423.375 8  86736183.26647                  21181845.340
  21181838.160          50.300          47.100
 107544157.499 8  83800653.548 8  80308954.645 8  20464966.680    20464964.760
  20464964.220          50.300          50.600
 113193950.804 8  88203058.63947                  21540086.520
  21540079.680          50.050          46.550
 133449402.237 6 103986539.711 6  99653763.907 7  25394579.640    25394577.860
  25394577.120          39.200          37.300
 126601113.491 6  98467541.373 6                  23691674.800    23691679.680
  23691678.140          40.700          36.300
 130597202.976 7 101575625.043 6                  24430902.980    24430904.600
  24430904.060          43.650          38.750
 115140954.487 7  89554125.301 7                  21516820.560    21516822.260
  21516821.300          47.650          43.800
 129148293.924 6 100448687.725 6                  24117524.320    24117526.960
  24117526.460          41.300          37.150
 113326220.516 8  88142645.124 7                  21170284.280    21170285.920
  21170285.020          49.300          46.300
 106462701.252 8  82804354.883 7                  19944042.540    19944044.900
  19944043.680          48.900          47.300
 112767202.261 7  87707837.390 7                  21110256.800    21110260.580
  21110260.040          45.000          43.650
 112711121.210 8  87664195.588 7                  21122011.500    21122013.160
  21122013.020          49.300          42.950
 118561151.231 7  92214232.435 7                  22202692.740    22202696.740
  22202694.780          44.350          42.450
 122090156.845 7  94959031.069 7                  22823463.980    22823467.700
  22823467.580          46.400          42.250
 153261786.344 8                 114448769.907 7  29164745.800
                        48.450
 131767326.618 8                  98397786.874 8  25074435.440
                        51.450
 15  1 27  4  5 55.0000000  0 22G11G21G07G04G16G18G22G27G19G30R11R05
                                R21R08R07R22R12R06R13R23E18E11
 129075120.966 7 100578001.37545                  24562177.300
  24562173.240          45.100          34.500
 126249472.706 7  98376268.61346                  24024446.420
  24024441.380          44.700          39.100
 126546237.515 7  98607422.908 6                  24080948.800    24080945.500
  24080944.840          46.650          40.400
 120771115.789 7  94107372.40246                  22981970.740
  22981967.700          47.600          39.950
 109592491.520 8  85396747.16947                  20854755.720
  20854750.420          49.850          47.700
 117043680.042 8  91202862.92447                  22272662.780
  22272657.100          50.550          43.050
 111305971.468 8  86731935.03247                  21180807.840
  21180800.660          50.200          47.100
 107541040.885 8  83798225.017 8  80306627.295 8  20464373.600    20464371.680
  20464371.140          50.300          50.450
 113184538.872 8  88195724.66547                  21538295.520
  21538288.660          50.000          46.400
 133442801.729 6 103981396.439 6  99648834.934 7  25393323.600    25393321.900
  25393321.280          40.550          38.150
 126622768.884 6  98484384.431 6                  23695727.340    23695732.380
  23695730.700          41.000          36.100
 130615102.660 7 101589547.040 6                  24434251.480    24434253.040
  24434252.580          43.600          38.100
 115151329.644 7  89562194.863 7                  21518759.420    21518761.160
  21518760.160          47.850          43.700
 129126156.432 7 100431469.709 6                  24113390.200    24113393.020
  24113392.320          42.250          38.600
 113310940.181 8  88130760.417 7                  21167429.840    21167431.420
  21167430.500          49.600          46.150
 106461196.766 8  82803184.733 7                  19943760.660    19943763.040
  19943761.840          48.950          47.300
 112779293.822 7  87717241.933 7                  21112520.340    21112524.100
  21112523.580          44.600          43.550
 112714157.695 8  87666557.307 7                  21122580.580    21122582.120
  21122582.020          49.600          42.900
 118554205.891 7  92208830.494 7                  22201392.100    22201396.040
  22201394.120          44.700          42.550
 122077362.978 7  94949080.287 7                  22821072.280    22821076.020
  22821075.760          46.300          42.300
 153280066.040 8                 114462420.330 7  29168224.340
                        48.850
 131774944.454 8                  98403475.526 8  25075885.180
                        51.400
 15  1 27  4  6  0.0000000  0 22G11G21G07G04G16G18G22G27G19G30R11R05
                                R21R08R07R22R12R06R13R23E18E11
 129059034.328 7 100565466.33445                  24559116.120
  24559112.100          44.700          34.300
 126262338.110 7  98386293.58746                  24026894.600
  24026889.580          44.950          37.200
 126546845.420 7  98607896.602 6                  24081064.480    24081061.200
  24081060.560          46.650          40.750
 120756025.960 7  94095614.10146                  22979099.240
  22979096.240          47.500          40.000
 109600977.044 8  85403359.27047                  20856370.460
  20856365.160          49.800          47.300
 117049628.421 8  91207498.03347                  22273794.840
  22273789.000          50.550          42.900
 111300532.708 8  86727697.04247                  21179772.860
  21179765.680          50.150          47.100
 107537931.052 8  83795801.773 8  80304305.023 8  20463781.800    20463779.900
  20463779.360          50.450          50.350
 113175131.455 8  88188394.20647                  21536505.400
  21536498.500          50.000          46.200
 133436213.680 6 103976262.915 6  99643915.279 7  25392069.960    25392068.240
  25392067.720          40.450          39.050
 126644422.452 6  98501226.066 5                  23699779.480    23699784.660
  23699782.960          40.600          35.150
 130633011.685 7 101603476.310 6                  24437601.760    24437603.300
  24437602.840          43.400          37.900
 115161707.779 8  89570266.741 7                  21520698.880    21520700.580
  21520699.580          48.100          44.050
 129104015.599 6 100414249.121 6                  24109255.440    24109258.340
  24109257.560          41.850          37.700
 113295673.394 8  88118886.246 7                  21164577.920    21164579.440
  21164578.540          49.750          46.250
 106459697.524 8  82802018.664 7                  19943479.780    19943482.180
  19943480.980          49.350          47.400
 112791402.193 7  87726659.555 7                  21114787.020    21114790.800
  21114790.260          43.900          43.300
 112717215.426 8  87668935.536 7                  21123153.600    21123155.140
  21123155.020          49.600          42.850
 118547280.830 7  92203444.342 7                  22200095.260    22200099.160
  22200097.260          44.400          42.300
 122064569.782 7  94939130.040 7                  22818680.720    22818684.420
  22818684.100          46.550          42.450
 153298337.228 8                 114476064.413 7  29171701.260
                        48.600
 131782563.278 8                  98409164.902 8  25077335.100
                        51.350
 15  1 27  4  6  5.0000000  0 22G11G21G07G04G16G18G22G27G19G30R11R05
                                R21R08R07R22R12R06R13R23E18E11
 129042952.038 7 100552934.69045                  24556055.780
  24556051.720          44.700          34.150
 126275206.420 7  98396320.84446                  24029343.340
  24029338.320          45.150          36.900
 126547469.991 7  98608383.275 6                  24081183.340    24081180.080
  24081179.400          46.750          40.550
 120740944.253 7  94083862.12646                  22976229.260
  22976226.240          47.150          40.250
 109609478.520 8  85409983.79847                  20857988.240
  20857982.940          49.800          47.450
 117055591.549 8  91212144.62847                  22274929.680
  22274923.720          50.550          42.550
 111295109.974 8  86723471.53547                  21178740.940
  21178733.740          50.200          47.050
 107534830.928 8  83793386.092 8  80301990.003 8  20463191.860    20463189.980
  20463189.400          50.650          50.400
 113165731.452 8  88181069.52647                  21534716.660
  21534709.780          49.800          46.550
 133429640.971 6 103971141.329 6  99639007.077 7  25390819.220    25390817.560
  25390817.100          40.100          38.950
 126666077.379 6  98518068.762 5                  23703831.960    23703837.140
  23703835.400          41.350          34.900
 130650932.932 7 101617415.079 6                  24440954.340    24440955.760
  24440955.420          42.800          37.750
 115172091.920 8  89578343.296 7                  21522639.460    21522641.120
  21522640.140          48.250          44.050
 129081874.350 6 100397028.202 6                  24105120.640    24105123.520
  24105122.660          41.750          37.150
 113280423.315 8  88107025.081 7                  21161729.080    21161730.600
  21161729.700          49.450          46.200
 106458206.329 8  82800858.832 7                  19943200.400    19943202.800
  19943201.620          49.100          47.400
 112803530.412 7  87736092.612 7                  21117057.420    21117061.220
  21117060.620          43.750          43.300
 112720297.247 8  87671332.509 7                  21123731.140    21123732.680
  21123732.540          49.400          43.100
 118540378.805 7  92198076.113 7                  22198802.700    22198806.600
  22198804.680          44.700          42.250
 122051780.352 7  94929182.716 7                  22816289.840    22816293.560
  22816293.160          46.100          42.700
 153316602.854 8                 114489704.324 7  29175177.120
                        48.150
 131790185.983 8                  98414857.189 8  25078785.720
                        51.250
 15  1 27  4  6 10.0000000  0 22G11G21G07G04G16G18G22G27G19G30R11R05
                                R21R08R07R22R12R06R13R23E18E11
 129026870.187 7 100540403.39545                  24552995.540
  24552991.340          45.000          32.400
 126288073.619 7  98406347.22246                  24031791.880
  24031786.840          45.550          36.400
 126548107.277 7  98608879.863 6                  24081304.600    24081301.300
  24081300.700          46.600          40.850
 120725866.755 7  94072113.42846                  22973360.100
  22973357.040          47.050          40.600
 109617992.037 8  85416617.70647                  20859608.320
  20859603.000          49.750          47.550
 117061565.495 8  91216799.64647                  22276066.560
  22276060.480          50.450          42.100
 111289699.361 8  86719255.47347                  21177711.320
  21177704.120          50.400          46.850
 107531736.579 8  83790974.911 8  80299679.294 8  20462603.020    20462601.120
  20462600.580          50.750          50.400
 113156334.960 8  88173747.58847                  21532928.600
  21532921.700          49.650          46.250
 133423079.733 6 103966028.634 6  99634107.432 7  25389570.640    25389569.040
  25389568.640          39.050          38.750
 126687729.598 6  98534909.387 5                  23707883.880    23707889.200
  23707887.320          41.350          35.250
 130668862.305 7 101631360.116 6                  24444308.320    24444309.840
  24444309.480          42.750          37.850
 115182478.046 8  89586421.388 7                  21524580.420    21524582.060
  21524581.060          48.700          43.900
 129059728.729 7 100379803.856 6                  24100985.020    24100987.960
  24100987.020          42.300          37.900
 113265185.702 8  88095173.607 7                  21158882.600    21158884.080
  21158883.180          49.450          46.250
 106456719.437 8  82799702.364 7                  19942921.840    19942924.260
  19942923.080          48.900          47.250
 112815674.405 7  87745537.928 7                  21119330.760    21119334.580
  21119333.960          44.150          43.300
 112723399.216 8  87673745.148 7                  21124312.480    21124313.980
  21124313.860          49.200          43.300
 118533495.876 7  92192722.715 7                  22197513.720    22197517.600
  22197515.640          44.250          42.350
 122038990.518 7  94919235.072 7                  22813898.960    22813902.560
  22813902.140          45.900          42.600
 153334858.970 8                 114503337.140 7  29178651.140
                        48.200
 131797808.643 8                  98420549.439 8  25080236.300
                        51.100
 15  1 27  4  6 15.0000000  0 22G11G21G07G04G16G18G22G27G19G30R11R05
                                R21R08R07R22R12R06R13R23E18E11
 129010792.724 7 100527875.51645                  24549936.120
  24549931.880          44.400          33.700
 126300943.552 7  98416375.76946                  24034240.960
  24034236.000          44.750          37.150
 126548761.196 7  98609389.422 6                  24081429.020    24081425.740
  24081425.140          46.750          41.000
 120710797.460 7  94060371.12046                  22970492.480
  22970489.420          47.100          40.350
 109626521.514 8  85423264.05647                  20861231.440
  20861226.080          49.750          47.750
 117067554.172 8  91221466.16347                  22277206.200
  22277200.020          50.200          42.450
 111284304.807 8  86715051.93247                  21176684.760
  21176677.560          50.350          46.950
 107528651.962 8  83788571.320 8  80297375.845 8  20462016.020    20462014.140
  20462013.600          50.600          50.450
 113146945.880 8  88166431.43247                  21531141.920
  21531135.000          49.600          46.300
 133416533.830 6 103960927.928 6  99629219.240 7  25388324.920    25388323.420
  25388323.100          40.350          38.250
 126709382.990 6  98551750.885 5                  23711936.040    23711941.400
  23711939.500          41.200          34.750
 130686803.960 7 101645314.769 6                  24447664.660    24447666.200
  24447665.820          43.050          38.250
 115192870.156 8  89594504.148 7                  21526522.500    21526524.120
  21526523.120          48.750          43.650
 129037582.763 7 100362579.286 6                  24096849.320    24096852.400
  24096851.380          43.050          37.300
 113249964.717 8  88083335.069 7                  21156039.200    21156040.700
  21156039.760          49.250          46.300
 106455240.760 8  82798552.289 7                  19942644.820    19942647.240
  19942646.080          49.000          47.200
 112827838.048 7  87754998.544 7                  21121607.780    21121611.600
  21121611.000          44.100          43.350
 112726525.367 8  87676176.616 7                  21124898.320    21124899.840
  21124899.680          48.900          43.150
 118526636.109 7  92187387.370 7                  22196229.120    22196232.920
  22196230.940          44.400          42.200
 122026204.263 7  94909290.217 7                  22811508.700    22811512.320
  22811511.780          45.650          42.250
 153353109.514 8                 114516965.797 7  29182124.060
                        48.050
 131805435.184 8                  98426244.583 8  25081687.580
                        51.000
 15  1 27  4  6 20.0000000  0 23G11G08G21G07G04G16G18G22G27G19G30R11
                                R05R21R08R07R22R12R06R13R23E18E11
 128994717.239 7 100515349.16745                  24546877.040
  24546872.740          44.700          35.200
 132664062.408 6                                  25245131.520
                        36.200
 126313813.923 7  98426404.61946                  24036690.100
  24036685.120          44.550          37.950
 126549429.457 7  98609910.146 6                  24081556.200    24081552.940
  24081552.340          47.050          41.700
 120695733.953 7  94048633.31646                  22967625.960
  22967622.900          47.650          40.150
 109635064.559 8  85429920.97047                  20862857.140
  20862851.760          49.950          47.700
 117073555.252 8  91226142.32947                  22278348.180
  22278341.920          50.150          42.650
 111278923.982 8  86710859.08147                  21175660.820
  21175653.600          50.450          46.850
 107525574.698 8  83786173.451 8  80295077.893 8  20461430.420    20461428.560
  20461428.000          50.700          50.550
 113137561.879 8  88159119.22647                  21529356.220
  21529349.320          49.750          46.350
 133410000.951 6 103955837.360 6  99624340.772 7  25387081.720    25387080.240
  25387079.820          40.700          36.800
 126731035.192 6  98568591.454 5                  23715987.960    23715993.360
  23715991.420          41.600          34.600
 130704755.188 7 101659276.848 6                  24451022.740    24451024.340
  24451023.960          43.200          37.800
 115203265.871 8  89602589.694 7                  21528465.260    21528466.860
  21528465.840          48.900          43.950
 129015434.103 7 100345352.569 6                  24092713.180    24092716.160
  24092715.100          42.750          37.800
 113234758.026 8  88071507.651 7                  21153198.460    21153200.000
  21153199.060          49.250          46.400
 106453767.902 8  82797406.734 7                  19942368.860    19942371.320
  19942370.180          48.950          47.550
 112840019.066 7  87764472.664 7                  21123888.100    21123891.940
  21123891.300          44.300          43.950
 112729673.144 8  87678624.881 7                  21125488.200    21125489.760
  21125489.580          48.950          43.250
 118519797.122 7  92182068.154 7                  22194948.340    22194952.140
  22194950.140          44.550          42.850
 122013419.155 7  94899346.253 6                  22809118.680    22809122.300
  22809121.640          46.000          41.950
 153371352.125 8                 114530588.514 7  29185595.420
                        48.250
 131813063.257 8                  98431940.872 8  25083139.140
                        50.900
 15  1 27  4  6 25.0000000  0 23G11G08G21G07G04G16G18G22G27G19G30R11
                                R05R21R08R07R22R12R06R13R23E18E11
 128978643.486 7 100502824.18145                  24543818.340
  24543814.060          44.100          34.900
 132681151.040 6                                  25248383.660
                        39.900
 126326684.385 7  98436433.53446                  24039139.220
  24039134.320          44.700          37.150
 126550111.692 7  98610441.760 6                  24081686.040    24081682.760
  24081682.240          47.000          41.750
 120680675.985 7  94036899.83346                  22964760.520
  22964757.460          47.900          40.000
 109643620.874 8  85436588.23247                  20864485.380
  20864480.000          49.950          47.650
 117079568.371 8  91230827.87647                  22279492.400
  22279486.100          49.750          42.450
 111273556.515 8  86706676.64847                  21174639.420
  21174632.200          50.250          47.250
 107522504.493 8  83783781.086 8  80292785.208 8  20460846.160    20460844.320
  20460843.760          50.550          50.600
 113128182.648 8  88151810.73847                  21527571.400
  21527564.500          49.600          46.700
 133403480.784 6 103950756.697 6  99619471.789 7  25385840.920    25385839.520
  25385838.960          40.300          37.750
 126752685.842 6  98585430.830 5                  23720039.580    23720044.980
  23720043.100          41.700          34.400
 130722715.996 7 101673246.384 6                  24454382.680    24454384.280
  24454383.880          42.750          38.350
 115213664.870 8  89610677.802 7                  21530408.580    21530410.180
  21530409.160          48.400          44.200
 128993282.453 7 100328123.568 6                  24088576.420    24088579.360
  24088578.380          42.200          37.150
 113219565.152 8  88059690.976 7                  21150360.280    21150361.860
  21150360.900          49.100          46.450
 106452300.505 8  82796265.431 7                  19942093.960    19942096.440
  19942095.300          49.000          47.250
 112852217.057 7  87773959.984 7                  21126171.560    21126175.500
  21126174.820          44.300          44.050
 112732842.332 8  87681089.805 7                  21126082.100    21126083.680
  21126083.500          48.850          43.450
 118512978.496 7  92176764.772 7                  22193671.420    22193675.180
  22193673.200          44.350          42.550
 122000634.991 7  94889403.021 7                  22806728.820    22806732.460
  22806731.660          45.850          42.000
 153389586.497 8                 114544205.081 7  29189065.200
                        48.100
 131820692.557 8                  98437638.072 8  25084590.860
                        50.550
 15  1 27  4  6 30.0000000  0 22G11G21G07G04G16G18G22G27G19G30R11R05
                                R21R08R07R22R12R06R13R23E18E11
 128962571.551 7 100490300.60845                  24540759.960
  24540755.700          44.200          35.350
 126339555.073 7  98446462.63345                  24041588.440
  24041583.520          45.250          35.800
 126550808.016 7  98610984.347 6                  24081818.580    24081815.260
  24081814.820          47.200          41.400
 120665623.635 7  94025170.73146                  22961896.160
  22961893.100          47.750          40.100
 109652190.552 8  85443265.90447                  20866116.140
  20866110.740          49.800          47.600
 117085593.679 8  91235522.91947                  22280638.920
  22280632.600          49.600          42.800
 111268202.548 8  86702504.72647                  21173620.580
  21173613.360          50.050          47.150
 107519441.464 8  83781394.306 8  80290497.875 8  20460263.280    20460261.460
  20460260.880          50.300          50.600
 113118808.300 8  88144506.05547                  21525787.540
  21525780.620          49.400          47.000
 133396973.450 6 103945686.036 6  99614612.400 7  25384602.520    25384601.240
  25384600.400          41.050          38.250
 126774334.999 6  98602269.046 5                  23724090.940    23724096.320
  23724094.380          41.800          33.900
 130740686.227 7 101687223.229 6                  24457744.400    24457746.020
  24457745.620          43.400          38.050
 115224067.251 8  89618768.535 7                  21532352.560    21532354.140
  21532353.120          48.400          43.900
 128971127.803 6 100310892.212 6                  24084439.200    24084442.080
  24084441.100          41.500          36.850
 113204386.437 8  88047885.313 7                  21147524.740    21147526.320
  21147525.380          49.200          46.250
 106450838.787 8  82795128.535 7                  19941820.100    19941822.620
  19941821.480          49.100          47.050
 112864432.160 7  87783460.620 7                  21128458.240    21128462.200
  21128461.520          44.050          43.800
 112736033.052 8  87683571.472 7                  21126680.000    21126681.640
  21126681.440          49.050          43.550
 118506180.395 7  92171477.354 7                  22192398.340    22192402.100
  22192400.080          43.700          42.250
 121987851.839 7  94879460.569 6                  22804339.160    22804342.760
  22804341.860          45.950          41.650
 153407812.728 7                 114557815.572 7  29192533.460
                        47.850
 131828323.192 8                  98443336.260 8  25086042.780
                        50.200
 15  1 27  4  6 35.0000000  0 23G11G08G21G07G04G16G18G22G27G19G30R11
                                R05R21R08R07R22R12R06R13R23E18E11
 128946503.839 7 100477780.32145                  24537702.420
  24537698.180          44.700          34.400
                                                  25254885.400
                        36.600
 126352428.373 7  98456493.77846                  24044038.160
  24044033.220          45.350          37.250
 126551520.814 7  98611539.777 6                  24081954.240    24081950.960
  24081950.520          46.950          40.850
 120650579.267 8  94013447.85146                  22959033.320
  22959030.280          48.050          40.600
 109660775.979 8  85449955.84747                  20867749.900
  20867744.500          49.700          47.750
 117091633.462 8  91240229.24247                  22281788.180
  22281781.880          49.550          42.700
 111262864.464 8  86698345.17847                  21172604.760
  21172597.560          50.000          47.450
 107516387.971 8  83779014.963 8  80288217.665 8  20459682.200    20459680.380
  20459679.820          50.250          50.600
 113109441.244 8  88137207.05147                  21524005.040
  21523998.120          49.350          46.750
 133390481.287 6 103940627.192 6  99609764.347 7  25383367.040    25383365.760
  25383365.060          41.550          37.900
 126795985.134 6  98619108.029 5                  23728142.480    23728147.760
  23728145.980          41.750          33.550
 130758668.439 7 101701209.393 6                  24461108.320    24461109.960
  24461109.600          43.400          38.250
 115234475.454 8  89626863.797 7                  21534297.620    21534299.200
  21534298.160          48.400          44.000
 128948972.795 7 100293660.576 5                  24080301.940    24080304.680
  24080303.800          42.000          35.850
 113189224.164 8  88036092.433 7                  21144692.240    21144693.880
  21144692.940          49.150          46.300
 106449384.993 8  82793997.805 7                  19941547.740    19941550.240
  19941549.120          49.050          46.850
 112876666.649 7  87792976.334 7                  21130748.500    21130752.520
  21130751.860          44.000          43.600
 112739247.763 8  87686071.795 7                  21127282.440    21127284.100
  21127283.900          48.950          43.350
 118499405.295 7  92166207.859 7                  22191129.560    22191133.400
  22191131.320          43.700          42.450
 121975072.220 7  94869520.871 6                  22801950.120    22801953.680
  22801952.720          45.750          41.300
 153426033.197 8                 114571421.761 7  29196000.640
                        48.200
 131835957.523 8                  98449037.218 8  25087495.380
                        50.100
 15  1 27  4  6 40.0000000  0 23G11G08G21G07G04G16G18G22G27G19G30R11
                                R05R21R08R07R22R12R06R13R23E18E11
 128930438.699 7 100465262.03645                  24534645.360
  24534641.040          44.650          34.550
 132732392.959 6                                  25258135.720
                        40.150
 126365302.671 7  98466525.70146                  24046488.060
  24046483.100          44.750          38.050
 126552248.471 7  98612106.780 6                  24082092.720    24082089.440
  24082088.980          47.250          41.200
 120635541.337 8  94001729.98346                  22956171.680
  22956168.700          48.050          40.150
 109669375.587 8  85456656.82847                  20869386.360
  20869380.940          49.850          47.600
 117097686.188 8  91244945.64847                  22282939.880
  22282933.620          49.550          42.850
 111257540.722 8  86694196.80347                  21171591.660
  21171584.480          50.050          47.300
 107513342.473 8  83776641.843 8  80285943.428 8  20459102.640    20459100.840
  20459100.280          50.350          50.600
 113100079.874 8  88129912.47947                  21522223.660
  21522216.700          49.450          46.750
 133384002.748 6 103935578.945 6  99604926.473 7  25382134.220    25382132.880
  25382132.340          41.350          37.650
 126817634.718 7  98635946.580 5                  23732193.900    23732199.120
  23732197.380          42.800          33.650
 130776660.900 7 101715203.536 6                  24464474.180    24464475.860
  24464475.500          44.300          38.150
 115244887.818 8  89634962.294 7                  21536243.460    21536245.020
  21536243.980          48.350          43.950
 128926815.621 6 100276427.227 5                  24076164.220    24076166.900
  24076166.040          41.150          35.900
 113174076.821 8  88024311.168 7                  21141862.560    21141864.200
  21141863.300          49.100          46.400
 106447937.622 8  82792872.078 7                  19941276.580    19941279.120
  19941277.960          49.200          47.050
 112888919.057 7  87802505.987 7                  21133042.120    21133046.220
  21133045.540          43.750          43.500
 112742484.588 8  87688589.323 7                  21127889.000    21127890.680
  21127890.500          48.950          43.200
 118492651.582 7  92160954.971 7                  22189864.760    22189868.620
  22189866.540          43.400          42.100
 121962294.320 7  94859582.515 6                  22799561.440    22799565.000
  22799563.880          45.100          40.950
 153444246.317 8                 114585022.471 7  29199466.500
                        48.450
 131843593.967 8                  98454739.751 8  25088948.380
                        49.950
 15  1 27  4  6 45.0000000  0 23G11G08G21G07G04G16G18G22G27G19G30R11
                                R05R21R08R07R22R12R06R13R23E18E11
 128914375.711 7 100452745.40745                  24531588.680
  24531584.280          44.850          35.100
 132749465.266 6 103441160.75445                  25261384.520
  25261388.620          40.550          30.900
 126378177.505 7  98476558.03746                  24048938.040
  24048933.120          45.250          37.850
 126552990.548 7  98612685.015 6                  24082233.960    24082230.600
  24082230.220          47.350          41.050
 120620509.318 8  93990016.73746                  22953311.200
  22953308.240          48.400          40.000
 109677988.853 8  85463368.45547                  20871025.420
  20871019.980          49.900          47.300
 117103751.414 8  91249671.78547                  22284093.960
  22284087.760          49.450          42.850
 111252230.829 8  86690059.22047                  21170581.220
  21170574.040          50.000          47.150
 107510304.453 8  83774274.553 8  80283674.784 8  20458524.520    20458522.740
  20458522.180          50.350          50.550
 113090723.717 8  88122621.96547                  21520443.240
  21520436.300          49.500          46.700
 133377537.402 7 103930541.023 6  99600098.441 7  25380903.880    25380902.580
  25380902.100          42.450          37.350
 126839283.134 7  98652784.235 5                  23736245.060    23736250.200
  23736248.560          42.850          32.800
 130794663.154 7 101729205.298 6                  24467841.860    24467843.580
  24467843.220          44.200          38.900
 115255303.924 8  89643063.710 7                  21538190.000    21538191.500
  21538190.500          48.450          43.600
 128904655.933 6 100259191.943 6                  24072026.040    24072028.540
  24072027.840          40.950          36.800
 113158943.861 8  88012541.089 7                  21139035.560    21139037.240
  21139036.320          49.050          46.150
 106446496.231 8  82791750.990 7                  19941006.540    19941009.100
  19941007.900          49.400          46.950
 112901188.808 7  87812049.103 7                  21135338.980    21135343.100
  21135342.440          44.150          43.200
 112745743.448 8  87691123.986 7                  21128499.740    21128501.360
  21128501.200          49.450          42.950
 118485918.874 7  92155718.401 7                  22188603.940    22188607.800
  22188605.720          43.750          42.400
 121949518.015 7  94849645.387 6                  22797173.020    22797176.580
  22797175.320          45.300          40.800
 153462451.613 8                 114598617.348 7  29202930.920
                        48.800
 131851232.072 8                  98460443.513 8  25090401.680
                        50.000
 15  1 27  4  6 50.0000000  0 23G11G08G21G07G04G16G18G22G27G19G30R11
                                R05R21R08R07R22R12R06R13R23E18E11
 128898314.743 7 100440230.39045                  24528532.400
  24528527.840          44.900          31.900
 132766533.012 6 103454460.18545                  25264632.840
  25264638.320          38.400          32.750
 126391052.699 7  98486590.65446                  24051388.100
  24051383.160          45.450          36.800
 126553746.840 7  98613274.340 6                  24082377.920    24082374.480
  24082374.140          47.250          41.250
 120605483.193 8  93978308.07846                  22950451.800
  22950448.920          48.200          40.050
 109686615.538 8  85470090.55247                  20872667.020
  20872661.600          50.000          47.400
 117109828.965 8  91254407.53147                  22285250.400
  22285244.280          49.450          43.250
 111246934.657 8  86685932.33947                  21169573.380
  21169566.220          50.050          47.150
 107507273.813 8  83771913.020 8  80281411.646 8  20457947.780    20457946.020
  20457945.460          50.400          50.600
 113081372.628 8  88115335.40847                  21518663.780
  21518656.860          49.550          46.600
 133371085.099 6 103925513.223 6  99595280.121 7  25379676.060    25379674.680
  25379674.300          41.650          36.900
 126860930.212 7  98669620.856 5                  23740296.020    23740301.300
  23740299.480          42.200          32.500
 130812675.004 7 101743214.514 6                  24471211.360    24471213.100
  24471212.760          44.150          37.800
 115265723.565 8  89651167.878 7                  21540137.200    21540138.640
  21540137.660          48.800          43.400
 128882493.679 6 100241954.676 6                  24067887.440    24067889.840
  24067889.260          41.300          37.700
 113143825.363 8  88000782.253 7                  21136211.240    21136212.960
  21136212.040          49.100          46.250
 106445060.568 8  82790634.376 7                  19940737.560    19940740.180
  19940738.920          49.150          47.100
 112913475.780 7  87821605.637 7                  21137639.100    21137643.220
  21137642.540          44.550          43.200
 112749024.037 8  87693675.555 7                  21129114.520    21129116.180
  21129115.980          49.600          42.850
 118479206.863 7  92150497.948 7                  22187346.960    22187350.840
  22187348.740          44.200          42.300
 121936742.763 7  94839709.099 6                  22794784.800    22794788.360
  22794786.980          45.000          40.700
 153480648.954 8                 114612206.265 7  29206393.880
                        49.000
 131858871.675 8                  98466148.399 8  25091855.280
                        50.200
 15  1 27  4  6 55.0000000  0 23G11G08G21G07G04G16G18G22G27G19G30R11
                                R05R21R08R07R22R12R06R13R23E18E11
 128882255.570 7 100427716.76345                  24525476.420
  24525471.880          44.850          34.050
 132783596.128 6 103467756.05245                  25267879.220
  25267882.020          40.500          31.150
 126403928.080 7  98496623.42246                  24053838.180
  24053833.300          45.250          37.200
 126554517.173 7  98613874.595 6                  24082524.540    24082521.020
  24082520.760          47.400          41.500
 120590462.681 8  93966603.78946                  22947593.500
  22947590.580          48.300          40.000
 109695255.570 8  85476823.05247                  20874311.140
  20874305.740          50.050          47.850
 117115918.600 8  91259152.70147                  22286409.140
  22286403.100          49.600          42.850
 111241652.004 8  86681815.99647                  21168568.100
  21168560.980          50.100          47.350
 107504250.321 8  83769557.064 8  80279153.853 8  20457372.400    20457370.680
  20457370.100          50.300          50.700
 113072026.408 8  88108052.64847                  21516885.260
  21516878.340          49.600          46.950
 133364645.565 6 103920495.372 6  99590471.394 7  25378450.640    25378449.320
  25378449.040          41.550          37.900
 126882575.639 7  98686456.173 5                  23744346.660    23744351.980
  23744350.120          42.400          32.650
 130830696.201 7 101757231.027 6                  24474582.600    24474584.360
  24474584.060          43.650          37.800
 115276146.580 8  89659274.671 7                  21542085.000    21542086.440
  21542085.440          48.700          43.250
 128860328.569 6 100224715.219 6                  24063748.200    24063750.720
  24063750.140          41.200          37.000
 113128720.941 8  87989034.375 7                  21133389.560    21133391.300
  21133390.380          48.750          46.100
 106443630.540 8  82789522.134 7                  19940469.680    19940472.260
  19940471.020          49.050          47.050
 112925779.641 7  87831175.317 7                  21139942.360    21139946.500
  21139945.840          44.300          42.900
 112752325.931 8  87696243.697 7                  21129733.320    21129734.980
  21129734.740          49.550          42.950
 118472515.606 7  92145293.637 6                  22186093.860    22186097.780
  22186095.640          43.850          41.650
 121923968.498 7  94829773.555 6                  22792396.740    22792400.320
  22792398.800          44.500          40.700
 153498838.117 8                 114625789.090 7  29209855.260
                        48.800
 131866512.580 8                  98471854.260 8  25093309.160
                        50.200
 15  1 27  4  7  0.0000000  0 22G11G21G07G04G16G18G22G27G19G30R11R05
                                R21R08R07R22R12R06R13R23E18E11
 128866200.748 7 100415206.52745                  24522421.300
  24522416.740          45.250          32.150
 126416806.165 7  98506658.28746                  24056288.760
  24056283.880          44.900          37.900
 126555304.030 7  98614487.733 6                  24082674.300    24082670.760
  24082670.480          47.150          41.050
 120575450.253 8  93954905.79746                  22944736.720
  22944733.820          48.250          39.900
 109703911.370 8  85483567.83247                  20875958.280
  20875952.880          50.050          47.350
 117122022.804 8  91263909.22447                  22287570.680
  22287564.700          49.800          43.250
 111236385.352 8  86677712.11047                  21167565.860
  21167558.780          50.200          47.200
 107501236.534 8  83767208.659 8  80276903.302 8  20456798.900    20456797.160
  20456796.600          50.300          50.750
 113062687.572 8  88100775.63247                  21515108.140
  21515101.240          49.750          46.900
 133358221.366 6 103915489.515 6  99585674.092 7  25377228.160    25377226.780
  25377226.600          41.900          38.600
 126904222.124 6  98703292.319 5                  23748397.540    23748402.680
  23748400.940          41.900          33.050
 130848729.427 7 101771256.843 6                  24477956.080    24477957.860
  24477957.540          44.650          38.150
 115286575.575 8  89667386.095 7                  21544033.900    21544035.340
  21544034.320          48.400          43.150
 128838163.124 6 100207475.466 6                  24059608.920    24059611.400
  24059610.900          41.150          36.650
 113113633.241 8  87977299.502 7                  21130571.040    21130572.800
  21130571.880          48.750          45.950
 106442208.698 8  82788416.254 7                  19940203.360    19940205.880
  19940204.660          49.050          47.150
 112938103.012 7  87840760.164 7                  21142249.320    21142253.420
  21142252.780          44.200          43.200
 112755651.985 8  87698830.631 7                  21130356.640    21130358.320
  21130358.060          49.400          43.050
 118465847.364 7  92140107.229 7                  22184845.040    22184848.980
  22184846.880          43.850          42.100
 121911197.786 7  94819840.768 6                  22790009.380    22790012.980
  22790011.340          44.400          40.600
 153517021.656 8                 114639367.713 7  29213315.540
                        48.500
 131874157.314 8                  98477562.988 8  25094763.840
                        50.550
 15  1 27  4  7  5.0000000  0 22G11G21G07G04G16G18G22G27G19G30R11R05
                                R21R08R07R22R12R06R13R23E18E11
 128850147.083 7 100402697.18945                  24519366.400
  24519361.860          45.250          34.700
 126429683.784 7  98516692.78346                  24058739.240
  24058734.380          44.650          37.300
 126556104.272 7  98615111.300 6                  24082826.640    24082823.000
  24082822.740          47.050          41.550
 120560442.836 8  93943211.71046                  22941880.920
  22941877.960          48.100          40.100
 109712579.827 8  85490322.46548                  20877607.840
  20877602.440          49.800          48.150
 117128138.502 8  91268674.69847                  22288734.440
  22288728.480          49.850          43.000
 111231131.591 8  86673618.26247                  21166566.080
  21166559.020          50.000          47.600
 107498229.269 8  83764865.333 8  80274657.610 8  20456226.620    20456224.900
  20456224.320          50.100          50.700
 113053352.995 8  88093501.93147                  21513331.840
  21513324.940          49.800          46.950
 133351809.363 6 103910493.141 6  99580885.907 7  25376007.960    25376006.700
  25376006.360          41.700          38.500
 126925866.335 6  98720126.677 5                  23752447.920    23752453.020
  23752451.420          41.750          32.950
 130866771.282 7 101785289.389 6                  24481331.160    24481332.960
  24481332.600          44.750          38.600
 115297007.241 8  89675499.600 7                  21545983.280    21545984.760
  21545983.720          48.050          43.300
 128815994.327 7 100190233.091 6                  24055469.120    24055471.580
  24055471.000          42.600          37.550
 113098558.951 8  87965575.056 7                  21127754.980    21127756.780
  21127755.880          48.750          46.000
 106440791.692 8  82787314.132 7                  19939937.920    19939940.400
  19939939.200          48.850          47.150
 112950442.540 7  87850357.558 7                  21144559.320    21144563.380
  21144562.760          44.050          43.350
 112758998.948 8  87701433.823 7                  21130983.900    21130985.560
  21130985.300          49.300          43.500
 118459199.149 7  92134936.397 7                  22183600.020    22183603.980
  22183601.880          43.700          42.100
 121898427.546 7  94809908.379 6                  22787622.060    22787625.720
  22787623.960          44.700          40.650
 153535196.385 7                 114652939.730 7  29216774.080
                        47.950
 131881802.702 8                  98483272.203 8  25096218.680
                        50.550
 15  1 27  4  7 10.0000000  0 23G11G08G21G07G04G16G18G22G27G19G30R11
                                R05R21R08R07R22R12R06R13R23E18E11
 128834096.620 7 100390190.32945                  24516312.080
  24516307.480          44.750          35.050
 132834763.236 6                                  25277615.800
                        41.050
 126442562.967 7  98526728.50646                  24061190.080
  24061185.140          44.800          37.200
 126556919.940 7  98615746.892 6                  24082981.880    24082978.220
  24082977.900          47.050          41.350
 120545442.422 8  93931523.07946                  22939026.460
  22939023.440          48.150          40.000
 109721263.080 8  85497088.63248                  20879260.220
  20879254.840          49.850          48.050
 117134267.678 8  91273450.68247                  22289900.800
  22289894.840          50.000          42.600
 111225892.746 8  86669536.05147                  21165569.140
  21165562.120          49.850          47.600
 107495230.610 8  83762528.717 8  80272418.358 8  20455655.980    20455654.260
  20455653.700          50.100          50.650
 113044024.718 8  88086233.14047                  21511556.760
  21511549.840          49.900          46.800
 133345411.617 7 103905507.868 6  99576108.373 7  25374790.560    25374789.220
  25374788.900          42.350          37.900
 126947510.415 7  98736960.953 5                  23756498.300    23756503.500
  23756501.780          42.250          32.850
 130884823.870 7 101799330.324 6                  24484708.300    24484710.120
  24484709.660          44.650          38.000
 115307443.703 8  89683616.832 7                  21547933.560    21547935.040
  21547933.980          48.150          43.250
 128793824.178 7 100172989.656 6                  24051329.100    24051331.440
  24051330.800          43.750          37.350
 113083500.547 8  87953862.966 7                  21124941.900    21124943.740
  21124942.840          48.850          46.200
 106439381.646 8  82786217.434 7                  19939673.780    19939676.260
  19939675.060          48.850          47.150
 112962800.570 7  87859969.360 7                  21146872.800    21146876.820
  21146876.200          44.600          43.300
 112762368.646 8  87704054.693 7                  21131615.420    21131617.020
  21131616.780          49.300          43.350
 118452572.845 7  92129782.611 7                  22182359.140    22182363.080
  22182360.980          43.850          42.350
 121885659.639 7  94799977.803 6                  22785235.220    22785238.880
  22785237.080          45.550          40.900
 153553364.365 7                 114666506.725 7  29220231.280
                        47.700
 131889450.810 8                  98488983.448 8  25097674.080
                        50.750
 15  1 27  4  7 15.0000000  0 23G11G08G21G07G04G16G18G22G27G19G30R11
                                R05R21R08R07R22R12R06R13R23E18E11
 128818048.677 7 100377685.44545                  24513258.260
  24513253.600          44.750          34.350
 132851809.983 6                                  25280859.740
                        39.400
 126455443.019 7  98536764.92346                  24063641.100
  24063636.100          45.100          36.700
 126557750.341 7  98616393.962 6                  24083139.940    24083136.200
  24083135.900          47.000          41.400
 120530448.423 8  93919839.44446                  22936173.240
  22936170.120          48.550          40.050
 109729960.400 8  85503865.76347                  20880915.260
  20880909.880          49.950          47.800
 117140409.648 8  91278236.63447                  22291069.600
  22291063.660          50.050          43.200
 111220668.135 8  86665464.93647                  21164574.880
  21164567.920          49.700          47.600
 107492239.816 8  83760198.237 8  80270184.982 8  20455086.860    20455085.120
  20455084.560          50.100          50.600
 113034702.028 8  88078968.71347                  21509782.740
  21509775.780          49.900          46.950
 133339027.417 7 103900533.156 6  99571340.953 7  25373575.640    25373574.360
  25373573.960          42.250          38.100
 126969153.557 6  98753794.508 5                  23760548.560    23760553.880
  23760551.980          41.700          33.500
 130902886.548 7 101813379.078 6                  24488087.260    24488089.000
  24488088.600          43.850          37.950
 115317884.249 7  89691737.253 7                  21549884.620    21549886.120
  21549885.000          47.800          43.450
 128771651.967 6 100155744.605 6                  24047188.700    24047190.880
  24047190.240          41.700          37.750
 113068456.745 8  87942162.252 7                  21122131.560    21122133.420
  21122132.560          48.850          46.200
 106437978.052 8  82785125.756 7                  19939410.860    19939413.300
  19939412.120          49.200          47.250
 112975176.131 7  87869594.797 7                  21149189.560    21149193.560
  21149192.960          44.700          43.450
 112765760.597 8  87706692.881 7                  21132251.080    21132252.740
  21132252.480          49.400          43.450
 118445967.889 7  92124645.431 7                  22181122.260    22181126.160
  22181124.100          44.400          42.650
 121872893.433 7  94790048.530 6                  22782848.720    22782852.420
  22782850.500          45.350          40.900
 153571524.879 7                 114680068.149 7  29223687.020
                        47.500
 131897100.925 8                  98494696.193 8  25099129.900
                        50.850
 15  1 27  4  7 20.0000000  0 23G11G08G21G07G04G16G18G22G27G19G30R11
                                R05R21R08R07R22R12R06R13R23E18E11
 128802004.350 7 100365183.39046                  24510205.180
  24510200.420          44.650          36.450
 132868853.374 5 103534205.27344                  25284101.480
  25284112.040          32.100          26.650
 126468324.995 7  98546802.82246                  24066092.440
  24066087.440          45.000          37.500
 126558596.510 7  98617053.311 6                  24083301.000    24083297.200
  24083296.860          46.950          41.000
 120515461.850 8  93908161.60146                  22933321.400
  22933318.240          48.850          39.400
 109738672.794 8  85510654.64547                  20882573.200
  20882567.820          49.950          47.700
 117146565.452 8  91283033.36347                  22292241.060
  22292235.100          50.100          42.700
 111215458.831 8  86661405.74647                  21163583.540
  21163576.620          49.750          47.550
 107489257.983 8  83757874.733 8  80267958.278 8  20454519.420    20454517.700
  20454517.120          50.200          50.450
 113025385.977 8  88071709.45047                  21508010.000
  21508003.000          49.900          46.700
 133332657.801 7 103895569.824 6  99566584.426 7  25372363.560    25372362.300
  25372361.840          42.350          38.200
 126990796.766 6  98770628.084 5                  23764598.800    23764604.300
  23764602.200          41.600          31.900
 130920960.348 7 101827436.482 6                  24491468.300    24491470.080
  24491469.660          44.350          38.250
 115328329.918 7  89699861.664 7                  21551836.640    21551838.100
  21551837.020          47.950          43.750
 128749478.757 6 100138498.855 6                  24043048.040    24043050.260
  24043049.540          41.850          37.550
 113053429.199 8  87930474.168 7                  21119324.240    21119326.160
  21119325.320          48.900          46.250
 106436581.734 8  82784039.735 7                  19939149.340    19939151.740
  19939150.520          49.450          46.900
 112987570.426 7  87879234.804 7                  21151509.800    21151513.840
  21151513.200          44.850          43.400
 112769175.765 8  87709349.125 7                  21132891.120    21132892.780
  21132892.500          49.700          43.400
 118439385.465 7  92119525.773 7                  22179889.620    22179893.480
  22179891.420          44.750          42.450
 121860130.135 7  94780121.528 6                  22780462.800    22780466.380
  22780464.440          45.600          40.400
 153589679.006 7                 114693624.780 7  29227141.540
                        47.000
 131904754.109 8                  98500411.227 8  25100586.340
                        51.100
 15  1 27  4  7 25.0000000  0 23G11G08G21G07G04G16G18G22G27G19G30R11
                                R05R21R08R07R22R12R06R13R23E18E11
 128785962.059 7 100352682.89346                  24507152.440
  24507147.800          44.700          36.050
 132885891.983 6 103547458.03445                  25287345.400
  25287346.940          37.750          31.600
 126481207.381 7  98556841.03346                  24068543.840
  24068538.860          44.950          36.350
 126559456.972 7  98617723.797 6                  24083464.800    24083460.880
  24083460.560          46.800          41.100
 120500481.097 8  93896488.29446                  22930470.720
  22930467.480          48.700          39.700
 109747398.746 8  85517454.09147                  20884233.700
  20884228.320          49.850          47.750
 117152733.578 8  91287839.69347                  22293414.880
  22293408.880          50.200          42.300
 111210263.346 8  86657357.31447                  21162594.820
  21162587.980          49.650          47.600
 107486283.615 8  83755557.047 8  80265737.167 8  20453953.420    20453951.680
  20453951.120          50.300          50.400
 113016075.100 8  88064454.22147                  21506238.220
  21506231.200          49.900          46.800
 133326301.363 7 103890616.734 6  99561837.692 7  25371154.000    25371152.640
  25371152.260          43.050          38.000
 127012438.688 6  98787460.677 5                  23768648.820    23768654.300
  23768652.180          41.650          32.950
 130939043.711 7 101841501.332 6                  24494851.180    24494852.960
  24494852.520          43.350          38.150
 115338779.253 8  89707988.910 7                  21553789.340    21553790.780
  21553789.720          48.400          43.350
 128727303.154 7 100121251.213 6                  24038906.920    24038909.180
  24038908.400          42.750          37.300
 113038415.987 8  87918797.226 7                  21116519.600    21116521.560
  21116520.740          48.850          46.700
 106435191.316 8  82782958.295 7                  19938888.880    19938891.260
  19938890.060          49.700          47.100
 112999981.777 7  87888888.081 7                  21153833.280    21153837.300
  21153836.640          44.950          43.400
 112772612.675 8  87712022.279 7                  21133535.240    21133536.880
  21133536.620          49.550          43.500
 118432823.752 7  92114422.218 7                  22178660.840    22178664.680
  22178662.620          44.850          42.350
 121847368.016 7  94770195.429 6                  22778077.040    22778080.580
  22778078.600          45.850          40.300
 153607825.227 7                 114707175.526 7  29230594.580
                        47.150
 131912408.859 8                  98506127.440 8  25102043.100
                        51.300
 15  1 27  4  7 30.0000000  0 23G11G08G21G07G04G16G18G22G27G19G30R11
                                R05R21R08R07R22R12R06R13R23E18E11
 128769919.812 7 100340182.45545                  24504099.720
  24504095.100          45.050          32.550
 132902923.773 6 103560729.54345                  25290587.080
  25290588.320          36.250          31.200
 126494088.127 7  98566877.98846                  24070994.940
  24070989.980          44.200          37.700
 126560329.691 7  98618403.834 6                  24083630.920    24083626.960
  24083626.580          46.700          41.150
 120485504.294 8  93884818.06946                  22927620.720
  22927617.560          48.550          39.750
 109756136.215 8  85524262.50447                  20885896.400
  20885891.020          49.800          47.750
 117158912.013 8  91292654.06247                  22294590.660
  22294584.640          50.150          42.650
 111205079.663 8  86653318.08547                  21161608.360
  21161601.580          49.600          47.400
 107483314.656 8  83753243.577 8  80263520.091 8  20453388.440    20453386.700
  20453386.140          50.400          50.400
 113006767.355 8  88057201.43147                  21504467.020
  21504460.000          49.800          46.850
 133319955.963 7 103885672.269 6  99557099.220 7  25369946.540    25369945.180
  25369944.880          43.000          38.000
 127034077.130 6  98804290.548 5                  23772698.160    23772703.480
  23772701.500          40.800          33.350
 130957134.424 7 101855571.872 6                  24498235.400    24498237.160
  24498236.800          44.000          38.650
 115349230.113 8  89716117.367 7                  21555742.320    21555743.760
  21555742.700          48.050          43.300
 128705123.007 7 100103999.990 6                  24034764.960    24034767.220
  24034766.380          42.850          37.350
 113023415.308 8  87907130.041 7                  21113717.300    21113719.300
  21113718.520          48.650          46.350
 106433804.694 8  82781879.811 7                  19938629.160    19938631.500
  19938630.280          49.400          47.000
 113012408.200 7  87898553.077 7                  21156159.500    21156163.560
  21156162.840          45.050          43.200
 112776069.334 8  87714710.794 7                  21134183.080    21134184.660
  21134184.460          49.350          43.300
 118426280.967 7  92109333.392 7                  22177435.600    22177439.400
  22177437.340          44.900          42.050
 121834605.046 7  94760268.694 6                  22775691.160    22775694.700
  22775692.620          45.700          40.650
 153625961.508 7                 114720718.850 7  29234045.740
                        47.600
 131920063.136 8                  98511843.302 8  25103499.780
                        51.350
 15  1 27  4  7 35.0000000  0 23G11G08G21G07G04G16G18G22G27G19G30R11
                                R05R21R08R07R22R12R06R13R23E18E11
 128753882.532 7 100327685.88345                  24501047.940
  24501043.380          45.000          32.700
 132919953.696 5                                  25293828.180
                        35.200
 126506972.092 7  98576917.42346                  24073446.660
  24073441.780          44.350          36.900
 126561219.505 7  98619097.206 6                  24083800.280    24083796.220
  24083795.820          46.450          41.100
 120470536.266 8  93873154.68946                  22924772.400
  22924769.240          48.150          40.400
 109764890.095 8  85531083.71347                  20887562.200
  20887556.840          49.800          47.550
 117165105.629 8  91297480.26447                  22295769.340
  22295763.300          50.050          42.800
 111199912.629 8  86649291.82847                  21160625.080
  21160618.320          49.350          47.900
 107480356.008 8  83750938.143 8  80261310.715 8  20452825.460    20452823.680
  20452823.120          50.400          50.400
 112997467.608 8  88049954.88347                  21502697.320
  21502690.320          49.650          46.700
 133313626.528 7 103880740.239 6  99552372.692 7  25368742.120    25368740.700
  25368740.480          42.650          37.400
 127055716.994 6  98821121.541 5                  23776747.820    23776753.060
  23776751.100          40.950          33.400
 130975237.707 7 101869652.224 6                  24501622.000    24501623.680
  24501623.360          44.600          38.300
 115359687.494 7  89724250.877 7                  21557696.500    21557697.980
  21557696.920          47.900          43.350
 128682943.307 6 100086749.154 6                  24030623.060    24030625.240
  24030624.480          41.800          37.300
 113008432.074 8  87895476.419 7                  21110918.300    21110920.340
  21110919.520          48.650          46.550
 106432426.888 8  82780808.189 7                  19938371.060    19938373.380
  19938372.160          49.350          46.950
 113024854.543 7  87908233.566 7                  21158489.480    21158493.520
  21158492.800          44.850          43.350
 112779550.524 8  87717418.395 7                  21134835.480    21134837.080
  21134836.860          49.550          43.250
 118419761.889 7  92104263.014 6                  22176214.820    22176218.600
  22176216.520          45.000          41.750
 121821846.332 7  94750345.256 6                  22773306.020    22773309.600
  22773307.460          45.550          40.600
 153644092.733 7                 114734258.392 7  29237495.980
                        47.750
 131927721.820 8                  98517562.451 8  25104957.360
                        51.400
 15  1 27  4  7 40.0000000  0 23G11G08G21G07G04G16G18G22G27G19G30R11
                                R05R21R08R07R22R12R06R13R23E18E11
 128737847.590 7 100315191.10745                  24497996.580
  24497992.040          45.050          34.800
 132936978.860 5                                  25297067.820
                        31.250
 126519856.648 7  98586957.32846                  24075898.500
  24075893.660          44.350          37.050
 126562123.852 7  98619801.886 6                  24083972.400    24083968.320
  24083967.920          46.400          41.050
 120455574.392 7  93861496.08446                  22921925.240
  22921922.100          47.950          40.700
 109773657.736 8  85537915.63047                  20889230.640
  20889225.280          49.900          47.700
 117171311.776 8  91302316.21947                  22296950.400
  22296944.340          50.100          42.350
 111194759.654 8  86645276.51747                  21159644.460
  21159637.740          49.400          47.700
 107477405.064 8  83748638.694 8  80259107.080 8  20452263.920    20452262.140
  20452261.560          50.350          50.500
 112988173.289 8  88042712.55747                  21500928.660
  21500921.700          49.450          46.950
 133307310.472 7 103875818.635 6  99547656.143 7  25367540.220    25367538.700
  25367538.400          42.250          36.300
 127077355.600 6  98837951.555 5                  23780797.180    23780802.460
  23780800.480          40.200          34.050
 130993350.650 7 101883740.047 6                  24505010.400    24505012.080
  24505011.740          44.450          37.900
 115370148.754 8  89732387.396 7                  21559651.440    21559652.920
  21559651.880          48.000          43.350
 128660761.414 7 100069496.606 6                  24026480.780    24026482.900
  24026482.100          43.250          36.850
 112993463.761 8  87883834.392 7                  21108122.080    21108124.160
  21108123.320          48.950          46.300
 106431055.080 8  82779741.222 7                  19938114.100    19938116.400
  19938115.160          49.400          47.050
 113037318.079 7  87917927.419 7                  21160822.720    21160826.740
  21160825.960          44.600          43.450
 112783053.694 8  87720143.068 7                  21135492.000    21135493.560
  21135493.360          49.800          43.150
 118413263.991 7  92099209.070 7                  22174997.960    22175001.760
  22174999.680          44.900          42.250
 121809089.199 7  94740423.026 6                  22770921.240    22770924.740
  22770922.600          45.800          41.300
 153662216.284 8                 114747792.210 7  29240944.780
                        48.050
 131935382.300 8                  98523282.944 8  25106415.280
                        51.450
 15  1 27  4  7 45.0000000  0 23G11G21G07G04G16G18G22G27G19G30G32R11
                                R05R21R08R07R22R12R06R13R23E18E11
 128721814.939 7 100302698.16345                  24494945.680
  24494941.040          45.550          34.350
 126532741.814 7  98596997.71746                  24078350.480
  24078345.620          44.800          36.950
 126563042.672 7  98620517.855 6                  24084147.260    24084143.120
  24084142.700          46.300          40.750
 120440618.547 7  93849842.18446                  22919079.180
  22919076.160          47.700          40.300
 109782439.086 8  85544758.24147                  20890901.680
  20890896.340          50.100          47.600
 117177530.417 8  91307161.91947                  22298133.840
  22298127.760          50.250          42.550
 111189620.694 8  86641272.14147                  21158666.500
  21158659.860          49.450          47.600
 107474461.779 8  83746345.227 8  80256909.171 8  20451703.840    20451702.040
  20451701.460          50.350          50.550
 112978884.344 8  88035474.42447                  21499161.020
  21499154.080          49.400          47.250
 133301007.711 7 103870907.378 6  99542949.524 7  25366340.840    25366339.300
  25366338.980          42.700          37.600
 133709103.996 6                                  25443996.820
                        40.250
 127098992.971 6  98854780.604 5                  23784846.300    23784851.580
  23784849.660          39.450          34.400
 131011473.316 7 101897835.475 6                  24508400.660    24508402.380
  24508401.940          43.350          37.250
 115380613.837 8  89740526.908 7                  21561607.100    21561608.600
  21561607.560          48.050          43.650
 128638577.364 7 100052242.342 6                  24022338.060    24022340.140
  24022339.280          43.000          36.100
 112978510.213 8  87872203.859 7                  21105328.640    21105330.700
  21105329.840          49.000          46.100
 106429689.354 8  82778678.991 7                  19937858.280    19937860.560
  19937859.300          49.300          47.100
 113049798.887 7  87927634.725 7                  21163159.200    21163163.140
  21163162.360          44.600          43.300
 112786578.633 8  87722884.689 7                  21136152.600    21136154.120
  21136153.920          49.700          43.200
 118406787.071 7  92094171.470 7                  22173785.080    22173788.820
  22173786.820          44.850          42.850
 121796333.571 7  94730501.991 6                  22768536.720    22768540.160
  22768538.060          45.750          40.850
 153680332.136 8                 114761320.280 7  29244392.140
                        48.250
 131943044.560 8                  98529004.755 8  25107873.520
                        51.500
 15  1 27  4  7 50.0000000  0 23G11G21G07G04G16G18G22G27G19G30G32R11
                                R05R21R08R07R22R12R06R13R23E18E11
 128705784.480 7 100290206.89045                  24491895.180
  24491890.480          45.350          32.950
 126545627.450 7  98607038.48146                  24080802.560
  24080797.660          44.650          37.850
 126563975.827 7  98621245.001 6                  24084324.800    24084320.680
  24084320.260          45.850          41.300
 120425668.734 7  93838193.00246                  22916234.300
  22916231.360          47.600          39.650
 109791234.035 8  85551611.45447                  20892575.320
  20892569.980          50.150          47.600
 117183761.470 8  91312017.29647                  22299319.620
  22299313.520          50.150          42.650
 111184495.637 8  86637278.59847                  21157691.200
  21157684.620          49.600          47.650
 107471526.041 8  83744057.643 8  80254716.910 8  20451145.200    20451143.400
  20451142.820          50.350          50.450
 112969600.680 8  88028240.41047                  21497394.380
  21497387.480          49.450          47.000
 133294718.179 7 103866006.463 6  99538252.796 7  25365143.960    25365142.520
  25365142.100          42.300          37.650
 133689464.376 6 104173623.14355                  25440260.220
  25440262.940          38.600          31.950
 127120628.929 6  98871608.524 5                  23788895.140    23788900.520
  23788898.580          40.700          34.700
 131029605.545 7 101911938.333 6                  24511792.680    24511794.480
  24511793.960          43.750          36.600
 115391082.656 8  89748669.312 7                  21563563.460    21563564.900
  21563563.940          48.550          43.300
 128616390.901 7 100034986.221 6                  24018194.900    24018197.000
  24018196.100          42.600          37.400
 112963571.257 8  87860584.685 7                  21102537.940    21102539.960
  21102539.120          49.150          45.950
 106428329.524 8  82777621.352 7                  19937603.540    19937605.820
  19937604.560          49.150          47.100
 113062296.864 7  87937355.384 7                  21165498.860    21165502.760
  21165502.000          44.850          43.300
 112790125.442 8  87725643.329 7                  21136817.300    21136818.820
  21136818.600          49.750          43.050
 118400331.244 7  92089150.294 7                  22172576.080    22172579.840
  22172577.880          44.950          42.450
 121783579.225 7  94720581.956 6                  22766152.440    22766155.920
  22766153.740          45.750          41.100
 153698440.163 8                 114774842.514 7  29247838.040
                        48.650
 131950708.459 8                  98534727.802 8  25109332.060
                        51.500
 15  1 27  4  7 55.0000000  0 23G11G21G07G04G16G18G22G27G19G30G32R11
                                R05R21R08R07R22R12R06R13R23E18E11
 128689757.565 7 100277718.39145                  24488845.360
  24488840.620          45.300          33.400
 126558514.936 7  98617080.67746                  24083255.000
  24083250.060          44.300          38.650
 126564924.684 7  98621984.358 6                  24084505.320    24084501.220
  24084500.780          45.800          41.100
 120410726.327 7  93826549.56246                  22913390.820
  22913387.920          47.900          41.000
 109800043.907 8  85558476.28847                  20894251.800
  20894246.460          50.100          47.750
 117190006.294 8  91316883.38847                  22300508.000
  22300501.860          50.150          42.400
 111179385.864 8  86633296.96547                  21156718.820
  21156712.280          49.750          47.600
 107468599.228 8  83741777.009 8  80252531.303 8  20450588.280    20450586.460
  20450585.860          50.400          50.600
 112960323.664 8  88021011.56647                  21495629.020
  21495622.140          49.450          46.950
 133288443.244 7 103861116.879 6  99533566.950 7  25363949.900    25363948.380
  25363947.820          42.550          37.450
 133669823.502 6 104158318.68944                  25436523.020
  25436514.700          38.800          27.900
 127142264.806 6  98888436.410 5                  23792944.060    23792949.340
  23792947.460          40.550          34.600
 131047748.653 7 101926049.689 6                  24515186.740    24515188.580
  24515188.040          43.350          38.200
 115401556.599 8  89756815.709 7                  21565520.740    21565522.200
  21565521.240          48.450          42.950
 128594203.680 7 100017729.565 6                  24014051.580    24014053.700
  24014052.860          43.250          37.950
 112948648.478 8  87848978.081 7                  21099750.240    21099752.240
  21099751.400          49.450          46.050
 106426977.039 8  82776569.427 7                  19937350.180    19937352.420
  19937351.180          49.250          47.150
 113074813.367 7  87947090.433 7                  21167842.020    21167845.860
  21167845.100          44.900          43.350
 112793695.429 8  87728419.987 7                  21137486.320    21137487.840
  21137487.640          49.700          43.350
 118393897.885 7  92084146.558 7                  22171371.320    22171375.100
  22171373.140          45.200          42.350
 121770827.510 7  94710663.973 6                  22763768.660    22763772.120
  22763769.940          46.100          41.700
 153716541.708 8                 114788359.929 7  29251282.760
                        48.600
 131958375.364 8                  98540453.087 8  25110791.180
                        51.400
 15  1 27  4  8  0.0000000  0 23G11G21G07G04G16G18G22G27G19G30G32R11
                                R05R21R08R07R22R12R06R13R23E18E11
 128673732.471 7 100265231.30945                  24485795.880
  24485791.160          44.950          34.300
 126571402.503 7  98627122.91346                  24085707.420
  24085702.500          45.050          37.900
 126565887.446 7  98622734.558 6                  24084688.500    24084684.400
  24084683.960          45.900          41.500
 120395789.493 8  93814910.47346                  22910548.420
  22910545.520          48.150          39.950
 109808866.983 8  85565351.40847                  20895930.800
  20895925.460          50.000          47.950
 117196263.084 8  91321758.80547                  22301698.620
  22301692.480          49.800          42.200
 111174289.601 8  86629325.85147                  21155749.000
  21155742.500          49.750          47.400
 107465679.572 8  83739501.947 8  80250351.039 8  20450032.680    20450030.840
  20450030.260          50.400          50.550
 112951051.495 8  88013786.49447                  21493864.600
  21493857.700          49.400          47.250
 133282181.115 7 103856237.263 6  99528890.679 7  25362758.260    25362756.800
  25362756.120          42.250          37.750
 133650179.307 5                                  25432784.520
                        33.550
 127163898.859 6  98905262.862 5                  23796992.580    23796997.820
  23796996.040          40.250          35.050
 131065900.845 7 101940168.025 6                  24518582.480    24518584.480
  24518583.840          44.600          39.400
 115412033.795 8  89764964.629 7                  21567478.680    21567480.120
  21567479.140          48.350          43.250
 128572013.795 7 100000470.786 6                  24009907.760    24009909.800
  24009909.080          43.900          37.500
 112933739.908 8  87837382.523 7                  21096965.200    21096967.160
  21096966.320          49.450          46.050
 106425630.036 8  82775521.752 7                  19937097.840    19937100.080
  19937098.840          49.300          47.100
 113087346.493 7  87956838.414 7                  21170188.240    21170192.100
  21170191.300          45.150          43.300
 112797286.761 8  87731213.225 7                  21138159.320    21138160.840
  21138160.680          49.450          43.550
 118387485.202 7  92079158.909 7                  22170170.440    22170174.200
  22170172.300          44.800          42.950
 121758076.868 7  94700746.807 6                  22761385.060    22761388.480
  22761386.300          46.100          41.700
 153734635.040 8                 114801871.181 7  29254725.900
                        48.600
 131966043.514 8                  98546179.295 8  25112250.520
                        51.300
 15  1 27  4  8  5.0000000  0 23G11G21G07G04G16G18G22G27G19G30G32R11
                                R05R21R08R07R22R12R06R13R23E18E11
 128657710.619 7 100252746.75145                  24482747.000
  24482742.340          44.750          34.750
 126584291.591 7  98637166.36146                  24088160.140
  24088155.280          45.600          36.250
 126566865.578 7  98623496.736 6                  24084874.640    24084870.460
  24084870.080          46.350          41.350
 120380859.716 7  93803276.88546                  22907707.380
  22907704.460          47.900          40.550
 109817704.702 8  85572237.93847                  20897612.600
  20897607.240          50.100          47.700
 117202533.292 8  91326644.68647                  22302891.740
  22302885.660          49.600          42.750
 111169208.318 8  86625366.41847                  21154782.060
  21154775.560          49.800          47.600
 107462768.529 8  83737233.610 8  80248177.214 8  20449478.760    20449476.900
  20449476.300          50.650          50.550
 112941785.604 8  88006566.32747                  21492101.360
  21492094.460          49.650          47.150
 133275933.272 7 103851368.796 6  99524225.046 7  25361569.340    25361567.880
  25361567.240          42.800          38.400
 133630533.189 6 104127682.31143                  25429045.560
  25429045.740          38.300          23.000
 127185532.495 6  98922088.975 5                  23801040.960    23801046.200
  23801044.500          39.900          34.100
 131084063.627 7 101954294.640 6                  24521980.220    24521982.260
  24521981.640          43.850          39.350
 115422515.780 8  89773117.286 7                  21569437.480    21569438.920
  21569437.960          48.400          43.250
 128549822.659 7  99983211.016 6                  24005763.740    24005765.660
  24005765.020          44.400          37.800
 112918847.272 8  87825799.372 7                  21094183.180    21094185.060
  21094184.220          49.550          45.950
 106424290.117 8  82774479.591 7                  19936846.840    19936849.040
  19936847.800          49.550          46.850
 113099897.672 7  87966600.436 7                  21172537.840    21172541.720
  21172540.940          45.400          43.200
 112800900.950 8  87734024.257 7                  21138836.580    21138838.100
  21138838.000          49.600          43.400
 118381094.439 7  92074188.341 7                  22168973.660    22168977.400
  22168975.540          45.350          42.550
 121745328.623 7  94690831.521 6                  22759001.840    22759005.380
  22759003.200          46.000          41.800
 153752721.603 8                 114815377.357 7  29258167.760
                        48.800
 131973714.360 8                  98551907.532 8  25113710.320
                        51.150
 15  1 27  4  8 10.0000000  0 23G11G21G07G04G16G18G22G27G19G30G32R11
                                R05R21R08R07R22R12R06R13R23E18E11
 128641691.132 7 100240264.03445                  24479698.580
  24479693.940          44.550          35.750
 126597181.324 7  98647210.31446                  24090613.000
  24090608.160          46.050          36.250
 126567858.197 7  98624270.219 6                  24085063.500    24085059.420
  24085058.940          46.150          41.300
 120365936.135 7  93791648.13146                  22904867.520
  22904864.560          47.800          40.000
 109826556.171 8  85579135.19047                  20899297.000
  20899291.640          50.100          47.600
 117208816.021 8  91331540.32047                  22304087.180
  22304081.180          49.300          42.400
 111164141.148 8  86621417.97847                  21153817.820
  21153811.340          49.850          47.600
 107459865.240 8  83734971.311 8  80246009.172 8  20448926.300    20448924.400
  20448923.820          50.700          50.450
 112932525.196 8  87999350.42747                  21490339.180
  21490332.260          49.850          46.900
 133269698.866 7 103846510.792 6  99519569.476 7  25360383.020    25360381.480
  25360380.760          43.400          38.650
 133610884.837 6 104112382.98545                  25425306.400
  25425304.060          36.000          31.000
 127207164.830 6  98938914.106 5                  23805089.200    23805094.420
  23805092.720          41.200          34.700
 131102236.002 7 101968428.713 6                  24525379.760    24525381.780
  24525381.240          43.150          37.900
 115433001.658 8  89781272.984 7                  21571396.960    21571398.460
  21571397.460          48.300          43.450
 128527629.468 7  99965949.670 6                  24001619.320    24001621.300
  24001620.660          43.800          39.050
 112903969.628 8  87814227.875 7                  21091403.900    21091405.780
  21091404.920          49.750          45.850
 106422956.288 8  82773442.165 7                  19936597.000    19936599.160
  19936597.960          49.450          47.200
 113112466.126 7  87976375.898 7                  21174890.740    21174894.540
  21174893.800          45.300          43.300
 112804537.106 8  87736852.376 7                  21139517.940    21139519.480
  21139519.400          49.750          43.350
 118374724.818 7  92069234.187 7                  22167780.840    22167784.620
  22167782.760          44.750          42.400
 121732582.073 7  94680917.557 6                  22756618.980    22756622.540
  22756620.420          46.000          41.850
 153770800.509 8                 114828877.847 7  29261608.140
                        48.650
 131981387.046 8                  98557637.125 8  25115170.420
                        50.950
 15  1 27  4  8 15.0000000  0 23G11G21G07G04G16G18G22G27G19G30G32R11
                                R05R21R08R07R22R12R06R13R23E18E11
 128625673.637 7 100227782.87145                  24476650.540
  24476645.940          44.400          35.500
 126610071.290 7  98657254.43946                  24093065.920
  24093061.040          46.200          36.750
 126568864.930 7  98625054.682 6                  24085255.040    24085251.040
  24085250.540          45.850          41.900
 120351018.432 8  93780023.94946                  22902028.780
  22902025.800          48.000          40.200
 109835421.003 8  85586042.85247                  20900983.940
  20900978.560          50.000          47.800
 117215110.881 8  91336445.39847                  22305284.920
  22305279.020          49.350          42.050
 111159087.693 8  86617480.21347                  21152856.180
  21152849.700          49.950          47.600
 107456969.319 8  83732714.745 8  80243846.629 8  20448375.220    20448373.320
  20448372.720          50.600          50.550
 112923269.875 8  87992138.48547                  21488577.980
  21488571.020          50.100          46.800
 133263477.464 7 103841662.922 6  99514923.615 7  25359199.200    25359197.540
  25359196.900          42.600          38.550
 133591233.351 5 104097066.21444                  25421566.760
  25421566.580          34.550          27.600
 127228795.433 6  98955737.900 5                  23809137.160    23809142.340
  23809140.660          40.800          35.200
 131120417.683 7 101982570.006 6                  24528781.060    24528783.040
  24528782.560          43.350          38.100
 115443491.031 7  89789431.352 7                  21573357.140    21573358.600
  21573357.640          47.950          43.150
 128505433.829 7  99948686.464 6                  23997474.460    23997476.440
  23997475.900          44.500          39.300
 112889106.415 8  87802667.586 7                  21088627.320    21088629.200
  21088628.320          49.650          45.950
 106421628.236 8  82772409.235 7                  19936348.220    19936350.400
  19936349.200          49.400          47.250
 113125051.359 7  87986164.406 7                  21177246.720    21177250.560
  21177249.800          45.450          43.750
 112808194.673 8  87739697.150 7                  21140203.360    21140204.860
  21140204.800          49.750          43.100
 118368376.294 7  92064296.451 7                  22166591.980    22166595.760
  22166593.920          44.750          42.700
 121719836.504 7  94671004.343 6                  22754236.280    22754239.880
  22754237.800          45.750          41.900
 153788871.401 8                 114842372.342 7  29265046.980
                        48.650
 131989061.169 8                  98563367.803 8  25116630.760
                        50.700
 15  1 27  4  8 20.0000000  0 23G11G21G07G04G16G18G22G27G19G30G32R11
                                R05R21R08R07R22R12R06R13R23E18E11
 128609658.703 7 100215303.71445                  24473602.980
  24473598.400          44.750          35.400
 126622962.078 7  98667299.22846                  24095519.000
  24095514.120          45.900          37.700
 126569886.354 7  98625850.589 6                  24085449.400    24085445.460
  24085444.960          45.900          41.850
 120336107.104 7  93768404.73246                  22899191.240
  22899188.220          47.900          40.000
 109844299.785 8  85592961.38547                  20902673.540
  20902668.140          50.250          47.350
 117221418.482 8  91341360.40547                  22306485.080
  22306479.260          49.450          42.100
 111154048.534 8  86613553.60647                  21151897.300
  21151890.780          50.300          47.200
 107454081.351 8  83730464.385 8  80241690.038 8  20447825.680    20447823.760
  20447823.160          50.650          50.500
 112914020.206 8  87984930.95047                  21486817.840
  21486810.900          50.350          46.700
 133257269.688 7 103836825.679 6  99510287.919 7  25358017.900    25358016.220
  25358015.460          42.000          38.100
 133571579.516 6 104081757.06344                  25417826.700
  25417829.360          36.300          26.600
 127250424.869 6  98972560.772 5                  23813184.820    23813190.080
  23813188.340          41.000          34.700
 131138609.198 7 101996718.953 6                  24532184.200    24532186.160
  24532185.720          44.700          38.200
 115453984.484 8  89797592.918 7                  21575318.100    21575319.520
  21575318.540          48.100          42.900
 128483236.402 7  99931421.842 6                  23993329.260    23993331.140
  23993330.660          44.600          37.900
 112874258.553 8  87791119.257 7                  21085853.640    21085855.440
  21085854.580          49.750          46.000
 106420306.413 8  82771381.154 7                  19936100.600    19936102.740
  19936101.640          49.750          47.100
 113137653.956 7  87995966.442 7                  21179605.980    21179609.820
  21179609.080          45.000          43.750
 112811874.494 8  87742559.238 7                  21140892.920    21140894.400
  21140894.360          49.700          43.150
 118362049.131 7  92059375.332 7                  22165407.060    22165410.880
  22165409.060          44.800          42.550
 121707092.624 7  94661092.440 7                  22751853.940    22751857.560
  22751855.480          46.150          42.050
 153806934.840 8                 114855861.281 7  29268484.340
                        48.700
 131996737.336 8                  98569099.998 8  25118091.420
                        50.650
 15  1 27  4  8 25.0000000  0 23G11G21G07G04G16G18G22G27G19G30G32R11
                                R05R21R08R07R22R12R06R13R23E18E11
 128593647.483 7 100202827.43645                  24470556.120
  24470551.560          44.300          35.750
 126635854.890 7  98677345.56346                  24097972.460
  24097967.500          45.650          37.400
 126570923.577 7  98626658.811 6                  24085646.720    24085642.840
  24085642.420          45.450          41.550
 120321203.392 7  93756791.43646                  22896355.160
  22896352.080          47.950          39.650
 109853193.659 8  85599891.67747                  20904366.000
  20904360.600          50.150          47.800
 117227739.974 8  91346286.22747                  22307687.880
  22307682.120          49.350          42.400
 111149024.831 8  86609639.02747                  21150941.360
  21150934.800          50.450          47.250
 107451202.496 8  83728221.116 8  80239540.243 8  20447277.860    20447275.920
  20447275.320          50.600          50.600
 112904777.345 8  87977728.71747                  21485059.000
  21485052.060          50.300          46.750
 133251076.697 6 103831999.958 6  99505663.269 7  25356839.360    25356837.680
  25356836.900          41.900          38.000
 133551924.088 6 104066436.22245                  25414086.240
  25414093.120          36.600          30.000
 127272054.374 6  98989383.675 5                  23817232.420    23817237.740
  23817236.000          41.500          34.250
 131156811.719 7 102010876.482 6                  24535589.320    24535591.360
  24535590.940          44.650          37.550
 115464483.202 8  89805758.577 7                  21577280.060    21577281.380
  21577280.400          48.450          42.400
 128461038.307 7  99914156.635 6                  23989183.920    23989185.720
  23989185.240          43.900          38.200
 112859426.952 8  87779583.562 7                  21083083.000    21083084.800
  21083083.920          49.400          46.100
 106418992.127 8  82770358.932 7                  19935854.440    19935856.520
  19935855.440          49.450          47.200
 113150275.158 7  88005782.927 7                  21181968.720    21181972.560
  21181971.820          44.500          43.500
 112815577.635 8  87745439.460 7                  21141586.860    21141588.320
  21141588.280          49.400          42.750
 118355744.488 7  92054471.719 7                  22164226.420    22164230.180
  22164228.380          44.650          42.250
 121694351.670 7  94651182.803 7                  22749472.140    22749475.780
  22749473.680          45.800          42.200
 153824991.982 8                 114869345.507 7  29271920.480
                        48.650
 132004416.679 8                  98574834.561 8  25119552.600
                        50.300
 15  1 27  4  8 30.0000000  0 23G11G21G07G04G16G18G22G27G19G30G32R11
                                R05R21R08R07R22R12R06R13R23E18E11
 128577639.052 7 100190353.34745                  24467509.760
  24467505.180          44.700          35.000
 126648748.692 7  98687392.67346                  24100426.080
  24100421.120          45.650          38.700
 126571975.656 7  98627478.608 6                  24085846.880    24085843.020
  24085842.620          45.900          41.550
 120306306.239 7  93745183.26646                  22893520.320
  22893517.220          47.900          40.400
 109862101.630 8  85606832.94747                  20906061.140
  20906055.720          50.150          47.950
 117234074.352 8  91351222.09747                  22308893.120
  22308887.480          49.300          42.000
 111144015.597 8  86605735.73447                  21149988.200
  21149981.580          50.450          47.600
 107448331.767 8  83725984.183 8  80237396.515 8  20446731.580    20446729.640
  20446729.040          50.650          50.550
 112895540.328 8  87970531.03947                  21483301.280
  21483294.320          50.100          46.750
 133244897.498 7 103827184.989 6  99501048.901 7  25355663.440    25355661.780
  25355660.980          42.350          37.900
 133532266.779 6 104051147.93845                  25410345.380
  25410351.720          38.850          30.250
 127293682.813 6  99006205.782 5                  23821279.880    23821285.320
  23821283.500          41.400          35.000
 131175024.116 7 102025041.703 6                  24538996.300    24538998.360
  24538997.900          43.400          36.900
 115474986.183 8  89813927.558 7                  21579242.840    21579244.060
  21579243.060          48.300          42.700
 128438838.666 7  99896890.291 6                  23985038.260    23985040.040
  23985039.580          43.200          38.750
 112844610.815 8  87768059.901 7                  21080315.240    21080317.020
  21080316.160          49.300          46.150
 106417684.394 8  82769341.800 7                  19935609.500    19935611.540
  19935610.460          49.450          47.100
 113162913.814 7  88015612.987 7                  21184334.680    21184338.560
  21184337.840          44.900          43.250
 112819303.135 8  87748337.057 7                  21142284.980    21142286.480
  21142286.380          49.250          42.450
 118349461.504 7  92049584.952 7                  22163049.820    22163053.560
  22163051.780          44.900          42.050
 121681612.737 7  94641274.751 7                  22747090.740    22747094.380
  22747092.320          45.750          42.300
 153843041.870 8                 114882824.308 7  29275355.260
                        48.750
 132012098.206 8                  98580570.760 8  25121014.140
                        50.150
 15  1 27  4  8 35.0000000  0 23G11G21G07G04G16G18G22G27G19G30G32R11
                                R05R21R08R07R22R12R06R13R23E18E11
 128561632.015 7 100177880.33345                  24464463.700
  24464459.160          44.200          35.950
 126661642.114 7  98697439.49346                  24102879.640
  24102874.700          45.400          37.050
 126573041.196 7  98628308.912 7                  24086049.620    24086045.820
  24086045.460          45.950          42.100
 120291414.346 7  93733579.19646                  22890686.460
  22890683.360          47.800          39.400
 109871022.326 8  85613784.13847                  20907758.680
  20907753.280          50.150          47.700
 117240420.259 8  91356166.97047                  22310100.580
  22310095.000          49.000          42.550
 111139019.506 8  86601842.68147                  21149037.540
  21149030.840          50.250          47.550
 107445467.830 8  83723752.548 8  80235257.857 8  20446186.600    20446184.660
  20446184.040          50.600          50.550
 112886307.785 8  87963336.86047                  21481544.360
  21481537.440          49.900          46.850
 133238730.687 6 103822379.674 6  99496443.827 7  25354489.920    25354488.240
  25354487.560          41.650          38.050
 133512606.196 7 104035828.35345                  25406603.820
  25406609.880          42.950          34.600
 127315308.882 6  99023026.008 5                  23825326.940    23825332.280
  23825330.520          41.200          34.850
 131193245.172 7 102039213.661 6                  24542405.000    24542407.000
  24542406.500          42.550          38.000
 115485492.070 8  89822098.816 7                  21581206.160    21581207.260
  21581206.280          48.700          42.750
 128416636.031 7  99879621.635 6                  23980892.040    23980893.900
  23980893.340          43.800          37.850
 112829808.659 8  87756547.122 7                  21077550.080    21077551.860
  21077551.000          49.200          46.100
 106416381.716 8  82768328.618 7                  19935365.500    19935367.540
  19935366.460          49.200          47.050
 113175568.571 7  88025455.577 7                  21186703.740    21186707.560
  21186706.840          45.050          43.550
 112823049.582 8  87751250.960 7                  21142987.040    21142988.520
  21142988.380          49.100          42.700
 118343198.828 7  92044713.975 7                  22161877.000    22161880.760
  22161878.960          44.850          42.250
 121668874.268 7  94631367.062 7                  22744709.400    22744713.120
  22744711.100          45.600          42.950
 153861083.101 8                 114896296.667 7  29278788.400
                        48.650
 132019780.579 8                  98586307.587 8  25122475.800
                        49.800
 15  1 27  4  8 40.0000000  0 22G11G21G07G04G16G18G22G27G19G30R11R05
                                R21R08R07R22R12R06R13R23E18E11
 128545628.605 7 100165410.15445                  24461418.340
  24461413.860          44.500          35.650
 126674537.401 7  98707487.76246                  24105333.560
  24105328.660          45.500          37.400
 126574122.470 7  98629151.456 7                  24086255.340    24086251.580
  24086251.240          45.600          42.350
 120276529.923 7  93721980.94646                  22887854.040
  22887850.920          47.900          40.550
 109879957.912 8  85620746.92747                  20909459.080
  20909453.660          50.350          47.800
 117246779.906 8  91361122.53147                  22311310.660
  22311305.120          49.000          42.900
 111134038.823 8  86597961.62547                  21148089.840
  21148083.020          50.150          47.900
 107442612.912 8  83721527.934 8  80233125.941 8  20445643.320    20445641.380
  20445640.760          50.650          50.700
 112877081.966 8  87956147.91647                  21479788.760
  21479781.800          49.800          47.050
 133232578.620 6 103817585.835 6  99491849.745 7  25353319.220    25353317.520
  25353316.880          41.100          38.950
 127336934.821 6  99039846.165 5                  23829373.940    23829379.360
  23829377.520          40.900          34.700
 131211476.974 7 102053393.895 6                  24545815.640    24545817.600
  24545817.080          43.950          37.400
 115496003.165 8  89830274.106 7                  21583170.440    21583171.520
  21583170.460          48.900          42.600
 128394432.700 7  99862352.363 6                  23976745.680    23976747.520
  23976746.920          43.100          38.400
 112815022.932 8  87745047.108 7                  21074787.940    21074789.780
  21074788.900          49.250          46.200
 106415086.452 8  82767321.187 7                  19935122.900    19935124.880
  19935123.800          49.650          47.050
 113188241.725 7  88035312.467 7                  21189076.200    21189080.020
  21189079.260          45.400          43.400
 112826819.209 8  87754182.894 7                  21143693.420    21143694.960
  21143694.720          49.000          43.000
 118336958.554 7  92039860.426 7                  22160708.420    22160712.180
  22160710.340          45.300          42.600
 121656138.681 7  94621461.610 7                  22742328.580    22742332.380
  22742330.440          46.000          43.400
 153879117.936 8                 114909764.251 7  29282220.280
                        48.600
 132027466.045 8                  98592046.718 8  25123938.040
                        49.750
