     2.11           OBSERVATION DATA    M (MIXED)           RINEX VERSION / TYPE
teqc  2011Oct11     IGN-E (SPG)         20150127 06:00:51UTCPGM / RUN BY / DATE
Linux 2.4.21-27.ELsmp|Opteron|gcc -static|Linux x86_64|=+   COMMENT
BIT 2 OF LLI FLAGS DATA COLLECTED UNDER A/S CONDITION       COMMENT
VALE                                                        MARKER NAME
13439M001                                                   MARKER NUMBER
Programas GeodesicosInstituto Geografico Nacional           OBSERVER / AGENCY
1700071             LEICA GR10          3.03/6.214          REC # / TYPE / VERS
10190012            LEIAR25.R3      LEIT                    ANT # / TYPE
  4929534.0457   -29050.6755  4033709.9250                  APPROX POSITION XYZ
        3.0390        0.0000        0.0000                  ANTENNA: DELTA H/E/N
     1     1                                                WAVELENGTH FACT L1/2
     8    L1    L2    L5    C1    C2    P2    S1    S2      # / TYPES OF OBSERV
     5.0000                                                 INTERVAL
Forced Modulo Decimation to 5 seconds                       COMMENT
DefaultJobName                                              COMMENT
DefaultUserDiscription                                      COMMENT
Project creator:                                            COMMENT
 SNR is mapped to RINEX snr flag value [0-9]                COMMENT
  L1 & L2: min(max(int(snr_dBHz/6), 0), 9)                  COMMENT
  2015     1    27     5     0    0.0000000     GPS         TIME OF FIRST OBS
    15                                                      LEAP SECONDS
                                                            END OF HEADER
 15  1 27  5  0  0.0000000  0 23G11G14G21G07G04G16G18G22G27G19G30G32
                                G01R14R21R08R07R22R12R06R13R23E11
 119300471.299 8  92961395.30646                  22702120.200
  22702115.500          48.250          40.750
 130742971.837 7 101877626.23545                  24879560.740
  24879557.120          44.100          35.050
 134640946.805 6 104914997.52945                  25621321.380
  25621316.300          39.950          34.600
 129760989.656 7 101112422.641 6                  24692697.260    24692693.680
  24692693.340          44.350          38.350
 112468174.187 8  87637550.52047                  21401971.780
  21401967.520          50.550          44.950
 117719965.901 8  91729843.10547                  22401363.500
  22401358.340          49.700          43.700
 123299885.211 7  96077827.25846                  23463179.180
  23463173.360          47.550          38.950
 110879528.427 8  86399642.60647                  21099657.980
  21099650.300          50.600          47.350
 107365649.157 8  83661555.930 8  80175652.657 8  20430998.040    20430995.820
  20430995.220          50.900          50.750
 108452983.657 8  84508799.28448                  20637909.720
  20637903.140          49.350          48.950
 132113546.845 7 102945610.503 6  98656206.188 7  25140376.620    25140375.920
  25140375.040          43.350          40.300
 121406159.063 8  94602223.13446                  23102809.140
  23102805.760          48.150          39.450
 125323235.614 7  97654485.757 7  93585538.113 8  23848215.580    23848214.980
  23848214.680          46.100          42.300
 125437512.836 6  97562523.987 5                  23531760.120    23531765.980
  23531765.320          39.650          34.050
 122772751.945 7  95489965.119 6                  22943006.420    22943008.720
  22943007.620          46.250          40.100
 115113574.170 8  89532798.450 7                  21496636.660    21496638.100
  21496637.660          48.050          45.050
 107245994.701 8  83413582.273 7                  20034445.300    20034446.980
  20034445.940          49.300          47.700
 106888287.692 8  83135366.299 7                  20023769.360    20023772.000
  20023770.800          49.800          47.600
 123482464.216 6  96041941.543 6                  23116177.660    23116181.520
  23116180.900          41.200          38.700
 119025589.438 7  92575448.246 6                  22305340.040    22305342.520
  22305342.240          47.050          40.550
 118648025.135 7  92281800.974 7                  22218961.700    22218965.280
  22218962.960          44.700          43.050
 114196844.235 8  88819790.068 7                  21347891.000    21347894.120
  21347893.420          48.950          45.950
 137174610.344 8                 102435691.406 7  26103408.120
                        49.750
 15  1 27  5  0  5.0000000  0 23G11G14G21G07G04G16G18G22G27G19G30G32
                                G01R14R21R08R07R22R12R06R13R23E11
 119286650.913 8  92950626.17646                  22699490.260
  22699485.580          48.250          41.300
 130730448.289 7 101867867.62245                  24877177.600
  24877173.980          43.850          34.900
 134653750.688 6 104924974.54445                  25623757.780
  25623752.840          38.950          34.950
 129769673.110 7 101119188.959 6                  24694349.740    24694346.100
  24694345.820          44.150          38.050
 112457884.993 8  87629532.97047                  21400013.800
  21400009.540          50.600          44.850
 117735874.814 8  91742239.66247                  22404390.840
  22404385.720          49.650          43.250
 123312649.038 7  96087773.08546                  23465608.060
  23465602.280          47.400          38.900
 110883663.454 8  86402864.70747                  21100444.880
  21100437.160          50.550          47.100
 107368502.284 8  83663779.137 8  80177783.242 8  20431540.960    20431538.760
  20431538.160          50.900          50.800
 108448158.391 8  84505039.33148                  20636991.540
  20636984.920          49.300          48.600
 132116023.178 7 102947540.105 6  98658055.406 7  25140847.860    25140847.160
  25140846.260          43.700          40.000
 121387379.366 8  94587589.59646                  23099235.480
  23099232.060          48.000          39.900
 125309208.498 7  97643555.532 7  93575063.323 8  23845546.340    23845545.720
  23845545.380          46.250          42.200
 125427572.477 6  97554792.582 5                  23529895.380    23529901.180
  23529900.540          39.200          34.100
 122785909.196 7  95500198.514 6                  22945465.220    22945467.460
  22945466.380          46.450          39.550
 115093886.246 7  89517485.620 7                  21492960.080    21492961.520
  21492961.100          47.950          45.550
 107243494.797 8  83411637.903 7                  20033978.280    20033979.980
  20033978.960          49.250          47.650
 106891271.936 8  83137687.378 7                  20024328.420    20024331.040
  20024329.820          49.700          47.550
 123501843.772 6  96057014.523 6                  23119805.540    23119809.400
  23119808.780          40.750          38.600
 119041162.163 7  92587560.359 6                  22308258.380    22308260.860
  22308260.580          46.750          40.700
 118655071.200 7  92287281.238 7                  22220281.160    22220284.820
  22220282.480          44.650          43.250
 114185512.988 8  88810976.870 7                  21345772.780    21345775.860
  21345775.200          49.150          46.050
 137183687.734 8                 102442469.991 7  26105135.520
                        50.000
 15  1 27  5  0 10.0000000  0 23G11G14G21G07G04G16G18G22G27G19G30G32
                                G01R14R21R08R07R22R12R06R13R23E11
 119272837.190 8  92939862.24346                  22696861.580
  22696856.900          48.350          40.800
 130717928.798 7 101858112.15345                  24874795.240
  24874791.600          43.350          33.750
 134666555.951 6 104934952.60145                  25626194.420
  25626189.680          40.400          32.900
 129778367.758 7 101125964.018 6                  24696004.240    24696000.560
  24696000.380          43.250          37.600
 112447606.144 8  87621523.48647                  21398057.780
  21398053.560          50.600          45.000
 117751793.906 8  91754644.15247                  22407420.120
  22407415.020          49.550          43.550
 123325422.603 7  96097726.50546                  23468038.780
  23468033.040          47.550          39.550
 110887814.772 8  86406099.50447                  21101234.860
  21101227.120          50.550          47.250
 107371367.900 8  83666012.084 8  80179923.144 8  20432086.260    20432084.060
  20432083.480          50.900          50.650
 108443343.962 8  84501287.83248                  20636075.420
  20636068.760          49.400          48.800
 132118514.845 7 102949481.674 6  98659916.078 7  25141322.000    25141321.320
  25141320.400          43.250          39.850
 121368607.171 8  94572961.91946                  23095663.260
  23095659.840          48.300          39.050
 125295187.853 7  97632630.356 7  93564593.380 8  23842878.340    23842877.660
  23842877.360          46.350          42.050
 125417652.969 6  97547077.390 5                  23528034.540    23528040.360
  23528039.640          39.450          34.100
 122799073.116 7  95510437.132 6                  22947925.280    22947927.400
  22947926.340          46.250          39.750
 115074210.547 7  89502182.303 7                  21489285.760    21489287.260
  21489286.800          47.650          45.850
 107241019.959 8  83409713.036 7                  20033515.960    20033517.660
  20033516.660          49.250          47.700
 106894266.166 8  83140016.216 7                  20024889.360    20024891.940
  20024890.720          49.950          47.500
 123521229.570 6  96072092.368 6                  23123434.580    23123438.460
  23123437.860          40.350          38.900
 119056751.684 7  92599685.549 6                  22311179.840    22311182.320
  22311182.080          46.600          40.350
 118662139.075 7  92292778.462 7                  22221604.760    22221608.460
  22221606.080          44.550          43.250
 114174187.243 8  88802167.960 7                  21343655.580    21343658.640
  21343658.020          49.100          46.300
 137192769.768 8                 102449252.027 7  26106863.820
                        50.000
 15  1 27  5  0 15.0000000  0 23G11G14G21G07G04G16G18G22G27G19G30G32
                                G01R14R21R08R07R22R12R06R13R23E11
 119259029.272 8  92929102.83646                  22694234.000
  22694229.360          48.150          40.700
 130705412.578 7 101848359.25045                  24872413.440
  24872409.840          43.150          35.050
 134679361.645 6 104944931.11545                  25628631.220
  25628626.480          41.050          33.400
 129787072.824 7 101132747.161 6                  24697660.720    24697657.060
  24697656.820          42.650          37.750
 112437336.767 8  87613521.37347                  21396103.580
  21396099.380          50.350          45.200
 117767722.321 8  91767055.90147                  22410451.140
  22410446.120          49.150          43.300
 123338205.061 7  96107686.87346                  23470471.220
  23470465.540          47.200          38.950
 110891981.534 8  86409346.32947                  21102027.760
  21102020.020          50.400          47.200
 107374245.152 8  83668254.104 8  80182071.742 8  20432633.780    20432631.580
  20432631.000          50.850          50.700
 108438539.527 8  84497544.12248                  20635161.200
  20635154.500          49.350          48.900
 132121021.048 7 102951434.553 6  98661787.567 7  25141798.940    25141798.160
  25141797.340          43.550          40.150
 121349841.702 8  94558339.47446                  23092092.320
  23092088.860          48.150          40.000
 125281172.857 7  97621709.578 7  93554127.652 8  23840211.380    23840210.620
  23840210.400          45.750          42.000
 125407753.315 6  97539377.659 5                  23526177.360    23526183.160
  23526182.440          39.050          34.150
 122812242.796 7  95520680.204 6                  22950386.400    22950388.500
  22950387.380          46.350          39.450
 115054546.361 8  89486887.943 7                  21485613.600    21485615.120
  21485614.660          48.100          45.600
 107238569.290 8  83407806.964 7                  20033058.120    20033059.880
  20033058.880          49.250          47.650
 106897269.488 8  83142352.138 7                  20025451.980    20025454.560
  20025453.320          49.900          47.500
 123540620.801 6  96087174.432 6                  23127064.560    23127068.580
  23127067.880          39.700          38.950
 119072357.222 7  92611823.176 6                  22314104.320    22314106.800
  22314106.560          46.400          40.550
 118669227.688 7  92298291.824 7                  22222932.220    22222935.960
  22222933.580          44.100          43.200
 114162865.973 8  88793362.529 7                  21341539.200    21341542.280
  21341541.680          48.850          46.300
 137201855.614 8                 102456036.911 7  26108592.860
                        49.800
 15  1 27  5  0 20.0000000  0 23G11G14G21G07G04G16G18G22G27G19G30G32
                                G01R14R21R08R07R22R12R06R13R23E11
 119245223.040 8  92918344.74046                  22691606.740
  22691602.120          48.050          41.100
 130692895.561 7 101838605.73946                  24870031.520
  24870027.920          43.150          36.200
 134692163.681 6 104954906.69945                  25631067.340
  25631062.780          41.000          32.500
 129795784.094 7 101139535.158 6                  24699318.440    24699314.840
  24699314.580          43.050          38.700
 112427072.705 8  87605523.40347                  21394150.400
  21394146.180          50.300          45.000
 117783655.953 8  91779471.71347                  22413483.160
  22413478.220          49.300          43.150
 123350992.347 7  96117650.98346                  23472904.540
  23472898.940          47.200          38.350
 110896159.642 8  86412601.99447                  21102822.840
  21102815.080          50.400          47.050
 107377129.941 8  83670501.987 8  80184225.965 8  20433182.720    20433180.540
  20433179.960          50.850          50.650
 108433740.973 8  84493804.98748                  20634248.100
  20634241.360          49.400          48.600
 132123537.650 7 102953395.550 6  98663666.866 7  25142277.800    25142277.020
  25142276.340          43.050          39.650
 121331078.803 7  94543719.02946                  23088521.860
  23088518.340          47.950          39.300
 125267159.417 7  97610790.006 6  93543663.078 8  23837544.720    23837544.020
  23837543.740          45.450          41.900
 125397869.398 6  97531690.187 5                  23524323.180    23524329.140
  23524328.200          39.450          33.800
 122825414.089 7  95530924.560 6                  22952847.760    22952849.820
  22952848.740          45.600          39.600
 115034889.396 7  89471599.192 7                  21481942.820    21481944.320
  21481943.840          47.900          45.700
 107236138.640 8  83405916.458 7                  20032604.040    20032605.840
  20032604.840          49.200          47.800
 106900277.732 8  83144691.886 7                  20026015.540    20026018.120
  20026016.840          49.800          47.550
 123560013.238 6  96102257.437 6                  23130694.780    23130698.820
  23130698.160          39.450          38.850
 119087974.499 7  92623969.943 6                  22317030.980    22317033.500
  22317033.280          46.600          40.550
 118676332.903 7  92303818.102 7                  22224262.800    22224266.580
  22224264.160          43.950          43.450
 114151545.145 8  88784557.438 7                  21339422.900    21339426.000
  21339425.440          49.100          46.150
 137210941.155 8                 102462821.573 7  26110321.840
                        49.850
 15  1 27  5  0 25.0000000  0 23G11G14G21G07G04G16G18G22G27G19G30G32
                                G01R14R21R08R07R22R12R06R13R23E11
 119231421.578 8  92907590.35846                  22688980.380
  22688975.760          48.350          41.150
 130680380.862 7 101828854.01446                  24867650.060
  24867646.480          43.750          36.200
 134704965.192 6 104964881.89444                  25633503.380
  25633498.760          41.300          28.750
 129804504.720 7 101146330.416 6                  24700977.860    24700974.460
  24700974.060          43.750          37.800
 112416817.138 8  87597532.05547                  21392198.800
  21392194.640          50.500          44.700
 117799597.908 8  91791894.00947                  22416516.780
  22416511.900          49.600          43.350
 123363787.491 7  96127621.22246                  23475339.340
  23475333.760          47.250          38.600
 110900352.191 8  86415868.90747                  21103620.680
  21103612.900          50.450          47.150
 107380025.373 8  83672758.160 8  80186388.135 8  20433733.700    20433731.520
  20433730.940          50.900          50.650
 108428951.405 8  84490072.85448                  20633336.720
  20633329.940          49.600          48.700
 132126067.734 7 102955367.040 6  98665556.220 7  25142759.180    25142758.460
  25142757.780          43.250          39.650
 121312321.608 7  94529103.03146                  23084952.520
  23084948.900          47.850          39.200
 125253150.620 7  97599874.050 7  93533201.958 8  23834878.900    23834878.220
  23834878.000          45.600          42.650
 125388004.646 6  97524017.590 5                  23522472.540    23522478.520
  23522477.540          39.100          34.050
 122838590.167 7  95541172.608 6                  22955310.060    22955312.140
  22955311.020          46.250          40.050
 115015243.016 8  89456318.672 7                  21478273.980    21478275.500
  21478275.020          48.050          45.850
 107233731.245 8  83404044.036 7                  20032154.320    20032156.100
  20032155.160          49.150          47.950
 106903293.997 8  83147037.867 7                  20026580.600    20026583.200
  20026581.880          49.850          47.450
 123579410.046 6  96117343.853 6                  23134325.860    23134329.980
  23134329.300          39.750          39.250
 119103606.595 7  92636128.242 6                  22319960.420    22319962.980
  22319962.740          46.600          40.750
 118683457.793 7  92309359.677 7                  22225597.080    22225600.780
  22225598.440          44.300          43.400
 114140227.868 8  88775755.105 7                  21337307.260    21337310.360
  21337309.840          49.050          46.300
 137220029.500 8                 102469608.322 7  26112051.320
                        49.850
 15  1 27  5  0 30.0000000  0 23G11G14G21G07G04G16G18G22G27G19G30G32
                                G01R14R21R08R07R22R12R06R13R23E11
 119217624.816 8  92896839.64246                  22686354.940
  22686350.340          48.450          40.650
 130667868.363 7 101819104.02445                  24865269.060
  24865265.300          43.700          34.300
 134717766.035 6 104974856.58045                  25635939.320
  25635934.880          40.600          32.800
 129813234.517 7 101153132.830 6                  24702639.120    24702635.800
  24702635.400          45.050          38.650
 112406569.908 8  87589547.20447                  21390248.820
  21390244.680          50.500          44.850
 117815548.067 8  91804322.70347                  22419551.980
  22419547.120          49.800          43.250
 123376590.431 7  96137597.53646                  23477775.600
  23477770.140          47.100          37.500
 110904559.075 8  86419146.99947                  21104421.220
  21104413.440          50.450          47.150
 107382931.348 8  83675022.561 8  80188558.181 8  20434286.660    20434284.520
  20434283.920          51.000          50.650
 108424170.749 8  84486347.67248                  20632427.020
  20632420.220          49.600          48.600
 132128611.224 7 102957348.998 6  98667455.572 7  25143243.200    25143242.540
  25143241.820          43.400          40.700
 121293570.018 7  94514491.40046                  23081384.240
  23081380.560          47.950          39.250
 125239146.360 7  97588961.652 7  93522744.239 8  23832213.960    23832213.300
  23832213.140          45.250          42.600
 125378158.606 6  97516359.573 5                  23520625.420    23520631.520
  23520630.420          38.750          34.650
 122851770.921 7  95551424.308 6                  22957773.200    22957775.340
  22957774.220          45.800          40.600
 114995606.949 7  89441046.178 7                  21474607.060    21474608.660
  21474608.100          47.550          45.750
 107231346.799 8  83402189.469 7                  20031708.840    20031710.640
  20031709.740          48.900          47.900
 106906318.340 8  83149390.137 7                  20027147.140    20027149.780
  20027148.420          49.550          47.550
 123598811.094 6  96132433.559 6                  23137957.740    23137961.820
  23137961.200          39.600          39.200
 119119253.488 7  92648298.044 6                  22322892.600    22322895.200
  22322895.000          45.900          40.400
 118690602.340 7  92314916.548 7                  22226935.020    22226938.760
  22226936.400          44.000          43.300
 114128914.039 8  88766955.465 7                  21335192.240    21335195.420
  21335194.860          48.900          46.100
 137229120.559 8                 102476397.094 7  26113781.340
                        49.900
 15  1 27  5  0 35.0000000  0 23G11G14G21G07G04G16G18G22G27G19G30G32
                                G01R14R21R08R07R22R12R06R13R23E11
 119203833.128 8  92886092.87646                  22683730.460
  22683725.860          48.600          40.550
 130655358.588 7 101809356.16045                  24862888.540
  24862884.700          43.750          35.100
 134730566.758 6 104984831.15445                  25638375.240
  25638370.880          41.200          30.600
 129821973.903 7 101159942.750 6                  24704302.240    24704298.940
  24704298.580          44.850          39.100
 112396331.446 8  87581569.18847                  21388300.480
  21388296.380          50.600          45.000
 117831506.848 8  91816758.11447                  22422588.840
  22422584.000          50.050          43.000
 123389401.543 7  96147580.22146                  23480213.440
  23480208.000          47.000          38.700
 110908780.697 8  86422436.57847                  21105224.580
  21105216.780          50.550          46.950
 107385848.294 8  83677295.507 8  80190736.418 8  20434841.740    20434839.580
  20434839.000          51.100          50.650
 108419399.427 8  84482629.75648                  20631519.120
  20631512.280          49.800          48.400
 132131168.513 7 102959341.667 6  98669365.228 7  25143729.860    25143729.200
  25143728.440          43.250          39.800
 121274824.518 7  94499884.51546                  23077817.140
  23077813.440          47.850          39.350
 125225147.077 7  97578053.136 7  93512290.235 8  23829549.980    23829549.400
  23829549.180          45.250          42.650
 125368331.898 6  97508716.569 5                  23518782.000    23518787.960
  23518786.980          37.850          34.400
 122864956.714 7  95561679.906 6                  22960237.280    22960239.440
  22960238.380          46.100          40.650
 114975981.672 7  89425782.074 7                  21470942.160    21470943.780
  21470943.200          47.550          45.950
 107228985.843 8  83400353.170 7                  20031267.760    20031269.600
  20031268.700          49.000          47.850
 106909351.102 8  83151748.956 7                  20027715.320    20027717.900
  20027716.540          49.650          47.350
 123618216.796 6  96147526.881 6                  23141590.520    23141594.580
  23141593.980          39.600          39.100
 119134915.749 7  92660479.801 6                  22325827.680    22325830.320
  22325830.120          45.850          40.600
 118697766.871 7  92320488.957 7                  22228276.720    22228280.460
  22228278.120          44.400          43.100
 114117604.213 8  88758158.936 7                  21333078.020    21333081.140
  21333080.620          48.900          46.350
 137238214.737 8                 102483188.206 7  26115511.940
                        49.950
 15  1 27  5  0 40.0000000  0 23G11G14G21G07G04G16G18G22G27G19G30G32
                                G01R14R21R08R07R22R12R06R13R23E11
 119190044.369 8  92875348.38946                  22681106.560
  22681101.900          48.750          40.150
 130642849.265 7 101799608.64445                  24860508.120
  24860504.220          43.600          34.350
 134743364.989 6 104994803.81045                  25640810.720
  25640806.260          40.550          31.400
 129830720.713 7 101166758.448 6                  24705966.740    24705963.440
  24705963.240          45.450          39.200
 112386099.598 8  87573596.32347                  21386353.420
  21386349.320          50.500          44.900
 117847471.995 8  91829198.48747                  22425626.920
  22425622.060          50.000          42.700
 123402218.630 7  96157567.54946                  23482652.420
  23482647.040          47.150          37.700
 110913014.845 8  86425735.91847                  21106030.320
  21106022.520          50.650          46.750
 107388774.017 8  83679575.282 8  80192921.197 8  20435398.460    20435396.340
  20435395.760          51.100          50.550
 108414635.246 8  84478917.40648                  20630612.580
  20630605.680          49.700          48.700
 132133737.387 7 102961343.409 6  98671283.543 7  25144218.780    25144218.020
  25144217.340          42.550          40.350
 121256082.873 7  94485280.63846                  23074250.740
  23074246.980          47.650          39.900
 125211150.592 7  97567146.791 7  93501838.316 8  23826886.500    23826886.000
  23826885.740          45.550          42.400
 125358522.388 6  97501086.949 5                  23516941.680    23516947.800
  23516946.760          37.550          34.650
 122878145.398 7  95571937.780 6                  22962701.920    22962704.160
  22962703.120          46.000          40.800
 114956365.124 7  89410524.765 7                  21467278.880    21467280.540
  21467279.940          47.800          46.050
 107226646.192 8  83398533.445 7                  20030830.660    20030832.520
  20030831.620          49.100          47.750
 106912390.030 8  83154112.566 7                  20028284.580    20028287.160
  20028285.820          49.600          47.350
 123637624.930 6  96162622.094 6                  23145223.760    23145227.880
  23145227.220          39.300          38.650
 119150590.919 7  92672671.589 6                  22328765.160    22328767.800
  22328767.660          45.900          40.700
 118704949.397 7  92326075.369 7                  22229621.800    22229625.580
  22229623.160          44.200          42.950
 114106295.931 8  88749363.608 7                  21330964.080    21330967.200
  21330966.640          48.750          46.200
 137247309.847 8                 102489980.004 7  26117242.720
                        49.900
 15  1 27  5  0 45.0000000  0 23G11G14G21G07G04G16G18G22G27G19G30G32
                                G01R14R21R08R07R22R12R06R13R23E11
 119176262.114 8  92864608.96746                  22678483.900
  22678479.160          48.650          40.750
 130630344.054 7 101789864.31645                  24858128.480
  24858124.540          43.550          34.600
 134756164.424 6 105004777.39244                  25643246.400
  25643241.820          40.350          27.550
 129839478.518 7 101173582.679 6                  24707633.360    24707630.040
  24707629.960          44.700          38.700
 112375877.931 8  87565631.38247                  21384408.280
  21384404.200          50.350          45.000
 117863447.130 8  91841646.63347                  22428666.900
  22428662.040          49.750          43.250
 123415045.254 7  96167562.31146                  23485093.220
  23485087.840          47.150          38.600
 110917265.115 8  86429047.81147                  21106839.120
  21106831.320          50.650          46.900
 107391712.107 8  83681864.695 8  80195115.214 8  20435957.560    20435955.420
  20435954.860          51.050          50.650
 108409881.811 8  84475213.42548                  20629708.060
  20629701.140          49.700          48.650
 132136321.464 7 102963356.962 6  98673213.191 7  25144710.560    25144709.720
  25144709.180          42.600          39.650
 121237348.703 7  94470682.58146                  23070685.780
  23070682.000          47.600          40.000
 125197160.458 7  97556245.377 7  93491391.138 8  23824224.260    23824223.780
  23824223.560          45.350          42.800
 125348733.585 6  97493473.452 5                  23515105.340    23515111.620
  23515110.400          38.500          34.450
 122891340.550 7  95582200.653 6                  22965167.800    22965170.060
  22965169.100          46.100          41.150
 114936760.836 7  89395276.983 7                  21463617.900    21463619.520
  21463618.980          47.750          46.150
 107224331.475 8  83396733.112 7                  20030398.220    20030400.120
  20030399.180          49.000          47.700
 106915438.819 8  83156483.844 7                  20028855.740    20028858.340
  20028856.960          49.700          47.350
 123657039.072 6  96177721.966 6                  23148858.060    23148862.320
  23148861.560          40.050          38.600
 119166282.724 7  92684876.320 6                  22331705.780    22331708.540
  22331708.340          45.800          40.700
 118712153.262 7  92331678.354 7                  22230970.860    22230974.720
  22230972.200          43.650          43.250
 114094993.033 8  88740572.469 7                  21328851.160    21328854.240
  21328853.660          49.100          46.000
 137256409.485 8                 102496775.168 7  26118974.340
                        49.750
 15  1 27  5  0 50.0000000  0 23G11G14G21G07G04G16G18G22G27G19G30G32
                                G01R14R21R08R07R22R12R06R13R23E11
 119162484.664 8  92853873.30746                  22675862.140
  22675857.400          49.350          38.900
 130617841.332 7 101780121.94345                  24855749.260
  24855745.360          43.550          31.900
 134768963.394 6 105014750.59344                  25645681.960
  25645677.500          41.650          28.900
 129848245.728 7 101180414.275 6                  24709301.720    24709298.360
  24709298.260          45.700          37.900
 112365664.833 8  87557673.12247                  21382464.800
  21382460.720          50.800          44.300
 117879430.641 8  91854101.30947                  22431708.460
  22431703.600          50.200          42.550
 123427879.788 7  96177563.25446                  23487535.500
  23487530.140          47.950          37.550
 110921529.939 8  86432371.05047                  21107650.680
  21107642.900          50.900          46.500
 107394660.968 8  83684162.509 8  80197317.291 8  20436518.700    20436516.580
  20436516.000          51.450          50.550
 108405137.518 8  84471516.57548                  20628805.280
  20628798.340          50.150          48.550
 132138919.118 7 102965381.123 6  98675153.009 7  25145204.860    25145204.080
  25145203.520          43.800          40.150
 121218620.442 8  94456089.13546                  23067121.920
  23067118.140          48.000          39.100
 125183175.122 7  97545347.715 7  93480947.553 8  23821562.940    23821562.500
  23821562.240          46.000          43.100
 125338963.882 6  97485874.796 5                  23513272.580    23513278.880
  23513277.600          38.300          34.350
 122904540.604 7  95592467.349 6                  22967634.560    22967636.880
  22967635.940          46.000          40.550
 114917167.215 8  89380037.513 7                  21459958.960    21459960.580
  21459960.020          48.000          45.700
 107222040.055 8  83394950.901 7                  20029970.100    20029972.080
  20029971.100          48.950          47.700
 106918495.859 8  83158861.550 7                  20029428.440    20029431.000
  20029429.640          50.050          47.350
 123676457.457 6  96192825.140 6                  23152493.140    23152497.440
  23152496.700          41.150          38.500
 119181989.502 7  92697092.709 6                  22334649.200    22334651.920
  22334651.840          46.100          40.900
 118719377.043 7  92337296.838 7                  22232323.600    22232327.540
  22232324.980          44.350          43.050
 114083693.851 8  88731784.216 7                  21326738.940    21326741.980
  21326741.380          49.350          46.150
 137265512.058 8                 102503572.534 7  26120706.460
                        50.250
 15  1 27  5  0 55.0000000  0 23G11G14G21G07G04G16G18G22G27G19G30G32
                                G01R14R21R08R07R22R12R06R13R23E11
 119148709.169 8  92843139.15146                  22673240.760
  22673236.020          49.050          39.800
 130605338.296 7 101770379.31845                  24853370.020
  24853366.160          43.550          34.250
 134781759.219 6 105024721.33945                  25648116.980
  25648112.760          40.800          33.250
 129857019.491 7 101187250.957 6                  24710971.320    24710967.900
  24710967.700          45.100          37.850
 112355457.452 8  87549719.31647                  21380522.380
  21380518.340          50.650          44.400
 117895419.630 8  91866560.25547                  22434751.060
  22434746.200          50.050          42.350
 123440719.411 7  96187568.15746                  23489978.780
  23489973.420          47.700          37.750
 110925806.461 8  86435703.39947                  21108464.460
  21108456.700          50.650          46.650
 107397617.763 8  83686466.503 8  80199525.294 8  20437081.360    20437079.240
  20437078.660          51.300          50.550
 108400399.557 8  84467824.65748                  20627903.720
  20627896.740          50.000          48.350
 132141527.497 7 102967413.614 6  98677100.829 7  25145701.240    25145700.420
  25145699.920          42.850          39.600
 121199895.214 7  94441498.05446                  23063558.640
  23063554.900          47.650          40.100
 125169191.698 7  97534451.557 7  93470505.400 8  23818902.000    23818901.600
  23818901.380          45.850          43.100
 125329210.506 6  97478288.841 5                  23511442.860    23511449.160
  23511447.920          38.800          35.400
 122917742.685 7  95602735.632 6                  22970101.660    22970104.060
  22970103.080          45.800          39.750
 114897581.485 7  89364804.158 7                  21456301.480    21456303.040
  21456302.500          47.750          45.800
 107219768.931 8  83393184.473 7                  20029545.800    20029547.820
  20029546.820          49.000          47.700
 106921558.156 8  83161243.343 7                  20030002.120    20030004.640
  20030003.280          49.850          47.500
 123695877.454 6  96207929.565 6                  23156128.660    23156132.900
  23156132.140          41.400          38.850
 119197708.271 7  92709318.423 6                  22337594.900    22337597.640
  22337597.580          46.000          41.050
 118726617.676 7  92342928.448 7                  22233679.560    22233683.540
  22233680.900          44.350          43.000
 114072395.406 8  88722996.533 7                  21324626.840    21324629.860
  21324629.240          49.200          46.200
 137274614.712 8                 102510369.979 7  26122438.620
                        50.050
 15  1 27  5  1  0.0000000  0 23G11G14G21G07G04G16G18G22G27G19G30G32
                                G01R14R21R08R07R22R12R06R13R23E11
 119134941.260 8  92832410.91446                  22670620.840
  22670616.060          48.900          39.950
 130592840.398 7 101760640.67945                  24850991.800
  24850987.840          43.600          32.500
 134794557.109 6 105034693.74144                  25650552.360
  25650548.020          41.100          26.950
 129865805.166 7 101194096.944 6                  24712643.180    24712639.740
  24712639.460          45.250          37.850
 112345261.246 8  87541774.22347                  21378582.100
  21378578.080          50.700          44.550
 117911419.545 8  91879027.71547                  22437795.760
  22437790.880          49.950          42.900
 123453569.559 7  96197581.26446                  23492424.060
  23492418.680          47.400          37.950
 110930100.048 8  86439049.05347                  21109281.500
  21109273.760          50.700          46.650
 107400587.925 8  83688780.913 8  80201743.264 8  20437646.560    20437644.460
  20437643.860          51.250          50.550
 108395673.315 8  84464141.87148                  20627004.360
  20626997.380          50.100          48.250
 132144152.032 7 102969458.727 6  98679060.713 7  25146200.660    25146199.900
  25146199.340          43.200          39.450
 121181178.496 7  94426913.59546                  23059996.960
  23059993.180          47.300          40.600
 125155215.645 7  97523561.134 7  93460068.725 8  23816242.420    23816242.040
  23816241.840          46.150          43.100
 125319478.961 6  97470719.862 6                  23509617.180    23509623.640
  23509622.420          38.600          36.000
 122930952.272 7  95613009.755 6                  22972570.160    22972572.640
  22972571.560          45.600          40.000
 114878009.158 8  89349581.256 7                  21452646.480    21452648.040
  21452647.460          48.250          45.400
 107217523.899 8  83391438.332 7                  20029126.360    20029128.400
  20029127.420          49.050          47.600
 106924631.324 8  83163633.571 7                  20030577.860    20030580.300
  20030579.000          50.150          47.350
 123715304.370 6  96223039.389 6                  23159765.400    23159769.620
  23159768.900          41.250          39.100
 119213444.717 7  92721557.874 6                  22340543.940    22340546.640
  22340546.640          46.050          41.000
 118733880.753 7  92348577.508 7                  22235039.700    22235043.660
  22235041.000          44.250          42.850
 114061103.191 8  88714213.692 7                  21322515.900    21322518.920
  21322518.280          49.300          46.050
 137283722.871 8                 102517171.520 7  26124171.800
                        50.150
 15  1 27  5  1  5.0000000  0 23G11G14G21G07G04G16G18G22G27G19G30G32
                                G01R14R21R08R07R22R12R06R13R23E11
 119121176.102 8  92821684.82946                  22668001.400
  22667996.620          48.900          39.850
 130580342.857 7 101750902.33845                  24848613.620
  24848609.580          43.450          32.600
 134807352.474 6 105044664.17245                  25652987.220
  25652982.640          40.350          35.700
 129874598.060 7 101200948.547 6                  24714316.400    24714312.960
  24714312.600          45.100          37.050
 112335071.422 8  87533834.11347                  21376643.040
  21376639.040          50.700          44.500
 117927425.628 8  91891499.99847                  22440841.660
  22440836.740          49.900          42.650
 123466425.475 7  96207598.86146                  23494870.480
  23494865.080          47.650          38.600
 110934406.000 8  86442404.34747                  21110100.880
  21110093.160          50.750          46.550
 107403566.700 8  83691102.042 8  80203967.675 8  20438213.400    20438211.280
  20438210.700          51.000          50.450
 108390954.069 8  84460464.53948                  20626106.340
  20626099.340          50.100          48.100
 132146787.984 7 102971512.708 6  98681029.115 7  25146702.300    25146701.520
  25146701.020          42.400          38.650
 121162465.580 7  94412332.11246                  23056436.000
  23056432.260          47.250          40.750
 125141242.204 7  97512672.740 7  93449634.020 8  23813583.340    23813583.020
  23813582.820          46.450          42.550
 125309764.336 6  97463164.046 6                  23507794.760    23507801.200
  23507800.160          38.100          36.200
 122944164.558 7  95623285.969 6                  22975039.220    22975041.580
  22975040.540          46.050          39.350
 114858445.340 8  89334364.960 7                  21448993.060    21448994.620
  21448994.020          48.000          45.000
 107215299.767 8  83389708.454 7                  20028710.840    20028712.900
  20028711.940          49.000          47.600
 106927710.589 8  83166028.567 7                  20031154.740    20031157.140
  20031155.840          49.850          47.400
 123734733.413 6  96238150.866 6                  23163402.560    23163406.840
  23163406.100          40.750          39.400
 119229193.747 7  92733807.122 6                  22343495.320    22343498.060
  22343498.040          46.150          40.800
 118741161.257 7  92354240.134 7                  22236403.120    22236407.020
  22236404.380          44.000          43.000
 114049812.623 8  88705432.150 7                  21320405.240    21320408.260
  21320407.620          49.300          46.050
 137292831.778 8                 102523973.628 7  26125905.140
                        50.150
 15  1 27  5  1 10.0000000  0 23G11G14G21G07G04G16G18G22G27G19G30G32
                                G01R14R21R08R07R22R12R06R13R23E11
 119107415.868 8  92810962.56946                  22665382.920
  22665378.100          49.000          39.250
 130567847.815 7 101741165.97445                  24846235.920
  24846231.800          43.800          34.150
 134820147.290 6 105054634.12345                  25655421.980
  25655417.220          41.650          33.350
 129883400.268 7 101207807.446 6                  24715991.440    24715987.920
  24715987.580          45.200          37.350
 112324890.238 8  87525900.72247                  21374705.600
  21374701.620          50.600          44.650
 117943439.955 8  91903978.69847                  22443889.160
  22443884.160          49.800          43.450
 123479289.314 7  96217622.63146                  23497318.380
  23497313.000          47.800          37.350
 110938726.441 8  86445770.93047                  21110923.040
  21110915.340          50.800          46.800
 107406556.206 8  83693431.531 8  80206200.106 8  20438782.280    20438780.180
  20438779.580          50.900          50.500
 108386243.958 8  84456794.32848                  20625210.060
  20625203.040          50.050          48.350
 132149437.497 6 102973577.267 6  98683007.645 7  25147206.460    25147205.720
  25147205.340          41.450          39.600
 121143758.557 7  94397755.22246                  23052876.160
  23052872.460          47.100          39.950
 125127273.536 7  97501788.052 7  93439202.858 8  23810925.180    23810924.840
  23810924.680          46.150          43.050
 125300068.906 6  97455623.163 6                  23505975.960    23505982.360
  23505981.500          38.650          36.100
 122957381.676 7  95633565.963 6                  22977509.140    22977511.500
  22977510.360          45.450          39.250
 114838892.267 7  89319157.006 7                  21445341.660    21445343.160
  21445342.560          47.700          45.150
 107213099.049 8  83387996.789 7                  20028299.700    20028301.800
  20028300.840          48.950          47.700
 106930798.045 8  83168429.917 7                  20031733.140    20031735.520
  20031734.240          49.750          47.400
 123754166.654 6  96253265.613 6                  23167040.540    23167044.860
  23167044.080          40.700          39.600
 119244957.524 7  92746067.829 6                  22346449.440    22346452.220
  22346452.220          46.300          40.950
 118748461.719 7  92359918.267 7                  22237770.280    22237774.180
  22237771.540          44.150          42.950
 114038525.685 8  88696653.410 7                  21318295.280    21318298.300
  21318297.620          49.350          45.950
 137301943.600 8                 102530777.907 7  26127639.040
                        50.050
 15  1 27  5  1 15.0000000  0 23G11G14G21G07G04G16G18G22G27G19G30G32
                                G01R14R21R08R07R22R12R06R13R23E11
 119093660.939 8  92800244.45246                  22662765.440
  22662760.600          48.750          40.350
 130555355.718 7 101731431.86445                  24843858.740
  24843854.480          43.350          34.150
 134832942.016 6 105064604.04445                  25657856.760
  25657851.860          41.300          30.300
 129892212.095 7 101214673.798 6                  24717668.300    24717664.720
  24717664.460          45.100          37.200
 112314717.950 8  87517974.26647                  21372769.880
  21372765.900          50.400          44.650
 117959462.842 8  91916464.06547                  22446938.260
  22446933.240          49.600          43.400
 123492161.378 7  96227652.81646                  23499767.900
  23499762.420          47.600          37.250
 110943061.690 8  86449149.04047                  21111748.000
  21111740.320          50.700          46.650
 107409556.849 8  83695769.699 8  80208440.837 8  20439353.300    20439351.180
  20439350.580          50.750          50.450
 108381543.347 8  84453131.51848                  20624315.580
  20624308.540          49.900          48.450
 132152100.814 6 102975652.549 6  98684996.500 7  25147713.160    25147712.500
  25147712.140          41.850          38.350
 121125057.820 7  94383183.21946                  23049317.520
  23049313.820          46.850          41.150
 125113309.961 7  97490907.342 7  93428775.498 8  23808268.000    23808267.680
  23808267.540          46.100          43.150
 125290392.962 6  97448097.443 5                  23504160.780    23504167.140
  23504166.420          38.800          35.600
 122970604.034 7  95643850.000 6                  22979980.040    22979982.300
  22979981.160          45.750          39.250
 114819350.287 7  89303957.698 7                  21441692.340    21441693.800
  21441693.200          47.550          45.400
 107210921.867 8  83386303.431 7                  20027892.960    20027895.080
  20027894.120          48.900          47.850
 106933894.060 8  83170837.927 7                  20032313.160    20032315.520
  20032314.240          49.800          47.400
 123773604.502 6  96268383.938 6                  23170679.380    23170683.700
  23170682.900          40.350          39.750
 119260736.520 7  92758340.394 6                  22349406.440    22349409.240
  22349409.280          46.150          41.000
 118755782.160 7  92365611.929 7                  22239141.160    22239145.060
  22239142.440          44.350          43.200
 114027242.877 8  88687877.892 7                  21316186.080    21316189.100
  21316188.380          49.050          46.200
 137311058.674 8                 102537584.603 7  26129373.620
                        49.950
 15  1 27  5  1 20.0000000  0 23G11G14G21G07G04G16G18G22G27G19G30G32
                                G01R14R21R08R07R22R12R06R13R23E11
 119079909.291 8  92789528.88746                  22660148.600
  22660143.700          48.700          40.700
 130542864.638 7 101721698.54545                  24841481.760
  24841477.620          43.200          35.100
 134845734.746 6 105074572.39944                  25660291.100
  25660286.060          41.300          26.650
 129901031.676 7 101221546.177 6                  24719346.600    24719342.980
  24719342.640          44.600          37.350
 112304552.709 8  87510053.29947                  21370835.500
  21370831.520          50.400          45.050
 117975492.474 8  91928954.68747                  22449988.660
  22449983.600          49.650          43.650
 123505039.770 7  96237687.92646                  23502218.620
  23502213.100          47.650          38.050
 110947409.830 8  86452537.19947                  21112575.420
  21112567.760          50.600          47.200
 107412566.723 8  83698115.048 8  80210688.464 8  20439926.080    20439923.940
  20439923.340          50.850          50.650
 108376850.343 8  84449474.63248                  20623422.560
  20623415.500          49.900          48.800
 132154776.150 7 102977737.220 6  98686994.335 7  25148222.200    25148221.560
  25148221.100          42.000          39.050
 121106361.494 7  94368614.65346                  23045759.760
  23045756.040          47.100          40.100
 125099349.600 7  97480029.138 7  93418350.562 8  23805611.400    23805611.120
  23805610.940          45.800          43.100
 125280734.744 6  97440585.490 5                  23502348.940    23502355.360
  23502354.580          38.700          34.950
 122983829.685 7  95654136.617 6                  22982451.560    22982453.660
  22982452.680          45.400          39.850
 114799817.610 7  89288765.614 7                  21438044.760    21438046.180
  21438045.560          47.700          45.000
 107208766.450 8  83384627.000 7                  20027490.280    20027492.420
  20027491.480          48.850          47.750
 106936996.809 8  83173251.174 7                  20032894.420    20032896.760
  20032895.500          49.650          47.600
 123793045.048 6  96283504.346 6                  23174318.660    23174323.000
  23174322.260          40.300          39.250
 119276528.723 7  92770623.210 6                  22352365.940    22352368.660
  22352368.780          45.850          40.900
 118763120.710 7  92371319.677 7                  22240515.440    22240519.380
  22240516.700          44.300          43.000
 114015962.213 8  88679104.037 7                  21314077.260    21314080.320
  21314079.540          48.950          46.000
 137320175.126 8                 102544392.348 7  26131108.440
                        49.950
 15  1 27  5  1 25.0000000  0 23G11G14G21G07G04G16G18G22G27G19G30G32
                                G01R14R21R08R07R22R12R06R13R23E11
 119066163.450 8  92778817.84446                  22657532.840
  22657527.920          48.450          39.850
 130530377.031 7 101711967.95745                  24839105.440
  24839101.300          43.450          34.750
 134858527.972 6 105084541.13644                  25662725.540
  25662720.380          40.650          27.750
 129909861.379 7 101228426.460 6                  24721026.800    24721023.220
  24721022.880          45.050          38.500
 112294396.914 8  87502139.69547                  21368902.900
  21368898.960          50.350          44.850
 117991531.215 8  91941452.40747                  22453040.760
  22453035.640          49.450          43.600
 123517926.901 7  96247729.84546                  23504670.960
  23504665.420          47.500          39.050
 110951773.280 8  86455937.29047                  21113405.740
  21113398.100          50.400          47.250
 107415588.201 8  83700469.439 8  80212944.762 8  20440501.060    20440498.900
  20440498.300          50.750          50.600
 108372167.354 8  84445825.55348                  20622531.440
  20622524.360          49.850          48.900
 132157465.833 6 102979833.076 6  98689002.898 7  25148734.000    25148733.340
  25148732.900          41.300          38.700
 121087671.955 7  94354051.37246                  23042203.260
  23042199.540          47.350          41.050
 125085394.850 7  97469155.308 7  93407929.812 8  23802955.880    23802955.620
  23802955.400          45.900          43.050
 125271096.594 6  97433089.150 5                  23500540.860    23500547.300
  23500546.500          37.850          34.300
 122997061.024 7  95664427.642 6                  22984924.180    22984926.200
  22984925.280          46.100          39.000
 114780296.613 7  89273582.610 7                  21434399.340    21434400.740
  21434400.100          47.950          45.050
 107206635.215 8  83382969.369 7                  20027092.140    20027094.320
  20027093.360          48.600          47.700
 106940108.503 8  83175671.380 7                  20033477.360    20033479.700
  20033478.460          49.400          47.400
 123812490.680 6  96298628.735 6                  23177958.860    23177963.140
  23177962.500          40.350          39.000
 119292336.753 7  92782918.336 6                  22355328.400    22355331.060
  22355331.240          46.050          40.400
 118770479.799 7  92377043.411 7                  22241893.600    22241897.520
  22241894.800          44.200          42.550
 114004685.912 8  88670333.593 7                  21311969.260    21311972.320
  21311971.520          48.850          45.900
 137329295.321 8                 102551202.874 7  26132843.980
                        50.000
 15  1 27  5  1 30.0000000  0 23G11G14G21G07G04G16G18G22G27G19G30G32
                                G01R14R21R08R07R22R12R06R13R23E11
 119052421.856 8  92768110.12746                  22654917.900
  22654913.000          48.650          40.100
 130517891.293 7 101702238.78745                  24836729.500
  24836725.280          42.950          35.500
 134871319.929 6 105094508.89345                  25665159.700
  25665154.400          39.800          31.300
 129918699.602 7 101235313.390 6                  24722708.700    24722705.140
  24722704.800          45.350          39.000
 112284248.918 8  87494232.17147                  21366971.800
  21366967.860          50.500          44.700
 118007577.484 8  91953956.00047                  22456094.240
  22456089.160          49.450          43.350
 123530821.166 7  96257777.33446                  23507124.680
  23507119.120          47.400          38.100
 110956150.486 8  86459348.10647                  21114238.680
  21114231.080          50.300          47.250
 107418619.723 8  83702831.666 8  80215208.563 8  20441077.960    20441075.760
  20441075.180          50.900          50.550
 108367492.801 8  84442183.05148                  20621641.920
  20621634.840          49.900          48.750
 132160168.313 7 102981938.926 6  98691021.000 7  25149248.280    25149247.580
  25149247.120          42.750          40.000
 121068987.706 7  94339492.22746                  23038647.780
  23038644.080          47.550          40.050
 125071444.174 7  97458284.648 7  93397512.112 8  23800301.160    23800300.880
  23800300.680          45.650          42.850
 125261476.879 6  97425607.146 5                  23498736.220    23498742.660
  23498741.840          37.550          34.800
 123010296.510 7  95674721.924 6                  22987397.520    22987399.620
  22987398.640          45.900          39.250
 114760785.657 7  89258407.426 7                  21430755.820    21430757.140
  21430756.520          47.850          45.050
 107204526.456 8  83381329.225 7                  20026698.200    20026700.400
  20026699.440          48.700          47.700
 106943227.728 8  83178097.442 7                  20034061.700    20034064.020
  20034062.800          49.700          47.550
 123831939.749 6  96313755.805 6                  23181599.800    23181604.060
  23181603.420          40.200          39.050
 119308158.767 7  92795224.355 6                  22358293.440    22358296.100
  22358296.300          45.750          40.600
 118777857.981 7  92382782.008 7                  22243275.280    22243279.180
  22243276.440          44.150          42.900
 113993412.700 8  88661565.548 7                  21309861.880    21309864.940
  21309864.100          49.000          46.000
 137338417.713 8                 102558015.054 7  26134579.940
                        50.050
 15  1 27  5  1 35.0000000  0 23G11G14G21G07G04G16G18G22G27G19G30G32
                                G01R14R21R08R07R22R12R06R13R23E11
 119038683.491 8  92757404.91146                  22652303.560
  22652298.680          48.450          40.150
 130505406.416 7 101692510.31446                  24834353.640
  24834349.480          42.600          36.250
 134884109.900 6 105104475.12044                  25667593.480
  25667588.160          39.000          29.000
 129927545.411 7 101242206.220 6                  24724392.040    24724388.500
  24724388.160          44.950          39.950
 112274107.774 8  87486329.98847                  21365042.000
  21365038.040          50.450          44.850
 118023630.333 8  91966464.70347                  22459149.000
  22459143.900          49.400          42.900
 123543721.574 7  96267829.59646                  23509579.560
  23509573.960          47.100          38.050
 110960540.503 8  86462768.90347                  21115074.060
  21115066.480          50.200          47.300
 107421660.365 8  83705200.996 8  80217479.171 8  20441656.600    20441654.380
  20441653.780          50.900          50.600
 108362825.793 8  84438546.41648                  20620753.860
  20620746.720          49.750          49.050
 132162882.636 7 102984053.962 6  98693047.913 7  25149764.760    25149764.140
  25149763.660          42.700          38.800
 121050307.794 7  94324936.45146                  23035093.160
  23035089.360          47.550          41.050
 125057496.592 7  97447416.415 7  93387096.713 8  23797647.040    23797646.680
  23797646.520          45.350          42.800
 125251874.678 6  97418138.773 5                  23496934.880    23496941.340
  23496940.480          37.750          33.900
 123023535.138 7  95685018.622 6                  22989871.540    22989873.660
  22989872.560          46.100          38.850
 114741283.865 7  89243239.370 7                  21427114.000    21427115.280
  21427114.640          47.800          45.150
 107202439.400 8  83379705.966 7                  20026308.300    20026310.540
  20026309.540          48.750          47.650
 106946353.522 8  83180528.619 7                  20034647.280    20034649.620
  20034648.400          49.400          47.600
 123851391.265 6  96328884.770 6                  23185241.160    23185245.440
  23185244.780          39.950          39.050
 119323993.731 7  92807540.445 6                  22361260.880    22361263.560
  22361263.800          45.900          40.850
 118785253.945 7  92388534.429 7                  22244660.320    22244664.160
  22244661.440          43.900          42.650
 113982141.495 8  88652799.058 7                  21307754.820    21307757.880
  21307757.040          48.750          46.050
 137347541.346 8                 102564828.154 7  26136316.140
                        49.800
 15  1 27  5  1 40.0000000  0 23G11G14G21G07G04G16G18G22G27G19G30G32
                                G01R14R21R08R07R22R12R06R13R23E11
 119024951.967 8  92746705.02346                  22649690.560
  22649685.640          48.600          40.050
 130492926.072 7 101682785.38145                  24831978.720
  24831974.500          43.650          33.850
 134896901.282 6 105114442.39045                  25670027.500
  25670022.500          39.700          31.000
 129936402.353 7 101249107.706 6                  24726077.460    24726073.940
  24726073.620          45.100          39.800
 112263977.138 8  87478435.98947                  21363114.200
  21363110.240          50.550          44.600
 118039693.310 8  91978981.30347                  22462205.660
  22462200.600          49.600          43.300
 123556631.717 7  96277889.44146                  23512036.260
  23512030.700          46.850          39.400
 110964946.887 8  86466202.44547                  21115912.560
  21115905.000          50.200          47.550
 107424713.670 8  83707580.192 8  80219759.232 8  20442237.640    20442235.400
  20442234.800          51.050          50.600
 108358169.834 8  84434918.38848                  20619867.900
  20619860.720          49.800          49.000
 132165612.344 7 102986181.019 6  98695086.315 7  25150284.240    25150283.640
  25150283.160          43.100          40.100
 121031635.749 7  94310386.80446                  23031540.020
  23031536.140          47.650          40.250
 125043555.677 7  97436553.358 7  93376686.295 8  23794994.180    23794993.800
  23794993.620          45.250          43.250
 125242293.631 6  97410686.842 5                  23495137.500    23495143.980
  23495143.080          38.150          34.350
 123036780.588 7  95695320.639 6                  22992346.800    22992348.900
  22992347.760          45.700          38.600
 114721794.872 7  89228081.265 7                  21423474.580    21423475.860
  21423475.200          47.850          45.300
 107200377.512 8  83378102.273 7                  20025923.100    20025925.340
  20025924.340          48.950          47.650
 106949489.447 8  83182967.662 7                  20035234.740    20035237.060
  20035235.880          49.550          47.350
 123870848.856 6  96344018.450 6                  23188883.640    23188887.980
  23188887.320          38.750          39.550
 119339845.462 7  92819869.573 6                  22364231.520    22364234.180
  22364234.440          45.900          40.750
 118792671.689 7  92394303.791 7                  22246049.420    22246053.240
  22246050.520          44.000          42.450
 113970876.109 8  88644037.090 7                  21305648.840    21305651.940
  21305651.100          48.900          46.050
 137356669.789 8                 102571644.837 7  26138053.260
                        49.700
 15  1 27  5  1 45.0000000  0 23G11G14G21G07G04G16G18G22G27G19G30G32
                                G01R14R21R08R07R22R12R06R13R23E11
 119011222.504 8  92736006.74846                  22647077.920
  22647072.980          48.300          40.750
 130480445.471 7 101673060.23745                  24829603.780
  24829599.600          43.400          32.950
 134909689.316 6 105124407.10245                  25672460.960
  25672456.140          40.700          30.700
 129945265.633 7 101256014.160 6                  24727764.120    24727760.560
  24727760.300          45.300          39.850
 112253852.193 8  87470546.42847                  21361187.480
  21361183.520          50.250          44.700
 118055761.672 8  91991502.10647                  22465263.360
  22465258.320          49.550          43.100
 123569546.828 7  96287953.15846                  23514493.900
  23514488.360          46.700          37.600
 110969364.837 8  86469644.99747                  21116753.240
  21116745.700          50.150          47.150
 107427774.914 8  83709965.578 8  80222045.232 8  20442820.200    20442817.920
  20442817.340          51.000          50.600
 108353520.203 8  84431295.30048                  20618983.160
  20618975.940          49.800          49.050
 132168352.684 7 102988316.333 6  98697132.682 7  25150805.700    25150805.080
  25150804.640          43.450          39.400
 121012966.847 7  94295839.60346                  23027987.480
  23027983.560          47.750          40.100
 125029616.672 7  97425691.806 7  93366277.323 8  23792341.680    23792341.280
  23792341.160          45.350          43.600
 125232728.963 6  97403247.657 5                  23493343.160    23493349.660
  23493348.740          38.250          33.950
 123050027.957 7  95705624.144 6                  22994822.320    22994824.420
  22994823.300          45.450          37.750
 114702313.864 7  89212929.375 7                  21419836.640    21419837.940
  21419837.220          47.750          45.100
 107198335.971 8  83376514.410 7                  20025541.760    20025544.000
  20025542.940          49.050          47.400
 106952630.758 8  83185410.898 7                  20035823.200    20035825.560
  20035824.380          49.550          47.500
 123890307.669 6  96359153.057 6                  23192526.280    23192530.720
  23192530.120          38.650          39.050
 119355708.914 7  92832207.811 6                  22367204.360    22367206.980
  22367207.280          46.000          40.900
 118800106.047 7  92400086.065 7                  22247441.620    22247445.380
  22247442.740          44.400          42.200
 113959611.373 8  88635275.637 7                  21303542.980    21303546.160
  21303545.280          48.750          46.200
 137365798.287 8                 102578461.586 7  26139790.360
                        49.800
 15  1 27  5  1 50.0000000  0 23G11G14G21G07G04G16G18G22G27G19G30G32
                                G01R14R21R08R07R22R12R06R13R23E11
 118997498.477 8  92725312.70346                  22644466.360
  22644461.340          48.400          40.250
 130467968.035 7 101663337.54445                  24827229.420
  24827225.220          43.900          32.100
 134922477.379 6 105134371.81644                  25674894.460
  25674889.720          41.150          28.050
 129954138.626 7 101262928.189 6                  24729452.640    24729449.080
  24729448.840          45.700          39.700
 112243736.339 8  87462663.94447                  21359262.480
  21359258.520          50.100          44.650
 118071838.730 8  92004029.67247                  22468322.760
  22468317.660          49.700          43.000
 123582470.222 7  96298023.33146                  23516953.080
  23516947.620          46.700          38.750
 110973797.717 8  86473099.18547                  21117596.780
  21117589.280          50.300          47.000
 107430847.418 8  83712359.732 8  80224339.630 8  20443404.880    20443402.580
  20443402.020          51.000          50.550
 108348880.259 8  84427679.75748                  20618100.240
  20618092.980          49.850          49.000
 132171107.024 7 102990462.576 6  98699189.498 7  25151329.920    25151329.300
  25151328.780          43.400          39.100
 120994304.461 7  94281297.48446                  23024436.200
  23024432.220          47.900          40.100
 125015682.956 7  97414834.373 7  93355872.277 8  23789690.160    23789689.840
  23789689.720          45.350          43.400
 125223184.078 6  97395823.848 5                  23491552.520    23491559.080
  23491558.100          38.500          33.400
 123063280.741 7  95715931.871 6                  22997298.840    22997301.060
  22997299.860          45.050          38.800
 114682844.287 7  89197786.367 7                  21416200.840    21416202.160
  21416201.400          47.850          45.650
 107196318.262 8  83374945.081 7                  20025164.840    20025167.060
  20025165.980          49.150          47.550
 106955780.878 8  83187860.991 7                  20036413.320    20036415.700
  20036414.540          49.400          47.550
 123909771.062 6  96374291.248 6                  23196169.860    23196174.280
  23196173.800          38.900          38.800
 119371587.699 7  92844557.971 6                  22370180.060    22370182.720
  22370182.980          46.250          40.750
 118807560.566 7  92405884.017 7                  22248837.660    22248841.300
  22248838.740          44.700          42.500
 113948350.930 8  88626517.510 7                  21301437.940    21301441.120
  21301440.280          48.700          46.150
 137374930.191 8                 102585280.855 7  26141528.100
                        50.100
 15  1 27  5  1 55.0000000  0 23G11G14G21G07G04G16G18G22G27G19G30G32
                                G01R14R21R08R07R22R12R06R13R23E11
 118983780.438 8  92714623.33046                  22641855.880
  22641850.880          48.400          40.500
 130455494.279 7 101653617.73545                  24824855.760
  24824851.600          43.450          31.750
 134935265.999 6 105144336.97344                  25677328.120
  25677323.480          40.900          29.350
 129963021.875 7 101269850.217 6                  24731143.100    24731139.600
  24731139.320          45.950          39.650
 112233630.120 8  87454788.97147                  21357339.300
  21357335.340          50.000          45.350
 118087924.987 8  92016564.41547                  22471383.900
  22471378.800          49.750          42.900
 123595402.494 7  96308100.42446                  23519414.000
  23519408.600          46.750          38.150
 110978246.076 8  86476565.44147                  21118443.260
  21118435.780          50.200          47.300
 107433931.756 8  83714763.117 8  80226642.875 8  20443991.820    20443989.520
  20443988.940          50.950          50.600
 108344250.536 8  84424072.18748                  20617219.280
  20617211.960          49.650          49.000
 132173875.884 7 102992620.121 6  98701257.155 7  25151856.860    25151856.120
  25151855.680          43.000          38.150
 120975649.206 8  94266760.92446                  23020886.220
  23020882.180          48.050          40.100
 125001755.065 7  97403981.473 7  93345471.573 8  23787039.740    23787039.460
  23787039.300          45.350          43.400
 125213659.578 6  97388415.914 5                  23489765.740    23489772.440
  23489771.220          38.100          33.550
 123076539.457 7  95726244.179 6                  22999776.540    22999778.780
  22999777.580          45.050          39.450
 114663386.624 7  89182652.639 7                  21412567.320    21412568.580
  21412567.880          47.600          45.150
 107194325.020 8  83373394.781 7                  20024792.520    20024794.720
  20024793.640          49.100          47.650
 106958940.245 8  83190318.285 7                  20037005.180    20037007.560
  20037006.440          49.250          47.650
 123929239.594 6  96389433.448 6                  23199814.340    23199818.820
  23199818.380          39.000          38.750
 119387482.343 7  92856920.471 6                  22373158.720    22373161.320
  22373161.700          45.750          40.750
 118815035.719 7  92411698.018 7                  22250237.560    22250241.120
  22250238.580          44.300          42.250
 113937095.211 8  88617763.062 7                  21299333.780    21299337.000
  21299336.160          48.800          46.150
 137384066.057 8                 102592103.099 7  26143266.600
                        49.850
 15  1 27  5  2  0.0000000  0 23G11G14G21G07G04G16G18G22G27G19G30G32
                                G01R14R21R08R07R22R12R06R13R23E11
 118970065.468 8  92703936.34746                  22639246.000
  22639241.000          48.400          40.600
 130443021.355 7 101643898.59645                  24822482.260
  24822478.060          44.100          33.650
 134948052.378 6 105154300.40344                  25679761.320
  25679756.720          40.850          25.950
 129971912.462 7 101276777.943 6                  24732835.000    24732831.440
  24732831.180          45.750          38.800
 112223530.643 8  87446919.24947                  21355417.420
  21355413.440          50.000          45.100
 118104017.572 8  92029104.09247                  22474446.240
  22474441.140          49.350          43.600
 123608340.690 7  96318182.13646                  23521876.020
  23521870.660          47.000          38.000
 110982707.020 8  86480041.49947                  21119292.120
  21119284.700          50.150          47.600
 107437025.048 8  83717173.468 8  80228952.792 8  20444580.480    20444578.160
  20444577.580          50.950          50.550
 108339628.175 8  84420470.34448                  20616339.700
  20616332.360          49.650          49.200
 132176656.373 7 102994786.749 6  98703333.502 7  25152385.980    25152385.260
  25152384.780          43.150          38.400
 120956998.155 8  94252227.63946                  23017337.080
  23017333.000          48.350          39.550
 124987830.069 7  97393130.832 7  93335073.063 8  23784389.860    23784389.600
  23784389.460          45.100          43.300
 125204152.517 6  97381021.531 5                  23487982.240    23487988.980
  23487987.680          38.650          33.500
 123089801.138 7  95736558.809 6                  23002254.760    23002257.060
  23002255.920          45.650          39.050
 114643938.100 7  89167526.014 7                  21408935.420    21408936.700
  21408936.020          47.650          44.900
 107192353.039 8  83371861.020 7                  20024424.180    20024426.360
  20024425.280          49.100          47.700
 106962105.901 8  83192780.457 7                  20037598.200    20037600.580
  20037599.500          49.150          47.600
 123948710.233 6  96404577.259 6                  23203459.260    23203463.800
  23203463.380          39.450          38.400
 119403389.675 7  92869292.827 6                  22376139.720    22376142.340
  22376142.740          45.800          40.750
 118822528.649 7  92417525.852 7                  22251640.820    22251644.260
  22251641.740          43.800          42.700
 113925841.433 8  88609010.124 7                  21297230.000    21297233.220
  21297232.400          48.600          46.200
 137393203.001 8                 102598926.125 7  26145005.300
                        49.700
 15  1 27  5  2  5.0000000  0 23G11G14G21G07G04G16G18G22G27G19G30G32
                                G01R14R21R08R07R22R12R06R13R23E11
 118956354.973 8  92693252.85246                  22636637.000
  22636631.960          48.550          39.750
 130430550.656 7 101634181.14845                  24820109.220
  24820105.080          44.200          33.650
 134960837.866 6 105164263.14245                  25682194.320
  25682189.800          40.050          31.000
 129980811.843 7 101283712.512 6                  24734528.520    24734524.960
  24734524.620          45.450          38.900
 112213439.299 8  87439055.87347                  21353497.080
  21353493.100          50.150          44.550
 118120117.905 8  92041649.80047                  22477510.020
  22477504.960          49.300          42.850
 123621286.273 7  96328269.60346                  23524339.460
  23524334.140          47.150          37.950
 110987181.977 8  86483528.48147                  21120143.680
  21120136.280          50.200          47.000
 107440128.696 8  83719591.895 8  80231270.461 8  20445171.080    20445168.760
  20445168.180          50.900          50.350
 108335014.574 8  84416875.33448                  20615461.780
  20615454.400          49.750          48.750
 132179449.927 7 102996963.562 6  98705419.611 7  25152917.580    25152916.840
  25152916.280          43.350          37.700
 120938352.758 8  94237698.76746                  23013788.980
  23013784.900          48.300          39.350
 124973909.465 7  97382283.624 7  93324677.813 8  23781740.800    23781740.540
  23781740.520          45.000          42.950
 125194664.243 6  97373641.781 5                  23486202.240    23486208.780
  23486207.680          38.150          33.100
 123103067.292 7  95746876.937 6                  23004733.900    23004736.120
  23004735.020          46.150          39.200
 114624500.116 7  89152407.582 7                  21405305.540    21405306.800
  21405306.120          46.900          45.400
 107190404.042 8  83370345.136 7                  20024060.120    20024062.280
  20024061.220          49.400          47.850
 106965279.511 8  83195248.820 7                  20038192.700    20038195.120
  20038194.040          49.350          47.750
 123968184.508 6  96419723.907 6                  23207104.820    23207109.360
  23207109.000          40.200          38.100
 119419311.198 7  92881676.240 6                  22379123.420    22379126.060
  22379126.440          45.750          40.500
 118830040.776 7  92423368.622 7                  22253047.600    22253051.000
  22253048.500          43.900          42.850
 113914590.919 8  88600259.721 7                  21295126.860    21295130.080
  21295129.280          48.950          46.300
 137402342.437 8                 102605751.047 7  26146744.460
                        49.600
 15  1 27  5  2 10.0000000  0 23G11G14G21G07G04G16G18G22G27G19G30G32
                                G01R14R21R08R07R22R12R06R13R23E11
 118942648.902 8  92682572.80146                  22634028.820
  22634023.780          48.150          40.400
 130418082.152 7 101624465.44745                  24817736.580
  24817732.440          43.550          32.100
 134973622.335 6 105174225.00645                  25684627.140
  25684622.600          40.300          32.900
 129989719.833 7 101290653.794 6                  24736223.620    24736220.140
  24736219.740          44.650          39.000
 112203356.060 8  87431198.81147                  21351578.280
  21351574.280          50.000          44.250
 118136225.847 8  92054201.44147                  22480575.240
  22480570.220          48.800          43.550
 123634239.105 7  96338362.72146                  23526804.320
  23526799.020          46.900          37.900
 110991670.834 8  86487026.29347                  21120997.860
  21120990.520          50.200          46.950
 107443242.628 8  83722018.339 8  80233595.791 8  20445763.660    20445761.340
  20445760.720          50.800          50.300
 108330409.621 8  84413287.06348                  20614585.520
  20614578.120          49.650          48.750
 132182256.410 7 102999150.448 6  98707515.344 7  25153451.660    25153450.880
  25153450.280          42.900          38.300
 120919712.911 8  94223174.21946                  23010241.960
  23010237.900          48.150          39.050
 124959993.111 7  97371439.722 7  93314285.725 8  23779092.580    23779092.380
  23779092.300          44.750          43.150
 125185194.741 6  97366276.611 5                  23484425.720    23484432.260
  23484431.240          38.700          33.550
 123116337.751 7  95757198.422 6                  23007213.860    23007216.000
  23007214.980          45.850          39.400
 114605072.587 7  89137297.305 7                  21401677.560    21401678.860
  21401678.200          46.900          44.950
 107188477.809 8  83368846.955 7                  20023700.340    20023702.440
  20023701.420          49.400          47.750
 106968460.780 8  83197723.153 7                  20038788.640    20038791.080
  20038790.020          48.900          47.650
 123987662.217 6  96434873.224 6                  23210751.100    23210755.600
  23210755.260          40.550          38.050
 119435246.707 7  92894070.531 6                  22382109.740    22382112.360
  22382112.720          45.700          40.250
 118837572.001 7  92429226.237 7                  22254457.940    22254461.320
  22254458.860          43.850          42.600
 113903343.664 8  88591511.867 7                  21293024.300    21293027.560
  21293026.740          48.650          46.450
 137411484.265 8                 102612577.723 7  26148484.100
                        49.450
 15  1 27  5  2 15.0000000  0 23G11G14G21G07G04G16G18G22G27G19G30G32
                                G01R14R21R08R07R22R12R06R13R23E11
 118928947.934 7  92671896.73246                  22631421.600
  22631416.560          47.050          40.550
 130405616.427 6 101614751.89845                  24815364.440
  24815360.260          41.850          35.350
 134986406.493 6 105184186.67845                  25687059.840
  25687055.560          38.700          31.750
 129998637.029 7 101297602.253 6                  24737920.460    24737917.000
  24737916.660          43.150          39.300
 112193281.450 8  87423348.46947                  21349661.120
  21349657.140          48.700          45.600
 118152342.029 7  92066759.49547                  22483642.020
  22483637.060          47.650          44.300
 123647199.768 7  96348461.93446                  23529270.660
  23529265.340          46.000          39.050
 110996174.210 8  86490535.41947                  21121854.820
  21121847.500          49.350          47.600
 107446367.422 8  83724453.250 8  80235929.247 8  20446358.280    20446355.980
  20446355.340          49.900          50.300
 108325813.969 8  84409706.03748                  20613711.020
  20613703.600          48.700          48.600
 132185076.409 6 103001347.850 6  98709621.203 7  25153988.340    25153987.420
  25153986.880          41.850          37.200
 120901079.230 7  94208654.47446                  23006696.120
  23006692.040          47.150          40.600
 124946081.645 7  97360599.621 7  93303897.302 8  23776445.260    23776445.080
  23776445.000          43.350          43.450
 125175744.703 6  97358926.573 5                  23482652.940    23482659.500
  23482658.460          39.350          33.600
 123129613.171 7  95767523.730 6                  23009694.760    23009696.880
  23009695.900          45.850          39.800
 114585656.151 7  89122195.630 7                  21398051.620    21398053.000
  21398052.280          46.900          44.950
 107186574.961 8  83367366.966 7                  20023344.940    20023346.960
  20023345.980          49.550          47.700
 106971650.388 8  83200203.951 7                  20039386.140    20039388.620
  20039387.560          49.600          47.400
 124007144.034 6  96450025.746 6                  23214398.100    23214402.580
  23214402.260          40.850          37.700
 119451197.141 7  92906476.420 6                  22385098.860    22385101.460
  22385101.800          45.800          40.100
 118845122.698 7  92435098.997 7                  22255871.960    22255875.340
  22255872.900          44.050          42.450
 113892100.208 8  88582766.953 7                  21290922.460    21290925.720
  21290924.920          48.950          46.250
 137420629.109 8                 102619406.665 7  26150224.280
                        48.500
 15  1 27  5  2 20.0000000  0 23G11G14G21G07G04G16G18G22G27G19G30G32
                                G01R14R21R08R07R22R12R06R13R23E11
 118915253.367 8  92661225.63546                  22628815.580
  22628810.580          48.150          39.900
 130393154.928 7 101605041.63445                  24812993.080
  24812988.980          43.450          35.600
 134999191.622 6 105194149.08944                  25689492.820
  25689488.480          40.900          29.600
 130007564.851 7 101304558.972 6                  24739619.320    24739615.900
  24739615.620          44.750          39.800
 112183216.949 8  87415506.00347                  21347745.880
  21347741.920          49.800          44.400
 118168467.805 8  92079325.02847                  22486710.660
  22486705.700          49.050          43.050
 123660169.650 7  96358568.33146                  23531738.780
  23531733.420          47.600          36.900
 111000693.496 8  86494056.94747                  21122714.820
  21122707.500          50.400          46.850
 107449504.518 8  83726897.736 8  80238271.882 8  20446955.260    20446952.940
  20446952.300          50.900          50.350
 108321229.021 8  84406133.34548                  20612838.540
  20612831.120          49.900          48.550
 132187911.398 7 103003556.933 6  98711738.230 7  25154527.860    25154526.860
  25154526.280          43.150          37.000
 120882453.156 8  94194140.64646                  23003151.720
  23003147.620          48.650          39.600
 124932176.417 7  97349764.392 7  93293513.549 8  23773799.120    23773799.020
  23773798.940          45.050          43.600
 125166315.583 6  97351592.806 5                  23480884.080    23480890.580
  23480889.580          38.700          33.250
 123142894.932 7  95777853.992 6                  23012176.840    23012178.940
  23012177.980          45.750          39.350
 114566252.307 7  89107103.758 7                  21394428.080    21394429.440
  21394428.760          47.050          45.350
 107184696.858 8  83365906.219 7                  20022994.120    20022996.120
  20022995.140          49.300          47.650
 106974849.815 8  83202692.388 7                  20039985.500    20039987.980
  20039986.940          49.450          47.600
 124026631.281 6  96465182.502 6                  23218046.180    23218050.660
  23218050.280          39.750          38.300
 119467163.635 7  92918894.802 6                  22388090.940    22388093.560
  22388093.920          45.850          40.200
 118852694.616 7  92440988.271 7                  22257289.960    22257293.280
  22257290.900          43.550          42.650
 113880862.064 8  88574026.191 7                  21288821.580    21288824.860
  21288824.080          48.650          46.300
 137429778.363 8                 102626238.896 7  26151965.320
                        49.800
 15  1 27  5  2 25.0000000  0 23G11G14G21G07G04G16G18G22G27G19G30G32
                                G01R14R21R08R07R22R12R06R13R23E11
 118901561.753 8  92650556.85546                  22626210.160
  22626205.120          48.350          39.850
 130380694.251 7 101595332.01845                  24810621.880
  24810617.800          43.900          33.700
 135011974.382 6 105204109.66945                  25691925.300
  25691920.920          40.250          31.900
 130016499.869 7 101311521.320 6                  24741319.580    24741316.260
  24741315.960          45.600          39.550
 112173159.018 8  87407668.65847                  21345831.880
  21345827.940          49.800          44.650
 118184599.760 8  92091895.38447                  22489780.500
  22489775.500          49.300          43.100
 123673145.360 7  96368679.28246                  23534208.020
  23534202.640          47.600          36.700
 111005225.226 8  86497588.16947                  21123577.180
  21123569.880          50.350          47.100
 107452650.479 8  83729349.134 8  80240621.131 8  20447553.920    20447551.600
  20447550.960          50.850          50.400
 108316651.344 8  84402566.33448                  20611967.460
  20611960.020          49.900          49.000
 132190757.851 7 103005774.942 5  98713863.828 7  25155069.520    25155068.340
  25155067.720          43.050          35.950
 120863831.263 8  94179630.08646                  22999608.080
  22999604.000          48.550          39.400
 124918274.063 7  97338931.393 7  93283131.935 8  23771153.540    23771153.480
  23771153.400          45.250          43.700
 125156903.728 6  97344272.479 5                  23479118.480    23479124.880
  23479123.960          38.650          33.600
 123156179.647 7  95788186.567 6                  23014659.440    23014661.520
  23014660.520          45.350          38.750
 114546857.561 7  89092018.955 7                  21390806.220    21390807.600
  21390806.960          46.900          45.800
 107182840.306 8  83364462.246 7                  20022647.300    20022649.320
  20022648.360          49.350          47.700
 106978055.530 8  83205185.712 7                  20040586.040    20040588.500
  20040587.480          49.800          47.600
 124046120.528 6  96480340.820 6                  23221694.640    23221699.100
  23221698.760          40.000          38.800
 119483142.671 7  92931322.941 6                  22391085.420    22391088.000
  22391088.380          46.050          40.050
 118860284.092 7  92446891.205 7                  22258711.260    22258714.540
  22258712.180          43.400          42.700
 113869625.696 8  88565286.781 7                  21286721.080    21286724.320
  21286723.560          48.450          46.250
 137438928.588 8                 102633071.854 7  26153706.540
                        49.750
 15  1 27  5  2 30.0000000  0 23G11G14G21G07G04G16G18G22G27G19G30G32
                                G01R14R21R08R07R22R12R06R13R23E11
 118887873.899 8  92639890.99746                  22623605.420
  22623600.360          48.250          40.850
 130368235.137 7 101585623.63645                  24808250.980
  24808246.940          43.550          34.850
 135024755.456 6 105214068.96444                  25694357.520
  25694353.060          40.050          28.050
 130025442.799 7 101318489.831 6                  24743021.380    24743018.060
  24743017.720          45.700          39.450
 112163108.498 8  87399837.08447                  21343919.300
  21343915.400          49.800          44.950
 118200738.615 8  92104471.12247                  22492851.660
  22492846.640          49.300          42.850
 123686127.588 7  96378795.31946                  23536678.480
  23536673.040          47.450          36.650
 111009770.174 8  86501129.68247                  21124442.040
  21124434.760          50.150          47.100
 107455806.041 8  83731808.012 8  80242977.553 8  20448154.400    20448152.060
  20448151.420          50.850          50.450
 108312081.741 8  84399005.61148                  20611097.900
  20611090.460          49.800          49.050
 132193616.527 7 103008002.476 6  98715998.570 7  25155613.480    25155612.280
  25155611.640          43.250          36.650
 120845214.291 8  94165123.35646                  22996065.400
  22996061.320          48.650          39.400
 124904375.287 7  97328101.185 7  93272752.977 8  23768508.640    23768508.660
  23768508.560          44.950          43.550
 125147510.003 6  97336966.252 5                  23477356.320    23477362.680
  23477361.760          38.850          33.600
 123169468.059 7  95798522.005 6                  23017142.720    23017144.760
  23017143.840          45.050          39.450
 114527472.599 7  89076941.777 7                  21387186.240    21387187.620
  21387187.000          47.000          45.900
 107181005.611 8  83363035.259 7                  20022304.580    20022306.600
  20022305.640          49.200          47.650
 106981268.254 8  83207684.508 7                  20041187.880    20041190.340
  20041189.340          49.900          47.600
 124065612.521 6  96495501.263 6                  23225343.600    23225348.060
  23225347.760          40.150          38.750
 119499135.106 7  92943761.508 6                  22394082.400    22394084.980
  22394085.360          46.100          39.950
 118867891.779 7  92452808.297 7                  22260135.920    22260139.140
  22260136.880          43.150          42.700
 113858391.842 8  88556549.345 7                  21284621.000    21284624.300
  21284623.520          48.450          46.300
 137448080.535 8                 102639906.102 7  26155448.100
                        49.600
 15  1 27  5  2 35.0000000  0 23G11G14G21G07G04G16G18G22G27G19G30G32
                                G01R14R21R08R07R22R12R06R13R23E11
 118874190.636 8  92629228.72246                  22621001.560
  22620996.520          48.150          40.250
 130355778.420 7 101575917.08046                  24805880.580
  24805876.540          43.300          36.600
 135037535.747 6 105224027.62245                  25696789.520
  25696785.020          40.600          31.250
 130034394.542 7 101325465.217 6                  24744724.800    24744721.560
  24744721.240          45.350          39.550
 112153066.314 8  87392012.00447                  21342008.320
  21342004.440          50.000          44.800
 118216885.224 8  92117052.89747                  22495924.300
  22495919.240          49.150          43.400
 123699117.224 7  96388917.09746                  23539150.360
  23539144.900          47.200          37.400
 111014329.173 8  86504682.14447                  21125309.600
  21125302.300          50.200          47.150
 107458972.066 8  83734275.038 8  80245341.786 8  20448756.860    20448754.540
  20448753.900          50.700          50.450
 108307521.056 8  84395451.82648                  20610230.040
  20610222.600          49.700          49.250
 132196488.344 7 103010240.269 6  98718143.102 7  25156159.920    25156158.800
  25156157.900          43.100          36.550
 120826603.120 8  94150621.15246                  22992523.820
  22992519.760          48.600          39.600
 124890480.989 7  97317274.463 7  93262377.361 8  23765864.600    23765864.660
  23765864.560          44.750          43.400
 125138135.233 6  97329674.764 5                  23475597.640    23475604.040
  23475603.080          38.800          33.250
 123182760.932 7  95808860.881 6                  23019626.820    23019628.840
  23019628.000          45.550          39.550
 114508098.392 7  89061872.945 7                  21383568.260    21383569.640
  21383569.020          46.950          45.650
 107179194.089 8  83361626.291 7                  20021966.180    20021968.180
  20021967.240          49.100          47.800
 106984488.874 8  83210189.428 7                  20041791.220    20041793.680
  20041792.680          50.000          47.700
 124085108.064 6  96510664.476 6                  23228993.300    23228997.720
  23228997.420          39.850          38.300
 119515141.755 7  92956211.116 6                  22397082.040    22397084.580
  22397085.000          46.250          40.150
 118875518.750 7  92458740.367 7                  22261564.140    22261567.400
  22261565.200          43.450          42.700
 113847161.459 8  88547814.609 7                  21282521.580    21282524.880
  21282524.140          48.700          46.550
 137457235.085 8                 102646742.276 7  26157190.160
                        49.550
 15  1 27  5  2 40.0000000  0 23G11G14G21G07G04G16G18G22G27G19G30G32
                                G01R14R21R08R07R22R12R06R13R23E11
 118860512.913 8  92618570.76046                  22618398.760
  22618393.760          48.300          39.400
 130343325.053 7 101566213.14645                  24803510.740
  24803506.780          43.650          35.350
 135050316.104 6 105233986.36244                  25699221.580
  25699217.140          40.850          27.200
 130043355.875 7 101332448.068 6                  24746430.080    24746426.880
  24746426.580          45.050          38.700
 112143033.188 8  87384193.98747                  21340099.060
  21340095.200          50.100          44.550
 118233040.427 8  92129641.37147                  22498998.560
  22498993.480          49.200          42.900
 123712115.087 7  96399045.30646                  23541623.820
  23541618.340          46.950          37.550
 111018903.048 8  86508246.19847                  21126180.000
  21126172.700          50.300          47.000
 107462149.449 8  83736750.919 8  80247714.510 8  20449361.500    20449359.180
  20449358.540          50.650          50.400
 108302970.164 8  84391905.67648                  20609364.040
  20609356.600          49.750          49.000
 132199374.107 7 103012488.928 6  98720298.069 7  25156709.060    25156707.860
  25156706.920          42.900          37.350
 120807998.663 8  94136124.17246                  22988983.500
  22988979.420          48.600          38.700
 124876592.033 7  97306451.908 7  93252005.746 8  23763221.580    23763221.680
  23763221.580          44.900          43.300
 125128780.372 6  97322398.770 5                  23473842.780    23473849.200
  23473848.160          39.350          33.250
 123196059.241 7  95819204.013 6                  23022111.900    23022113.960
  23022113.180          45.550          39.600
 114488735.920 7  89046813.255 7                  21379952.440    21379953.820
  21379953.240          47.500          45.700
 107177406.295 8  83360235.789 7                  20021632.240    20021634.200
  20021633.280          49.200          47.650
 106987718.498 8  83212701.358 7                  20042396.260    20042398.700
  20042397.700          49.900          47.750
 124104612.023 6  96525827.109 6                  23232643.860    23232648.100
  23232647.900          39.000          37.250
 119531163.467 7  92968672.446 6                  22400084.520    22400087.040
  22400087.460          46.600          39.850
 118883165.819 7  92464688.090 7                  22262996.160    22262999.420
  22262997.280          43.650          42.700
 113835935.471 8  88539083.294 7                  21280422.960    21280426.300
  21280425.560          48.600          46.400
 137466393.088 8                 102653581.054 7  26158932.860
                        49.600
 15  1 27  5  2 45.0000000  0 23G11G14G21G07G04G16G18G22G27G19G30G32
                                G01R14R21R08R07R22R12R06R13R23E11
 118846838.773 8  92607915.58846                  22615796.640
  22615791.640          48.600          39.700
 130330873.075 7 101556510.31845                  24801141.220
  24801137.340          43.650          33.300
 135063094.640 6 105243943.68145                  25701653.180
  25701648.660          40.200          30.250
 130052324.878 7 101339436.905 6                  24748136.800    24748133.580
  24748133.260          44.950          38.400
 112133007.258 8  87376381.57447                  21338191.160
  21338187.320          50.150          44.600
 118249202.310 8  92142235.04047                  22502074.060
  22502068.980          49.450          42.750
 123725119.282 7  96409178.45146                  23544098.480
  23544092.980          47.150          37.050
 111023489.887 8  86511820.36147                  21127052.880
  21127045.540          50.550          46.750
 107465336.260 8  83739234.145 8  80250094.272 8  20449967.900    20449965.600
  20449964.960          50.650          50.350
 108298427.165 8  84388365.67948                  20608499.540
  20608492.100          49.900          48.900
 132202271.910 7 103014746.956 6  98722461.991 7  25157260.460    25157259.240
  25157258.400          43.150          37.400
 120789398.972 8  94121630.91246                  22985444.100
  22985440.000          48.800          38.400
 124862706.477 7  97295631.990 7  93241636.665 8  23760579.240    23760579.360
  23760579.240          45.250          43.250
 125119443.537 6  97315136.769 5                  23472091.260    23472097.520
  23472096.540          39.000          34.350
 123209361.032 7  95829549.827 6                  23024597.600    23024599.800
  23024598.980          44.950          39.550
 114469383.106 7  89031761.069 7                  21376338.420    21376339.840
  21376339.200          47.550          45.050
 107175640.606 8  83358862.486 7                  20021302.400    20021304.360
  20021303.420          49.350          47.600
 106990954.883 8  83215218.544 7                  20043002.540    20043004.980
  20043003.980          50.200          47.500
 124124114.460 6  96540995.668 5                  23236294.800    23236298.960
  23236298.740          40.000          35.650
 119547198.246 7  92981143.942 6                  22403089.440    22403091.940
  22403092.360          46.400          40.000
 118890830.767 7  92470649.710 7                  22264431.540    22264434.780
  22264432.740          43.650          42.950
 113824711.901 8  88530353.854 7                  21278324.800    21278328.160
  21278327.460          48.850          46.050
 137475552.636 8                 102660420.967 7  26160675.860
                        49.700
 15  1 27  5  2 50.0000000  0 23G11G14G21G07G04G16G18G22G27G19G30G32
                                G01R14R21R08R07R22R12R06R13R23E11
 118833171.066 8  92597265.42946                  22613195.760
  22613190.780          48.450          40.000
 130318425.399 7 101546810.82445                  24798772.500
  24798768.540          43.400          33.600
 135075874.148 6 105253901.73944                  25704085.000
  25704080.560          40.200          27.150
 130061304.407 7 101346433.926 6                  24749845.500    24749842.340
  24749842.040          44.850          38.650
 112122991.449 8  87368577.04447                  21336285.180
  21336281.380          49.950          44.650
 118265373.686 8  92154836.10647                  22505151.360
  22505146.300          49.550          43.200
 123738132.675 7  96419318.75346                  23546574.860
  23546569.320          46.950          37.600
 111028092.604 8  86515406.89447                  21127928.760
  21127921.420          50.600          46.850
 107468535.353 8  83741726.936 8  80252483.204 8  20450576.680    20450574.360
  20450573.740          50.700          50.350
 108293894.889 8  84384834.02948                  20607637.100
  20607629.620          50.000          48.600
 132205184.603 7 103017016.572 6  98724637.044 7  25157814.720    25157813.520
  25157812.700          42.850          37.750
 120770806.948 8  94107143.60946                  22981906.180
  22981902.020          48.750          38.700
 124848827.190 7  97284816.961 7  93231272.273 8  23757938.100    23757938.220
  23757938.080          45.300          43.000
 125110127.646 6  97307891.082 5                  23470343.740    23470350.060
  23470348.880          39.350          33.500
 123222669.134 7  95839900.573 6                  23027084.540    23027086.720
  23027085.940          45.400          39.600
 114450042.981 8  89016718.749 7                  21372726.760    21372728.180
  21372727.580          48.150          45.400
 107173899.587 8  83357508.356 7                  20020977.200    20020979.100
  20020978.160          49.350          47.650
 106994201.032 8  83217743.326 7                  20043610.660    20043613.080
  20043612.080          50.200          47.400
 124143622.193 6  96556168.362 6                  23239946.760    23239950.700
  23239950.560          40.250          36.250
 119563249.032 7  92993627.879 6                  22406097.380    22406099.820
  22406100.260          46.450          39.900
 118898516.827 7  92476627.743 7                  22265870.900    22265874.120
  22265872.160          42.650          42.950
 113813493.584 8  88521628.493 7                  21276227.620    21276231.020
  21276230.300          48.400          46.150
 137484716.574 8                 102667264.171 7  26162419.680
                        49.650
 15  1 27  5  2 55.0000000  0 23G11G14G21G07G04G16G18G22G27G19G30G32
                                G01R14R21R08R07R22R12R06R13R23E11
 118819506.716 8  92586617.89346                  22610595.540
  22610590.520          48.250          40.550
 130305978.916 7 101537112.28045                  24796404.020
  24796400.020          43.150          35.150
 135088651.580 6 105263858.07845                  25706516.440
  25706511.900          39.600          30.750
 130070291.379 7 101353436.752 6                  24751555.660    24751552.460
  24751552.220          44.150          38.500
 112112982.596 8  87360777.94847                  21334380.540
  21334376.800          49.900          44.800
 118281551.473 8  92167442.16547                  22508229.900
  22508224.780          49.450          42.650
 123751152.152 7  96429463.79646                  23549052.400
  23549046.820          46.850          37.700
 111032708.113 8  86519003.40047                  21128807.100
  21128799.720          50.550          46.800
 107471743.675 8  83744226.929 8  80254879.018 8  20451187.200    20451184.880
  20451184.260          50.700          50.300
 108289370.272 8  84381308.35748                  20606776.100
  20606768.600          49.950          48.600
 132208109.077 7 103019295.380 6  98726820.915 7  25158371.200    25158370.100
  25158369.260          43.550          38.250
 120752219.525 8  94092659.90946                  22978369.100
  22978364.940          48.400          38.400
 124834951.116 7  97274004.440 7  93220910.270 8  23755297.580    23755297.740
  23755297.480          45.100          43.150
 125100829.465 6  97300659.153 5                  23468599.500    23468605.600
  23468604.600          39.450          33.900
 123235980.469 7  95850253.833 6                  23029572.080    23029574.340
  23029573.580          45.550          39.950
 114430712.339 8  89001683.816 7                  21369116.920    21369118.300
  21369117.760          48.050          45.450
 107172180.341 8  83356171.175 7                  20020656.020    20020657.920
  20020657.000          49.200          47.700
 106997453.877 8  83220273.319 7                  20044220.040    20044222.440
  20044221.460          50.000          47.550
 124163132.209 6  96571342.826 6                  23243599.140    23243602.960
  23243602.840          39.650          36.750
 119579312.760 7  93006121.897 6                  22409107.740    22409110.120
  22409110.580          46.300          39.950
 118906220.684 7  92482619.635 7                  22267313.540    22267316.820
  22267314.960          42.750          43.050
 113802277.466 8  88512904.853 7                  21274130.860    21274134.280
  21274133.540          48.300          46.150
 137493881.845 8                 102674108.365 7  26164163.740
                        49.300
 15  1 27  5  3  0.0000000  0 23G11G14G21G07G04G16G18G22G27G19G30G32
                                G01R14R21R08R07R22R12R06R13R23E11
 118805848.261 8  92575974.93646                  22607996.420
  22607991.400          48.650          39.700
 130293536.103 7 101527416.57045                  24794036.220
  24794032.160          43.350          33.900
 135101429.367 6 105273814.92244                  25708947.940
  25708943.480          40.050          29.200
 130079288.294 7 101360447.339 6                  24753267.680    24753264.560
  24753264.280          44.950          38.350
 112102983.230 8  87352986.23047                  21332477.720
  21332474.000          50.100          44.650
 118297738.096 8  92180055.11947                  22511310.140
  22511304.980          49.750          42.750
 123764180.197 7  96439615.51946                  23551531.560
  23551525.960          46.900          37.050
 111037338.839 8  86522611.75447                  21129688.320
  21129680.900          50.800          46.550
 107474963.677 8  83746736.018 8  80257283.563 8  20451799.940    20451797.640
  20451797.000          50.900          50.400
 108284855.765 8  84377790.55448                  20605917.040
  20605909.500          50.200          48.450
 132211047.840 7 103021585.329 6  98729015.453 7  25158930.420    25158929.440
  25158928.560          44.300          39.300
 120733639.191 8  94078181.72646                  22974833.400
  22974829.200          48.950          38.750
 124821080.705 7  97263196.328 7  93210552.495 8  23752658.140    23752658.320
  23752658.040          45.750          43.350
 125091551.733 6  97293443.141 5                  23466859.060    23466865.100
  23466864.120          39.400          33.900
 123249297.628 7  95860611.615 6                  23032060.700    23032062.980
  23032062.240          45.950          39.900
 114411393.826 8  88986658.306 7                  21365509.320    21365510.700
  21365510.160          48.400          45.250
 107170485.286 8  83354852.791 7                  20020339.380    20020341.260
  20020340.360          49.150          47.650
 107000715.882 8  83222810.438 7                  20044831.160    20044833.540
  20044832.560          50.000          47.450
 124182646.841 6  96586520.848 6                  23247252.340    23247256.220
  23247255.980          39.400          36.100
 119595391.793 7  93018627.812 6                  22412120.980    22412123.400
  22412123.780          46.050          39.700
 118913944.753 7  92488627.233 7                  22268759.960    22268763.280
  22268761.540          42.900          43.400
 113791066.055 8  88504184.869 7                  21272035.000    21272038.380
  21272037.660          48.500          45.950
 137503050.920 8                 102680955.390 7  26165908.480
                        49.350
 15  1 27  5  3  5.0000000  0 23G11G14G21G07G04G16G18G22G27G19G30G32
                                G01R14R21R08R07R22R12R06R13R23E11
 118792192.408 8  92565334.02346                  22605397.780
  22605392.780          48.950          39.850
 130281093.793 7 101517721.27945                  24791668.480
  24791664.400          43.150          33.350
 135114204.410 6 105283769.46444                  25711378.900
  25711374.440          40.100          29.250
 130088291.867 7 101367463.119 6                  24754981.020    24754977.920
  24754977.640          45.500          38.850
 112092990.152 8  87345199.42047                  21330576.080
  21330572.380          50.150          44.600
 118313930.395 8  92192672.49047                  22514391.460
  22514386.240          49.800          42.650
 123777213.581 7  96449771.41146                  23554011.700
  23554006.180          46.850          37.950
 111041981.621 8  86526229.51447                  21130571.840
  21130564.380          50.750          46.850
 107478192.169 8  83749251.734 8  80259694.457 8  20452414.320    20452411.980
  20452411.360          50.950          50.400
 108280348.169 8  84374278.15048                  20605059.280
  20605051.720          50.100          48.700
 132213997.681 7 103023883.924 6  98731218.241 7  25159491.800    25159490.860
  25159490.000          43.650          39.650
 120715062.725 8  94063706.56446                  22971298.400
  22971294.220          49.050          37.850
 124807212.774 7  97252390.162 7  93200196.582 8  23750019.200    23750019.340
  23750019.100          46.150          43.550
 125082290.909 6  97286240.286 5                  23465121.780    23465127.720
  23465126.840          39.650          33.950
 123262617.230 7  95870971.304 6                  23034549.820    23034551.980
  23034551.340          46.050          39.650
 114392084.133 8  88971639.656 7                  21361903.400    21361904.780
  21361904.240          48.350          45.700
 107168811.202 8  83353550.719 7                  20020026.680    20020028.520
  20020027.620          49.250          47.800
 107003983.802 8  83225352.166 7                  20045443.360    20045445.720
  20045444.780          49.850          47.500
 124202162.773 6  96601699.904 6                  23250905.820    23250909.620
  23250909.420          39.600          36.450
 119611482.911 7  93031143.134 6                  22415136.480    22415138.900
  22415139.220          45.750          39.750
 118921685.950 7  92494648.150 7                  22270209.540    22270212.920
  22270211.320          43.100          43.250
 113779855.888 8  88495465.862 7                  21269939.360    21269942.760
  21269942.020          48.500          46.050
 137512220.586 8                 102687802.878 7  26167653.340
                        49.250
 15  1 27  5  3 10.0000000  0 23G11G14G21G07G04G16G18G22G27G19G30G32
                                G01R14R21R08R07R22R12R06R13R23E11
 118778542.080 8  92554697.41246                  22602800.220
  22602795.240          48.850          39.700
 130268654.924 7 101508028.65245                  24789301.440
  24789297.500          42.800          30.950
 135126979.494 6 105293724.04844                  25713809.920
  25713805.500          40.200          26.250
 130097305.015 7 101374486.365 6                  24756696.180    24756693.100
  24756692.800          45.100          39.700
 112083006.189 8  87337419.70947                  21328676.200
  21328672.500          50.100          44.600
 118330131.348 8  92205296.60447                  22517474.400
  22517469.160          49.550          43.100
 123790255.204 7  96459933.70946                  23556493.440
  23556487.960          46.800          37.550
 111046639.325 8  86529858.89247                  21131458.200
  21131450.700          50.650          46.900
 107481432.056 8  83751776.321 8  80262113.855 8  20453030.840    20453028.500
  20453027.900          50.950          50.350
 108275850.418 8  84370773.40948                  20604203.400
  20604195.820          50.000          48.950
 132216961.442 7 103026193.336 6  98733431.462 7  25160055.800    25160054.900
  25160054.080          43.850          39.800
 120696493.093 8  94049236.71746                  22967764.700
  22967760.500          48.800          39.200
 124793350.222 7  97241588.175 7  93189844.678 8  23747381.240    23747381.400
  23747381.180          45.950          43.550
 125073050.168 6  97279053.033 5                  23463388.280    23463394.060
  23463393.360          38.800          33.900
 123275942.287 7  95881335.244 6                  23037039.980    23037041.980
  23037041.460          45.750          39.450
 114372786.309 8  88956630.235 7                  21358299.660    21358301.060
  21358300.540          48.150          45.450
 107167160.950 8  83352267.189 7                  20019718.460    20019720.240
  20019719.340          49.100          47.650
 107007260.561 8  83227900.747 7                  20046057.220    20046059.600
  20046058.640          49.950          47.500
 124221683.132 6  96616882.426 6                  23254560.080    23254563.840
  23254563.660          40.000          37.650
 119627588.973 7  93043670.079 6                  22418154.780    22418157.100
  22418157.460          46.100          39.800
 118929447.084 7  92500684.577 7                  22271662.960    22271666.360
  22271664.800          43.150          43.400
 113768650.227 8  88486750.340 7                  21267844.560    21267847.960
  21267847.240          48.750          45.900
 137521393.766 8                 102694652.970 7  26169398.880
                        49.200
 15  1 27  5  3 15.0000000  0 23G11G14G21G07G04G16G18G22G27G19G30G32
                                G01R14R21R08R07R22R12R06R13R23E11
 118764895.404 8  92544063.64146                  22600203.380
  22600198.380          48.750          40.150
 130256217.566 7 101498337.20545                  24786934.700
  24786930.700          42.900          35.700
 135139752.788 6 105303677.24745                  25716240.600
  25716236.200          40.650          30.900
 130106325.764 7 101381515.506 6                  24758412.860    24758409.740
  24758409.480          45.800          39.850
 112073029.538 8  87329645.69547                  21326777.700
  21326774.020          50.000          44.700
 118346338.960 8  92217925.91047                  22520558.620
  22520553.360          49.450          43.000
 123803303.105 7  96470100.90346                  23558976.380
  23558970.880          46.950          37.500
 111051310.008 8  86533498.38547                  21132347.020
  21132339.500          50.600          47.000
 107484681.418 8  83754308.291 8  80264540.321 8  20453649.180    20453646.840
  20453646.220          50.850          50.350
 108271360.587 8  84367274.83748                  20603349.020
  20603341.420          49.950          48.900
 132219937.274 7 103028512.158 6  98735653.647 7  25160622.120    25160621.180
  25160620.420          43.100          39.200
 120677928.337 8  94034770.67646                  22964231.940
  22964227.740          48.750          38.200
 124779491.114 7  97230788.885 7  93179495.343 8  23744743.960    23744744.080
  23744743.920          45.350          43.700
 125063827.484 6  97271879.849 5                  23461658.140    23461663.880
  23461663.320          39.100          34.500
 123289270.791 7  95891701.849 6                  23039530.760    23039532.740
  23039532.240          46.050          39.750
 114353498.237 7  88941628.397 7                  21354697.780    21354699.180
  21354698.620          47.750          45.700
 107165532.763 8  83351000.826 7                  20019414.340    20019416.040
  20019415.180          49.200          47.700
 107010544.282 8  83230454.756 7                  20046672.380    20046674.760
  20046673.780          49.800          47.650
 124241205.886 6  96632066.790 6                  23258214.860    23258218.560
  23258218.400          39.700          38.300
 119643708.258 7  93056207.297 6                  22421175.520    22421177.840
  22421178.180          45.800          39.900
 118937226.349 7  92506735.117 7                  22273119.780    22273123.180
  22273121.700          43.050          43.550
 113757447.065 8  88478036.782 7                  21265750.240    21265753.620
  21265752.900          48.850          45.950
 137530568.511 8                 102701504.233 7  26171144.700
                        49.200
 15  1 27  5  3 20.0000000  0 23G11G14G21G07G04G16G18G22G27G19G30G32
                                G01R14R21R08R07R22R12R06R13R23E11
 118751254.449 8  92533434.32546                  22597607.600
  22597602.600          48.700          40.200
 130243783.871 7 101488648.59345                  24784568.680
  24784564.560          43.100          35.100
 135152526.349 6 105313630.66845                  25718671.360
  25718666.960          39.600          32.800
 130115356.256 7 101388552.224 6                  24760131.320    24760128.300
  24760127.940          45.300          39.450
 112063062.192 8  87321878.93447                  21324880.960
  21324877.300          50.150          44.950
 118362555.322 8  92230562.02547                  22523644.480
  22523639.240          49.250          43.250
 123816359.367 7  96480274.61346                  23561460.900
  23561455.480          46.900          37.350
 111055995.763 8  86537149.61947                  21133238.720
  21133231.140          50.600          46.950
 107487942.367 8  83756849.286 8  80266975.439 8  20454269.720    20454267.400
  20454266.740          50.900          50.400
 108266880.774 8  84363784.07248                  20602496.540
  20602488.940          49.850          49.000
 132222927.197 7 103030841.979 6  98737886.378 7  25161191.100    25161190.200
  25161189.500          42.850          39.400
 120659370.610 8  94020310.10946                  22960700.500
  22960696.340          48.750          39.400
 124765637.537 7  97219993.906 7  93169150.159 8  23742107.740    23742107.820
  23742107.740          45.400          43.900
 125054625.022 6  97264722.374 5                  23459931.720    23459937.560
  23459937.020          38.700          35.100
 123302605.002 7  95902072.894 6                  23042022.600    23042024.540
  23042024.100          45.750          39.900
 114334222.256 7  88926635.965 7                  21351098.160    21351099.520
  21351098.980          47.850          45.750
 107163928.544 8  83349753.109 7                  20019114.700    20019116.380
  20019115.480          49.150          47.650
 107013837.098 8  83233015.827 7                  20047289.280    20047291.580
  20047290.640          49.750          47.500
 124260733.103 6  96647254.613 6                  23261870.380    23261874.140
  23261873.900          39.900          38.500
 119659842.519 7  93068756.160 6                  22424199.100    22424201.400
  22424201.760          45.800          40.200
 118945025.696 7  92512801.273 7                  22274580.300    22274583.700
  22274582.340          42.950          43.150
 113746248.463 8  88469326.750 7                  21263656.800    21263660.100
  21263659.400          49.050          45.600
 137539746.927 8                 102708358.241 7  26172891.240
                        49.050
 15  1 27  5  3 25.0000000  0 23G11G14G21G07G04G16G18G22G27G19G30G32
                                G01R14R21R08R07R22R12R06R13R23E11
 118737618.223 8  92522808.71146                  22595012.720
  22595007.700          48.550          40.650
 130231352.798 7 101478962.05945                  24782203.100
  24782199.020          42.700          32.550
 135165299.210 6 105323583.54245                  25721101.960
  25721097.660          38.950          30.950
 130124395.469 7 101395595.783 6                  24761851.400    24761848.340
  24761847.900          45.000          38.650
 112053103.211 8  87314118.68947                  21322985.820
  21322982.180          50.100          44.850
 118378779.398 8  92243204.16347                  22526731.800
  22526726.560          49.050          43.000
 123829423.017 7  96490454.07946                  23563946.820
  23563941.440          46.950          37.350
 111060695.599 8  86540811.83047                  21134133.080
  21134125.480          50.600          46.750
 107491213.865 8  83759398.508 8  80269418.445 8  20454892.260    20454889.940
  20454889.280          50.800          50.400
 108262409.990 8  84360300.35248                  20601645.780
  20601638.180          49.850          49.000
 132225930.208 7 103033182.004 6  98740128.904 7  25161762.580    25161761.640
  25161761.080          42.750          39.400
 120640818.887 8  94005854.23146                  22957170.180
  22957166.060          48.400          39.600
 124751788.532 7  97209202.486 7  93158808.368 8  23739472.360    23739472.420
  23739472.380          45.000          43.800
 125045441.774 6  97257579.858 5                  23458208.960    23458214.840
  23458214.320          38.850          34.100
 123315943.785 7  95912447.495 6                  23044515.280    23044517.280
  23044516.880          45.600          39.950
 114314957.252 8  88911652.082 7                  21347500.580    21347501.920
  21347501.380          48.000          45.200
 107162347.545 8  83348523.438 7                  20018819.380    20018821.040
  20018820.100          48.950          47.600
 107017137.962 8  83235583.176 7                  20047907.660    20047909.960
  20047909.000          49.800          47.550
 124280263.664 6  96662445.058 6                  23265526.560    23265530.260
  23265530.060          40.050          38.600
 119675990.811 7  93081315.947 6                  22427225.260    22427227.580
  22427228.000          46.050          40.300
 118952844.178 7  92518882.318 7                  22276044.420    22276047.860
  22276046.560          42.850          43.250
 113735053.407 8  88460619.491 7                  21261564.020    21261567.280
  21261566.560          48.950          45.800
 137548928.021 8                 102715214.240 7  26174638.300
                        48.800
 15  1 27  5  3 30.0000000  0 23G11G14G21G07G04G16G18G22G27G19G30G32
                                G01R14R21R08R07R22R12R06R13R23E11
 118723986.459 8  92512186.55746                  22592418.660
  22592413.660          48.750          40.450
 130218924.054 7 101469277.32745                  24779837.980
  24779834.000          42.900          34.000
 135178070.995 6 105333535.57944                  25723532.420
  25723527.880          39.750          29.800
 130133443.048 7 101402645.851 6                  24763573.080    24763570.000
  24763569.520          44.600          38.600
 112043152.284 8  87306364.72447                  21321092.220
  21321088.580          50.000          45.050
 118395010.857 8  92255852.04547                  22529820.540
  22529815.320          49.050          43.300
 123842493.668 7  96500638.99746                  23566434.100
  23566428.780          47.000          37.850
 111065409.163 8  86544484.73647                  21135030.060
  21135022.440          50.450          47.100
 107494495.617 8  83761955.715 8  80271869.102 8  20455516.740    20455514.440
  20455513.760          50.800          50.450
 108257947.921 8  84356823.41348                  20600796.680
  20600789.080          49.950          48.800
 132228946.028 7 103035532.002 6  98742380.984 7  25162336.440    25162335.560
  25162334.920          42.050          39.600
 120622272.845 8  93991402.77446                  22953640.940
  22953636.900          48.350          40.100
 124737943.739 7  97198414.340 7  93148469.739 8  23736837.780    23736837.840
  23736837.800          44.700          43.700
 125036277.353 6  97250451.967 5                  23456489.740    23456495.560
  23456495.120          38.750          34.650
 123329286.868 7  95922825.438 6                  23047008.720    23047010.760
  23047010.420          45.300          39.750
 114295703.010 8  88896676.541 7                  21343905.040    21343906.340
  21343905.780          48.000          45.650
 107160789.264 8  83347311.432 7                  20018528.320    20018529.920
  20018528.980          48.900          47.650
 107020446.449 8  83238156.439 7                  20048527.480    20048529.800
  20048528.820          49.650          47.700
 124299797.345 6  96677637.923 6                  23269183.280    23269187.040
  23269186.760          40.200          38.500
 119692153.108 7  93093886.617 6                  22430254.080    22430256.380
  22430256.860          46.050          40.300
 118960681.472 7  92524977.969 7                  22277512.080    22277515.520
  22277514.360          42.700          43.550
 113723861.567 8  88451914.728 7                  21259471.860    21259475.140
  21259474.340          48.450          45.950
 137558111.463 8                 102722071.996 7  26176385.820
                        48.950
 15  1 27  5  3 35.0000000  0 23G11G14G21G07G04G16G18G22G27G19G30G32
                                G01R14R21R08R07R22R12R06R13R23E11
 118710359.653 8  92501568.27946                  22589825.580
  22589820.540          48.750          40.350
 130206498.212 7 101459594.87345                  24777473.440
  24777469.420          43.150          31.050
 135190842.334 6 105343487.26345                  25725962.800
  25725957.920          39.400          31.000
 130142499.531 7 101409702.834 6                  24765296.480    24765293.440
  24765292.800          44.400          38.250
 112033209.872 8  87298617.39447                  21319200.240
  21319196.620          49.900          45.300
 118411250.228 8  92268506.10447                  22532910.760
  22532905.580          49.100          43.300
 123855571.861 7  96510829.80746                  23568922.840
  23568917.480          46.900          37.300
 111070137.006 8  86548168.77547                  21135929.740
  21135922.120          50.300          46.950
 107497788.175 8  83764521.347 8  80274327.832 8  20456143.300    20456140.980
  20456140.320          50.750          50.350
 108253495.127 8  84353353.70648                  20599949.340
  20599941.740          49.900          48.950
 132231975.167 6 103037892.370 6  98744642.999 7  25162912.840    25162911.980
  25162911.400          41.700          39.050
 120603733.125 8  93976956.25346                  22950112.940
  22950108.900          48.300          39.800
 124724103.734 7  97187629.928 7  93138134.682 8  23734204.100    23734204.140
  23734204.080          44.550          42.900
 125027132.352 6  97243339.209 5                  23454774.140    23454780.060
  23454779.540          39.000          34.350
 123342634.794 7  95933207.166 6                  23049503.120    23049505.240
  23049504.800          45.350          39.050
 114276459.994 7  88881709.767 7                  21340311.540    21340312.860
  21340312.300          47.950          45.300
 107159254.303 8  83346117.584 7                  20018241.600    20018243.180
  20018242.220          49.250          47.400
 107023763.340 8  83240736.249 7                  20049148.860    20049151.180
  20049150.200          49.800          47.400
 124319334.642 6  96692833.609 6                  23272840.720    23272844.500
  23272844.140          39.350          38.600
 119708329.621 7  93106468.347 6                  22433285.540    22433287.920
  22433288.380          46.650          40.400
 118968537.972 7  92531088.568 7                  22278983.360    22278986.820
  22278985.760          43.200          43.550
 113712673.423 8  88443212.840 7                  21257380.360    21257383.600
  21257382.840          48.500          45.750
 137567297.796 8                 102728931.920 7  26178133.900
                        49.150
 15  1 27  5  3 40.0000000  0 23G11G14G21G07G04G16G18G22G27G19G30G32
                                G01R14R21R08R07R22R12R06R13R23E11
 118696736.848 8  92490953.10046                  22587233.260
  22587228.160          48.750          39.800
 130194074.281 7 101449913.87045                  24775109.200
  24775105.260          42.250          32.350
 135203612.123 6 105353437.80845                  25728392.820
  25728387.680          40.300          31.150
 130151563.924 7 101416765.997 6                  24767021.360    24767018.280
  24767017.720          43.750          38.150
 112023275.052 8  87290875.97647                  21317309.720
  21317306.080          50.100          44.600
 118427496.496 8  92281165.53347                  22536002.340
  22535997.120          48.950          43.550
 123868656.652 7  96521025.74446                  23571412.800
  23571407.460          46.800          38.350
 111074878.177 8  86551863.19047                  21136831.940
  21136824.320          50.150          47.100
 107501090.547 8  83767094.613 8  80276793.887 8  20456771.720    20456769.420
  20456768.740          50.750          50.250
 108249050.636 8  84349890.46648                  20599103.580
  20599095.980          50.000          48.600
 132235016.609 7 103040262.312 6  98746914.207 7  25163491.660    25163490.780
  25163490.180          42.050          38.550
 120585198.683 8  93962513.81646                  22946585.920
  22946581.960          48.300          39.100
 124710267.530 7  97176848.479 7  93127802.446 8  23731571.140    23731571.200
  23731571.080          44.750          42.950
 125018005.839 6  97236240.790 5                  23453062.040    23453067.900
  23453067.440          39.250          34.250
 123355986.535 7  95943591.835 6                  23051998.160    23052000.240
  23051999.860          45.300          39.050
 114257227.259 7  88866750.970 7                  21336719.920    21336721.300
  21336720.740          47.850          45.100
 107157741.491 8  83344940.965 7                  20017959.020    20017960.560
  20017959.620          49.550          47.300
 107027087.456 8  83243321.669 7                  20049771.600    20049773.880
  20049772.940          49.950          47.350
 124338874.479 6  96708031.256 6                  23276498.680    23276502.420
  23276502.020          39.450          38.200
 119724519.351 7  93119060.359 6                  22436319.500    22436321.880
  22436322.400          46.750          40.100
 118976412.820 7  92537213.455 7                  22280458.100    22280461.540
  22280460.580          43.200          43.600
 113701488.172 8  88434513.210 7                  21255289.400    21255292.640
  21255291.860          48.250          45.650
 137576486.041 8                 102735793.278 7  26179882.360
                        49.350
 15  1 27  5  3 45.0000000  0 23G11G14G21G07G04G16G18G22G27G19G30G32
                                G01R14R21R08R07R22R12R06R13R23E11
 118683120.024 8  92480342.59246                  22584642.060
  22584636.940          48.550          40.500
 130181654.307 7 101440235.98045                  24772745.720
  24772741.720          42.100          35.250
 135216382.403 6 105363388.60645                  25730822.980
  25730817.800          41.900          31.050
 130160638.243 7 101423836.871 6                  24768748.080    24768745.080
  24768744.560          44.050          38.700
 112013349.872 8  87283142.07747                  21315421.040
  21315417.360          50.100          44.950
 118443751.650 8  92293831.88547                  22539095.580
  22539090.360          48.850          43.450
 123881750.033 7  96531228.37346                  23573904.400
  23573899.020          46.800          38.550
 111079634.678 8  86555569.55547                  21137737.060
  21137729.460          50.050          47.250
 107504404.764 8  83769677.120 8  80279268.782 8  20457402.380    20457400.100
  20457399.440          50.750          50.400
 108244616.395 8  84346435.21548                  20598259.760
  20598252.160          50.000          48.700
 132238072.420 6 103042643.476 6  98749196.130 7  25164073.180    25164072.200
  25164071.660          40.900          38.650
 120566671.548 8  93948077.09246                  22943060.320
  22943056.420          48.350          39.950
 124696437.118 7  97166071.530 7  93117474.550 8  23728939.300    23728939.300
  23728939.240          45.400          42.750
 125008899.841 6  97229158.345 5                  23451353.780    23451359.800
  23451359.200          38.650          33.600
 123369344.141 7  95953981.089 6                  23054494.300    23054496.400
  23054495.920          44.700          38.100
 114238006.922 7  88851801.831 7                  21333130.640    21333132.080
  21333131.480          47.950          44.950
 107156253.116 8  83343783.342 7                  20017680.980    20017682.500
  20017681.560          49.650          47.350
 107030420.959 8  83245914.387 7                  20050396.120    20050398.360
  20050397.440          49.800          47.350
 124358419.017 6  96723232.567 6                  23280157.420    23280161.180
  23280160.760          39.400          37.300
 119740724.335 7  93131664.240 6                  22439356.360    22439358.660
  22439359.220          46.750          39.950
 118984308.074 7  92543354.223 7                  22281936.620    22281940.020
  22281939.200          42.900          43.400
 113690307.779 8  88425817.353 7                  21253199.300    21253202.580
  21253201.820          48.250          45.800
 137585678.218 8                 102742657.560 7  26181631.620
                        49.350
 15  1 27  5  3 50.0000000  0 23G11G14G21G07G04G16G18G22G27G19G30G32
                                G01R14R21R08R07R22R12R06R13R23E11
 118669506.161 8  92469734.39746                  22582051.400
  22582046.260          48.650          39.350
 130169235.231 7 101430558.78645                  24770382.400
  24770378.500          42.750          33.800
 135229150.124 7 105373337.45645                  25733252.700
  25733247.420          42.050          30.300
 130169719.370 7 101430913.080 6                  24770476.180    24770473.160
  24770472.700          43.950          37.700
 112003431.223 8  87275413.27047                  21313533.580
  21313529.880          50.100          45.200
 118460012.640 8  92306502.78947                  22542189.940
  22542184.700          48.800          43.050
 123894848.932 7  96541435.31346                  23576397.080
  23576391.620          46.900          37.700
 111084403.444 8  86559285.48047                  21138644.520
  21138636.920          50.150          47.250
 107507727.767 8  83772266.477 8  80281750.243 8  20458034.720    20458032.440
  20458031.800          50.650          50.450
 108240189.451 8  84342985.65048                  20597417.340
  20597409.760          49.950          48.650
 132241139.505 6 103045033.380 6  98751486.494 7  25164656.780    25164655.820
  25164655.300          40.500          38.500
 120548148.749 8  93933643.74846                  22939535.560
  22939531.640          48.100          40.100
 124682609.511 7  97155296.782 7  93107148.756 8  23726308.020    23726307.940
  23726307.880          46.100          43.000
 124999811.280 6  97222089.482 5                  23449648.820    23449654.820
  23449654.180          37.800          33.050
 123382704.587 7  95964372.525 6                  23056990.920    23056993.020
  23056992.520          44.300          38.000
 114218795.947 7  88836859.964 7                  21329543.160    21329544.580
  21329544.000          47.800          45.200
 107154786.059 8  83342642.296 7                  20017406.940    20017408.420
  20017407.520          49.150          47.400
 107033760.746 8  83248511.999 7                  20051021.800    20051024.040
  20051023.100          49.700          47.350
 124377964.963 6  96738434.945 6                  23283816.440    23283820.260
  23283819.800          39.300          37.050
 119756941.566 7  93144277.648 6                  22442395.460    22442397.740
  22442398.340          46.800          40.150
 118992220.472 7  92549508.292 7                  22283418.320    22283421.700
  22283421.020          43.050          43.150
 113679129.047 8  88417122.787 7                  21251109.520    21251112.840
  21251112.100          48.150          45.800
 137594871.280 8                 102749522.501 7  26183381.040
                        49.550
 15  1 27  5  3 55.0000000  0 23G11G14G21G07G04G16G18G22G27G19G30G32
                                G01R14R21R08R07R22R12R06R13R23E11
 118655897.119 8  92459129.95146                  22579461.660
  22579456.540          48.650          40.200
 130156818.972 7 101420883.77745                  24768019.680
  24768015.760          42.650          35.250
 135241917.141 7 105383285.81644                  25735682.220
  25735676.740          42.050          28.550
 130178809.170 7 101437996.063 6                  24772205.900    24772202.860
  24772202.460          44.700          38.050
 111993520.949 8  87267690.98147                  21311647.720
  21311644.020          50.200          44.750
 118476281.323 8  92319179.68347                  22545285.740
  22545280.500          48.900          43.400
 123907955.198 7  96551647.99246                  23578891.140
  23578885.600          46.950          36.800
 111089186.309 8  86563012.38047                  21139554.660
  21139547.080          50.300          46.700
 107511061.393 8  83774864.108 8  80284239.643 8  20458669.060    20458666.800
  20458666.180          50.700          50.550
 108235771.587 8  84339543.16148                  20596576.640
  20596569.040          49.900          48.750
 132244219.679 6 103047433.505 6  98753786.620 7  25165242.820    25165242.040
  25165241.600          40.900          38.750
 120529632.069 8  93919215.16546                  22936011.960
  22936008.060          48.300          39.350
 124668786.514 7  97144525.617 7  93096826.396 8  23723677.640    23723677.500
  23723677.380          46.200          42.900
 124990742.156 6  97215035.705 5                  23447947.540    23447953.620
  23447952.800          38.800          34.050
 123396069.655 7  95974767.570 6                  23059488.440    23059490.480
  23059489.920          44.700          37.350
 114199596.103 8  88821926.762 7                  21325957.720    21325959.160
  21325958.580          48.200          45.100
 107153342.144 8  83341519.250 7                  20017137.260    20017138.680
  20017137.780          49.450          47.550
 107037108.499 8  83251115.803 7                  20051648.920    20051651.180
  20051650.260          49.950          47.400
 124397514.263 6  96753639.935 6                  23287476.160    23287479.900
  23287479.460          39.750          37.350
 119773172.986 7  93156902.091 6                  22445437.280    22445439.520
  22445440.140          46.950          40.350
 119000151.878 7  92555677.151 7                  22284903.620    22284906.960
  22284906.380          42.900          42.950
 113667954.183 8  88408431.237 7                  21249020.460    21249023.780
  21249023.080          48.450          45.900
 137604067.074 8                 102756389.494 7  26185131.020
                        49.550
 15  1 27  5  4  0.0000000  0 23G11G14G21G07G04G16G18G22G27G19G30G32
                                G01R14R21R08R07R22R12R06R13R23E11
 118642293.496 8  92448529.72546                  22576872.980
  22576867.860          48.800          40.000
 130144406.100 7 101411211.40845                  24765657.580
  24765653.800          42.050          34.400
 135254684.021 7 105393234.02245                  25738111.680
  25738106.040          42.050          30.400
 130187908.246 7 101445086.219 6                  24773937.360    24773934.360
  24773933.940          44.300          38.600
 111983619.703 8  87259975.72047                  21309763.600
  21309759.860          50.250          44.850
 118492558.246 8  92331862.99347                  22548383.100
  22548377.920          48.900          43.000
 123921069.394 7  96561866.83746                  23581386.680
  23581381.140          47.450          37.250
 111093983.841 8  86566750.71547                  21140467.600
  21140460.020          50.350          46.800
 107514406.258 8  83777470.494 8  80286737.428 8  20459305.560    20459303.320
  20459302.700          50.650          50.450
 108231363.445 8  84336108.23748                  20595737.800
  20595730.220          49.900          48.650
 132247313.618 6 103049844.378 6  98756097.023 7  25165831.520    25165830.820
  25165830.360          41.200          38.500
 120511122.137 8  93904791.83946                  22932489.620
  22932485.760          48.250          40.350
 124654968.711 7  97133758.498 7  93086507.912 8  23721048.240    23721048.000
  23721047.900          46.700          43.200
 124981692.897 6  97207997.407 5                  23446250.020    23446255.960
  23446255.140          39.550          33.650
 123409439.952 7  95985166.690 6                  23061986.980    23061988.980
  23061988.240          45.150          37.600
 114180408.154 8  88807002.790 7                  21322374.560    21322375.980
  21322375.360          48.100          45.100
 107151921.892 8  83340414.602 7                  20016872.000    20016873.380
  20016872.460          49.800          47.450
 107040465.073 8  83253726.468 7                  20052277.720    20052279.980
  20052279.080          50.050          47.300
 124417067.535 6  96768848.027 6                  23291136.580    23291140.300
  23291139.860          39.450          37.100
 119789418.880 7  93169537.781 6                  22448481.800    22448484.000
  22448484.660          47.100          40.050
 119008103.031 7  92561861.383 7                  22286392.580    22286395.980
  22286395.380          43.600          42.950
 113656783.384 8  88399742.827 7                  21246932.180    21246935.480
  21246934.840          48.700          46.000
 137613266.179 8                 102763258.944 7  26186881.620
                        49.700
 15  1 27  5  4  5.0000000  0 23G11G14G21G07G04G16G18G22G27G19G30G32
                                G01R14R21R08R07R22R12R06R13R23E11
 118628695.314 8  92437933.75246                  22574285.340
  22574280.200          49.050          39.750
 130131996.621 7 101401541.68945                  24763296.100
  24763292.320          42.650          34.750
 135267450.851 6 105403182.19944                  25740541.140
  25740535.180          40.800          27.600
 130197016.620 7 101452183.648 6                  24775670.640    24775667.660
  24775667.220          44.650          37.500
 111973727.501 8  87252267.52147                  21307881.200
  21307877.440          50.150          45.200
 118508843.475 8  92344552.78647                  22551482.040
  22551476.880          49.200          42.900
 123934191.598 7  96572091.94246                  23583883.760
  23583878.180          47.400          37.850
 111098796.077 8  86570500.51547                  21141383.340
  21141375.760          50.350          47.150
 107517762.412 8  83780085.686 8  80289243.657 8  20459944.220    20459941.980
  20459941.340          50.800          50.450
 108226965.094 8  84332680.95248                  20594900.800
  20594893.240          49.850          48.850
 132250421.230 7 103052265.901 6  98758417.688 7  25166422.900    25166422.180
  25166421.780          42.400          38.500
 120492619.031 8  93890373.83246                  22928968.580
  22928964.780          48.350          39.300
 124641156.160 7  97122995.484 7  93076193.361 8  23718419.860    23718419.580
  23718419.460          46.600          43.200
 124972663.630 6  97200974.642 5                  23444556.160    23444562.180
  23444561.300          39.800          34.500
 123422815.618 7  95995569.996 6                  23064486.500    23064488.440
  23064487.660          44.850          38.050
 114161231.974 8  88792087.995 7                  21318793.580    21318794.960
  21318794.340          48.450          45.550
 107150525.547 8  83339328.564 7                  20016611.220    20016612.500
  20016611.620          49.750          47.400
 107043830.311 8  83256343.888 7                  20052908.100    20052910.460
  20052909.520          50.200          47.550
                                                  23294797.760    23294801.500
  23294801.020          39.700          37.100
 119805679.488 7  93182184.929 6                  22451529.080    22451531.160
  22451531.900          46.950          39.700
 119016073.896 7  92568060.949 7                  22287885.280    22287888.660
  22287888.100          43.650          43.150
 113645617.044 8  88391057.908 7                  21244844.760    21244848.040
  21244847.400          49.100          46.100
 137622468.653 8                 102770130.932 7  26188632.860
                        49.800
 15  1 27  5  4 10.0000000  0 23G11G14G21G07G04G16G18G22G27G19G30G32
                                G01R14R21R08R07R22R12R06R13R23E11
 118615099.935 8  92427339.94646                  22571698.240
  22571693.100          49.100          39.750
 130119587.981 7 101391872.59945                  24760934.880
  24760931.000          43.400          35.600
 135280214.991 6 105413128.28444                  25742970.100
  25742964.260          40.800          29.300
 130206131.660 7 101459286.244 6                  24777405.180    24777402.100
  24777401.620          44.050          37.750
 111963841.702 8  87244564.29947                  21306000.020
  21305996.240          50.150          45.250
 118525134.372 8  92357246.99147                  22554582.080
  22554576.960          49.100          43.700
 123947319.165 7  96582321.20746                  23586381.880
  23586376.240          47.350          37.300
 111103620.384 8  86574259.71347                  21142301.360
  21142293.820          50.250          46.950
 107521127.198 8  83782707.591 8  80291756.314 8  20460584.520    20460582.260
  20460581.640          50.750          50.450
 108222573.873 8  84329259.22448                  20594065.160
  20594057.620          49.700          48.950
 132253539.970 7 103054696.094 6  98760746.623 7  25167016.380    25167015.620
  25167015.340          42.900          38.300
 120474120.082 8  93875959.06446                  22925448.320
  22925444.540          48.350          38.900
 124627346.210 7  97112234.498 7  93065880.764 8  23715791.960    23715791.640
  23715791.560          46.350          43.300
 124963651.712 6  97193965.382 5                  23442865.520    23442871.660
  23442870.720          39.900          34.150
 123436193.877 7  96005975.301 6                  23066986.520    23066988.460
  23066987.620          44.300          38.350
 114142065.084 8  88777180.407 7                  21315214.380    21315215.660
  21315215.060          48.050          45.550
 107149150.138 8  83338258.805 7                  20016354.320    20016355.580
  20016354.680          49.700          47.700
 107047201.728 8  83258966.099 7                  20053539.680    20053542.040
  20053541.100          50.200          47.750
 124456186.133 6  96799271.278 6                  23298459.100    23298462.980
  23298462.420          40.300          36.850
 119821952.170 7  93194841.463 6                  22454578.660    22454580.660
  22454581.420          46.850          40.100
 119024061.855 7  92574273.801 7                  22289381.200    22289384.560
  22289384.040          43.150          43.450
 113634452.247 8  88382374.173 7                  21242757.580    21242760.880
  21242760.260          49.100          46.050
 137631671.854 8                 102777003.451 7  26190384.260
                        49.750
 15  1 27  5  4 15.0000000  0 23G11G14G21G07G04G16G18G22G27G19G30G32
                                G01R14R21R08R07R22R12R06R13R23E11
 118601509.515 8  92416750.00846                  22569112.100
  22569106.940          49.150          39.950
 130107182.269 7 101382205.80545                  24758574.180
  24758570.320          43.050          35.500
 135292978.584 6 105423073.97443                  25745398.960
  25745393.000          40.000          22.900
 130215255.419 7 101466395.662 6                  24779141.420    24779138.280
  24779137.720          44.050          37.700
 111953964.452 8  87236867.73947                  21304120.480
  21304116.640          50.400          45.100
 118541432.990 8  92369947.20747                  22557683.580
  22557678.520          49.350          43.050
 123960454.142 7  96592556.25046                  23588881.420
  23588875.760          47.400          37.600
 111108458.858 8  86578029.95647                  21143222.100
  21143214.580          50.300          47.050
 107524502.755 8  83785337.890 8  80294277.016 8  20461226.840    20461224.620
  20461223.980          50.800          50.350
 108218191.872 8  84325844.67848                  20593231.280
  20593223.760          49.700          48.950
 132256671.929 7 103057136.573 6  98763085.419 7  25167612.320    25167611.580
  25167611.180          43.250          38.350
 120455627.436 8  93861549.21646                  22921929.260
  22921925.480          48.550          38.800
 124613541.027 7  97101477.221 7  93055571.704 8  23713164.960    23713164.580
  23713164.560          46.300          43.100
 124954659.250 6  97186971.234 5                  23441178.580    23441184.800
  23441183.760          39.950          34.200
 123449576.907 7  96016384.340 6                  23069487.400    23069489.360
  23069488.440          44.650          38.250
 114122909.565 8  88762281.675 7                  21311637.260    21311638.540
  21311637.900          48.400          45.600
 107147797.977 8  83337207.133 7                  20016101.740    20016102.980
  20016102.100          49.550          47.850
 107050581.406 8  83261594.733 7                  20054172.820    20054175.200
  20054174.240          50.050          47.650
 124475747.890 6  96814485.981 6                  23302121.140    23302124.940
  23302124.440          40.400          36.600
 119838238.779 7  93207508.826 6                  22457630.760    22457632.740
  22457633.560          46.900          40.100
 119032068.850 7  92580501.469 7                  22290880.680    22290884.060
  22290883.520          43.250          43.650
 113623291.342 8  88373693.465 7                  21240671.200    21240674.440
  21240673.820          48.950          45.900
 137640877.909 8                 102783878.097 7  26192136.200
                        49.750
 15  1 27  5  4 20.0000000  0 23G11G14G21G07G04G16G18G22G27G19G30G32
                                G01R14R21R08R07R22R12R06R13R23E11
 118587924.639 8  92406164.40346                  22566527.020
  22566521.820          49.350          39.750
 130094780.147 7 101372541.85845                  24756214.140
  24756210.280          42.900          34.100
 135305742.271 6 105433019.65344                  25747827.820
  25747821.840          38.650          27.150
 130224388.539 7 101473512.389 6                  24780879.420    24780876.260
  24780875.640          44.200          37.950
 111944096.345 8  87229178.31447                  21302242.680
  21302238.800          50.600          45.000
 118557740.012 8  92382653.97147                  22560786.680
  22560781.660          49.250          42.950
 123973597.199 7  96602797.58446                  23591382.440
  23591376.840          47.550          36.950
 111113312.177 8  86581811.76047                  21144145.660
  21144138.120          50.400          47.050
 107527889.712 8  83787977.073 8  80296806.235 8  20461871.340    20461869.120
  20461868.480          50.750          50.350
 108213819.762 8  84322437.84048                  20592399.260
  20592391.780          49.650          48.950
 132259817.746 7 103059587.853 6  98765434.556 7  25168210.940    25168210.120
  25168209.800          43.600          39.250
 120437141.808 8  93847144.82946                  22918411.520
  22918407.820          48.450          39.750
 124599741.228 7  97090724.143 7  93045266.667 8  23710538.960    23710538.580
  23710538.560          46.150          43.300
 124945686.926 6  97179992.777 5                  23439495.340    23439501.680
  23439500.580          39.400          34.650
 123462965.379 7  96026797.592 6                  23071989.300    23071991.400
  23071990.380          44.400          39.400
 114103766.146 8  88747392.353 7                  21308062.420    21308063.640
  21308063.020          48.050          45.800
 107146469.822 8  83336174.121 7                  20015853.640    20015854.880
  20015854.020          49.350          47.850
 107053969.982 8  83264230.284 7                  20054807.600    20054810.000
  20054809.040          50.000          47.700
 124495313.803 6  96829703.917 6                  23305783.900    23305787.620
  23305787.180          40.300          36.400
 119854540.140 7  93220187.660 6                  22460685.660    22460687.620
  22460688.420          46.650          40.100
 119040095.691 7  92586744.565 7                  22292383.800    22292387.220
  22292386.700          43.450          43.400
 113612134.804 8  88365016.160 7                  21238585.620    21238588.840
  21238588.180          49.150          45.750
 137650087.459 8                 102790755.360 7  26193888.800
                        49.750
 15  1 27  5  4 25.0000000  0 23G11G14G21G07G04G16G18G22G27G19G30G32
                                G01R14R21R08R07R22R12R06R13R23E11
 118574343.441 8  92395581.64146                  22563942.620
  22563937.420          49.350          40.400
 130082379.721 7 101362879.19145                  24753854.420
  24753850.540          43.300          33.600
 135318504.172 6 105442963.96745                  25750256.280
  25750250.420          38.400          33.450
 130233529.074 7 101480634.878 6                  24782618.820    24782615.560
  24782615.140          44.300          39.000
 111934235.465 8  87221494.51447                  21300366.240
  21300362.340          50.700          45.000
 118574053.473 8  92395365.75347                  22563891.000
  22563886.020          49.200          42.700
 123986746.401 7  96613043.71246                  23593884.680
  23593879.060          47.900          36.850
 111118178.382 8  86585603.61047                  21145071.660
  21145064.140          50.450          46.800
 107531286.167 8  83790623.662 8  80299342.545 8  20462517.660    20462515.440
  20462514.820          50.750          50.400
 108209455.615 8  84319037.21148                  20591568.780
  20591561.300          49.600          49.000
 132262975.423 7 103062048.379 6  98767792.564 7  25168811.880    25168811.060
  25168810.740          43.600          39.550
 120418661.188 8  93832744.34846                  22914894.740
  22914891.020          48.650          38.850
 124585944.873 7  97079973.749 7  93034964.210 8  23707913.600    23707913.180
  23707913.200          45.750          43.300
 124936732.842 6  97173028.487 5                  23437815.520    23437821.860
  23437820.780          38.900          34.300
 123476357.343 7  96037213.551 6                  23074491.800    23074494.020
  23074493.020          43.600          39.400
 114084632.821 8  88732510.893 7                  21304489.420    21304490.660
  21304490.020          48.600          45.850
 107145163.756 8  83335158.293 7                  20015609.640    20015610.900
  20015610.040          48.950          47.750
 107057365.428 8  83266871.182 7                  20055443.680    20055446.060
  20055445.100          49.750          47.600
 124514881.731 6  96844923.418 6                  23309447.120    23309450.840
  23309450.300          40.100          36.450
 119870854.257 7  93232876.422 6                  22463743.000    22463744.860
  22463745.680          46.350          40.150
 119048140.333 7  92593001.505 7                  22293890.280    22293893.740
  22293893.160          43.300          43.650
 113600980.786 8  88356340.808 7                  21236500.500    21236503.700
  21236503.000          48.400          45.950
 137659298.579 8                 102797633.792 7  26195641.700
                        49.800
 15  1 27  5  4 30.0000000  0 23G11G14G21G07G04G16G18G22G27G19G30G32
                                G01R14R21R08R07R22R12R06R13R23E11
 118560767.440 8  92385002.95146                  22561359.260
  22561354.000          49.550          40.550
 130069982.601 7 101353219.09945                  24751495.380
  24751491.480          43.100          34.850
 135331265.745 6 105452908.09745                  25752684.780
  25752678.660          39.200          30.650
 130242678.640 7 101487764.408 6                  24784360.000    24784356.680
  24784356.380          43.700          38.000
 111924383.388 8  87213817.57947                  21298491.480
  21298487.560          50.650          44.850
 118590374.925 8  92408083.76547                  22566996.860
  22566991.900          49.250          43.250
 123999903.307 7  96623295.85346                  23596388.340
  23596382.760          47.650          36.450
 111123059.062 8  86589406.73947                  21146000.420
  21145992.900          50.500          46.950
 107534693.679 8  83793278.870 8  80301887.116 8  20463166.080    20463163.880
  20463163.240          50.700          50.400
 108205101.056 8  84315644.05248                  20590740.120
  20590732.660          49.550          49.000
 132266146.622 7 103064519.434 6  98770160.649 7  25169415.440    25169414.560
  25169414.220          43.350          39.550
 120400187.201 8  93818349.04546                  22911379.220
  22911375.500          48.750          39.150
 124572153.558 7  97069227.294 7  93024665.511 8  23705289.200    23705288.800
  23705288.820          45.900          43.450
 124927798.632 6  97166079.639 5                  23436139.480    23436145.940
  23436144.680          39.300          34.750
 123489754.390 7  96047633.475 6                  23076995.260    23076997.720
  23076996.580          44.350          39.000
 114065511.231 8  88717638.535 7                  21300918.640    21300919.860
  21300919.220          48.100          45.700
 107143881.170 8  83334160.733 7                  20015370.000    20015371.320
  20015370.440          49.250          47.400
 107060769.525 8  83269518.813 7                  20056081.360    20056083.760
  20056082.800          49.700          47.250
 124534453.223 6  96860145.699 6                  23313111.000    23313114.600
  23313114.060          41.150          36.300
 119887182.734 7  93245576.359 6                  22466802.960    22466804.740
  22466805.600          46.300          39.900
 119056204.429 7  92599273.581 7                  22295400.420    22295403.900
  22295403.260          43.600          43.350
 113589830.881 8  88347668.667 7                  21234416.140    21234419.380
  21234418.640          48.650          45.700
 137668512.843 8                 102804514.569 7  26197395.160
                        49.750
 15  1 27  5  4 35.0000000  0 23G11G14G21G07G04G16G18G22G27G19G30G32
                                G01R14R21R08R07R22R12R06R13R23E11
 118547194.929 8  92374426.96346                  22558776.540
  22558771.240          49.450          40.350
 130057587.100 7 101343560.26545                  24749136.660
  24749132.720          44.000          35.250
 135344025.352 6 105462850.59444                  25755112.840
  25755106.700          40.350          28.200
 130251835.518 7 101494899.636 6                  24786102.500    24786099.120
  24786098.860          43.350          36.650
 111914538.499 8  87206146.23547                  21296618.080
  21296614.140          50.550          45.000
 118606702.759 8  92420806.74947                  22570103.940
  22570098.960          49.150          42.650
 124013066.231 7  96633552.67846                  23598893.180
  23598887.620          47.650          36.600
 111127952.580 8  86593219.87047                  21146931.620
  21146924.120          50.300          47.250
 107538110.614 8  83795941.411 8  80304438.711 8  20463816.280    20463814.120
  20463813.460          50.700          50.450
 108200754.404 8  84312257.04648                  20589912.940
  20589905.520          49.650          48.900
 132269329.644 7 103066999.717 6  98772537.574 7  25170021.160    25170020.300
  25170019.940          43.700          39.550
 120381718.244 8  93803957.64746                  22907864.680
  22907860.960          48.700          38.900
 124558365.638 7  97058483.454 7  93014369.334 8  23702665.440    23702665.080
  23702665.080          45.800          43.550
 124918882.543 6  97159144.920 5                  23434466.820    23434473.140
  23434471.980          38.900          33.900
 123503154.822 7  96058056.035 6                  23079499.420    23079502.000
  23079500.780          44.600          39.050
 114046399.685 8  88702773.996 7                  21297349.760    21297350.920
  21297350.300          48.450          45.750
 107142620.463 8  83333180.178 7                  20015134.480    20015135.780
  20015134.920          49.050          47.700
 107064180.481 8  83272171.770 7                  20056720.300    20056722.760
  20056721.780          49.700          47.250
 124554026.703 6  96875369.538 6                  23316775.200    23316778.880
  23316778.260          41.150          36.200
 119903523.841 7  93258286.103 6                  22469865.320    22469867.060
  22469867.880          46.150          39.700
 119064286.090 7  92605559.311 7                  22296913.880    22296917.260
  22296916.600          43.550          43.100
 113578683.349 8  88338998.370 7                  21232332.200    21232335.420
  21232334.740          48.750          46.050
 137677728.601 8                 102811396.457 7  26199148.920
                        49.700
 15  1 27  5  4 40.0000000  0 23G11G14G21G07G04G16G18G22G27G19G30G32
                                G01R14R21R08R07R22R12R06R13R23E11
 118533628.708 8  92363855.89646                  22556195.000
  22556189.700          49.150          40.850
 130045195.918 7 101333904.80345                  24746778.800
  24746774.780          43.350          35.850
 135356785.671 6 105472793.65745                  25757541.020
  25757535.020          40.900          32.850
 130261002.376 7 101502042.654 6                  24787846.940    24787843.480
  24787843.100          43.350          36.750
 111904703.440 8  87198482.55947                  21294746.580
  21294742.580          50.300          45.300
 118623039.545 8  92433536.72047                  22573212.680
  22573207.720          49.100          43.250
 124026237.869 7  96643816.30346                  23601399.680
  23601394.180          47.250          37.350
 111132861.569 8  86597045.06247                  21147865.780
  21147858.260          50.000          47.550
 107541539.635 8  83798613.377 8  80306999.353 8  20464468.800    20464466.640
  20464466.000          50.600          50.450
 108196418.321 8  84308878.28748                  20589087.780
  20589080.380          49.450          49.250
 132272527.152 7 103069491.278 6  98774925.333 7  25170629.580    25170628.700
  25170628.420          43.350          38.850
 120363256.979 8  93789572.25146                  22904351.620
  22904347.920          48.600          39.950
 124544583.761 7  97047744.344 7  93004077.695 8  23700042.860    23700042.480
  23700042.480          45.800          43.400
 124909987.244 6  97152226.329 5                  23432798.020    23432804.520
  23432803.200          38.550          34.900
 123516561.349 7  96068483.321 6                  23082004.760    23082007.280
  23082006.160          44.900          39.000
 114027301.001 7  88687919.460 7                  21293783.280    21293784.380
  21293783.800          47.900          45.800
 107141384.296 8  83332218.708 7                  20014903.540    20014904.860
  20014904.020          49.050          47.800
 107067601.096 8  83274832.257 7                  20057361.100    20057363.580
  20057362.560          49.900          47.300
 124573604.713 6  96890596.901 6                  23320440.300    23320443.920
  23320443.300          40.650          36.750
 119919880.301 7  93271007.806 6                  22472930.540    22472932.120
  22472933.040          46.250          39.850
 119072388.224 7  92611860.972 7                  22298431.140    22298434.540
  22298433.840          43.550          43.200
 113567541.027 8  88330332.124 7                  21230249.220    21230252.460
  21230251.820          48.700          46.000
 137686948.524 8                 102818281.478 7  26200903.440
                        49.350
 15  1 27  5  4 45.0000000  0 23G11G14G21G07G04G16G18G22G27G19G30G32
                                G01R14R21R08R07R22R12R06R13R23E11
 118520066.820 8  92353288.19346                  22553614.300
  22553608.920          49.000          39.950
 130032807.109 7 101324251.16545                  24744421.320
  24744417.100          43.650          31.550
 135369544.737 6 105482735.81345                  25759969.000
  25759962.960          40.350          32.600
 130270177.203 7 101509191.869 6                  24789592.880    24789589.340
  24789588.920          42.950          37.700
 111894876.285 8  87190825.03347                  21292876.560
  21292872.540          50.350          45.550
 118639383.254 8  92446272.07247                  22576322.780
  22576317.800          49.150          43.300
 124039416.205 7  96654085.14246                  23603907.440
  23603901.900          46.900          38.750
 111137784.045 8  86600880.75347                  21148802.480
  21148794.980          50.050          47.450
 107544978.774 8  83801293.220 8  80309567.536 8  20465123.240    20465121.080
  20465120.460          50.700          50.600
 108192090.860 8  84305506.23348                  20588264.300
  20588256.900          49.650          49.200
 132275737.174 7 103071992.600 6  98777322.410 7  25171240.420    25171239.440
  25171239.140          42.700          38.100
 120344801.463 8  93775191.33646                  22900839.640
  22900835.940          48.700          40.700
 124530805.967 7  97037008.402 7  92993789.082 8  23697421.040    23697420.640
  23697420.640          46.000          43.400
 124901110.789 6  97145322.436 5                  23431132.700    23431139.280
  23431138.040          38.250          35.100
 123529972.023 7  96078913.823 6                  23084510.880    23084513.440
  23084512.280          44.850          39.550
 114008213.198 8  88673073.400 7                  21290218.780    21290219.900
  21290219.280          48.000          45.800
 107140170.780 8  83331274.868 7                  20014676.800    20014678.180
  20014677.360          49.150          47.700
 107071029.254 8  83277498.606 7                  20058003.300    20058005.780
  20058004.760          50.000          47.050
 124593185.269 6  96905826.216 6                  23324105.880    23324109.380
  23324108.820          40.350          37.050
 119936250.067 7  93283739.857 6                  22475998.240    22475999.740
  22476000.660          46.100          39.650
 119080508.731 7  92618176.915 7                  22299951.820    22299955.300
  22299954.540          43.450          43.550
 113556401.803 8  88321668.291 7                  21228166.840    21228170.100
  21228169.500          48.850          45.950
 137696170.646 8                 102825168.108 7  26202658.360
                        49.350
 15  1 27  5  4 50.0000000  0 23G11G14G21G07G04G16G18G22G27G19G30G32
                                G01R14R21R08R07R22R12R06R13R23E11
 118506509.026 8  92342723.68446                  22551034.340
  22551028.960          48.950          40.550
 130020420.465 7 101314599.22445                  24742064.220
  24742059.800          43.100          34.150
 135382302.384 6 105492676.82045                  25762396.700
  25762390.940          39.800          31.750
 130279359.846 7 101516347.162 6                  24791340.240    24791336.800
  24791336.440          42.750          38.150
 111885056.770 8  87183173.46147                  21291007.980
  21291003.960          50.550          45.200
 118655733.816 8  92459012.76647                  22579434.180
  22579429.200          49.100          43.100
 124052601.026 7  96664359.01946                  23606416.460
  23606410.920          46.850          38.400
 111142719.792 8  86604726.78847                  21149741.700
  21149734.220          50.150          47.550
 107548427.828 8  83803980.790 8  80312143.126 8  20465779.580    20465777.420
  20465776.800          50.650          50.550
 108187771.799 8  84302140.72748                  20587442.380
  20587435.020          49.650          49.050
 132278959.470 7 103074503.484 6  98779728.656 7  25171853.640    25171852.640
  25171852.360          42.800          38.350
 120326351.472 8  93760814.71746                  22897328.720
  22897325.080          48.550          39.900
 124517032.064 7  97026275.487 7  92983503.376 8  23694799.960    23694799.520
  23694799.540          45.600          43.200
 124892252.955 6  97138433.008 5                  23429470.900    23429477.520
  23429476.380          37.900          34.900
 123543386.555 7  96089347.346 6                  23087017.700    23087020.320
  23087019.140          44.550          38.600
 113989135.953 7  88658235.545 7                  21286656.280    21286657.380
  21286656.720          47.800          45.450
 107138979.757 8  83330348.513 7                  20014454.300    20014455.680
  20014454.880          49.700          47.700
 107074464.731 8  83280170.650 7                  20058646.900    20058649.340
  20058648.300          50.250          46.950
 124612768.217 6  96921057.375 6                  23327771.920    23327775.300
  23327774.760          40.350          36.600
 119952632.928 7  93296482.069 6                  22479068.400    22479069.920
  22479070.740          46.600          39.300
 119088647.318 7  92624506.921 7                  22301475.840    22301479.420
  22301478.640          43.650          43.450
 113545265.585 8  88313006.792 7                  21226085.040    21226088.320
  21226087.720          49.250          46.050
 137705394.744 8                 102832056.241 7  26204413.640
                        49.600
 15  1 27  5  4 55.0000000  0 23G11G14G21G07G04G16G18G22G27G19G30G32
                                G01R14R21R08R07R22R12R06R13R23E11
 118492957.267 8  92332163.87846                  22548455.540
  22548450.140          48.950          40.450
 130008037.940 7 101304950.53045                  24739707.940
  24739703.480          44.000          32.350
 135395060.456 6 105502618.19445                  25764824.480
  25764818.780          39.450          31.800
 130288552.183 7 101523509.979 6                  24793089.400    24793086.060
  24793085.860          42.300          37.650
 111875246.872 8  87175529.38947                  21289141.260
  21289137.200          50.550          45.200
 118672093.125 8  92471760.27947                  22582547.260
  22582542.280          49.050          43.200
 124065794.276 7  96674639.48346                  23608927.060
  23608921.540          46.850          37.800
 111147670.761 8  86608584.69047                  21150683.840
  21150676.380          50.250          47.050
 107551888.728 8  83806677.600 8  80314727.563 8  20466438.140    20466436.000
  20466435.380          50.700          50.350
 108183463.088 8  84298783.29348                  20586622.440
  20586615.100          49.650          49.000
 132282195.983 7 103077025.441 6  98782145.545 7  25172469.520    25172468.560
  25172468.260          43.200          38.150
 120307908.948 8  93746443.93646                  22893819.200
  22893815.600          48.600          39.750
 124503263.961 7  97015547.117 7  92973222.010 8  23692179.960    23692179.540
  23692179.520          45.750          42.900
 124883415.820 6  97131559.701 5                  23427812.900    23427819.660
  23427818.600          37.100          35.350
 123556807.014 7  96099785.487 6                  23089525.600    23089528.320
  23089527.080          44.650          38.150
 113970071.370 8  88643407.544 7                  21283096.120    21283097.160
  21283096.540          48.000          45.600
 107137813.067 8  83329441.088 7                  20014236.360    20014237.740
  20014236.960          49.750          47.600
 107077909.642 8  83282850.025 7                  20059292.240    20059294.680
  20059293.600          50.300          47.150
 124632355.471 6  96936291.918 6                  23331438.680    23331442.060
  23331441.520          40.100          36.550
 119969030.746 7  93309235.940 6                  22482141.320    22482142.780
  22482143.680          46.250          39.450
 119096806.136 7  92630852.677 7                  22303003.700    22303007.340
  22303006.520          43.950          43.500
 113534134.218 8  88304349.065 7                  21224004.140    21224007.420
  21224006.840          49.200          45.900
 137714622.773 8                 102838947.295 7  26206169.660
                        49.600
 15  1 27  5  5  0.0000000  0 23G11G14G21G07G04G16G18G22G27G19G30G32
                                G01R14R21R08R07R22R12R06R13R23E11
 118479408.642 8  92321606.51446                  22545877.280
  22545871.940          49.000          39.750
 129995656.688 7 101295302.79945                  24737351.920
  24737347.500          43.900          34.100
 135407816.146 6 105512557.78245                  25767251.760
  25767246.100          39.550          32.000
 130297751.333 7 101530678.139 6                  24794839.900    24794836.640
  24794836.460          43.700          37.600
 111865443.674 8  87167890.52547                  21287275.800
  21287271.720          50.550          45.400
 118688458.296 8  92484512.34847                  22585661.480
  22585656.520          49.300          43.400
 124078993.039 7  96684924.22946                  23611438.720
  23611433.200          46.850          38.200
 111152634.044 8  86612452.17847                  21151628.320
  21151620.880          50.300          47.100
 107555358.602 8  83809381.393 8  80317318.706 8  20467098.440    20467096.300
  20467095.680          50.800          50.400
 108179161.875 8  84295431.69948                  20585803.920
  20585796.600          49.600          49.100
 132285443.842 7 103079556.234 6  98784570.896 7  25173087.560    25173086.580
  25173086.240          42.900          38.100
 120289471.029 8  93732076.72046                  22890310.560
  22890306.980          48.400          39.850
 124489498.824 7  97004821.032 7  92962942.859 8  23689560.560    23689560.060
  23689560.000          46.200          42.550
 124874596.418 6  97124700.160 5                  23426158.280    23426165.200
  23426164.140          37.750          34.100
 123570230.418 7  96110225.894 6                  23092034.060    23092036.780
  23092035.560          45.100          38.500
 113951016.527 7  88628587.102 7                  21279537.760    21279538.780
  21279538.120          47.700          45.400
 107136667.712 8  83328550.250 7                  20014022.400    20014023.780
  20014023.000          49.700          47.550
 107081360.914 8  83285534.350 7                  20059938.780    20059941.240
  20059940.100          50.150          47.050
 124651944.041 6  96951527.473 6                  23335105.740    23335109.080
  23335108.540          39.200          37.400
 119985440.778 7  93321999.292 6                  22485216.520    22485217.940
  22485218.920          46.200          39.650
 119104982.040 7  92637211.711 7                  22304534.760    22304538.400
  22304537.560          43.850          43.150
 113523004.944 8  88295692.970 7                  21221923.640    21221926.940
  21221926.380          49.100          46.050
 137723851.829 8                 102845839.121 7  26207925.860
                        49.650
 15  1 27  5  5  5.0000000  0 23G11G14G21G07G04G16G18G22G27G19G30G32
                                G01R14R21R08R07R22R12R06R13R23E11
 118465866.358 8  92311054.08746                  22543300.240
  22543294.900          48.850          40.550
 129983279.860 7 101285658.52645                  24734996.760
  24734992.220          43.600          32.150
 135420572.668 6 105522497.82144                  25769679.220
  25769673.460          39.700          25.850
 130306960.478 7 101537854.098 6                  24796592.380    24796589.120
  24796588.900          43.750          37.400
 111855650.398 8  87160259.39347                  21285412.240
  21285408.100          50.450          45.450
 118704832.469 8  92497271.44447                  22588777.400
  22588772.460          49.600          42.950
 124092200.546 7  96695215.78746                  23613952.040
  23613946.480          46.900          36.900
 111157612.828 8  86616331.74547                  21152575.760
  21152568.300          50.250          46.900
 107558840.620 8  83812094.652 8  80319918.905 8  20467761.040    20467758.900
  20467758.280          50.800          50.300
 108174871.323 8  84292088.41448                  20584987.420
  20584980.140          49.550          49.000
 132288706.247 7 103082098.363 6  98787007.101 7  25173708.340    25173707.320
  25173706.940          42.850          37.150
 120271040.957 8  93717715.62946                  22886803.380
  22886799.880          48.450          39.650
 124475739.817 7  96994099.718 7  92952668.254 8  23686942.300    23686941.760
  23686941.700          46.300          42.800
 124865798.023 6  97117856.972 5                  23424507.640    23424514.660
  23424513.620          37.050          35.350
 123583659.950 7  96120671.079 6                  23094543.660    23094546.400
  23094545.260          44.800          39.450
 113931974.678 7  88613776.773 7                  21275981.820    21275982.800
  21275982.180          47.800          45.650
 107135547.152 8  83327678.707 7                  20013813.080    20013814.460
  20013813.660          49.650          47.600
 107084821.850 8  83288226.189 7                  20060587.160    20060589.600
  20060588.420          50.050          47.050
 124671537.235 6  96966766.624 6                  23338773.620    23338777.020
  23338776.380          39.050          38.200
 120001866.091 7  93334774.525 6                  22488294.580    22488295.940
  22488297.000          46.550          39.650
 119113178.373 7  92643586.643 7                  22306069.680    22306073.320
  22306072.440          44.100          43.100
 113511880.684 8  88287040.762 7                  21219844.100    21219847.380
  21219846.840          49.050          46.150
 137733085.121 8                 102852734.096 7  26209682.860
                        49.400
 15  1 27  5  5 10.0000000  0 23G11G14G21G07G04G16G18G22G27G19G30G32
                                G01R14R21R08R07R22R12R06R13R23E11
 118452327.316 8  92300504.20346                  22540723.800
  22540718.480          48.750          40.450
 129970904.412 7 101276015.33845                  24732641.800
  24732637.320          44.100          32.350
 135433326.889 6 105532436.20845                  25772106.280
  25772100.740          39.550          32.800
 130316176.530 7 101545035.440 6                  24798346.180    24798342.960
  24798342.640          43.400          37.300
 111845863.919 8  87152633.57647                  21283549.960
  21283545.780          50.550          45.400
 118721212.496 8  92510035.11247                  22591894.460
  22591889.520          49.650          42.600
 124105413.684 7  96705511.74546                  23616466.420
  23616460.880          46.850          38.700
 111162604.026 8  86620220.99547                  21153525.540
  21153518.100          50.250          47.150
 107562331.732 8  83814815.003 8  80322525.912 8  20468425.360    20468423.240
  20468422.600          50.750          50.400
 108170588.395 8  84288751.07648                  20584172.380
  20584165.140          49.450          49.300
 132291980.055 7 103084649.376 6  98789451.852 7  25174331.340    25174330.240
  25174329.880          43.250          37.750
 120252615.618 8  93703358.23046                  22883297.100
  22883293.660          48.350          39.900
 124461983.831 7  96983380.774 7  92942395.958 8  23684324.600    23684324.040
  23684323.980          45.700          42.750
 124857017.450 6  97111027.694 5                  23422860.440    23422867.420
  23422866.400          37.100          34.500
 123597092.529 7  96131118.636 6                  23097053.840    23097056.600
  23097055.440          45.100          39.000
 113912942.617 7  88598974.080 7                  21272427.720    21272428.660
  21272428.060          47.850          45.450
 107134448.023 8  83326823.840 7                  20013607.740    20013609.140
  20013608.360          49.650          47.600
 107088289.446 8  83290923.216 7                  20061236.740    20061239.180
  20061238.000          50.100          47.550
 124691131.792 6  96982006.837 6                  23342441.840    23342445.180
  23342444.560          39.250          38.400
 120018303.469 7  93347559.159 6                  22491374.900    22491376.260
  22491377.320          46.650          39.400
 119121392.073 7  92649975.072 7                  22307607.880    22307611.520
  22307610.580          44.050          43.200
 113500758.681 8  88278390.330 7                  21217764.940    21217768.260
  21217767.700          48.800          46.000
 137742319.545 8                 102859629.960 7  26211440.100
                        49.250
 15  1 27  5  5 15.0000000  0 23G11G14G21G07G04G16G18G22G27G19G30G32
                                G01R14R21R08R07R22R12R06R13R23E11
 118438792.518 8  92289957.61546                  22538148.160
  22538142.920          48.650          40.750
 129958531.350 7 101266373.96045                  24730287.300
  24730282.780          44.150          33.050
 135446079.901 6 105542373.62843                  25774533.060
  25774527.380          39.950          23.450
 130325400.450 7 101552222.908 6                  24800101.400    24800098.240
  24800097.920          42.550          37.350
 111836085.318 8  87145013.88647                  21281689.180
  21281684.960          50.650          45.050
 118737599.376 8  92522804.11347                  22595012.820
  22595007.860          49.550          42.600
 124118633.422 7  96715812.84746                  23618982.060
  23618976.500          46.900          37.950
 111167608.588 8  86624120.65147                  21154477.880
  21154470.440          50.300          47.200
 107565832.904 8  83817543.187 8  80325140.416 8  20469091.600    20469089.500
  20469088.880          50.850          50.400
 108166314.065 8  84285420.43348                  20583358.960
  20583351.780          49.650          48.900
 132295266.302 7 103087210.064 6  98791905.838 7  25174956.740    25174955.400
  25174955.180          43.350          37.550
 120234196.006 8  93689005.29446                  22879791.940
  22879788.520          48.250          39.600
 124448231.876 7  96972664.977 7  92932126.655 8  23681707.680    23681707.080
  23681707.020          45.950          42.800
 124848255.658 6  97104212.935 5                  23421216.820    23421223.600
  23421222.680          36.850          34.300
 123610529.146 7  96141569.361 6                  23099564.780    23099567.560
  23099566.420          45.900          39.100
 113893921.420 7  88584179.811 7                  21268875.620    21268876.540
  21268875.940          47.850          45.450
 107133371.468 8  83325986.515 7                  20013406.680    20013408.040
  20013407.260          49.550          47.650
 107091764.621 8  83293626.122 7                  20061887.760    20061890.180
  20061889.000          49.850          47.300
 124710728.741 6  96997248.902 6                  23346110.420    23346113.780
  23346113.180          38.800          38.500
 120034754.094 7  93360354.098 6                  22494457.720    22494459.020
  22494460.160          46.550          39.200
 119129623.912 7  92656377.601 7                  22309149.400    22309153.160
  22309152.100          43.600          43.200
 113489639.712 8  88269742.241 7                  21215686.360    21215689.700
  21215689.140          48.850          46.050
 137751556.124 8                 102866527.372 7  26213197.740
                        49.350
 15  1 27  5  5 20.0000000  0 23G11G14G21G07G04G16G18G22G27G19G30G32
                                G01R14R21R08R07R22R12R06R13R23E11
 118425264.036 8  92279415.94246                  22535573.700
  22535568.540          48.550          40.600
 129946162.757 7 101256736.09745                  24727933.660
  24727929.040          44.700          31.250
 135458833.672 6 105552311.58045                  25776960.080
  25776954.460          39.750          32.700
 130334634.299 7 101559418.088 6                  24801858.560    24801855.460
  24801854.940          43.250          36.850
 111826316.575 8  87137401.87447                  21279830.280
  21279826.020          50.700          44.850
 118753995.221 8  92535580.08147                  22598132.880
  22598127.880          49.600          43.150
 124131861.812 7  96726120.67646                  23621499.320
  23621493.820          46.850          37.750
 111172628.613 8  86628032.35547                  21155433.140
  21155425.720          50.250          47.050
 107569346.216 8  83820280.829 8  80327763.993 8  20469760.160    20469758.080
  20469757.440          50.850          50.550
 108162050.371 8  84282098.06448                  20582547.580
  20582540.420          49.700          48.900
 132298566.974 7 103089782.000 6  98794370.620 7  25175584.840    25175583.480
  25175583.080          43.450          37.900
 120215784.238 8  93674658.45246                  22876288.260
  22876284.840          48.600          38.600
 124434486.030 7  96961953.933 7  92921861.900 8  23679091.940    23679091.280
  23679091.140          46.550          42.900
 124839514.940 6  97097414.609 5                  23419577.060    23419583.900
  23419582.920          37.950          34.650
 123623971.882 7  96152024.806 6                  23102076.920    23102079.560
  23102078.520          46.100          38.650
 113874913.269 7  88569395.692 7                  21265325.960    21265326.920
  21265326.300          47.650          45.650
 107132319.401 8  83325168.232 7                  20013210.180    20013211.500
  20013210.700          49.650          47.550
 107095249.411 8  83296336.506 7                  20062540.580    20062543.000
  20062541.800          49.750          47.350
 124730330.151 6  97012494.418 6                  23349779.820    23349783.280
  23349782.640          39.000          38.700
 120051219.911 7  93373160.840 6                  22497543.400    22497544.660
  22497545.780          46.450          39.100
 119137875.957 7  92662795.850 7                  22310694.720    22310698.580
  22310697.440          44.050          43.600
 113478526.044 8  88261098.281 7                  21213608.780    21213612.120
  21213611.540          48.850          45.950
 137760796.896 8                 102873427.952 7  26214956.180
                        49.350
 15  1 27  5  5 25.0000000  0 23G11G14G21G07G04G16G18G22G27G19G30G32
                                G01R14R21R08R07R22R12R06R13R23E11
 118411738.647 8  92268876.68246                  22532999.880
  22532994.760          48.700          40.750
 129933795.388 7 101247099.19345                  24725580.240
  24725575.600          44.500          33.250
 135471584.934 6 105562247.63544                  25779386.560
  25779381.120          38.750          26.900
 130343874.832 7 101566618.536 6                  24803617.040    24803613.820
  24803613.320          43.750          37.000
 111816554.458 8  87129795.03647                  21277972.620
  21277968.340          50.700          45.050
 118770396.777 8  92548360.51747                  22601254.020
  22601249.000          49.650          42.650
 124145095.618 7  96736432.73246                  23624017.620
  23624012.100          46.750          37.850
 111177660.828 8  86631953.56147                  21156390.740
  21156383.320          50.150          47.350
 107572868.433 8  83823025.413 8  80330394.219 8  20470430.420    20470428.340
  20470427.700          50.950          50.550
 108157794.115 8  84278781.50148                  20581737.620
  20581730.480          49.650          49.000
 132301878.861 7 103092362.682 6  98796843.811 7  25176215.060    25176213.760
  25176213.380          43.650          37.900
 120197377.100 8  93660315.22746                  22872785.480
  22872782.040          48.600          39.850
 124420743.067 7  96951245.132 7  92911599.309 8  23676476.720    23676476.040
  23676475.860          46.550          43.150
 124830791.927 6  97090630.037 5                  23417940.720    23417947.440
  23417946.440          37.950          34.150
 123637417.502 7  96162482.512 6                  23104589.560    23104592.220
  23104591.180          45.550          38.600
 113855914.838 7  88554619.147 7                  21261778.120    21261779.060
  21261778.440          47.700          45.350
 107131288.786 8  83324366.660 7                  20013017.660    20013018.980
  20013018.160          49.850          47.400
 107098740.534 8  83299051.822 7                  20063194.580    20063197.040
  20063195.800          49.900          47.400
 124749932.765 6  97027740.885 6                  23353449.480    23353452.920
  23353452.360          39.750          38.550
 120067697.654 7  93385976.871 6                  22500631.360    22500632.600
  22500633.640          46.600          38.950
 119146144.959 7  92669227.300 7                  22312243.240    22312247.100
  22312245.940          44.250          43.700
 113467414.187 8  88252455.717 7                  21211531.560    21211534.880
  21211534.300          49.150          45.800
 137770038.638 8                 102880329.255 7  26216714.800
                        49.500
 15  1 27  5  5 30.0000000  0 23G11G14G21G07G04G16G18G22G27G19G30G32
                                G01R14R21R08R07R22R12R06R13R23E11
 118398219.713 8  92258342.45746                  22530427.320
  22530422.160          48.650          40.700
 129921432.654 7 101237465.90045                  24723227.660
  24723223.100          44.050          34.000
 135484337.009 6 105572184.31844                  25781813.180
  25781807.640          39.650          25.300
 130353125.410 7 101573826.769 6                  24805377.460    24805374.160
  24805373.540          44.050          36.800
 111806802.442 8  87122196.06747                  21276116.880
  21276112.580          50.600          45.100
 118786807.397 8  92561148.01547                  22604376.880
  22604371.840          49.750          42.550
 124158338.186 7  96746751.61546                  23626537.580
  23626532.060          46.600          38.550
 111182708.607 8  86635886.90047                  21157351.300
  21157343.900          50.200          47.250
 107576402.925 8  83825779.565 8  80333033.613 8  20471103.000    20471100.940
  20471100.280          50.850          50.550
 108153548.670 8  84275473.36348                  20580929.700
  20580922.600          49.350          49.200
 132305205.358 7 103094954.779 6  98799327.874 7  25176848.040    25176846.740
  25176846.380          42.900          38.350
 120178977.893 8  93645978.18546                  22869284.200
  22869280.740          48.600          39.450
 124407006.344 7  96940541.190 7  92901341.371 8  23673862.720    23673862.060
  23673861.820          46.250          43.600
 124822089.964 6  97083861.844 5                  23416308.240    23416315.040
  23416313.960          38.500          34.850
 123650869.383 7  96172945.082 6                  23107103.400    23107106.120
  23107105.020          45.650          38.850
 113836929.631 7  88539852.879 7                  21258232.760    21258233.720
  21258233.040          47.850          45.400
 107130283.034 8  83323584.404 7                  20012829.760    20012831.100
  20012830.260          49.700          47.600
 107102241.415 8  83301774.725 7                  20063850.380    20063852.860
  20063851.620          50.050          47.150
 124769539.949 6  97042990.922 6                  23357119.980    23357123.400
  23357122.880          39.750          38.700
 120084190.787 7  93398804.866 6                  22503722.140    22503723.400
  22503724.420          46.900          39.200
 119154434.635 7  92675674.826 7                  22313795.660    22313799.520
  22313798.300          44.350          43.750
 113456307.791 8  88243817.422 7                  21209455.340    21209458.680
  21209458.060          49.150          45.750
 137779284.707 8                 102887233.783 7  26218474.260
                        49.400
 15  1 27  5  5 35.0000000  0 23G11G14G21G07G04G16G18G22G27G19G30G32
                                G01R14R21R08R07R22R12R06R13R23E11
 118384704.153 8  92247810.85446                  22527855.400
  22527850.240          48.650          40.700
 129909071.497 7 101227833.84445                  24720875.380
  24720870.800          43.950          34.000
 135497086.865 6 105582119.25345                  25784239.460
  25784233.960          40.450          31.550
 130362382.920 7 101581040.414 6                  24807139.120    24807135.780
  24807135.120          44.250          37.000
 111797057.352 8  87114602.49047                  21274262.440
  21274258.140          50.400          44.900
 118803223.996 8  92573940.16847                  22607500.860
  22607495.820          49.550          42.900
 124171586.433 7  96757074.92646                  23629058.580
  23629053.120          46.650          37.450
 111187768.894 8  86639829.98247                  21158314.240
  21158306.860          50.350          47.150
 107579946.605 8  83828540.878 8  80335679.864 8  20471777.340    20471775.300
  20471774.620          50.750          50.600
 108149310.938 8  84272171.24148                  20580123.260
  20580116.200          49.400          49.100
 132308543.341 7 103097555.802 6  98801820.537 7  25177483.240    25177481.980
  25177481.520          42.900          38.500
 120160583.619 8  93631644.98146                  22865783.880
  22865780.380          48.500          39.600
 124393272.758 7  96929839.713 7  92891085.780 8  23671249.280    23671248.660
  23671248.360          46.000          43.650
 124813406.049 6  97077107.702 5                  23414679.140    23414686.040
  23414684.900          39.000          34.900
 123664324.400 7  96183410.101 6                  23109617.880    23109620.500
  23109619.420          46.000          39.550
 113817954.417 7  88525094.381 7                  21254689.260    21254690.220
  21254689.540          47.650          45.400
 107129298.745 8  83322818.843 7                  20012645.920    20012647.220
  20012646.360          49.450          47.600
 107105748.993 8  83304502.856 7                  20064507.460    20064509.960
  20064508.680          50.200          47.250
 124789148.544 6  97058242.053 6                  23360790.760    23360794.180
  23360793.680          39.400          39.050
 120100695.924 7  93411642.202 6                  22506815.160    22506816.440
  22506817.460          46.800          38.700
 119162741.485 7  92682135.723 7                  22315351.320    22315355.140
  22315353.860          44.350          43.450
 113445203.596 8  88235180.828 7                  21207379.560    21207382.900
  21207382.220          49.250          45.950
 137788532.043 8                 102894139.252 7  26220233.940
                        49.400
 15  1 27  5  5 40.0000000  0 23G11G14G21G07G04G16G18G22G27G19G30G32
                                G01R14R21R08R07R22R12R06R13R23E11
 118371194.845 8  92237284.12646                  22525284.660
  22525279.480          48.800          41.000
 129896714.736 7 101218205.18245                  24718523.960
  24718519.460          44.550          33.700
 135509837.347 6 105592054.66444                  25786665.820
  25786660.320          40.650          28.550
 130371650.201 7 101588261.656 6                  24808902.640    24808899.260
  24808898.680          43.300          36.350
 111787322.062 8  87107016.55447                  21272409.840
  21272405.560          50.450          44.700
 118819649.392 8  92586739.17447                  22610626.520
  22610621.480          49.550          42.750
 124184843.195 7  96767404.87146                  23631581.220
  23631575.800          46.650          37.350
 111192844.533 8  86643785.02847                  21159280.100
  21159272.720          50.550          47.000
 107583502.359 8  83831311.590 8  80338335.135 8  20472453.980    20472451.940
  20472451.280          50.750          50.400
 108145083.824 8  84268877.38248                  20579318.840
  20579311.820          49.350          48.950
 132311895.662 7 103100167.998 6  98804323.912 7  25178121.200    25178119.920
  25178119.460          43.850          38.150
 120142197.138 8  93617317.85746                  22862285.040
  22862281.540          48.700          39.400
 124379545.202 7  96919142.924 7  92880834.715 8  23668637.020    23668636.420
  23668636.140          46.400          43.350
 124804743.109 6  97070369.868 5                  23413054.000    23413060.900
  23413059.820          38.800          34.800
 123677785.538 7  96193879.880 6                  23112133.440    23112135.980
  23112135.020          45.900          39.850
 113798992.191 7  88510345.981 7                  21251148.140    21251149.140
  21251148.440          47.900          45.250
 107128339.098 8  83322072.458 7                  20012466.660    20012467.960
  20012467.060          49.600          47.600
 107109266.182 8  83307238.451 7                  20065166.340    20065168.820
  20065167.540          49.850          47.150
 124808761.468 6  97073496.537 6                  23364462.300    23364465.800
  23364465.280          39.350          38.900
 120117216.234 7  93424491.337 6                  22509911.040    22509912.380
  22509913.360          46.700          38.950
 119171068.602 7  92688612.362 7                  22316910.740    22316914.580
  22316913.220          44.250          43.250
 113434104.700 8  88226548.349 7                  21205304.780    21205308.020
  21205307.340          49.300          45.750
 137797783.496 8                 102901047.808 7  26221994.440
                        49.350
 15  1 27  5  5 45.0000000  0 23G11G14G21G07G04G16G18G22G27G19G30G32
                                G01R14R21R08R07R22R12R06R13R23E11
 118357689.133 8  92226760.20246                  22522714.580
  22522709.440          48.850          41.150
 129884359.764 7 101208577.94245                  24716172.880
  24716168.460          44.100          35.750
 135522585.839 6 105601988.59244                  25789091.760
  25789086.100          40.600          29.800
 130380924.548 7 101595488.434 6                  24810667.480    24810664.120
  24810663.640          43.250          36.600
 111777593.872 8  87099436.15347                  21270558.600
  21270554.340          50.300          44.900
 118836080.908 8  92599542.95547                  22613753.360
  22613748.320          49.550          42.550
 124198105.835 7  96777739.39546                  23634105.000
  23634099.600          46.600          37.550
 111197932.873 8  86647749.96647                  21160248.380
  21160241.000          50.500          46.800
 107587067.499 8  83834089.619 8  80340997.414 8  20473132.400    20473130.360
  20473129.700          50.700          50.400
 108140864.646 8  84265589.71848                  20578515.920
  20578508.940          49.300          49.050
 132315259.700 7 103102789.345 6  98806836.002 7  25178761.360    25178760.120
  25178759.560          43.550          37.200
 120123815.820 8  93602994.74146                  22858787.180
  22858783.680          48.650          39.400
 124365821.002 7  96908448.740 7  92870586.132 8  23666025.400    23666024.800
  23666024.540          46.450          43.350
 124796098.452 6  97063646.259 5                  23411432.360    23411439.040
  23411438.120          39.700          33.950
 123691250.005 7  96204352.216 6                  23114649.640    23114652.180
  23114651.260          46.200          39.700
 113780040.248 7  88495605.579 7                  21247608.940    21247609.980
  21247609.280          47.800          45.300
 107127401.279 8  83321343.053 7                  20012291.440    20012292.740
  20012291.840          49.550          47.400
 107112790.190 8  83309979.353 7                  20065826.480    20065828.980
  20065827.700          49.800          47.100
 124828375.946 6  97088752.247 6                  23368134.160    23368137.700
  23368137.160          39.300          38.250
 120133748.858 7  93437350.036 6                  22513009.220    22513010.640
  22513011.560          46.200          38.750
 119179413.095 7  92695102.525 7                  22318473.420    22318477.260
  22318475.840          44.050          43.150
 113423008.193 8  88217917.737 7                  21203230.440    21203233.600
  21203232.900          49.150          45.450
 137807036.408 8                 102907957.448 7  26223755.200
                        49.350
 15  1 27  5  5 50.0000000  0 23G11G14G21G07G04G16G18G22G27G19G30G32
                                G01R14R21R08R07R22R12R06R13R23E11
 118344187.814 8  92216239.69946                  22520145.380
  22520140.240          48.950          40.750
 129872007.424 7 101198952.71845                  24713822.280
  24713817.860          44.700          31.700
 135535333.155 6 105611921.54645                  25791517.540
  25791511.980          40.600          31.500
 130390206.819 7 101602721.357 6                  24812433.820    24812430.500
  24812430.200          42.800          36.650
 111767873.662 8  87091861.96147                  21268708.880
  21268704.620          50.200          45.200
 118852519.366 8  92612352.13647                  22616881.520
  22616876.460          49.350          43.000
 124211375.165 7  96788079.13146                  23636630.060
  23636624.680          46.400          36.750
 111203034.706 8  86651725.42047                  21161219.220
  21161211.860          50.350          46.950
 107590642.899 8  83836875.640 8  80343667.346 8  20473812.780    20473810.720
  20473810.100          50.650          50.400
 108136654.232 8  84262308.87548                  20577714.680
  20577707.740          49.350          48.900
 132318636.212 7 103105420.410 6  98809357.425 7  25179403.940    25179402.740
  25179402.160          43.900          38.100
 120105440.477 8  93588676.29446                  22855290.460
  22855286.960          48.600          38.850
 124352101.037 7  96897757.863 7  92860340.694 8  23663414.580    23663413.960
  23663413.700          46.300          43.300
 124787472.834 6  97056937.431 5                  23409814.200    23409820.900
  23409819.920          38.800          33.950
 123704718.652 7  96214827.824 6                  23117166.640    23117169.160
  23117168.300          46.100          39.950
 113761099.555 7  88480873.931 7                  21244071.880    21244072.960
  21244072.200          47.850          45.750
 107126486.283 8  83320631.385 7                  20012120.500    20012121.840
  20012120.920          49.400          47.550
 107116322.082 8  83312726.387 7                  20066488.120    20066490.580
  20066489.320          49.350          47.400
 124847992.740 6  97104009.734 6                  23371806.480    23371810.040
  23371809.480          39.600          38.200
 120150294.672 7  93450219.001 6                  22516109.900    22516111.360
  22516112.240          46.200          39.200
 119187775.845 7  92701606.878 7                  22320039.580    22320043.400
  22320041.900          44.200          43.300
 113411914.983 8  88209289.685 7                  21201156.680    21201159.820
  21201159.080          49.400          45.800
 137816291.621 8                 102914868.793 7  26225516.400
                        49.400
 15  1 27  5  5 55.0000000  0 23G11G14G21G07G04G16G18G22G27G19G30G32
                                G01R14R21R08R07R22R12R06R13R23E11
 118330692.552 8  92205723.90846                  22517577.340
  22517572.180          48.850          40.900
 129859659.350 7 101189330.84145                  24711472.480
  24711468.060          44.700          33.400
 135548080.922 6 105621854.85544                  25793943.420
  25793937.760          40.650          29.150
 130399498.644 7 101609961.756 6                  24814201.980    24814198.640
  24814198.440          43.550          36.850
 111758163.100 8  87084295.28947                  21266861.000
  21266856.780          50.300          44.800
 118868966.374 8  92625167.98347                  22620011.300
  22620006.220          49.550          43.100
 124224652.816 7  96798425.34846                  23639156.700
  23639151.340          46.200          38.350
 111208151.663 8  86655712.66347                  21162192.940
  21162185.580          50.300          47.050
 107594230.141 8  83839670.892 8  80346346.131 8  20474495.420    20474493.360
  20474492.720          50.800          50.400
 108132454.263 8  84259036.16848                  20576915.420
  20576908.500          49.550          49.100
 132322026.864 7 103108062.476 6  98811889.396 7  25180049.180    25180048.040
  25180047.440          43.950          38.100
 120087072.775 8  93574363.79746                  22851795.200
  22851791.700          48.600          39.200
 124338386.855 7  96887071.500 7  92850099.594 8  23660804.840    23660804.220
  23660804.000          45.950          43.350
 124778867.883 6  97050244.693 5                  23408199.880    23408206.780
  23408205.620          39.050          35.050
 123718193.120 7  96225307.962 6                  23119684.740    23119687.320
  23119686.440          46.000          39.650
 113742171.755 7  88466152.313 7                  21240537.180    21240538.340
  21240537.580          47.850          45.800
 107125595.442 8  83319938.511 7                  20011954.080    20011955.420
  20011954.500          49.350          47.550
 107119863.282 8  83315480.628 7                  20067151.480    20067153.980
  20067152.720          49.250          47.450
 124867613.618 6  97119270.409 6                  23375479.560    23375483.140
  23375482.600          39.850          38.900
 120166855.244 7  93463099.429 6                  22519213.340    22519214.840
  22519215.660          45.900          38.900
 119196158.653 7  92708126.846 7                  22321609.460    22321613.300
  22321611.720          43.800          43.600
 113400826.706 8  88200665.471 7                  21199083.860    21199087.000
  21199086.200          49.000          45.700
 137825550.744 8                 102921783.077 7  26227278.340
                        49.400
 15  1 27  5  6  0.0000000  0 23G11G14G21G07G04G16G18G22G27G19G30G32
                                G01R14R21R08R07R22R12R06R13R23E11
 118317200.007 8  92195210.24046                  22515009.820
  22515004.600          48.500          40.850
 129847312.271 7 101179709.75345                  24709122.900
  24709118.480          44.650          34.150
 135560825.860 6 105631785.99645                  25796368.740
  25796363.020          40.250          31.000
 130408796.696 7 101617206.975 6                  24815971.320    24815967.960
  24815967.760          42.600          36.900
 111748458.841 8  87076733.53347                  21265014.320
  21265010.100          50.300          45.100
 118885418.621 8  92637987.91347                  22623142.060
  22623136.980          49.200          42.100
 124237935.449 7  96808775.44646                  23641684.280
  23641678.980          46.450          37.400
 111213280.435 8  86659709.11247                  21163168.900
  21163161.540          50.250          47.050
 107597825.957 8  83842472.826 8  80349031.322 8  20475179.680    20475177.640
  20475176.980          50.750          50.450
 108128261.381 8  84255768.98348                  20576117.540
  20576110.620          49.550          48.750
 132325428.322 7 103110712.955 6  98814429.432 7  25180696.500    25180695.340
  25180694.660          42.950          37.400
 120068709.387 8  93560054.66046                  22848300.760
  22848297.260          48.400          40.150
 124324675.212 7  96876387.116 7  92839860.387 8  23658195.540    23658195.000
  23658194.780          45.850          42.900
 124770280.381 6  97043565.504 5                  23406588.780    23406595.720
  23406594.620          38.900          34.100
 123731670.106 7  96235790.058 6                  23122203.280    23122205.860
  23122205.000          45.400          39.550
 113723253.418 8  88451438.061 7                  21237004.280    21237005.500
  21237004.720          48.150          45.750
 107124725.682 8  83319262.029 7                  20011791.540    20011792.940
  20011792.040          49.650          47.650
 107123410.516 8  83318239.584 7                  20067815.940    20067818.440
  20067817.240          49.250          47.400
 124887235.145 6  97134531.586 6                  23379152.800    23379156.380
  23379155.860          40.250          38.650
 120183427.334 7  93475988.834 6                  22522318.880    22522320.460
  22522321.240          45.700          39.300
 119204557.851 7  92714659.558 7                  22323182.440    22323186.220
  22323184.600          44.200          43.550
 113389740.076 8  88192042.539 7                  21197011.340    21197014.480
  21197013.680          49.200          46.000
 137834810.461 8                 102928697.810 7  26229040.400
                        49.400
 15  1 27  5  6  5.0000000  0 23G11G14G21G07G04G16G18G22G27G19G30G32
                                G01R14R21R08R07R22R12R06R13R23E11
 118303712.543 8  92184700.53746                  22512443.240
  22512437.980          48.450          41.050
 129834968.534 7 101170091.24246                  24706773.980
  24706769.520          44.850          36.000
 135573570.262 6 105641716.67445                  25798793.980
  25798788.360          40.250          34.800
 130418103.301 7 101624458.877 6                  24817742.240    24817739.040
  24817738.720          42.900          38.150
 111738763.172 8  87069178.46447                  21263169.280
  21263165.060          50.300          45.250
 118901878.480 8  92650813.77147                  22626274.260
  22626269.180          49.250          42.800
 124251225.384 7  96819131.23746                  23644213.260
  23644207.960          46.750          37.600
 111218423.376 8  86663716.59647                  21164147.560
  21164140.200          50.250          47.100
 107601432.672 8  83845283.245 8  80351724.640 8  20475866.040    20475863.960
  20475863.320          50.750          50.450
 108124077.947 8  84252509.16048                  20575321.420
  20575314.560          49.600          48.850
 132328842.955 7 103113373.703 6  98816979.302 7  25181346.320    25181345.060
  25181344.420          42.550          37.250
 120050352.695 8  93545750.74546                  22844807.600
  22844804.080          48.300          38.850
 124310968.413 7  96865706.496 7  92829624.795 8  23655587.200    23655586.640
  23655586.460          45.950          43.200
 124761712.706 6  97036901.744 5                  23404981.540    23404988.420
  23404987.300          37.750          35.050
 123745151.983 7  96246275.944 6                  23124722.700    23124725.300
  23124724.400          45.350          39.900
 113704346.921 8  88436733.002 7                  21233473.580    21233474.780
  21233474.060          48.000          45.650
 107123879.352 8  83318603.775 7                  20011633.440    20011634.800
  20011633.940          49.400          47.750
 107126966.203 8  83321005.106 7                  20068482.000    20068484.540
  20068483.340          49.650          47.600
 124906859.672 6  97149795.109 6                  23382826.580    23382830.160
  23382829.660          41.100          38.750
 120200013.186 7  93488888.939 6                  22525427.040    22525428.680
  22525429.400          46.100          39.250
 119212975.995 7  92721206.991 7                  22324758.880    22324762.760
  22324761.060          44.700          43.550
 113378657.484 8  88183422.752 7                  21194939.600    21194942.700
  21194941.900          49.100          46.200
 137844073.170 8                 102935614.753 7  26230803.040
                        49.300
 15  1 27  5  6 10.0000000  0 23G11G14G21G07G04G16G18G22G27G19G30G32
                                G01R14R21R08R07R22R12R06R13R23E11
 118290230.957 8  92174195.40746                  22509877.780
  22509872.520          48.700          41.050
 129822628.875 7 101160475.93245                  24704425.800
  24704421.500          45.150          33.250
 135586314.913 6 105651647.61045                  25801219.180
  25801213.660          39.600          33.550
 130427419.128 7 101631717.963 6                  24819514.980    24819511.840
  24819511.380          42.850          37.300
 111729076.920 8  87061630.74247                  21261326.020
  21261321.820          50.450          44.950
 118918346.634 8  92663646.09947                  22629408.020
  22629402.940          49.450          42.550
 124264523.367 7  96829493.30646                  23646743.760
  23646738.480          46.900          36.400
 111223581.185 8  86667735.67047                  21165129.040
  21165121.680          50.300          47.200
 107605051.053 8  83848102.763 8  80354426.666 8  20476554.600    20476552.520
  20476551.860          50.750          50.450
 108119904.705 8  84249257.28748                  20574527.260
  20574520.400          49.650          48.900
 132332271.471 7 103116045.268 5  98819539.548 7  25181998.700    25181997.500
  25181996.700          42.250          35.950
 120032003.440 8  93531452.62746                  22841315.840
  22841312.340          48.350          38.950
 124297267.267 7  96855030.293 7  92819393.421 8  23652979.920    23652979.360
  23652979.200          46.000          43.150
 124753165.533 6  97030253.968 5                  23403377.960    23403384.880
  23403383.940          37.700          34.750
 123758639.453 7  96256766.208 6                  23127243.220    23127245.740
  23127244.880          45.950          40.500
 113685453.137 7  88422037.849 7                  21229945.260    21229946.540
  21229945.820          47.800          45.800
 107123057.077 8  83317964.233 7                  20011479.780    20011481.220
  20011480.360          49.250          47.750
 107130530.965 8  83323777.684 7                  20069149.800    20069152.320
  20069151.120          49.750          47.250
 124926487.876 6  97165061.496 6                  23386501.040    23386504.660
  23386504.140          41.400          38.250
 120216613.734 7  93501800.476 6                  22528537.920    22528539.640
  22528540.320          46.050          39.600
 119221413.900 7  92727769.797 7                  22326339.100    22326342.900
  22326341.160          44.450          43.100
 113367579.625 8  88174806.632 7                  21192868.740    21192871.840
  21192871.020          49.300          46.200
 137853339.568 8                 102942534.460 7  26232566.400
                        49.450
 15  1 27  5  6 15.0000000  0 23G11G14G21G07G04G16G18G22G27G19G30G32
                                G01R14R21R08R07R22R12R06R13R23E11
 118276754.342 8  92163694.16146                  22507313.260
  22507307.980          48.750          40.550
 129810292.469 7 101150863.15045                  24702078.260
  24702073.960          44.650          32.350
 135599058.921 6 105661577.94844                  25803644.240
  25803638.820          39.350          29.000
 130436743.356 7 101638983.593 6                  24821289.360    24821286.200
  24821285.780          42.800          36.350
 111719399.118 8  87054089.59747                  21259484.400
  21259480.180          50.400          44.850
 118934822.202 8  92676484.20247                  22632543.220
  22632538.120          49.300          42.250
 124277828.478 7  96839860.93146                  23649275.640
  23649270.320          46.950          37.500
 111228753.004 8  86671765.65547                  21166113.200
  21166105.820          50.200          46.900
 107608680.193 8  83850930.667 8  80357136.746 8  20477245.220    20477243.140
  20477242.480          50.800          50.300
 108115740.770 8  84246012.66948                  20573734.860
  20573728.020          49.650          48.750
 132335712.981 7 103118726.991 5  98822109.524 7  25182653.520    25182652.280
  25182651.340          42.100          35.200
 120013660.778 8  93517159.65046                  22837825.360
  22837821.820          48.000          39.600
 124283570.821 7  96844357.748 7  92809165.572 8  23650373.540    23650372.980
  23650372.860          45.600          43.100
 124744638.119 6  97023621.545 5                  23401778.100    23401785.160
  23401784.280          37.500          34.850
 123772131.695 7  96267260.185 6                  23129764.600    23129767.220
  23129766.320          45.950          40.250
 113666571.235 7  88407351.935 7                  21226419.080    21226420.500
  21226419.760          47.650          45.600
 107122258.116 8  83317342.818 7                  20011330.500    20011331.980
  20011331.100          49.250          47.650
 107134103.993 8  83326556.716 7                  20069819.120    20069821.640
  20069820.440          49.850          46.950
 124946118.957 6  97180330.117 6                  23390175.980    23390179.720
  23390179.140          41.200          37.700
 120233227.783 7  93514722.518 6                  22531651.380    22531653.120
  22531653.760          46.300          39.650
 119229870.553 7  92734347.196 7                  22327922.780    22327926.560
  22327924.780          44.300          42.900
 113356505.512 8  88166193.436 7                  21190798.600    21190801.680
  21190800.820          49.400          46.050
 137862608.794 8                 102949456.286 7  26234330.280
                        49.550
 15  1 27  5  6 20.0000000  0 23G11G14G21G07G04G16G18G22G27G19G30G32
                                G01R14R21R08R07R22R12R06R13R23E11
 118263281.651 8  92153195.94946                  22504749.520
  22504744.220          48.650          40.800
 129797958.236 7 101141252.05545                  24699731.120
  24699726.920          44.700          34.350
 135611801.233 6 105671507.02145                  25806069.000
  25806063.900          38.650          31.000
 130446074.914 7 101646254.941 6                  24823065.060    24823061.940
  24823061.440          42.400          37.350
 111709728.768 8  87046554.25947                  21257644.180
  21257639.940          50.350          44.800
 118951304.109 8  92689327.23647                  22635679.620
  22635674.500          49.400          42.850
 124291139.714 7  96850233.32146                  23651808.720
  23651803.340          46.600          37.500
 111233937.772 8  86675805.72647                  21167099.800
  21167092.460          50.050          47.300
 107612319.059 8  83853766.146 8  80359854.083 8  20477937.680    20477935.580
  20477934.920          50.800          50.450
 108111585.094 8  84242774.47948                  20572944.020
  20572937.220          49.450          48.900
 132339166.467 6 103121418.027 5  98824688.412 7  25183310.620    25183309.280
  25183308.340          41.800          34.600
 119995323.655 7  93502870.98946                  22834335.900
  22834332.380          47.900          40.050
 124269878.061 7  96833688.079 7  92798940.477 8  23647767.860    23647767.380
  23647767.140          45.900          43.150
 124736129.238 6  97017003.556 5                  23400181.820    23400188.960
  23400188.080          37.750          35.150
 123785627.558 7  96277756.948 6                  23132286.660    23132289.320
  23132288.400          45.850          39.350
 113647700.064 7  88392674.362 7                  21222894.900    21222896.460
  21222895.700          47.800          45.750
 107121481.430 8  83316738.724 7                  20011185.380    20011186.880
  20011186.020          49.200          47.750
 107137684.278 8  83329341.386 7                  20070489.780    20070492.340
  20070491.100          49.750          47.050
 124965751.750 6  97195600.071 6                  23393851.340    23393855.000
  23393854.440          41.000          38.150
 120249854.310 7  93527654.260 6                  22534767.200    22534768.940
  22534769.560          46.600          39.700
 119238344.727 7  92740938.223 7                  22329509.780    22329513.560
  22329511.700          44.400          43.350
 113345434.320 8  88157582.511 7                  21188729.000    21188732.020
  21188731.180          49.350          46.000
 137871879.788 8                 102956379.435 7  26236094.500
                        49.450
 15  1 27  5  6 25.0000000  0 23G11G14G21G07G04G16G18G22G27G19G30G32
                                G01R14R21R08R07R22R12R06R13R23E11
 118249814.902 8  92142702.38546                  22502186.900
  22502181.580          48.550          40.900
 129785628.165 7 101131644.20845                  24697384.760
  24697380.740          44.550          35.650
 135624543.806 6 105681436.31942                  25808493.840
  25808488.560          38.200          16.150
 130455415.766 7 101653533.515 6                  24824842.580    24824839.400
  24824838.920          43.450          37.550
 111700067.868 8  87039026.29047                  21255805.800
  21255801.540          50.450          45.050
 118967794.300 8  92702176.73347                  22638817.620
  22638812.480          49.550          43.000
 124304458.990 7  96860611.98446                  23654343.260
  23654337.920          46.550          36.200
 111239137.467 8  86679857.43847                  21168089.260
  21168081.900          49.950          47.100
 107615969.634 8  83856610.753 8  80362580.160 8  20478632.400    20478630.260
  20478629.600          50.850          50.400
 108107439.688 8  84239544.29948                  20572155.160
  20572148.360          49.400          48.950
 132342633.828 7 103124119.877 5  98827277.678 7  25183970.380    25183969.020
  25183968.000          42.000          35.550
 119976994.065 7  93488588.19846                  22830847.880
  22830844.400          47.950          40.050
 124256191.009 7  96823022.860 7  92788719.616 8  23645163.300    23645162.820
  23645162.560          46.000          42.750
 124727640.967 6  97010401.582 5                  23398589.400    23398596.600
  23398595.760          38.600          35.150
 123799129.149 7  96288258.183 6                  23134809.780    23134812.440
  23134811.540          45.800          39.800
 113628841.668 8  88378006.731 7                  21219373.140    21219374.740
  21219374.000          48.000          45.400
 107120728.667 8  83316153.240 7                  20011044.760    20011046.280
  20011045.420          49.300          47.750
 107141273.821 8  83332133.265 7                  20071162.180    20071164.800
  20071163.520          49.600          47.050
 124985388.351 6  97210872.996 6                  23397527.400    23397530.960
  23397530.440          40.850          38.150
 120266495.330 7  93540597.282 6                  22537885.700    22537887.480
  22537888.080          46.800          39.800
 119246838.637 7  92747544.605 7                  22331100.420    22331104.240
  22331102.340          44.450          43.450
 113334367.876 8  88148975.276 7                  21186660.260    21186663.280
  21186662.420          49.600          46.250
 137881154.534 8                 102963305.360 7  26237859.440
                        49.250
 15  1 27  5  6 30.0000000  0 23G11G14G21G07G04G16G18G22G27G19G30G32
                                G01R14R21R08R07R22R12R06R13R23E11
 118236350.860 8  92132210.93446                  22499624.760
  22499619.440          48.400          41.300
 129773299.153 7 101122037.18645                  24695038.640
  24695034.640          44.750          33.300
 135637283.541 6 105691363.38544                  25810918.060
  25810912.860          39.400          29.200
 130464762.666 7 101660816.812 6                  24826621.260    24826618.020
  24826617.660          43.750          38.100
 111690413.241 8  87031503.20647                  21253968.580
  21253964.340          50.350          45.100
 118984289.669 8  92715030.26247                  22641956.620
  22641951.480          49.800          42.450
 124317783.193 7  96870994.46746                  23656878.760
  23656873.420          46.450          37.550
 111244348.899 8  86683918.29247                  21169080.960
  21169073.600          50.050          47.400
 107619628.750 8  83859462.009 8  80365312.614 8  20479328.720    20479326.580
  20479325.900          50.800          50.500
 108103301.387 8  84236319.64948                  20571367.640
  20571360.860          49.200          49.150
 132346111.952 7 103126830.118 6  98829874.978 7  25184632.240    25184630.800
  25184629.680          42.450          36.600
 119958668.848 7  93474308.80546                  22827360.700
  22827357.240          47.750          39.950
 124242506.405 7  96812359.522 7  92778500.607 8  23642559.240    23642558.700
  23642558.460          46.350          43.150
 124719170.231 6  97003813.240 6                  23397000.400    23397007.520
  23397006.760          39.000          36.250
 123812633.172 7  96298761.310 6                  23137333.400    23137335.980
  23137335.180          45.800          40.000
 113609992.803 8  88363346.493 7                  21215853.200    21215854.800
  21215854.100          48.250          45.650
 107119996.992 8  83315584.161 7                  20010908.080    20010909.580
  20010908.760          49.400          47.800
 107144869.416 8  83334929.835 7                  20071835.720    20071838.340
  20071837.040          49.750          47.050
 125005025.372 6  97226146.230 6                  23401203.460    23401207.080
  23401206.580          40.650          38.600
 120283147.679 7  93553549.121 6                  22541006.380    22541008.140
  22541008.680          46.950          39.600
 119255348.885 7  92754163.683 7                  22332694.120    22332697.980
  22332696.020          44.150          43.350
 113323303.267 8  88140369.477 7                  21184591.840    21184594.880
  21184594.020          49.350          46.350
 137890429.864 8                 102970231.752 7  26239624.500
                        49.250
 15  1 27  5  6 35.0000000  0 23G11G14G21G07G04G16G18G22G27G19G30G32
                                G01R14R21R08R07R22R12R06R13R23E11
 118222893.490 8  92121724.68646                  22497063.880
  22497058.580          48.650          40.700
 129760975.047 7 101112433.97345                  24692693.460
  24692689.420          44.750          33.900
 135650024.336 6 105701291.25245                  25813342.500
  25813337.440          39.450          31.750
 130474119.648 7 101668107.934 6                  24828401.820    24828398.580
  24828398.300          43.300          37.400
 111680768.900 8  87023988.13547                  21252133.320
  21252129.080          50.400          44.900
 119000794.094 8  92727890.85547                  22645097.340
  22645092.180          49.900          42.100
 124331116.204 7  96881383.83046                  23659415.920
  23659410.580          46.400          37.600
 111249576.006 8  86687991.36147                  21170075.620
  21170068.260          50.250          46.850
 107623300.356 8  83862322.995 8  80368054.399 8  20480027.420    20480025.260
  20480024.580          50.800          50.450
 108099174.166 8  84233103.62648                  20570582.240
  20570575.480          49.150          49.050
 132349604.751 7 103129551.767 6  98832483.243 7  25185296.920    25185295.440
  25185294.360          42.600          36.750
 119940351.985 7  93460035.92346                  22823875.140
  22823871.660          47.750          40.150
 124228828.270 7  96801701.231 7  92768286.424 8  23639956.400    23639955.840
  23639955.640          46.100          43.250
 124710720.940 6  96997241.581 5                  23395415.380    23395422.480
  23395421.780          38.650          35.600
 123826143.654 7  96309269.467 6                  23139858.220    23139860.800
  23139860.040          45.450          40.500
 113591157.706 8  88348696.975 7                  21212335.860    21212337.480
  21212336.780          48.200          45.650
 107119290.308 8  83315034.523 7                  20010776.060    20010777.600
  20010776.800          49.450          47.850
 107148474.944 8  83337734.139 7                  20072511.140    20072513.740
  20072512.440          49.650          47.150
 125024666.910 6  97241422.969 6                  23404880.340    23404884.060
  23404883.560          40.000          38.600
 120299815.271 7  93566512.806 6                  22544129.900    22544131.680
  22544132.160          46.950          39.300
 119263879.638 7  92760798.696 7                  22334291.680    22334295.540
  22334293.560          43.850          43.400
 113312244.031 8  88131767.849 7                  21182524.420    21182527.460
  21182526.660          49.700          46.400
 137899709.731 8                 102977161.515 7  26241390.400
                        49.400
 15  1 27  5  6 40.0000000  0 23G11G14G21G07G04G16G18G22G27G19G30G32
                                G01R14R21R08R07R22R12R06R13R23E11
 118209441.059 8  92111242.27246                  22494503.940
  22494498.640          48.650          41.050
 129748654.164 7 101102833.29445                  24690348.900
  24690344.840          45.050          31.250
 135662764.454 6 105711218.65945                  25815766.840
  25815761.740          38.700          31.250
 130483484.849 7 101675405.483 6                  24830183.960    24830180.720
  24830180.440          42.650          37.600
 111671132.963 8  87016479.61647                  21250299.660
  21250295.400          50.300          44.900
 119017305.765 8  92740757.09847                  22648239.420
  22648234.260          49.600          42.500
 124344456.266 7  96891778.68246                  23661954.400
  23661949.140          46.300          36.750
 111254816.982 8  86692075.24047                  21171072.940
  21171065.560          50.350          47.000
 107626982.675 8  83865192.331 8  80370804.176 8  20480728.160    20480726.000
  20480725.320          50.850          50.400
 108095056.236 8  84229894.84848                  20569798.580
  20569791.840          49.150          49.050
 132353110.433 7 103132283.455 6  98835101.120 7  25185964.040    25185962.640
  25185961.480          42.100          37.250
 119922041.660 7  93445768.14046                  22820390.800
  22820387.340          47.750          40.350
 124215154.797 7  96791046.589 7  92758075.711 8  23637354.420    23637353.880
  23637353.700          46.000          43.250
 124702291.252 6  96990685.162 5                  23393834.180    23393841.100
  23393840.420          39.350          35.050
 123839658.815 7  96319781.255 6                  23142383.840    23142386.420
  23142385.720          45.100          40.750
 113572334.377 7  88334056.604 7                  21208820.740    21208822.360
  21208821.660          47.950          45.900
 107118606.784 8  83314502.889 7                  20010648.380    20010649.900
  20010649.120          49.600          47.850
 107152088.859 8  83340544.955 7                  20073188.100    20073190.720
  20073189.460          49.950          47.400
 125044311.075 6  97256701.769 6                  23408557.800    23408561.500
  23408560.980          40.250          38.500
 120316496.363 7  93579486.989 6                  22547255.960    22547257.700
  22547258.140          46.850          39.600
 119272429.068 7  92767448.244 7                  22335892.660    22335896.520
  22335894.560          43.750          43.550
 113301188.601 8  88123169.183 7                  21180457.740    21180460.760
  21180460.000          49.450          46.400
 137908992.346 8                 102984093.335 7  26243156.820
                        49.350
 15  1 27  5  6 45.0000000  0 23G11G14G21G07G04G16G18G22G27G19G30G32
                                G01R14R21R08R07R22R12R06R13R23E11
 118195991.379 8  92100762.01046                  22491944.540
  22491939.240          48.350          41.500
 129736334.390 7 101093233.46445                  24688004.500
  24688000.400          44.700          32.600
 135675501.717 6 105721143.71045                  25818190.620
  25818185.620          39.050          34.050
 130492856.159 7 101682707.759 6                  24831967.220    24831964.000
  24831963.720          42.750          37.350
 111661503.368 8  87008976.04047                  21248467.200
  21248462.940          50.250          44.900
 119033822.585 8  92753627.34847                  22651382.500
  22651377.300          49.250          42.700
 124357801.224 7  96902177.34246                  23664493.820
  23664488.620          46.050          38.150
 111260069.713 8  86696168.28147                  21172072.500
  21172065.120          50.350          47.150
 107630673.571 8  83868068.351 8  80373560.356 8  20481430.520    20481428.360
  20481427.680          50.800          50.450
 108090945.440 8  84226691.62848                  20569016.300
  20569009.580          49.100          48.950
 132356626.858 7 103135023.516 6  98837727.026 7  25186633.200    25186631.840
  25186630.660          42.450          37.200
 119903735.802 7  93431503.83446                  22816907.320
  22816903.840          47.700          40.650
 124201483.861 7  96780393.922 7  92747866.909 8  23634752.920    23634752.420
  23634752.220          46.250          43.350
 124693879.110 6  96984142.380 5                  23392256.120    23392262.920
  23392262.320          39.800          34.650
 123853176.500 7  96330294.996 6                  23144909.980    23144912.600
  23144911.860          46.050          40.400
 113553520.756 8  88319423.816 7                  21205307.380    21205309.040
  21205308.340          48.350          45.850
 107117944.263 8  83313987.597 7                  20010524.600    20010526.140
  20010525.360          49.300          47.650
 107155708.792 8  83343360.459 7                  20073866.220    20073868.820
  20073867.580          49.950          47.350
 125063955.690 6  97271980.930 6                  23412235.320    23412239.020
  23412238.500          40.200          38.800
 120333188.758 7  93592469.970 6                  22550384.060    22550385.840
  22550386.260          46.550          39.600
 119280994.848 7  92774110.518 7                  22337496.720    22337500.640
  22337498.620          43.700          43.150
 113290134.925 8  88114571.882 7                  21178391.340    21178394.420
  21178393.660          49.400          46.450
 137918275.577 8                 102991025.623 7  26244923.380
                        49.550
 15  1 27  5  6 50.0000000  0 23G11G14G21G07G04G16G18G22G27G19G30G32
                                G01R14R21R08R07R22R12R06R13R23E11
 118182547.779 8  92090286.48846                  22489386.280
  22489381.000          48.200          41.100
 129724019.062 7 101083637.10645                  24685660.960
  24685656.760          44.350          35.000
 135688239.416 6 105731069.23345                  25820614.560
  25820609.640          39.400          30.900
 130502236.876 7 101690017.382 6                  24833752.260    24833749.120
  24833748.800          42.350          37.150
 111651883.384 8  87001479.95147                  21246636.580
  21246632.300          50.300          44.750
 119050347.827 8  92766504.15847                  22654527.160
  22654521.940          49.150          42.100
 124371154.350 7  96912582.38446                  23667034.800
  23667029.620          45.850          37.600
 111265337.505 8  86700273.05847                  21173074.920
  21173067.520          50.250          47.050
 107634376.353 8  83870953.636 8  80376325.417 8  20482135.140    20482132.980
  20482132.320          50.850          50.500
 108086845.101 8  84223496.56348                  20568236.000
  20568229.300          49.200          49.200
 132360157.359 7 103137774.564 6  98840363.427 7  25187305.020    25187303.680
  25187302.620          42.950          38.100
 119885437.737 7  93417245.60646                  22813425.320
  22813421.860          47.750          40.000
 124187818.772 7  96769745.817 7  92737662.477 8  23632152.540    23632152.060
  23632151.860          46.400          43.150
 124685487.839 6  96977615.849 5                  23390682.060    23390688.860
  23390688.080          39.700          33.650
 123866700.018 7  96340813.285 6                  23147437.220    23147439.880
  23147439.120          45.900          40.000
 113534720.070 8  88304801.069 7                  21201796.440    21201798.120
  21201797.440          48.450          45.750
 107117306.010 8  83313491.178 7                  20010405.400    20010406.920
  20010406.120          49.400          47.650
 107159338.046 8  83346183.224 7                  20074546.100    20074548.720
  20074547.460          49.750          47.350
 125083604.185 6  97287263.103 6                  23415913.560    23415917.320
  23415916.680          39.650          38.300
 120349895.624 7  93605464.200 6                  22553514.920    22553516.660
  22553517.080          46.450          39.950
 119289580.370 7  92780788.153 7                  22339104.520    22339108.400
  22339106.380          44.150          42.650
 113279086.198 8  88105978.434 7                  21176325.880    21176329.000
  21176328.220          49.150          46.300
 137927562.754 8                 102997960.858 7  26246690.680
                        49.500
 15  1 27  5  6 55.0000000  0 23G11G14G21G07G04G16G18G22G27G19G30G32
                                G01R14R21R08R07R22R12R06R13R23E11
 118169108.630 8  92079814.42246                  22486828.860
  22486823.600          48.350          40.550
 129711706.501 7 101074042.90745                  24683317.920
  24683313.740          44.500          35.400
 135700975.896 6 105740993.72246                  25823038.240
  25823033.200          40.350          36.550
 130511625.291 7 101697333.032 6                  24835538.800    24835535.700
  24835535.340          43.150          37.400
 111642271.346 8  86993990.04547                  21244807.460
  21244803.200          50.300          45.000
 119066879.801 8  92779386.20947                  22657673.060
  22657667.840          49.300          42.950
 124384514.006 7  96922992.49546                  23669577.000
  23669571.880          46.300          37.650
 111270618.700 8  86704388.27347                  21174079.920
  21174072.460          50.250          46.800
 107638089.398 8  83873846.914 8  80379098.144 8  20482841.720    20482839.540
  20482838.900          50.850          50.600
 108082753.625 8  84220308.39848                  20567457.420
  20567450.740          49.450          49.000
 132363700.259 7 103140535.266 6  98843009.100 7  25187979.260    25187977.860
  25187976.840          43.200          38.250
 119867145.791 8  93402992.14246                  22809944.500
  22809941.040          48.000          40.500
 124174157.866 7  96759100.961 7  92727461.169 8  23629552.940    23629552.480
  23629552.220          46.100          43.200
 124677115.802 6  96971104.243 5                  23389111.600    23389118.260
  23389117.480          39.650          34.600
 123880227.731 7  96351334.835 6                  23149965.220    23149967.820
  23149967.140          45.700          40.100
 113515930.803 8  88290187.191 7                  21198287.640    21198289.360
  21198288.680          48.500          45.900
 107116690.527 8  83313012.468 7                  20010290.440    20010291.960
  20010291.140          49.750          47.700
 107162975.096 8  83349012.035 7                  20075227.420    20075230.060
  20075228.780          50.000          47.250
 125103254.753 6  97302546.868 6                  23419592.240    23419595.840
  23419595.240          40.050          37.900
 120366615.436 7  93618468.496 6                  22556648.140    22556650.020
  22556650.380          46.400          39.700
 119298184.008 7  92787479.880 7                  22340715.720    22340719.560
  22340717.480          44.600          42.450
 113268040.905 8  88097387.646 7                  21174261.060    21174264.220
  21174263.440          49.250          46.250
 137936852.208 8                 103004897.779 7  26248458.400
                        49.650
 15  1 27  5  7  0.0000000  0 23G11G14G21G07G04G16G18G22G27G19G30G32
                                G01R14R21R08R07R22R12R06R13R23E11
 118155673.895 8  92069345.81246                  22484272.280
  22484267.060          48.700          41.050
 129699396.769 7 101064450.91145                  24680975.420
  24680971.280          44.500          33.050
 135713711.190 6 105750917.34645                  25825461.720
  25825456.720          40.400          32.050
 130521021.405 7 101704654.679 6                  24837326.800    24837323.740
  24837323.360          43.000          36.600
 111632667.293 8  86986506.36547                  21242979.840
  21242975.600          50.250          45.050
 119083418.546 8  92792273.54747                  22660820.280
  22660815.080          49.300          42.550
 124397880.176 7  96933407.69846                  23672120.480
  23672115.360          46.300          37.850
 111275913.277 8  86708513.91547                  21175087.420
  21175079.960          50.250          47.150
 107641812.659 8  83876748.158 8  80381878.503 8  20483550.240    20483548.060
  20483547.420          50.850          50.550
 108078670.936 8  84217127.08548                  20566680.500
  20566673.820          49.600          49.050
 132367255.530 7 103143305.609 6  98845664.027 7  25188655.840    25188654.460
  25188653.460          43.200          38.700
 119848859.981 8  93388743.46346                  22806464.820
  22806461.360          48.100          40.300
 124160501.175 7  96748459.404 7  92717263.012 8  23626954.140    23626953.720
  23626953.400          46.200          43.300
 124668762.916 6  96964607.544 5                  23387544.680    23387551.220
  23387550.500          39.100          33.950
 123893759.607 7  96361859.620 6                  23152493.920    23152496.580
  23152495.940          44.900          40.750
 113497152.999 8  88275582.236 7                  21194781.020    21194782.740
  21194782.040          48.650          45.750
 107116097.620 8  83312551.325 7                  20010179.700    20010181.200
  20010180.400          49.750          47.750
 107166619.937 8  83351846.913 7                  20075910.220    20075912.860
  20075911.540          49.650          47.050
 125122907.343 6  97317832.217 6                  23423271.220    23423274.860
  23423274.200          40.100          37.300
 120383348.161 7  93631482.831 6                  22559783.860    22559785.760
  22559786.060          46.550          39.450
 119306805.634 7  92794185.586 7                  22342330.280    22342334.140
  22342332.000          44.100          42.800
 113256998.918 8  88088799.438 7                  21172196.840    21172200.060
  21172199.280          48.850          46.600
 137946143.947 8                 103011836.409 7  26250226.580
                        49.600
 15  1 27  5  7  5.0000000  0 23G11G14G21G07G04G16G18G22G27G19G30G32
                                G01R14R21R08R07R22R12R06R13R23E11
 118142243.725 8  92058880.74646                  22481716.600
  22481711.400          48.500          40.900
 129687089.957 7 101054861.18345                  24678633.480
  24678629.280          43.800          35.700
 135726445.463 6 105760840.14245                  25827885.000
  25827879.880          39.400          33.650
 130530425.401 7 101711982.481 5                  24839116.320    24839113.240
  24839112.940          43.450          34.700
 111623071.344 8  86979029.00847                  21241153.780
  21241149.560          50.200          45.000
 119099964.141 8  92805166.22047                  22663968.780
  22663963.600          49.100          42.700
 124411252.998 7  96943828.06346                  23674665.260
  23674660.140          46.450          37.850
 111281221.373 8  86712650.09447                  21176097.520
  21176090.020          50.100          47.000
 107645546.306 8  83879657.487 8  80384666.616 8  20484260.720    20484258.540
  20484257.920          50.700          50.650
 108074597.219 8  84213952.76148                  20565905.280
  20565898.620          49.450          49.250
 132370823.297 7 103146085.679 6  98848328.261 7  25189334.720    25189333.380
  25189332.360          42.600          39.250
 119830580.456 8  93374499.67746                  22802986.340
  22802982.860          48.150          41.050
 124146848.797 7  96737821.202 7  92707068.076 8  23624356.160    23624355.720
  23624355.460          46.050          43.400
 124660429.277 6  96958125.817 5                  23385981.400    23385987.780
  23385987.100          39.450          33.650
 123907295.812 7  96372387.765 6                  23155023.480    23155026.160
  23155025.580          45.600          40.950
 113478386.815 8  88260986.307 7                  21191276.580    21191278.240
  21191277.540          48.750          45.900
 107115527.630 8  83312108.001 7                  20010073.240    20010074.720
  20010073.920          49.550          47.800
 107170272.595 8  83354687.867 7                  20076594.480    20076597.120
  20076595.780          49.850          47.000
 125142562.130 6  97333119.275 6                  23426950.660    23426954.280
  23426953.580          40.350          37.350
 120400093.907 7  93644507.300 6                  22562921.960    22562923.900
  22562924.220          46.400          39.150
 119315445.520 7  92800905.481 7                  22343948.280    22343952.140
  22343949.940          44.050          42.850
 113245960.426 8  88080213.935 7                  21170133.280    21170136.540
  21170135.760          48.950          46.600
 137955438.087 8                 103018776.824 7  26251995.160
                        49.400
 15  1 27  5  7 10.0000000  0 23G11G14G21G07G04G16G18G22G27G19G30G32
                                G01R14R21R08R07R22R12R06R13R23E11
 118128817.448 8  92048418.71246                  22479161.660
  22479156.440          48.350          40.800
 129674785.329 7 101045273.16445                  24676291.960
  24676287.820          43.750          33.300
 135739177.922 6 105770761.49245                  25830307.920
  25830302.860          40.550          30.800
 130539836.552 7 101719315.858 5                  24840907.180    24840904.080
  24840903.620          43.800          33.700
 111613482.748 8  86971557.37747                  21239329.100
  21239324.920          50.200          45.350
 119116515.900 8  92818063.68447                  22667118.500
  22667113.300          49.150          43.100
 124424631.751 7  96954253.07446                  23677211.140
  23677206.040          46.800          37.700
 111286542.277 8  86716796.25147                  21177110.020
  21177102.540          50.050          47.200
 107649289.649 8  83882574.370 8  80387461.958 8  20484973.040    20484970.880
  20484970.260          50.750          50.550
 108070531.763 8  84210784.87348                  20565131.640
  20565125.000          49.600          48.800
 132374402.859 7 103148874.931 6  98851001.320 7  25190015.840    25190014.600
  25190013.660          42.650          39.000
 119812306.540 8  93360260.26446                  22799508.940
  22799505.540          48.000          41.150
 124133200.057 7  96727185.820 7  92696875.845 8  23621758.880    23621758.440
  23621758.160          46.050          43.500
 124652114.378 6  96951658.679 5                  23384421.560    23384427.960
  23384427.160          39.450          33.250
 123920835.573 7  96382918.688 6                  23157553.740    23157556.480
  23157555.840          46.150          40.600
 113459631.475 8  88246398.820 7                  21187774.120    21187775.800
  21187775.100          48.650          45.800
 107114979.659 8  83311681.802 7                  20009970.860    20009972.360
  20009971.560          49.600          47.900
 107173932.505 8  83357534.462 7                  20077280.100    20077282.700
  20077281.380          49.800          47.200
 125162218.390 6  97348407.470 6                  23430630.360    23430633.840
  23430633.220          39.900          38.100
 120416851.987 7  93657541.365 6                  22566062.420    22566064.440
  22566064.640          45.650          39.800
 119324102.744 7  92807638.867 7                  22345569.520    22345573.360
  22345571.140          44.650          42.750
 113234924.730 8  88071630.632 7                  21168070.240    21168073.540
  21168072.760          48.800          46.550
 137964733.937 8                 103025718.545 7  26253764.080
                        49.250
 15  1 27  5  7 15.0000000  0 23G11G14G21G07G04G16G18G22G27G19G30G32
                                G01R14R21R08R07R22R12R06R13R23E11
 118115399.582 8  92037963.24246                  22476608.300
  22476603.080          48.050          41.350
 129662487.552 7 101035690.48446                  24673951.740
  24673947.680          44.250          36.450
 135751913.154 6 105780685.09245                  25832731.400
  25832726.460          40.800          31.300
 130549259.340 7 101726658.309 5                  24842700.300    24842697.000
  24842696.640          44.600          35.500
 111603906.085 8  86964095.04647                  21237506.720
  21237502.540          50.150          45.350
 119133078.358 8  92830969.50647                  22670270.220
  22670265.060          49.150          42.950
 124438020.948 7  96964686.20846                  23679759.020
  23679753.840          47.150          37.150
 111291880.497 8  86720955.90747                  21178125.840
  21178118.360          50.100          47.300
 107653047.191 8  83885502.329 8  80390267.919 8  20485688.060    20485685.920
  20485685.300          50.700          50.600
 108066479.083 8  84207626.94448                  20564360.420
  20564353.800          49.550          48.950
 132377998.764 7 103151676.933 6  98853686.594 7  25190700.100    25190698.940
  25190697.980          42.400          39.250
 119794042.743 8  93346028.75146                  22796033.480
  22796030.040          48.350          40.850
 124119559.482 7  96716556.807 7  92686689.707 8  23619163.160    23619162.700
  23619162.480          45.800          43.450
 124643822.647 6  96945209.536 5                  23382866.060    23382872.600
  23382871.560          39.350          34.100
 123934383.546 7  96393455.991 6                  23160085.500    23160088.320
  23160087.560          46.250          40.000
 113440891.683 8  88231823.424 7                  21184274.600    21184276.280
  21184275.560          48.400          45.850
 107114458.499 8  83311276.459 7                  20009873.520    20009874.980
  20009874.200          49.650          47.900
 107177604.223 8  83360390.243 7                  20077967.960    20077970.540
  20077969.200          49.750          47.200
 125181880.750 6  97363700.421 6                  23434311.120    23434314.760
  23434314.080          39.300          38.100
 120433626.786 7  93670588.435 6                  22569205.980    22569208.040
  22569208.240          45.700          39.700
 119332781.998 7  92814389.404 7                  22347194.840    22347198.700
  22347196.460          44.200          42.750
 113223896.490 8  88063053.114 7                  21166008.580    21166011.960
  21166011.140          49.250          46.300
 137974036.043 8                 103032664.913 7  26255534.200
                        49.300
 15  1 27  5  7 20.0000000  0 23G11G14G21G07G04G16G18G22G27G19G30G32
                                G01R14R21R08R07R22R12R06R13R23E11
 118101983.137 8  92027508.88046                  22474055.180
  22474050.040          48.050          41.350
 129650189.576 7 101026107.63945                  24671611.500
  24671607.420          44.050          33.900
 135764644.174 6 105790605.35344                  25835154.100
  25835149.040          39.900          27.400
 130558686.724 7 101734004.326 5                  24844494.300    24844491.000
  24844490.500          44.400          35.650
 111594334.377 8  86956636.57047                  21235685.280
  21235681.120          50.250          45.150
 119149644.460 8  92843878.15147                  22673422.660
  22673417.520          49.550          42.650
 124451413.572 7  96975122.02946                  23682307.560
  23682302.360          47.050          36.950
 111297229.062 8  86725123.62047                  21179143.620
  21179136.160          50.250          47.000
 107656811.941 8  83888435.900 8  80393079.260 8  20486404.440    20486402.340
  20486401.720          50.800          50.550
 108062432.185 8  84204473.52448                  20563590.320
  20563583.700          49.700          48.750
 132381603.973 7 103154486.185 6  98856378.788 7  25191386.180    25191385.020
  25191384.120          42.050          38.950
 119775782.107 8  93331799.68146                  22792558.620
  22792555.140          48.250          41.050
 124105920.061 7  96705928.699 7  92676504.427 8  23616567.700    23616567.180
  23616567.020          46.250          43.700
 124635547.151 6  96938773.044 5                  23381313.600    23381319.980
  23381319.020          38.050          32.700
 123947932.615 7  96403994.159 6                  23162617.480    23162620.220
  23162619.460          46.400          39.600
 113422160.223 8  88217254.517 7                  21180776.620    21180778.300
  21180777.600          48.600          45.750
 107113956.916 8  83310886.341 7                  20009779.820    20009781.300
  20009780.480          49.550          47.750
 107181280.598 8  83363249.646 7                  20078656.660    20078659.200
  20078657.920          49.700          47.250
 125201542.007 6  97378992.495 6                  23437991.780    23437995.380
  23437994.700          39.300          37.200
 120450411.446 7  93683643.168 6                  22572351.380    22572353.460
  22572353.660          45.400          39.700
 119341476.255 7  92821151.612 7                  22348822.980    22348826.800
  22348824.600          44.650          42.750
 113212868.537 8  88054475.832 7                  21163947.000    21163950.440
  21163949.580          49.050          46.300
 137983337.372 8                 103039610.716 7  26257304.160
                        49.450
 15  1 27  5  7 25.0000000  0 23G11G14G21G07G04G16G18G22G27G19G30G32
                                G01R14R21R08R07R22R12R06R13R23E11
 118088572.923 8  92017059.37646                  22471503.260
  22471498.180          48.000          40.650
 129637896.256 7 101016528.44345                  24669272.140
  24669268.140          43.400          34.200
 135777375.751 6 105800526.05645                  25837576.840
  25837571.860          40.150          32.750
 130568123.509 7 101741357.663 6                  24846290.120    24846286.800
  24846286.240          45.100          36.100
 111584772.443 8  86949185.71347                  21233865.720
  21233861.540          50.200          45.250
 119166219.045 8  92856793.41047                  22676576.680
  22676571.580          49.550          42.300
 124464814.422 7  96985564.25046                  23684857.660
  23684852.440          47.500          36.250
 111302592.766 8  86729303.13047                  21180164.300
  21180156.840          50.300          46.600
 107660588.732 8  83891378.856 8  80395899.579 8  20487123.140    20487121.040
  20487120.440          50.750          50.400
 108058395.924 8  84201328.38548                  20562822.240
  20562815.640          49.550          48.900
 132385223.321 7 103157306.465 6  98859081.526 7  25192074.980    25192073.800
  25192072.800          43.250          38.900
 119757529.456 8  93317576.85346                  22789085.280
  22789081.780          48.350          40.250
 124092286.642 7  96695305.259 7  92666323.617 8  23613973.320    23613972.800
  23613972.640          46.050          43.600
 124627292.682 6  96932352.884 5                  23379765.000    23379771.400
  23379770.400          38.700          32.300
 123961487.627 7  96414536.954 6                  23165150.660    23165153.280
  23165152.480          46.750          39.850
 113403442.127 8  88202696.004 7                  21177281.120    21177282.780
  21177282.120          48.950          45.700
 107113479.769 8  83310515.231 7                  20009690.680    20009692.180
  20009691.340          49.600          47.600
 107184966.508 8  83366116.466 7                  20079347.140    20079349.720
  20079348.420          49.700          47.350
 125221206.973 6  97394287.473 6                  23441673.040    23441676.720
  23441676.020          38.500          37.100
 120467210.559 7  93696709.141 6                  22575499.460    22575501.580
  22575501.780          44.950          39.400
 119350190.438 7  92827929.325 7                  22350454.880    22350458.640
  22350456.460          44.800          42.600
 113201845.722 8  88045902.523 7                  21161886.380    21161889.800
  21161888.980          49.150          46.250
 137992642.787 8                 103046559.553 7  26259074.880
                        49.250
 15  1 27  5  7 30.0000000  0 23G11G14G21G07G04G16G18G22G27G19G30G32
                                G01R14R21R08R07R22R12R06R13R23E11
 118075167.858 7  92006613.86746                  22468952.300
  22468947.280          47.800          41.000
 129625606.455 7 101006951.96845                  24666933.420
  24666929.480          43.750          34.150
 135790106.762 6 105810446.32145                  25839999.540
  25839994.260          39.550          31.200
 130577568.605 7 101748717.462 6                  24848087.480    24848084.200
  24848083.580          44.850          37.550
 111575219.164 8  86941741.59547                  21232047.780
  21232043.600          50.200          44.900
 119182800.970 8  92869714.39146                  22679732.100
  22679727.020          49.350          41.750
 124478222.429 7  96996012.05046                  23687409.140
  23687403.800          47.400          36.100
 111307970.483 8  86733493.55947                  21181187.640
  21181180.180          50.200          46.750
 107664376.428 8  83894330.303 8  80398728.059 8  20487843.880    20487841.800
  20487841.220          50.650          50.450
 108054369.226 8  84198190.69548                  20562055.960
  20562049.380          49.400          49.000
 132388855.675 7 103160136.868 6  98861794.008 7  25192766.220    25192765.000
  25192764.100          43.050          38.900
 119739283.695 8  93303359.37246                  22785613.240
  22785609.720          48.300          40.400
 124078658.078 7  96684685.597 7  92656146.455 8  23611379.880    23611379.360
  23611379.160          46.250          43.400
 124619058.202 6  96925948.284 5                  23378220.220    23378226.600
  23378225.540          38.900          32.850
 123975047.525 7  96425083.533 6                  23167684.720    23167687.340
  23167686.480          47.000          39.450
 113384736.234 8  88188146.972 7                  21173787.900    21173789.560
  21173788.920          48.700          45.700
 107113025.884 8  83310162.207 7                  20009605.880    20009607.380
  20009606.540          49.350          47.550
 107188660.934 8  83368989.898 7                  20080039.220    20080041.780
  20080040.520          49.900          47.300
 125240874.592 6  97409584.496 6                  23445354.780    23445358.380
  23445357.800          38.400          36.700
 120484023.178 7  93709785.618 6                  22578650.000    22578652.220
  22578652.440          44.850          39.700
 119358923.070 7  92834721.356 7                  22352090.220    22352093.940
  22352091.800          44.750          42.650
 113190827.034 8  88037332.434 7                  21159826.560    21159829.940
  21159829.160          49.000          46.200
 138001951.139 8                 103053510.583 7  26260846.140
                        49.250
 15  1 27  5  7 35.0000000  0 23G11G14G21G07G04G16G18G22G27G19G30G32
                                G01R14R21R08R07R22R12R06R13R23E11
 118061766.002 7  91996170.86846                  22466401.960
  22466397.000          47.750          41.300
 129613318.311 7 100997376.78345                  24664594.980
  24664591.180          43.750          33.550
 135802835.354 6 105820364.66145                  25842421.740
  25842416.420          38.900          35.100
 130587020.084 7 101756082.231 6                  24849886.040    24849882.860
  24849882.200          44.500          38.250
 111565672.562 8  86934302.68747                  21230231.120
  21230226.960          50.200          44.750
 119199388.306 8  92882639.58947                  22682888.540
  22682883.460          49.100          42.050
 124491635.647 7  97006463.91046                  23689961.600
  23689956.260          47.300          37.550
 111313360.300 8  86737693.41447                  21182213.260
  21182205.820          50.050          46.900
 107668173.128 8  83897288.769 8  80401563.255 8  20488566.340    20488564.300
  20488563.700          50.600          50.400
 108050350.120 8  84195058.92848                  20561291.160
  20561284.560          49.150          49.000
 132392499.125 7 103162975.906 6  98864514.737 7  25193459.580    25193458.460
  25193457.420          42.950          39.100
 119721042.915 8  93289145.78446                  22782142.140
  22782138.640          48.250          41.400
 124065032.475 7  96674068.246 7  92645971.505 8  23608787.020    23608786.500
  23608786.300          45.650          43.650
 124610841.630 6  96919557.611 5                  23376678.800    23376685.280
  23376684.040          38.150          32.850
 123988610.294 7  96435632.345 6                  23170219.320    23170221.760
  23170220.920          46.550          38.900
 113366040.628 8  88173605.954 7                  21170296.620    21170298.240
  21170297.660          48.700          45.750
 107112593.460 8  83309825.884 7                  20009525.100    20009526.600
  20009525.760          49.200          47.650
 107192361.870 8  83371868.398 7                  20080732.540    20080735.100
  20080733.860          49.850          47.100
 125260542.863 6  97424882.035 6                  23449036.660    23449040.260
  23449039.680          39.650          36.900
 120500847.288 7  93722871.026 6                  22581802.680    22581805.040
  22581805.240          44.900          39.750
 119367672.470 7  92841526.436 7                  22353728.700    22353732.420
  22353730.260          44.450          42.800
 113179810.381 8  88028763.931 7                  21157767.120    21157770.500
  21157769.740          49.050          46.450
 138011260.515 8                 103060462.389 7  26262617.600
                        49.300
 15  1 27  5  7 40.0000000  0 23G11G14G21G07G04G16G18G22G27G19G30G32
                                G01R14R21R08R07R22R12R06R13R23E11
 118048371.027 7  91985733.23646                  22463852.920
  22463848.020          47.900          41.100
 129601035.475 7 100987805.75045                  24662257.640
  24662253.820          44.500          33.950
 135815565.089 6 105830283.91445                  25844844.140
  25844838.860          40.000          30.800
 130596481.567 7 101763454.796 6                  24851686.520    24851683.400
  24851682.720          44.000          38.300
 111556136.354 8  86926871.87547                  21228416.440
  21228412.300          50.300          44.650
 119215984.703 8  92895571.83746                  22686046.680
  22686041.620          49.100          41.400
 124505057.712 7  97016922.66246                  23692515.700
  23692510.360          47.300          36.750
 111318765.887 8  86741905.55547                  21183241.900
  21183234.480          49.850          47.100
 107671982.498 8  83900257.111 8  80404407.916 8  20489291.240    20489289.200
  20489288.600          50.650          50.550
 108046342.302 8  84191935.95048                  20560528.500
  20560521.900          49.100          48.950
 132396157.268 7 103165826.391 6  98867246.485 7  25194155.720    25194154.600
  25194153.620          43.100          38.700
 119702810.774 8  93274938.91146                  22778672.720
  22778669.200          48.150          41.050
 124051413.470 7  96663456.055 7  92635801.483 8  23606195.360    23606194.900
  23606194.700          45.650          43.500
 124602646.761 6  96913183.828 5                  23375141.400    23375147.840
  23375146.700          39.050          33.950
 124002179.674 7  96446186.313 6                  23172755.180    23172757.560
  23172756.600          46.150          39.050
 113347359.085 8  88159075.856 7                  21166807.960    21166809.580
  21166809.000          48.350          45.900
 107112186.211 8  83309509.128 7                  20009449.000    20009450.540
  20009449.660          49.250          47.600
 107196072.964 8  83374754.798 7                  20081427.740    20081430.320
  20081429.080          49.750          47.450
 125280215.463 6  97440182.934 6                  23452719.380    23452723.040
  23452722.420          40.050          36.600
 120517686.580 7  93735968.247 6                  22584958.280    22584960.700
  22584960.920          45.300          39.600
 119376442.215 7  92848347.338 7                  22355370.960    22355374.700
  22355372.520          44.450          42.800
 113168799.610 8  88020199.994 7                  21155708.760    21155712.160
  21155711.380          48.950          46.200
 138020574.582 8                 103067417.696 7  26264389.980
                        49.150
 15  1 27  5  7 45.0000000  0 23G11G14G21G07G04G16G18G22G27G19G30G32
                                G01R14R21R08R07R22R12R06R13R23E11
 118034979.241 8  91975298.09146                  22461304.500
  22461299.660          48.300          40.450
 129588754.265 7 100978235.97245                  24659920.600
  24659916.840          44.400          35.800
 135828292.288 6 105840201.26445                  25847266.120
  25847260.600          39.900          32.600
 130605949.302 7 101770832.286 6                  24853488.180    24853485.100
  24853484.440          43.150          38.050
 111546606.731 8  86919446.20547                  21226603.020
  21226598.900          50.250          45.150
 119232586.425 8  92908508.24146                  22689205.820
  22689200.820          49.250          41.850
 124518484.882 7  97027385.39846                  23695070.820
  23695065.460          47.300          37.400
 111324183.497 8  86746127.07647                  21184272.820
  21184265.400          49.800          47.350
 107675800.822 8  83903232.429 8  80407259.261 8  20490017.840    20490015.800
  20490015.200          50.700          50.450
 108042342.050 8  84188818.87348                  20559767.280
  20559760.660          49.100          48.950
 132399826.468 7 103168685.493 6  98869986.475 7  25194853.960    25194852.780
  25194851.900          43.250          37.300
 119684583.615 8  93260735.94046                  22775204.240
  22775200.700          48.250          40.550
 124037797.368 7  96652846.124 7  92625633.646 8  23603604.280    23603603.820
  23603603.680          45.700          43.600
 124594469.894 6  96906824.039 5                  23373607.460    23373613.820
  23373612.760          39.300          34.300
 124015751.895 7  96456742.479 6                  23175291.480    23175293.880
  23175292.880          46.200          39.650
 113328687.796 8  88144553.759 7                  21163321.220    21163322.860
  21163322.260          48.450          45.800
 107111800.420 8  83309209.073 7                  20009376.920    20009378.460
  20009377.580          49.400          47.600
 107199790.477 8  83377646.203 7                  20082124.140    20082126.720
  20082125.500          49.300          47.350
 125299888.645 6  97455484.313 5                  23456402.180    23456405.840
  23456405.160          40.150          35.850
 120534537.219 7  93749074.308 6                  22588116.060    22588118.600
  22588118.700          45.750          39.700
 119385228.450 7  92855181.081 7                  22357016.340    22357020.020
  22357017.900          44.400          43.100
 113157790.912 8  88011637.675 7                  21153650.780    21153654.160
  21153653.400          49.000          46.150
 138029889.621 8                 103074373.746 7  26266162.560
                        49.250
 15  1 27  5  7 50.0000000  0 23G11G14G21G07G04G16G18G22G27G19G30G32
                                G01R14R21R08R07R22R12R06R13R23E11
 118021592.341 8  91964866.74846                  22458757.040
  22458752.220          48.300          40.950
 129576476.432 7 100968668.84445                  24657584.200
  24657580.460          44.950          34.600
 135841018.723 6 105850117.92545                  25849687.880
  25849682.460          40.400          30.250
 130615425.095 7 101778215.999 6                  24855291.280    24855288.300
  24855287.760          43.900          37.300
 111537085.581 8  86912027.13447                  21224791.200
  21224787.080          50.200          44.900
 119249195.224 8  92921450.16546                  22692366.320
  22692361.360          49.150          41.700
 124531918.934 7  97037853.48646                  23697627.240
  23697621.880          47.350          36.900
 111329614.908 8  86750359.34647                  21185306.360
  21185298.960          49.900          47.200
 107679629.833 8  83906216.076 8  80410118.579 8  20490746.460    20490744.440
  20490743.820          50.800          50.500
 108038351.090 8  84185709.03448                  20559007.820
  20559001.220          49.200          48.850
 132403508.393 7 103171554.538 6  98872735.969 7  25195554.680    25195553.400
  25195552.560          43.350          37.400
 119666363.180 8  93246538.20646                  22771737.040
  22771733.460          48.250          41.100
 124024185.915 7  96642239.807 7  92615469.245 8  23601014.060    23601013.640
  23601013.500          46.150          43.500
 124586312.752 6  96900479.605 5                  23372077.160    23372083.540
  23372082.580          39.750          34.800
 124029328.791 7  96467302.277 6                  23177828.660    23177831.000
  23177830.060          45.900          39.300
 113310028.489 8  88130040.969 7                  21159836.720    21159838.360
  21159837.740          48.250          45.700
 107111437.688 8  83308926.947 7                  20009309.160    20009310.720
  20009309.800          49.300          47.600
 107203516.272 8  83380544.048 7                  20082822.100    20082824.700
  20082823.500          49.750          47.100
 125319564.125 6  97470787.463 5                  23460085.460    23460089.040
  23460088.380          40.450          35.900
 120551401.143 7  93762190.704 6                  22591276.320    22591278.880
  22591278.980          45.850          39.750
 119394033.078 7  92862029.119 7                  22358665.200    22358668.860
  22358666.700          44.600          42.450
 113146786.067 8  88003078.349 7                  21151593.520    21151596.900
  21151596.140          48.700          46.200
 138039207.388 8                 103081331.795 7  26267935.660
                        49.600
 15  1 27  5  7 55.0000000  0 23G11G14G21G07G04G16G18G22G27G19G30G32
                                G01R14R21R08R07R22R12R06R13R23E11
 118008210.640 8  91954439.45646                  22456210.560
  22456205.760          48.750          40.600
 129564202.288 7 100959104.56945                  24655248.500
  24655244.800          44.650          34.300
 135853744.711 6 105860034.29245                  25852109.540
  25852104.260          40.250          32.600
 130624909.184 7 101785606.193 6                  24857096.000    24857093.020
  24857092.600          44.300          37.500
 111527573.174 8  86904614.87247                  21222981.020
  21222976.920          50.050          45.250
 119265811.397 8  92934397.82846                  22695528.220
  22695523.320          49.200          41.850
 124545360.129 7  97048327.15746                  23700185.020
  23700179.680          47.300          37.200
 111335060.375 8  86754602.56547                  21186342.580
  21186335.200          50.050          46.950
 107683469.848 8  83909208.295 8  80412986.126 8  20491477.200    20491475.180
  20491474.560          50.900          50.500
 108034369.754 8  84182606.69048                  20558250.180
  20558243.580          49.350          49.000
 132407203.382 7 103174433.762 6  98875495.206 7  25196257.860    25196256.540
  25196255.580          42.800          36.400
 119648149.742 8  93232345.92146                  22768271.140
  22768267.540          48.300          40.400
 124010579.440 7  96631637.363 7  92605308.572 8  23598424.840    23598424.380
  23598424.240          46.150          43.250
 124578175.555 6  96894150.680 5                  23370550.740    23370557.020
  23370556.140          39.950          34.250
 124042910.610 7  96477865.901 6                  23180366.820    23180369.060
  23180368.140          46.100          39.350
 113291381.608 8  88115537.837 7                  21156354.560    21156356.180
  21156355.580          48.200          45.600
 107111098.337 8  83308663.019 7                  20009245.760    20009247.300
  20009246.400          49.200          47.700
 107207250.713 8  83383448.621 7                  20083521.700    20083524.280
  20083523.100          49.750          47.350
 125339242.176 6  97486092.612 6                  23463769.260    23463772.740
  23463772.100          41.300          36.650
 120568278.497 7  93775317.531 6                  22594439.140    22594441.740
  22594441.800          45.950          39.650
 119402856.359 7  92868891.676 7                  22360317.560    22360321.180
  22360319.020          44.650          42.800
 113135785.291 8  87994522.194 7                  21149537.000    21149540.400
  21149539.640          48.700          46.150
 138048528.184 8                 103088292.131 7  26269709.340
                        49.550
 15  1 27  5  8  0.0000000  0 23G11G14G21G07G04G16G18G22G27G19G30G32
                                G01R14R21R08R07R22R12R06R13R23E11
 117994833.542 8  91944015.75246                  22453664.960
  22453660.160          48.600          40.450
 129551931.181 7 100949542.65745                  24652913.380
  24652909.680          44.500          33.300
 135866469.585 6 105869949.77045                  25854530.960
  25854525.480          40.800          31.100
 130634400.894 7 101793002.342 6                  24858902.200    24858899.180
  24858898.860          44.750          37.050
 111518068.801 8  86897208.87147                  21221172.400
  21221168.320          49.950          44.950
 119282434.267 8  92947350.70946                  22698691.420
  22698686.560          49.300          41.950
 124558807.825 7  97058805.89246                  23702744.040
  23702738.680          47.150          37.250
 111340519.259 8  86758856.24147                  21187381.380
  21187374.000          50.200          46.750
 107687320.236 8  83912208.599 8  80415861.420 8  20492209.900    20492207.880
  20492207.260          50.900          50.500
 108030397.420 8  84179511.37148                  20557494.280
  20557487.660          49.550          48.700
 132410910.741 7 103177322.642 6  98878263.718 7  25196963.340    25196962.020
  25196961.080          43.150          37.250
 119629942.684 8  93218158.60546                  22764806.480
  22764802.820          48.450          40.800
 123996977.251 7  96621038.279 7  92595151.111 8  23595836.420    23595835.940
  23595835.820          46.150          43.200
 124570057.801 6  96887836.868 5                  23369027.900    23369034.140
  23369033.340          40.200          35.350
 124056496.654 7  96488432.812 6                  23182905.760    23182907.960
  23182907.080          45.900          39.250
 113272746.532 8  88101043.893 7                  21152874.620    21152876.200
  21152875.600          48.150          45.750
 107110781.767 8  83308416.801 7                  20009186.600    20009188.180
  20009187.260          49.300          47.750
 107210992.960 8  83386359.250 7                  20084222.760    20084225.340
  20084224.180          49.650          47.350
 125358922.247 6  97501399.344 6                  23467453.420    23467456.900
  23467456.200          41.400          36.700
 120585168.587 7  93788454.270 6                  22597604.360    22597606.980
  22597607.000          46.150          39.900
 119411697.606 7  92875768.206 7                  22361973.260    22361976.860
  22361974.760          44.600          43.150
 113124788.209 8  87985968.914 7                  21147481.200    21147484.620
  21147483.860          49.000          46.250
 138057851.368 8                 103095254.253 7  26271483.500
                        49.600
 15  1 27  5  8  5.0000000  0 23G11G14G21G07G04G16G18G22G27G19G30G32
                                G01R14R21R08R07R22R12R06R13R23E11
 117981461.789 8  91933596.19846                  22451120.420
  22451115.600          48.850          40.350
 129539663.884 7 100939983.75845                  24650578.980
  24650575.260          44.300          32.550
 135879194.073 6 105879864.95744                  25856952.340
  25856946.880          40.100          29.600
 130643900.987 7 101800405.011 6                  24860710.020    24860707.000
  24860706.660          45.100          37.000
 111508573.272 8  86889809.75247                  21219365.440
  21219361.380          50.300          45.000
 119299064.549 8  92960309.36746                  22701856.060
  22701851.220          49.700          41.650
 124572262.782 7  97069290.26146                  23705304.420
  23705299.000          47.550          36.350
 111345992.312 8  86763120.95247                  21188422.880
  21188415.500          50.600          46.400
 107691181.759 8  83915217.573 8  80418745.023 8  20492944.740    20492942.700
  20492942.080          51.250          50.550
 108026434.822 8  84176423.63248                  20556740.220
  20556733.600          49.850          48.450
 132414631.275 7 103180221.747 6  98881042.036 7  25197671.300    25197670.040
  25197669.040          43.600          37.600
 119611742.825 8  93203976.89546                  22761343.180
  22761339.480          48.650          40.350
 123983380.133 7  96610443.137 7  92584997.444 8  23593248.980    23593248.460
  23593248.380          46.750          42.950
 124561960.337 6  96881538.839 5                  23367508.920    23367515.080
  23367514.360          39.600          34.850
 124070087.762 7  96499003.661 6                  23185445.560    23185447.780
  23185446.940          44.450          38.950
 113254123.879 7  88086559.604 7                  21149397.020    21149398.560
  21149397.960          47.400          45.850
 107110488.729 8  83308188.887 7                  20009131.840    20009133.420
  20009132.520          48.850          47.900
 107214743.892 8  83389276.631 7                  20084925.440    20084928.020
  20084926.880          49.550          47.300
 125378604.852 6  97516708.031 6                  23471138.060    23471141.520
  23471140.820          40.750          36.400
 120602072.121 7  93801601.461 6                  22600772.100    22600774.740
  22600774.740          45.500          40.050
 119420557.534 7  92882659.266 7                  22363632.440    22363636.080
  22363633.980          43.900          43.250
 113113795.281 8  87977418.849 7                  21145426.200    21145429.640
  21145428.840          48.800          46.600
 138067177.677 8                 103102218.728 7  26273258.260
                        49.750
 15  1 27  5  8 10.0000000  0 23G11G14G21G07G04G16G18G22G27G19G30G32
                                G01R14R21R08R07R22R12R06R13R23E11
 117968095.215 8  91923180.68846                  22448576.860
  22448572.000          48.900          40.550
 129527400.278 7 100930427.67345                  24648245.300
  24648241.500          44.550          35.000
 135891918.098 6 105889779.78845                  25859373.660
  25859368.260          39.350          30.850
 130653409.317 7 101807814.122 6                  24862519.400    24862516.340
  24862516.080          44.750          37.250
 111499086.496 8  86882417.45747                  21217560.140
  21217556.120          50.300          44.850
 119315702.110 8  92973273.69446                  22705022.080
  22705017.300          49.650          41.600
 124585724.790 7  97079780.13546                  23707866.160
  23707860.660          47.550          37.000
 111351479.413 8  86767396.61247                  21189467.020
  21189459.680          50.400          46.850
 107695054.271 8  83918235.108 8  80421636.822 8  20493681.680    20493679.620
  20493679.000          51.100          50.600
 108022481.858 8  84173343.40148                  20555988.000
  20555981.360          49.900          48.800
 132418364.822 7 103183131.007 6  98883830.054 7  25198381.800    25198380.440
  25198379.480          43.800          37.300
 119593550.013 8  93189800.68046                  22757881.240
  22757877.460          48.450          40.800
 123969787.984 7  96599851.848 7  92574847.451 8  23590662.460    23590661.920
  23590661.860          47.100          43.250
 124553882.890 6  96875256.347 5                  23365993.640    23365999.880
  23365999.160          39.000          35.400
 124083683.794 7  96509578.340 6                  23187986.320    23187988.380
  23187987.600          45.550          38.600
 113235513.760 7  88072085.073 7                  21145921.720    21145923.280
  21145922.680          47.600          46.100
 107110219.110 8  83307979.163 8                  20009081.440    20009083.060
  20009082.160          48.950          48.000
 107218503.282 8  83392200.609 7                  20085629.740    20085632.300
  20085631.160          49.550          47.650
 125398289.987 6  97532018.708 6                  23474823.240    23474826.580
  23474825.940          40.350          36.750
 120618989.060 7  93814759.076 6                  22603942.340    22603945.000
  22603944.980          45.700          39.650
 119429435.931 7  92889564.677 7                  22365295.120    22365298.740
  22365296.660          44.050          43.450
 113102806.624 8  87968872.115 7                  21143371.980    21143375.400
  21143374.660          48.800          46.750
 138076507.030 8                 103109185.414 7  26275033.580
                        49.700
 15  1 27  5  8 15.0000000  0 23G11G14G21G07G04G16G18G22G27G19G30G32
                                G01R14R21R08R07R22R12R06R13R23E11
 117954732.033 8  91912767.81346                  22446033.980
  22446029.020          48.800          40.950
 129515138.565 7 100920873.09545                  24645911.960
  24645908.060          44.350          34.350
 135904639.803 6 105899692.84444                  25861794.460
  25861789.420          37.350          28.550
 130662924.084 7 101815228.212 6                  24864329.980    24864326.980
  24864326.680          44.350          37.550
 111489606.638 8  86875030.55047                  21215756.180
  21215752.140          50.150          45.250
 119332345.167 8  92986242.31046                  22708189.120
  22708184.380          49.050          41.900
 124599192.093 7  97090274.13946                  23710428.880
  23710423.420          47.050          36.200
 111356978.737 8  86771681.80247                  21190513.520
  21190506.180          50.250          47.200
 107698935.977 8  83921259.810 8  80424535.495 8  20494420.380    20494418.300
  20494417.680          50.900          50.600
 108018536.682 8  84170269.23148                  20555237.280
  20555230.620          49.750          49.000
 132422109.540 7 103186048.962 6  98886626.421 7  25199094.440    25199093.100
  25199092.120          43.750          36.900
 119575362.475 8  93175628.57046                  22754420.280
  22754416.480          48.200          41.200
 123956198.964 7  96589263.005 7  92564699.818 8  23588076.580    23588075.980
  23588075.920          46.850          43.300
 124545823.698 6  96868988.100 5                  23364481.720    23364488.220
  23364487.440          38.650          35.550
 124097282.876 7  96520155.398 6                  23190527.700    23190529.620
  23190528.820          45.800          38.550
 113216914.166 7  88057618.718 7                  21142448.420    21142449.980
  21142449.340          47.800          45.950
 107109971.073 8  83307786.245 7                  20009035.100    20009036.700
  20009035.840          49.150          47.850
 107222269.455 8  83395129.848 7                  20086335.280    20086337.840
  20086336.720          49.700          47.650
 125417975.824 6  97547329.921 6                  23478508.480    23478511.800
  23478511.200          40.750          37.000
 120635917.565 7  93827925.697 6                  22607114.740    22607117.360
  22607117.340          45.950          39.250
 119438331.231 7  92896483.242 7                  22366960.980    22366964.540
  22366962.480          44.300          42.950
 113091820.224 8  87960327.144 7                  21141318.160    21141321.620
  21141320.880          48.850          46.700
 138085837.564 8                 103116153.034 7  26276809.120
                        49.450
 15  1 27  5  8 20.0000000  0 23G11G14G21G07G04G16G18G22G27G19G30G32
                                G01R14R21R08R07R22R12R06R13R23E11
 117941374.382 8  91902359.25546                  22443492.140
  22443487.100          48.700          40.050
 129502880.908 7 100911321.66245                  24643579.400
  24643575.500          44.600          34.700
 135917361.314 6 105909605.64045                  25864215.260
  25864210.340          37.000          30.700
 130672447.383 7 101822648.962 6                  24866142.200    24866139.200
  24866138.900          44.750          37.300
 111480135.764 8  86867650.65847                  21213953.920
  21213949.900          50.300          44.800
 119348995.810 8  92999216.83147                  22711357.580
  22711352.900          49.050          42.050
 124612666.792 7  97100773.90946                  23712992.980
  23712987.580          47.050          37.650
 111362492.364 8  86775978.13747                  21191562.720
  21191555.400          50.150          47.100
 107702828.981 8  83924293.319 8  80427442.612 8  20495161.220    20495159.140
  20495158.500          50.900          50.550
 108014601.459 8  84167202.82848                  20554488.420
  20554481.760          49.650          49.050
 132425867.536 7 103188977.288 6  98889432.730 7  25199809.580    25199808.200
  25199807.160          43.450          37.000
 119557182.283 8  93161462.18946                  22750960.700
  22750956.900          48.050          40.850
 123942615.170 7  96578678.233 7  92554556.091 8  23585491.660    23585491.080
  23585490.940          46.350          43.100
 124537784.876 6  96862735.683 5                  23362973.640    23362980.180
  23362979.420          38.550          34.200
 124110887.191 7  96530736.536 6                  23193070.060    23193071.920
  23193071.000          46.150          37.950
 113198327.376 7  88043162.336 7                  21138977.440    21138979.060
  21138978.400          47.950          46.050
 107109746.864 8  83307611.873 7                  20008993.220    20008994.800
  20008993.980          49.200          47.700
 107226044.462 8  83398065.965 7                  20087042.480    20087045.060
  20087043.960          49.950          47.200
 125437664.428 6  97562643.286 6                  23482194.220    23482197.600
  23482196.940          39.800          37.100
 120652859.667 7  93841102.895 6                  22610289.740    22610292.340
  22610292.280          45.950          39.550
 119447245.478 7  92903416.537 7                  22368630.320    22368633.840
  22368631.860          44.350          42.950
 113080838.409 8  87951785.726 7                  21139265.200    21139268.660
  21139267.980          48.800          46.600
 138095171.421 8                 103123123.118 7  26278585.300
                        49.350
 15  1 27  5  8 25.0000000  0 23G11G14G21G07G04G16G18G22G27G19G30G32
                                G01R14R21R08R07R22R12R06R13R23E11
 117928021.274 8  91891954.24246                  22440951.140
  22440946.040          48.750          40.500
 129490626.187 7 100901772.54745                  24641247.420
  24641243.640          44.850          33.400
 135930081.569 6 105919517.52344                  25866635.700
  25866630.920          37.500          29.600
 130681978.088 7 101830075.466 6                  24867955.860    24867952.740
  24867952.480          44.850          37.300
 111470672.758 8  86860276.89047                  21212153.180
  21212149.140          50.550          44.500
 119365652.943 8  93012196.40447                  22714527.300
  22714522.660          49.050          42.300
 124626147.742 7  97111278.54145                  23715558.300
  23715552.900          46.850          35.750
 111368019.198 8  86780284.75947                  21192614.440
  21192607.120          50.300          46.950
 107706732.190 8  83927334.779 8  80430357.342 8  20495904.000    20495901.900
  20495901.260          50.950          50.550
 108010675.083 8  84164143.31848                  20553741.280
  20553734.600          49.400          49.200
 132429637.754 7 103191915.140 6  98892248.142 7  25200527.000    25200525.660
  25200524.700          43.050          37.400
 119539008.347 8  93147300.69046                  22747502.340
  22747498.500          48.150          40.750
 123929035.531 7  96568096.714 7  92544415.461 8  23582907.540    23582906.920
  23582906.780          45.950          43.050
 124529765.383 6  96856498.292 5                  23361469.180    23361475.800
  23361475.000          38.850          34.700
 124124495.600 7  96541320.866 6                  23195613.160    23195614.920
  23195613.940          45.300          38.600
 113179752.313 8  88028715.075 7                  21135508.720    21135510.320
  21135509.660          48.000          45.750
 107109545.104 8  83307454.942 7                  20008955.540    20008957.080
  20008956.260          49.350          47.600
 107229827.195 8  83401008.104 7                  20087751.180    20087753.680
  20087752.600          49.800          47.350
 125457354.710 6  97577957.952 6                  23485880.340    23485883.740
  23485883.020          39.050          36.700
 120669814.367 7  93854289.893 6                  22613467.080    22613469.620
  22613469.580          45.800          39.400
 119456177.322 7  92910363.514 7                  22370302.980    22370306.480
  22370304.520          44.050          43.150
 113069859.899 8  87943246.892 7                  21137212.880    21137216.340
  21137215.660          48.750          46.600
 138104507.502 8                 103130094.853 7  26280361.900
                        49.450
 15  1 27  5  8 30.0000000  0 23G11G14G21G07G04G16G18G22G27G19G30G32
                                G01R14R21R08R07R22R12R06R13R23E11
 117914674.261 8  91881553.97746                  22438411.300
  22438406.120          48.600          40.450
 129478376.095 7 100892227.01045                  24638916.280
  24638912.500          44.450          34.500
 135942802.289 6 105929429.73344                  25869056.320
  25869051.260          37.350          26.050
 130691517.841 7 101837509.074 6                  24869771.200    24869768.080
  24869767.740          45.000          38.050
 111461219.354 8  86852910.61447                  21210354.240
  21210350.220          50.400          45.250
 119382318.192 8  93025182.30346                  22717698.580
  22717693.900          49.650          41.800
 124639636.627 7  97121789.36346                  23718125.120
  23718119.680          46.750          37.400
 111373560.914 8  86784602.98147                  21193669.020
  21193661.680          50.300          47.200
 107710647.260 8  83930385.487 8  80433280.943 8  20496649.040    20496646.900
  20496646.280          50.950          50.650
 108006759.194 8  84161091.97448                  20552996.140
  20552989.420          49.300          49.300
 132433421.786 7 103194863.776 6  98895073.912 7  25201247.080    25201245.720
  25201244.800          42.700          37.400
 119520842.380 8  93133145.38846                  22744045.480
  22744041.600          48.200          40.850
 123915461.701 7  96557519.720 7  92534279.181 8  23580324.560    23580323.920
  23580323.760          46.300          43.300
 124521766.895 6  96850277.251 5                  23359968.600    23359975.340
  23359974.420          37.850          33.950
 124138109.796 7  96551909.678 6                  23198157.360    23198159.080
  23198158.020          45.400          38.400
 113161190.573 7  88014278.168 7                  21132042.480    21132044.060
  21132043.380          47.950          45.900
 107109367.722 8  83307316.976 7                  20008922.380    20008923.900
  20008923.120          49.100          47.650
 107233619.332 8  83403957.529 7                  20088461.620    20088464.120
  20088463.040          50.000          47.650
 125477048.344 6  97593275.233 5                  23489566.980    23489570.440
  23489569.720          39.100          35.850
 120686783.181 7  93867487.864 6                  22616647.060    22616649.480
  22616649.520          45.700          39.000
 119465128.529 7  92917325.579 7                  22371979.240    22371982.740
  22371980.820          44.100          43.300
 113058886.383 8  87934711.937 7                  21135161.480    21135164.960
  21135164.280          48.950          46.450
 138113847.465 8                 103137069.503 7  26282139.260
                        49.450
 15  1 27  5  8 35.0000000  0 23G11G14G21G07G04G16G18G22G27G19G30G32
                                G01R14R21R08R07R22R12R06R13R23E11
 117901330.328 8  91871156.10946                  22435872.020
  22435866.840          48.350          40.950
 129466127.703 7 100882682.80245                  24636585.480
  24636581.640          43.900          35.650
 135955520.439 6 105939340.01045                  25871476.480
  25871471.340          37.800          34.800
 130701063.665 7 101844947.378 6                  24871587.720    24871584.680
  24871584.300          45.150          38.950
 111451772.592 8  86845549.50347                  21208556.580
  21208552.560          50.450          44.950
 119398988.581 8  93038172.22646                  22720870.860
  22720866.140          49.600          41.950
 124653130.478 7  97132304.05246                  23720692.900
  23720687.340          46.450          36.800
 111379114.546 8  86788930.49347                  21194725.840
  21194718.500          50.300          47.100
 107714571.239 8  83933443.135 8  80436211.181 8  20497395.760    20497393.620
  20497393.000          50.950          50.650
 108002850.853 8  84158046.51448                  20552252.440
  20552245.700          49.250          49.200
 132437216.687 7 103197820.851 6  98897907.770 7  25201969.180    25201967.860
  25201967.000          43.100          37.700
 119502681.459 8  93118994.02246                  22740589.620
  22740585.680          48.350          41.300
 123901890.761 7  96546944.961 7  92524145.030 8  23577742.100    23577741.400
  23577741.300          46.250          43.100
 124513786.440 6  96844070.233 5                  23358471.420    23358478.180
  23358477.280          38.600          34.800
 124151726.759 7  96562500.661 6                  23200702.080    23200703.660
  23200702.600          45.350          38.300
 113142639.235 7  87999849.348 7                  21128578.200    21128579.740
  21128579.040          47.850          46.000
 107109211.605 8  83307195.558 7                  20008893.240    20008894.740
  20008893.900          49.000          47.500
 107237417.947 8  83406912.007 7                  20089173.260    20089175.760
  20089174.680          49.750          47.350
 125496742.274 6  97608592.736 5                  23493253.720    23493257.140
  23493256.440          38.900          35.950
 120703763.034 7  93880694.422 6                  22619829.120    22619831.460
  22619831.540          45.600          39.550
 119474096.186 7  92924300.414 7                  22373658.560    22373662.080
  22373660.240          44.100          43.200
 113047914.997 8  87926178.632 7                  21133110.480    21133113.980
  21133113.300          48.800          46.300
 138123188.349 8                 103144044.844 7  26283916.780
                        49.650
