     2.11           OBSERVATION DATA    M (MIXED)           RINEX VERSION / TYPE
teqc  2011Oct11     IGN-E (SPG)         20150127 01:02:28UTCPGM / RUN BY / DATE
Linux 2.4.21-27.ELsmp|Opteron|gcc -static|Linux x86_64|=+   COMMENT
BIT 2 OF LLI FLAGS DATA COLLECTED UNDER A/S CONDITION       COMMENT
VALE                                                        MARKER NAME
13439M001                                                   MARKER NUMBER
Programas GeodesicosInstituto Geografico Nacional           OBSERVER / AGENCY
1700071             LEICA GR10          3.03/6.214          REC # / TYPE / VERS
10190012            LEIAR25.R3      LEIT                    ANT # / TYPE
  4929534.0457   -29050.6755  4033709.9250                  APPROX POSITION XYZ
        3.0390        0.0000        0.0000                  ANTENNA: DELTA H/E/N
     1     1                                                WAVELENGTH FACT L1/2
     8    L1    L2    L5    C1    C2    P2    S1    S2      # / TYPES OF OBSERV
     5.0000                                                 INTERVAL
Forced Modulo Decimation to 5 seconds                       COMMENT
DefaultJobName                                              COMMENT
DefaultUserDiscription                                      COMMENT
Project creator:                                            COMMENT
 SNR is mapped to RINEX snr flag value [0-9]                COMMENT
  L1 & L2: min(max(int(snr_dBHz/6), 0), 9)                  COMMENT
  2015     1    27     0     0    0.0000000     GPS         TIME OF FIRST OBS
    15                                                      LEAP SECONDS
                                                            END OF HEADER
 15  1 27  0  0  0.0000000  0 19G31G08G21G25G05G14G12G29G02R11R21R10
                                R16R19R09R20E12E18E11
 108843183.228 8  84812881.534 8                  20712163.060    20712158.040
  20712157.120          50.100          48.950
 118415606.290 8  92271881.44847                  22533739.040
  22533734.460          49.450          42.600
 118271343.858 7  92159544.41047                  22506259.520
  22506253.840          47.800          42.350
 113654106.043 8  88561814.460 8  84871732.881 8  21627574.820    21627573.740
  21627573.000          49.150          48.000
 134015356.872 7 104427555.506 6                  25502272.540    25502270.140
  25502268.820          42.700          37.000
 127940231.848 7  99693680.63345                  24346209.820
  24346205.520          42.100          35.800
 129909018.051 7 101227973.971 6                  24720790.760    24720787.300
  24720786.340          46.150          39.300
 108024945.876 8  84175422.875 8                  20556400.220    20556396.180
  20556395.500          49.700          48.650
 132768396.358 7 103455888.84145                  25264979.320
  25264972.560          43.800          34.800
 121627566.155 7  94599230.199 6                  22760940.820    22760944.800
  22760943.320          45.350          36.200
 116593663.268 7  90684008.267 7                  21788295.420    21788297.420
  21788296.340          47.100          43.100
 103112507.515 8  80198654.026 7                  19343637.240    19343643.520
  19343642.240          48.500          42.800
 131085578.473 6 101955465.774 5                  24539495.180    24539498.520
  24539498.080          39.250          33.000
 112138931.113 8  87219293.813 7                  20963139.940    20963140.380
  20963138.620          48.500          45.450
 108746374.043 8  84580504.105 6                  20364686.820    20364689.840
  20364687.320          48.450          37.300
 102973094.660 7  80090335.248 7                  19256440.820    19256444.920
  19256442.660          44.650          47.000
 124361176.604 8                  92867245.365 8  23665092.680
                        50.300


 125182605.119 8                  93480624.376 8  23821404.800
                        51.050
 15  1 27  0  0  5.0000000  0 19G31G08G21G25G05G14G12G29G02R11R21R10
                                R16R19R09R20E12E18E11
 108840602.057 8  84810870.228 8                  20711671.900    20711666.880
  20711665.940          50.100          49.050
 118400358.360 8  92259999.94947                  22530837.460
  22530832.880          49.450          43.050
 118258551.231 8  92149576.13347                  22503825.200
  22503819.480          48.050          42.350
 113663198.854 8  88568899.761 8  84878522.965 8  21629305.080    21629304.040
  21629303.300          49.250          48.000
 134008194.366 6 104421974.345 6                  25500909.540    25500907.180
  25500905.700          41.700          36.200
 127955391.028 7  99705492.95946                  24349094.560
  24349090.220          42.400          36.700
 129922940.852 7 101238822.907 6                  24723440.200    24723436.700
  24723435.780          45.800          38.600
 108032797.216 8  84181540.805 8                  20557894.300    20557890.220
  20557889.540          49.450          48.650
 132782611.350 7 103466965.44445                  25267684.340
  25267677.620          43.650          34.850
 121607890.025 7  94583926.534 6                  22757258.820    22757262.720
  22757261.220          44.950          36.000
 116576682.112 7  90670800.711 7                  21785122.080    21785124.100
  21785123.000          47.300          42.900
 103105599.453 8  80193281.088 7                  19342341.300    19342347.540
  19342346.280          48.300          42.650
 131106168.282 6 101971480.057 5                  24543349.620    24543353.020
  24543352.620          39.400          32.300
 112154993.044 8  87231786.413 7                  20966142.520    20966142.980
  20966141.240          48.500          45.300
 108759032.178 8  84590349.315 6                  20367057.340    20367060.340
  20367057.760          48.550          37.150
 102971086.757 7  80088773.543 7                  19256065.380    19256069.420
  19256067.200          44.400          46.950
 124366180.777 8                  92870982.248 8  23666044.920
                        50.250


 125175319.086 8                  93475183.509 8  23820018.340
                        50.850
 15  1 27  0  0 10.0000000  0 19G31G08G21G25G05G14G12G29G02R11R21R10
                                R16R19R09R20E12E18E11
 108838037.647 8  84808871.984 8                  20711183.920    20711178.880
  20711177.960          50.150          49.200
 118385120.297 8  92248126.13347                  22527937.740
  22527933.180          49.550          42.600
 118245768.486 7  92139615.54347                  22501392.760
  22501386.980          47.800          42.950
 113672300.229 8  88575991.742 8  84885319.444 8  21631036.980    21631035.980
  21631035.260          49.300          48.050
 134001043.477 6 104416402.242 6                  25499548.760    25499546.360
  25499545.000          41.300          37.550
 127970552.654 7  99717307.20846                  24351979.720
  24351975.340          42.600          37.150
 129936867.771 7 101249675.082 6                  24726090.440    24726086.940
  24726085.940          45.600          38.750
 108040659.472 8  84187667.230 8                  20559390.440    20559386.340
  20559385.680          49.700          48.700
 132796834.534 7 103478048.46145                  25270390.860
  25270384.160          43.750          33.600
 121588218.627 7  94568626.557 6                  22753577.620    22753581.600
  22753580.040          44.950          36.750
 116559713.453 7  90657602.852 7                  21781951.140    21781953.100
  21781952.000          47.350          42.900
 103098710.311 8  80187922.871 7                  19341048.880    19341055.080
  19341053.860          48.300          42.700
 131126763.548 6 101987498.558 5                  24547205.160    24547208.540
  24547208.260          38.950          32.050
 112171065.409 8  87244287.133 7                  20969147.020    20969147.500
  20969145.800          48.700          45.250
 108771707.262 8  84600207.713 6                  20369431.000    20369434.000
  20369431.380          48.850          37.400
 102969099.484 7  80087227.881 7                  19255693.800    19255697.780
  19255695.560          44.300          47.050
 124371195.030 8                  92874726.661 8  23666999.060
                        50.250


 125168043.531 8                  93469750.469 8  23818633.860
                        50.850
 15  1 27  0  0 15.0000000  0 19G31G08G21G25G05G14G12G29G02R11R21R10
                                R16R19R09R20E12E18E11
 108835486.009 8  84806883.695 8                  20710698.380    20710693.340
  20710692.400          50.300          49.250
 118369888.043 8  92236256.84947                  22525039.160
  22525034.580          49.600          43.050
 118232991.610 8  92129659.54247                  22498961.420
  22498955.600          48.000          42.550
 113681406.165 8  88583087.278 8  84892119.332 8  21632769.760    21632768.800
  21632768.080          49.600          48.050
 133993900.297 6 104410836.131 6                  25498189.480    25498187.060
  25498185.840          41.550          37.250
 127985712.637 7  99729120.16945                  24354864.560
  24354860.220          43.550          34.350
 129950794.852 7 101260527.374 6                  24728740.640    24728737.200
  24728736.220          45.050          39.400
 108048528.578 8  84193799.011 8                  20560887.900    20560883.760
  20560883.100          49.750          48.750
 132811061.815 7 103489134.65445                  25273098.200
  25273091.500          43.700          34.200
 121568547.872 7  94553327.100 6                  22749896.580    22749900.500
  22749899.020          45.150          36.650
 116542753.195 7  90644411.541 7                  21778781.780    21778783.700
  21778782.580          46.800          42.850
 103091836.009 8  80182576.194 7                  19339759.220    19339765.500
  19339764.280          48.450          42.700
 131147360.000 6 102003517.983 5                  24551060.880    24551064.320
  24551064.060          39.900          31.650
 112187144.281 8  87256792.920 7                  20972152.780    20972153.320
  20972151.580          48.950          45.300
 108784395.148 8  84610076.073 6                  20371807.040    20371810.080
  20371807.440          48.500          37.400
 102967128.604 7  80085694.974 7                  19255325.260    19255329.240
  19255327.000          44.850          47.000
 124376215.336 8                  92878475.589 8  23667954.380
                        50.400


 125160774.432 8                  93464322.250 8  23817250.620
                        50.850
 15  1 27  0  0 20.0000000  0 19G31G08G21G25G05G14G12G29G02R11R21R10
                                R16R19R09R20E12E18E11
 108832950.983 8  84804908.348 8                  20710216.000    20710210.960
  20710210.020          50.300          49.000
 118354665.488 8  92224395.11747                  22522142.400
  22522137.860          49.600          42.750
 118220224.455 7  92119711.10746                  22496531.880
  22496526.120          47.800          41.700
 113690520.477 8  88590189.334 7  84898925.474 8  21634504.140    21634503.220
  21634502.480          49.650          47.950
 133986768.580 6 104405278.946 6                  25496832.340    25496829.920
  25496828.640          41.250          36.200
 128000874.839 7  99740934.87545                  24357749.840
  24357745.520          43.400          35.850
 129964725.909 7 101271382.729 6                  24731391.540    24731388.180
  24731387.300          44.900          39.600
 108056408.382 8  84199939.117 8                  20562387.380    20562383.260
  20562382.580          49.850          48.500
 132825297.099 7 103500227.07945                  25275807.060
  25275800.340          43.650          33.800
 121548881.780 7  94538031.257 6                  22746216.360    22746220.380
  22746218.800          45.100          36.350
 116525805.289 7  90631229.848 7                  21775614.700    21775616.580
  21775615.460          47.250          43.000
 103084980.527 8  80177244.150 7                  19338473.120    19338479.440
  19338478.220          48.400          42.950
 131167961.644 6 102019541.443 5                  24554917.540    24554920.920
  24554920.820          39.950          32.150
 112203233.510 8  87269306.754 7                  20975160.520    20975161.020
  20975159.280          48.850          45.100
 108797099.804 7  84619957.475 6                  20374186.220    20374189.200
  20374186.600          47.950          37.350
 102965177.889 7  80084177.762 7                  19254960.480    19254964.420
  19254962.220          44.850          47.200
 124381245.535 8                  92882231.912 8  23668911.580
                        50.350


 125153515.633 8                  93458901.726 8  23815869.300
                        50.850
 15  1 27  0  0 25.0000000  0 19G31G08G21G25G05G14G12G29G02R11R21R10
                                R16R19R09R20E12E18E11
 108830430.221 8  84802944.114 8                  20709736.320    20709731.280
  20709730.340          50.250          49.050
 118339450.321 8  92212539.14347                  22519247.080
  22519242.520          49.350          42.600
 118207464.703 7  92109768.45346                  22494103.740
  22494098.080          47.700          41.900
 113699640.857 8  88597296.123 7  84905736.147 8  21636239.680    21636238.780
  21636238.020          49.650          47.850
 133979646.055 6 104399728.922 5                  25495476.880    25495474.520
  25495473.320          41.250          35.500
 128016036.948 7  99752749.49145                  24360635.060
  24360630.900          43.850          33.600
 129978658.553 7 101282239.316 6                  24734042.720    24734039.460
  24734038.620          44.950          39.900
 108064296.580 8  84206085.764 8                  20563888.480    20563884.340
  20563883.640          49.850          48.400
 132839538.038 7 103511323.95346                  25278517.040
  25278510.320          43.750          36.450
 121529218.029 7  94522737.232 6                  22742536.580    22742540.580
  22742539.000          45.650          36.150
 116508867.386 7  90618055.903 7                  21772449.480    21772451.340
  21772450.200          47.250          43.000
 103078141.361 8  80171924.797 7                  19337190.080    19337196.440
  19337195.240          48.250          42.750
 131188565.928 6 102035567.003 5                  24558774.680    24558778.340
  24558778.120          41.000          32.750
 112219330.724 8  87281826.808 7                  20978169.720    20978170.200
  20978168.440          49.100          44.950
 108809818.694 8  84629849.941 6                  20376568.040    20376571.080
  20376568.460          48.050          37.500
 102963245.321 7  80082674.657 7                  19254599.100    19254603.060
  19254600.840          44.700          47.100
 124386283.301 8                  92885993.882 8  23669870.220
                        50.300


 125146264.814 8                  93453487.146 8  23814489.500
                        50.750
 15  1 27  0  0 30.0000000  0 19G31G08G21G25G05G14G12G29G02R11R21R10
                                R16R19R09R20E12E18E11
 108827923.913 8  84800991.146 8                  20709259.400    20709254.360
  20709253.420          50.250          49.050
 118324242.695 8  92200689.04547                  22516353.160
  22516348.600          49.300          42.650
 118194712.519 7  92099831.69346                  22491677.040
  22491671.440          47.900          41.750
 113708767.466 8  88604407.760 7  84912551.464 8  21637976.440    21637975.540
  21637974.760          49.600          47.750
 133972532.878 6 104394186.173 5                  25494123.260    25494120.960
  25494119.840          41.450          35.950
 128031199.066 7  99764564.12445                  24363520.320
  24363516.160          44.050          33.350
 129992593.005 7 101293097.335 6                  24736694.360    24736691.080
  24736690.240          45.700          39.550
 108072193.313 8  84212239.065 8                  20565391.220    20565387.060
  20565386.320          49.850          48.400
 132853784.764 7 103522425.30345                  25281228.100
  25281221.380          43.700          35.600
 121509556.674 7  94507445.067 6                  22738857.280    22738861.300
  22738859.700          45.700          36.650
 116491939.578 7  90604889.834 7                  21769286.140    21769288.020
  21769286.880          47.000          43.450
 103071318.694 8  80166618.282 7                  19335910.160    19335916.560
  19335915.340          48.250          42.650
 131209173.194 6 102051594.883 5                  24562632.400    24562636.080
  24562636.000          38.750          32.700
 112235435.942 8  87294353.093 7                  20981180.440    20981180.880
  20981179.120          49.200          44.950
 108822552.162 8  84639753.745 6                  20378952.620    20378955.620
  20378953.020          48.050          37.350
 102961330.723 7  80081185.528 7                  19254241.100    19254244.980
  19254242.800          44.350          47.100
 124391328.763 8                  92889761.593 8  23670830.320
                        50.350


 125139022.133 8                  93448078.655 8  23813111.220
                        50.750
 15  1 27  0  0 35.0000000  0 19G31G08G21G25G05G14G12G29G02R11R21R10
                                R16R19R09R20E12E18E11
 108825433.515 8  84799050.575 8                  20708785.480    20708780.480
  20708779.520          50.150          49.100
 118309044.071 8  92188845.96347                  22513460.960
  22513456.400          49.050          42.350
 118181969.375 7  92089901.97146                  22489252.040
  22489246.500          47.600          41.350
 113717901.721 8  88611525.356 7  84919372.497 8  21639714.640    21639713.760
  21639712.940          49.650          47.700
 133965430.577 6 104388651.906 6                  25492771.660    25492769.380
  25492768.480          40.800          37.250
 128046362.641 7  99776379.89145                  24366405.880
  24366401.700          44.100          33.200
 130006530.702 7 101303957.890 6                  24739346.640    24739343.340
  24739342.480          45.600          39.400
 108080099.993 8  84218400.107 8                  20566895.840    20566891.640
  20566890.900          49.800          48.250
 132868038.701 7 103533532.26745                  25283940.540
  25283933.800          44.000          35.600
 121489899.148 7  94492155.878 5                  22735178.640    22735182.520
  22735181.040          45.600          35.800
 116475023.417 7  90591732.833 7                  21766124.960    21766126.800
  21766125.740          47.100          43.800
 103064514.188 8  80161325.882 7                  19334633.600    19334640.040
  19334638.840          48.250          42.600
 131229784.836 6 102067626.047 5                  24566490.920    24566494.600
  24566494.640          36.650          33.250
 112251550.775 8  87306886.846 7                  20984192.940    20984193.340
  20984191.580          49.200          44.750
 108835301.602 7  84649669.966 6                  20381340.160    20381343.160
  20381340.560          47.950          37.100
 102959435.715 7  80079711.622 7                  19253886.740    19253890.580
  19253888.420          44.650          47.000
 124396383.368 8                  92893536.141 8  23671792.160
                        50.350


 125131789.023 8                  93442677.313 8  23811734.760
                        50.550
 15  1 27  0  0 40.0000000  0 19G31G08G21G25G05G14G12G29G02R11R21R10
                                R16R19R09R20E12E18E11
 108822956.835 8  84797120.698 8                  20708314.180    20708309.180
  20708308.240          50.050          49.000
 118293852.273 8  92177008.20147                  22510570.040
  22510565.480          48.850          42.450
 118169233.090 7  92079977.60346                  22486828.360
  22486822.900          47.700          41.800
 113727041.455 8  88618647.228 7  84926197.617 8  21641453.900    21641453.000
  21641452.180          49.600          47.700
 133958336.894 7 104383124.352 6                  25491421.780    25491419.560
  25491418.560          42.800          37.750
 128061525.463 7  99788195.05945                  24369291.280
  24369287.120          43.700          32.900
 130020469.468 7 101314819.270 6                  24741999.120    24741995.800
  24741994.960          45.150          39.350
 108088014.446 8  84224567.218 8                  20568401.940    20568397.720
  20568396.960          49.800          48.250
 132882297.633 7 103544643.13545                  25286653.900
  25286647.300          44.200          35.150
 121470243.409 7  94476868.083 6                  22731500.400    22731504.180
  22731502.700          45.650          36.000
 116458116.685 7  90578583.148 7                  21762965.520    21762967.400
  21762966.340          47.150          43.550
 103057725.549 8  80156045.830 7                  19333360.040    19333366.520
  19333365.280          48.400          42.600
 131250398.643 6 102083658.959 5                  24570349.760    24570353.660
  24570353.700          37.150          34.200
 112267672.929 8  87319426.300 7                  20987206.800    20987207.180
  20987205.440          49.300          45.000
 108848064.707 7  84659596.831 6                  20383730.240    20383733.260
  20383730.700          47.550          37.500
 102957558.006 7  80078251.182 7                  19253535.600    19253539.400
  19253537.280          44.550          47.000
 124401444.927 8                  92897315.874 8  23672755.340
                        50.350


 125124563.323 8                  93437281.496 8  23810359.700
                        50.600
 15  1 27  0  0 45.0000000  0 19G31G08G21G25G05G14G12G29G02R11R21R10
                                R16R19R09R20E12E18E11
 108820496.136 8  84795203.274 8                  20707845.920    20707840.940
  20707840.000          50.000          49.000
 118278669.564 8  92165177.52447                  22507680.840
  22507676.320          48.800          42.050
 118156505.954 7  92070060.35247                  22484406.420
  22484401.020          47.350          42.350
 113736188.914 8  88625775.108 7  84933028.498 8  21643194.640    21643193.720
  21643192.880          49.450          47.700
 133951254.091 7 104377605.296 6                  25490074.020    25490071.820
  25490070.900          43.550          37.850
 128076689.801 7  99800011.41145                  24372176.960
  24372172.780          43.150          34.900
 130034411.539 7 101325683.218 6                  24744652.220    24744648.920
  24744648.100          45.200          39.650
 108095938.890 8  84230742.112 8                  20569909.920    20569905.700
  20569904.920          49.600          48.400
 132896563.796 7 103555759.62845                  25289368.700
  25289362.040          44.100          33.000
 121450591.742 7  94461583.454 5                  22727822.880    22727826.580
  22727825.160          45.950          35.850
 116441221.635 7  90565442.547 7                  21759808.240    21759810.180
  21759809.100          47.350          43.150
 103050954.972 8  80150779.831 7                  19332089.900    19332096.360
  19332095.120          48.450          42.550
 131271016.874 6 102099695.338 5                  24574209.660    24574213.600
  24574213.580          38.750          33.900
 112283804.759 8  87331973.271 7                  20990222.500    20990222.880
  20990221.120          49.400          45.050
 108860843.909 7  84669536.206 6                  20386123.320    20386126.360
  20386123.860          47.700          37.650
 102955699.963 7  80076806.039 7                  19253188.120    19253191.940
  19253189.820          44.650          47.100
 124406515.689 8                  92901102.476 8  23673720.240
                        50.350


 125117347.266 8                  93431892.880 8  23808986.480
                        50.550
 15  1 27  0  0 50.0000000  0 19G31G08G21G25G05G14G12G29G02R11R21R10
                                R16R19R09R20E12E18E11
 108818050.217 8  84793297.359 8                  20707380.460    20707375.500
  20707374.560          50.150          48.900
 118263494.763 8  92153353.00647                  22504793.140
  22504788.660          48.950          42.700
 118143786.706 7  92060149.24547                  22481985.960
  22481980.600          47.250          42.000
 113745342.889 8  88632908.071 7  84939864.270 8  21644936.620    21644935.680
  21644934.860          49.750          47.750
 133944181.034 7 104372093.835 6                  25488728.180    25488725.940
  25488725.020          42.900          38.050
 128091854.414 7  99811827.97145                  24375062.680
  24375058.540          43.250          33.950
 130048355.700 7 101336548.781 6                  24747305.700    24747302.520
  24747301.620          45.700          39.650
 108103872.139 8  84236923.854 8                  20571419.580    20571415.340
  20571414.560          49.700          48.400
 132910836.007 7 103566880.84645                  25292084.600
  25292078.020          43.800          35.000
 121430942.905 7  94446301.018 6                  22724145.880    22724149.720
  22724148.120          45.600          36.200
 116424337.115 7  90552310.141 7                  21756653.000    21756654.880
  21756653.820          47.450          42.650
 103044201.453 8  80145527.090 7                  19330822.940    19330829.420
  19330828.140          48.400          42.450
 131291638.240 6 102115734.130 5                  24578070.100    24578074.040
  24578073.960          39.800          34.050
 112299944.985 8  87344526.779 7                  20993239.760    20993240.140
  20993238.380          49.200          45.150
 108873637.884 8  84679487.065 6                  20388519.180    20388522.380
  20388519.740          48.150          37.550
 102953860.234 7  80075375.143 7                  19252844.100    19252847.860
  19252845.800          44.600          47.050
 124411594.452 8                  92904895.065 8  23674686.700
                        50.300


 125110139.651 8                  93426510.576 8  23807614.820
                        50.700
 15  1 27  0  0 55.0000000  0 19G31G08G21G25G05G14G12G29G02R11R21R10
                                R16R19R09R20E12E18E11
 108815617.766 8  84791401.941 8                  20706917.580    20706912.640
  20706911.700          50.200          48.800
 118248326.598 8  92141533.65647                  22501906.680
  22501902.280          48.700          42.950
 118131074.110 7  92050243.33446                  22479566.780
  22479561.480          47.250          41.900
 113754502.119 8  88640045.131 7  84946703.945 8  21646679.600    21646678.640
  21646677.820          49.650          47.750
 133937116.325 7 104366588.883 6                  25487383.860    25487381.540
  25487380.780          42.100          37.750
 128107018.011 7  99823643.75445                  24377948.180
  24377944.080          42.450          35.950
 130062300.685 7 101347414.989 6                  24749959.340    24749956.200
  24749955.280          45.400          39.350
 108111812.852 8  84243111.420 8                  20572930.660    20572926.400
  20572925.640          49.700          48.450
 132925112.958 7 103578005.74345                  25294801.440
  25294794.860          43.550          35.750
 121411295.591 7  94431019.772 6                  22720469.160    22720472.920
  22720471.340          45.050          36.250
 116407461.723 7  90539184.846 7                  21753499.420    21753501.260
  21753500.240          47.850          42.400
 103037463.568 8  80140286.511 7                  19329558.900    19329565.420
  19329564.140          48.500          42.700
 131312261.505 6 102131774.400 5                  24581930.920    24581934.840
  24581934.720          40.600          31.950
 112316092.101 8  87357085.645 7                  20996258.300    20996258.680
  20996256.920          49.000          45.200
 108886445.238 8  84689448.345 6                  20390917.580    20390920.860
  20390918.180          48.250          37.550
 102952037.540 7  80073957.495 7                  19252503.180    19252507.020
  19252504.980          44.250          46.900
 124416679.926 8                  92908692.655 8  23675654.440
                        50.300


 125102939.193 8                  93421133.613 8  23806244.540
                        50.450
 15  1 27  0  1  0.0000000  0 19G31G08G21G25G05G14G12G29G02R11R21R10
                                R16R19R09R20E12E18E11
 108813201.498 8  84789519.130 8                  20706457.760    20706452.840
  20706451.920          50.300          48.900
 118233167.757 8  92129721.57747                  22499022.040
  22499017.640          48.850          42.100
 118118370.876 7  92040344.71346                  22477149.360
  22477144.140          47.600          41.850
 113763669.247 8  88647188.346 8  84953549.528 8  21648424.100    21648423.080
  21648422.280          49.800          48.000
 133930062.801 7 104361092.630 6                  25486041.640    25486039.260
  25486038.620          42.800          38.500
 128122183.257 7  99835460.79346                  24380834.040
  24380829.980          43.200          36.050
 130076249.184 7 101358283.932 6                  24752613.660    24752610.540
  24752609.560          45.700          39.000
 108119763.747 8  84249306.917 8                  20574443.660    20574439.420
  20574438.660          49.900          48.550
 132939397.346 7 103589136.45045                  25297519.680
  25297513.120          43.750          33.900
 121391652.519 7  94415741.844 5                  22716793.220    22716796.880
  22716795.420          45.050          35.900
 116390598.279 7  90526068.835 7                  21750348.060    21750349.920
  21750348.860          47.750          42.450
 103030744.135 8  80135060.286 7                  19328298.340    19328304.900
  19328303.600          48.500          42.800
 131332889.346 6 102147818.280 5                  24585792.560    24585796.520
  24585796.260          39.550          31.850
 112332249.031 8  87369652.135 7                  20999278.680    20999279.060
  20999277.320          48.800          45.050
 108899268.845 7  84699422.255 6                  20393319.020    20393322.360
  20393319.660          47.950          37.650
 102950234.808 7  80072555.370 7                  19252166.080    19252169.880
  19252167.880          44.000          47.000
 124421774.775 8                  92912497.246 8  23676623.960
                        50.550


 125095748.573 8                  93415763.996 8  23804876.140
                        50.600
 15  1 27  0  1  5.0000000  0 19G31G08G21G25G05G14G12G29G02R11R21R10
                                R16R19R09R20E12E18E11
 108810799.802 8  84787647.677 8                  20706000.720    20705995.800
  20705994.880          50.250          48.900
 118218016.675 8  92117915.53747                  22496138.860
  22496134.480          49.000          42.350
 118105675.367 7  92030452.11747                  22474733.460
  22474728.300          47.850          42.000
 113772842.702 8  88654336.495 8  84960399.839 8  21650169.820    21650168.720
  21650167.960          49.900          48.050
 133923018.815 7 104355603.824 6                  25484701.280    25484698.860
  25484698.280          42.950          37.950
 128137348.562 7  99847277.93146                  24383719.900
  24383715.840          43.100          36.600
 130090199.558 7 101369154.373 6                  24755268.400    24755265.180
  24755264.100          46.000          38.650
 108127723.197 8  84255509.084 8                  20575958.320    20575954.060
  20575953.300          50.100          48.500
 132953687.505 7 103600271.64846                  25300239.060
  25300232.280          43.900          36.400
 121372012.141 7  94400465.988 5                  22713117.780    22713121.460
  22713119.960          44.650          35.950
 116373745.187 7  90512960.879 7                  21747198.660    21747200.440
  21747199.460          47.550          42.350
 103024041.435 8  80129847.083 7                  19327040.920    19327047.500
  19327046.240          48.450          42.800
 131353520.162 6 102163864.476 5                  24589654.820    24589658.720
  24589658.440          37.650          32.100
 112348414.016 8  87382224.893 7                  21002300.600    21002300.920
  21002299.200          48.650          45.000
 108912107.045 8  84709407.522 6                  20395723.200    20395726.580
  20395723.880          48.250          37.700
 102948450.102 7  80071167.265 7                  19251832.360    19251836.180
  19251834.120          43.950          47.000
 124426877.388 8                  92916307.645 8  23677594.940
                        50.600


 125088566.214 8                  93410400.550 8  23803509.320
                        50.600
 15  1 27  0  1 10.0000000  0 19G31G08G21G25G05G14G12G29G02R11R21R10
                                R16R19R09R20E12E18E11
 108808413.052 8  84785787.872 8                  20705546.520    20705541.640
  20705540.720          50.100          48.850
 118202873.728 8  92106115.83846                  22493257.220
  22493252.880          48.750          41.850
 118092988.051 8  92020565.89646                  22472319.120
  22472313.960          48.100          41.100
 113782022.879 8  88661489.875 7  84967255.166 8  21651916.800    21651915.660
  21651914.900          49.900          47.900
 133915984.726 7 104350122.725 6                  25483362.740    25483360.300
  25483359.780          43.000          37.750
 128152514.216 7  99859095.30645                  24386605.840
  24386601.760          43.000          33.300
 130104152.190 7 101380026.580 6                  24757923.560    24757920.200
  24757919.120          45.850          38.550
 108135691.586 8  84261718.214 8                  20577474.660    20577470.400
  20577469.640          50.050          48.350
 132967983.906 7 103611411.71045                  25302959.600
  25302952.820          44.250          34.500
 121352374.715 7  94385192.443 5                  22709442.940    22709446.520
  22709445.120          45.100          35.650
 116356902.806 7  90499861.251 7                  21744051.260    21744053.000
  21744052.060          47.650          42.750
 103017355.945 8  80124647.251 7                  19325786.700    19325793.300
  19325792.120          48.450          42.850
 131374154.319 6 102179913.203 5                  24593517.740    24593521.580
  24593521.220          37.350          32.200
 112364587.446 8  87394804.221 7                  21005324.040    21005324.340
  21005322.660          48.900          44.850
 108924960.163 8  84719404.387 6                  20398130.220    20398133.560
  20398130.880          48.450          37.500
 102946684.088 7  80069793.692 7                  19251502.080    19251505.920
  19251503.860          44.150          46.950
 124431988.146 8                  92920124.118 8  23678567.480
                        50.600


 125081392.471 8                  93405043.548 8  23802144.140
                        50.550
 15  1 27  0  1 15.0000000  0 19G31G08G21G25G05G14G12G29G02R11R21R10
                                R16R19R09R20E12E18E11
 108806041.588 8  84783939.980 8                  20705095.240    20705090.380
  20705089.460          50.150          49.000
 118187739.234 8  92094322.72847                  22490377.180
  22490372.880          48.850          42.300
 118080309.206 8  92010686.27746                  22469906.400
  22469901.280          48.250          41.550
 113791210.026 8  88668648.693 8  84974115.696 8  21653665.120    21653663.940
  21653663.200          49.950          48.050
 133908960.899 7 104344649.633 6                  25482026.160    25482023.640
  25482023.120          42.800          37.200
 128167680.553 7  99870913.21445                  24389491.900
  24389487.760          43.650          30.900
 130118107.433 7 101390900.791 6                  24760579.140    24760575.720
  24760574.700          45.250          38.900
 108143669.192 8  84267934.530 8                  20578992.760    20578988.500
  20578987.720          50.150          48.400
 132982286.770 7 103622556.79345                  25305681.340
  25305674.700          44.250          34.350
 121332740.674 7  94369921.523 5                  22705768.680    22705772.260
  22705770.820          45.300          35.650
 116340071.465 7  90486770.207 7                  21740905.900    21740907.700
  21740906.720          47.600          43.100
 103010687.989 8  80119461.063 7                  19324535.800    19324542.480
  19324541.280          48.300          43.000
 131394792.023 6 102195964.680 5                  24597381.280    24597385.100
  24597384.700          38.500          32.850
 112380769.718 8  87407390.432 7                  21008349.140    21008349.420
  21008347.780          48.800          44.850
 108937828.446 8  84729413.043 6                  20400540.060    20400543.360
  20400540.740          48.350          37.700
 102944936.777 7  80068434.675 7                  19251175.300    19251179.160
  19251177.100          44.150          47.100
 124437107.368 8                  92923946.916 8  23679541.620
                        50.650


 125074227.648 8                  93399693.193 8  23800780.660
                        50.650
 15  1 27  0  1 20.0000000  0 19G31G08G21G25G05G14G12G29G02R11R21R10
                                R16R19R09R20E12E18E11
 108803685.162 8  84782103.802 8                  20704646.820    20704641.960
  20704641.060          50.150          49.100
 118172612.966 8  92082536.03447                  22487498.740
  22487494.460          48.850          42.650
 118067638.548 8  92000813.04546                  22467495.280
  22467490.140          48.450          41.950
 113800403.929 8  88675812.778 8  84980981.271 8  21655414.720    21655413.460
  21655412.760          50.100          48.100
 133901947.058 7 104339184.308 6                  25480691.420    25480688.900
  25480688.200          43.100          36.650
 128182847.282 7  99882731.45745                  24392378.040
  24392373.840          43.050          34.950
 130132064.991 7 101401776.804 6                  24763235.160    24763231.800
  24763230.760          45.050          39.800
 108151655.630 8  84274157.732 8                  20580512.540    20580508.240
  20580507.520          50.050          48.500
 132996595.826 7 103633706.72645                  25308404.300
  25308397.620          44.450          35.700
 121313109.862 7  94354653.106 5                  22702095.040    22702098.520
  22702097.060          45.400          35.650
 116323250.865 7  90473687.523 7                  21737762.520    21737764.380
  21737763.400          47.650          43.350
 103004037.238 8  80114288.263 7                  19323288.120    19323294.860
  19323293.640          48.350          42.800
 131415433.178 6 102212018.854 5                  24601245.460    24601249.440
  24601248.800          39.300          34.350
 112396960.458 8  87419983.222 7                  21011375.820    21011376.120
  21011374.480          48.950          44.750
 108950711.790 8  84739433.424 6                  20402952.720    20402956.000
  20402953.420          48.250          37.500
 102943208.014 7  80067090.079 7                  19250851.980    19250855.900
  19250853.820          44.300          47.000
 124442234.777 8                  92927775.817 8  23680517.320
                        50.550


 125067071.516 8                  93394349.323 8  23799418.840
                        50.800
 15  1 27  0  1 25.0000000  0 19G31G08G21G25G05G14G12G29G02R11R21R10
                                R16R19R09R20E12E18E11
 108801342.373 8  84780278.247 8                  20704200.980    20704196.140
  20704195.240          50.100          49.050
 118157493.559 8  92070754.67446                  22484621.560
  22484617.340          48.750          41.800
 118054974.709 8  91990945.11647                  22465085.440
  22465080.320          48.150          42.050
 113809603.183 8  88682981.026 7  84987850.844 8  21657165.340    21657164.060
  21657163.340          49.950          47.900
 133894941.878 7 104333725.720 6                  25479358.400    25479355.840
  25479354.980          44.000          36.000
 128198013.030 7  99894548.91145                  24395263.980
  24395259.900          42.950          33.400
 130146023.495 7 101412653.559 6                  24765891.340    24765888.040
  24765887.100          44.800          39.950
 108159649.642 8  84280386.823 8                  20582033.740    20582029.460
  20582028.720          50.000          48.400
 133010909.723 7 103644860.42845                  25311128.160
  25311121.480          44.350          34.300
 121293480.764 7  94339386.014 5                  22698421.780    22698425.260
  22698423.680          45.400          35.250
 116306439.684 7  90460612.144 7                  21734620.920    21734622.780
  21734621.840          47.650          43.800
 102997402.316 8  80109127.768 7                  19322043.440    19322050.220
  19322048.960          48.350          43.250
 131436076.245 6 102228074.527 5                  24605109.960    24605113.960
  24605113.220          41.500          33.700
 112413158.243 8  87432581.499 7                  21014403.840    21014404.120
  21014402.480          49.250          44.950
 108963608.668 8  84749464.332 6                  20405367.920    20405371.100
  20405368.600          48.450          37.700
 102941496.504 7  80065758.906 7                  19250531.920    19250535.820
  19250533.780          44.350          47.200
 124447368.968 8                  92931609.787 8  23681494.300
                        50.450


 125059922.666 8                  93389010.907 8  23798058.420
                        50.750
 15  1 27  0  1 30.0000000  0 19G31G08G21G25G05G14G12G29G02R11R21R10
                                R16R19R09R20E12E18E11
 108799016.904 8  84778466.198 8                  20703758.440    20703753.640
  20703752.740          50.050          49.150
 118142384.659 8  92058981.51147                  22481746.400
  22481742.200          48.650          42.300
 118042321.346 8  91981085.37146                  22462677.580
  22462672.480          48.050          41.950
 113818811.490 8  88690156.322 8  84994727.171 8  21658917.680    21658916.340
  21658915.640          50.100          48.000
 133887948.870 7 104328276.632 6                  25478027.700    25478025.080
  25478024.200          43.800          36.400
 128213181.420 7  99906368.42945                  24398150.420
  24398146.400          42.950          32.950
 130159986.582 7 101423533.863 6                  24768548.380    24768545.140
  24768544.180          44.700          38.950
 108167654.914 8  84286624.705 8                  20583557.100    20583552.840
  20583552.100          49.950          48.450
 133025232.073 7 103656020.71345                  25313853.640
  25313847.000          43.900          34.850
 121273857.053 7  94324123.129 5                  22694749.460    22694752.920
  22694751.320          44.950          35.350
 116289641.582 7  90447546.967 7                  21731481.780    21731483.680
  21731482.780          47.650          43.950
 102990787.093 8  80103982.596 7                  19320802.440    19320809.200
  19320807.940          48.450          43.050
 131456724.962 6 102244134.640 5                  24608975.560    24608979.660
  24608978.740          41.650          32.650
 112429366.801 8  87445188.164 7                  21017433.860    21017434.140
  21017432.500          49.200          45.100
 108976522.797 8  84759508.656 6                  20407786.360    20407789.460
  20407787.000          48.450          38.000
 102939805.800 7  80064443.917 7                  19250215.720    19250219.660
  19250217.600          44.500          47.000
 124452513.585 8                  92935451.554 8  23682473.280
                        50.350


 125052784.778 8                  93383680.658 8  23796700.080
                        50.750
 15  1 27  0  1 35.0000000  0 19G31G08G21G25G05G14G12G29G02R11R21R10
                                R16R19R09R20E12E18E11
 108796704.717 8  84776664.484 8                  20703318.440    20703313.640
  20703312.740          50.050          49.100
 118127282.281 8  92047213.41847                  22478872.480
  22478868.300          48.600          42.550
 118029674.477 8  91971230.66546                  22460270.960
  22460265.860          48.250          41.650
 113828024.758 8  88697335.485 7  85001607.204 8  21660670.960    21660669.580
  21660668.880          50.000          47.950
 133880964.245 7 104322834.032 6                  25476698.580    25476695.940
  25476695.000          44.300          36.000
 128228348.461 7  99918186.91545                  24401036.580
  24401032.520          42.650          32.850
 130173950.209 7 101434414.608 6                  24771205.600    24771202.260
  24771201.360          45.400          38.750
 108175667.426 8  84292868.211 8                  20585081.820    20585077.580
  20585076.820          49.750          48.550
 133039558.850 7 103667184.44545                  25316579.980
  25316573.340          43.550          35.300
 121254234.792 7  94308861.363 5                  22691077.440    22691080.720
  22691079.220          45.200          35.000
 116272852.507 7  90434488.791 7                  21728344.300    21728346.240
  21728345.380          47.950          43.800
 102984187.334 8  80098849.442 7                  19319564.320    19319571.120
  19319569.840          48.400          43.000
 131477375.219 6 102260195.928 5                  24612841.520    24612845.560
  24612844.600          40.600          33.800
 112445581.977 8  87457799.955 7                  21020465.120    21020465.400
  21020463.760          49.100          44.950
 108989450.071 8  84769563.192 6                  20410207.260    20410210.340
  20410207.900          48.600          37.700
 102938131.963 7  80063142.040 7                  19249902.680    19249906.640
  19249904.560          44.650          46.900
 124457664.620 8                  92939298.097 8  23683453.480
                        50.350


 125045653.792 8                  93378355.575 8  23795343.080
                        50.600
 15  1 27  0  1 40.0000000  0 19G31G08G21G25G05G14G12G29G02R11R21R10
                                R16R19R09R20E12E18E11
 108794407.489 8  84774874.440 8                  20702881.280    20702876.500
  20702875.620          50.150          49.250
 118112188.064 8  92035451.69347                  22476000.120
  22475995.960          48.400          42.950
 118017035.755 7  91961382.30547                  22457865.920
  22457860.820          47.950          42.100
 113837244.673 8  88704519.832 7  85008492.202 8  21662425.480    21662424.080
  21662423.380          49.850          47.950
 133873989.555 7 104317399.192 6                  25475371.400    25475368.680
  25475367.660          44.150          36.000
 128243515.760 7  99930005.60445                  24403922.760
  24403918.740          42.050          35.750
 130187916.020 7 101445297.073 6                  24773863.200    24773859.920
  24773858.960          45.600          38.800
 108183688.763 8  84299118.603 8                  20586608.200    20586604.020
  20586603.240          50.000          48.550
 133053891.688 7 103678352.87745                  25319307.420
  25319300.740          43.200          31.500
 121234615.687 7  94293602.051 5                  22687405.980    22687409.280
  22687407.740          44.950          35.550
 116256074.107 7  90421438.933 7                  21725208.860    21725210.840
  21725209.980          47.300          43.700
 102977604.830 8  80093729.721 7                  19318329.480    19318336.280
  19318334.960          48.550          42.900
 131498028.778 6 102276259.749 5                  24616708.100    24616711.960
  24616711.040          38.800          33.800
 112461805.481 8  87470418.232 7                  21023497.940    21023498.220
  21023496.600          49.000          45.200
 109002392.293 8  84779629.365 6                  20412630.920    20412634.020
  20412631.560          48.600          37.400
 102936476.537 7  80061854.490 7                  19249593.080    19249597.060
  19249594.960          44.650          46.900
 124462823.728 8                  92943150.683 8  23684435.200
                        50.450


 125038531.387 8                  93373036.900 8  23793987.740
                        50.600
 15  1 27  0  1 45.0000000  0 20G31G08G21G25G05G16G14G12G29G02R11R21
                                R10R16R19R09R20E12E18E11
 108792126.486 8  84773097.039 8                  20702447.220    20702442.440
  20702441.560          50.300          49.250
 118097103.291 8  92023697.33247                  22473129.560
  22473125.380          48.600          42.650
 118004406.472 8  91951541.31447                  22455462.680
  22455457.540          48.350          42.200
 113846472.510 8  88711710.359 7  85015383.115 8  21664181.500    21664180.080
  21664179.400          49.950          47.850
 133867026.125 7 104311973.159 6                  25474046.360    25474043.540
  25474042.740          43.950          36.050
 132267127.011 5                                  25169597.760
                        35.600
 128258684.533 7  99941825.40645                  24406809.260
  24406805.240          42.900          35.300
 130201885.203 7 101456182.164 6                  24776521.480    24776518.120
  24776517.160          45.000          38.550
 108191720.207 8  84305376.881 8                  20588136.540    20588132.340
  20588131.580          49.950          48.650
 133068231.881 7 103689527.09046                  25322036.300
  25322029.620          42.950          36.450
 121215000.863 7  94278346.095 5                  22683735.300    22683738.720
  22683737.100          44.450          35.550
 116239307.729 7  90408398.413 7                  21722075.640    21722077.640
  21722076.820          47.300          43.800
 102971040.836 8  80088624.399 7                  19317098.080    19317104.900
  19317103.560          48.500          43.000
 131518686.861 6 102292327.058 5                  24620575.540    24620579.200
  24620578.260          38.500          32.000
 112478038.513 8  87483043.913 7                  21026532.540    21026532.760
  21026531.200          48.800          45.050
 109015350.552 8  84789708.002 6                  20415057.620    20415060.680
  20415058.180          48.650          37.400
 102934840.889 7  80060582.323 7                  19249287.180    19249291.160
  19249289.080          44.900          47.100
 124467992.123 8                  92947010.195 8  23685418.700
                        50.500


 125031418.820 8                  93367725.568 8  23792634.280
                        50.600
 15  1 27  0  1 50.0000000  0 20G31G08G21G25G05G16G14G12G29G02R11R21
                                R10R16R19R09R20E12E18E11
 108789859.978 8  84771330.923 8                  20702015.920    20702011.140
  20702010.280          50.250          49.300
 118082026.292 8  92011949.01347                  22470260.480
  22470256.320          48.500          42.250
 117991784.920 8  91941706.32847                  22453060.920
  22453055.700          48.400          42.050
 113855706.553 8  88718905.715 7  85022278.665 8  21665938.720    21665937.260
  21665936.580          49.850          47.950
 133860072.263 7 104306554.580 6                  25472723.140    25472720.200
  25472719.540          43.500          36.100
 132252534.453 5 103053919.55244                  25166820.600
  25166823.960          35.900          25.250
 128273853.101 7  99953645.07045                  24409695.740
  24409691.740          43.200          33.150
 130215856.182 7 101467068.627 6                  24779180.060    24779176.720
  24779175.700          45.300          38.300
 108199760.040 8  84311641.683 8                  20589666.440    20589662.280
  20589661.500          50.050          48.650
 133082577.674 7 103700705.63145                  25324766.200
  25324759.480          43.050          33.950
 121195388.846 7  94263092.314 5                  22680065.140    22680068.660
  22680066.940          44.500          35.650
 116222551.636 7  90395365.900 7                  21718944.340    21718946.380
  21718945.540          47.050          43.750
 102964493.578 8  80083532.083 7                  19315869.860    19315876.700
  19315875.320          48.600          42.900
 131539347.704 6 102308396.560 5                  24624443.460    24624447.020
  24624445.980          40.100          32.150
 112494279.435 8  87495675.735 7                  21029568.580    21029568.840
  21029567.260          48.750          44.800
 109028323.196 8  84799797.839 6                  20417487.000    20417489.980
  20417487.520          48.500          37.900
 102933223.251 7  80059324.158 7                  19248984.660    19248988.620
  19248986.560          44.700          47.100
 124473168.163 8                  92950875.415 8  23686403.660
                        50.400


 125024314.412 8                  93362420.322 8  23791282.380
                        50.650
 15  1 27  0  1 55.0000000  0 20G31G08G21G25G05G16G14G12G29G02R11R21
                                R10R16R19R09R20E12E18E11
 108787609.420 8  84769577.241 8                  20701587.660    20701582.860
  20701582.040          50.250          49.250
 118066958.484 8  92000207.87247                  22467393.160
  22467389.020          48.350          42.650
 117979172.533 8  91931878.49847                  22450660.920
  22450655.660          48.150          42.950
 113864948.219 8  88726107.013 7  85029179.909 8  21667697.380    21667695.880
  21667695.200          49.850          47.900
 133853129.407 7 104301144.566 6                  25471401.980    25471398.960
  25471398.280          42.800          36.700
 132237942.578 6 103042549.27645                  25164044.480
  25164043.840          36.650          31.550
 128289022.890 7  99965465.65446                  24412582.460
  24412578.520          43.850          36.000
 130229830.354 7 101477957.605 6                  24781839.280    24781835.880
  24781834.840          45.750          38.400
 108207809.659 8  84317914.123 8                  20591198.220    20591194.080
  20591193.320          49.850          48.700
 133096930.502 7 103711889.66846                  25327497.440
  25327490.740          42.750          37.350
 121175780.928 7  94247841.710 5                  22676395.780    22676399.260
  22676397.540          44.250          35.450
 116205807.350 7  90382342.577 7                  21715815.280    21715817.300
  21715816.460          47.100          43.600
 102957964.603 8  80078453.995 7                  19314645.020    19314651.880
  19314650.500          48.700          43.050
 131560012.630 7 102324469.237 5                  24628312.080    24628315.560
  24628314.540          42.350          33.550
 112510529.651 8  87508314.804 7                  21032606.360    21032606.620
  21032605.060          48.800          45.100
 109041311.718 8  84809900.031 6                  20419919.360    20419922.300
  20419919.820          48.550          37.200
 102931625.067 7  80058081.134 7                  19248685.760    19248689.740
  19248687.680          44.950          46.950
 124478353.219 8                  92954747.383 8  23687390.320
                        50.350


 125017219.565 8                  93357122.222 8  23789932.300
                        50.750
 15  1 27  0  2  0.0000000  0 20G31G08G21G25G05G16G14G12G29G02R11R21
                                R10R16R19R09R20E12E18E11
 108785372.677 8  84767834.323 8                  20701162.020    20701157.220
  20701156.380          50.100          49.600
 118051897.697 8  91988472.20047                  22464527.200
  22464523.040          48.350          43.750
 117966567.140 8  91922056.11447                  22448262.260
  22448256.960          48.400          42.850
 113874195.357 8  88733312.576 8  85036085.246 8  21669457.080    21669455.560
  21669454.880          49.900          48.400
 133846195.304 7 104295741.355 6                  25470082.540    25470079.480
  25470078.740          43.600          37.250
 132223348.953 6 103031177.64945                  25161267.880
  25161261.360          37.400          30.550
 128304191.710 7  99977285.52445                  24415468.980
  24415465.040          43.800          33.050
 130243805.588 7 101488847.417 6                  24784498.700    24784495.200
  24784494.120          45.450          38.850
 108215866.924 8  84324192.499 8                  20592731.460    20592727.300
  20592726.580          49.650          49.050
 133111288.171 7 103723077.46446                  25330229.580
  25330222.980          42.350          36.350
 121156174.862 7  94232592.568 5                  22672726.640    22672730.280
  22672728.520          44.400          35.800
 116189072.520 7  90369326.592 7                  21712687.960    21712690.020
  21712689.120          47.300          43.200
 102951451.876 8  80073388.541 7                  19313423.280    19313430.080
  19313428.760          48.650          42.650
 131580679.634 7 102340543.530 5                  24632181.140    24632184.580
  24632183.420          44.500          33.350
 112526786.939 8  87520959.351 7                  21035645.460    21035645.720
  21035644.200          48.900          44.700
 109054313.812 8  84820012.765 6                  20422354.240    20422357.160
  20422354.680          48.650          36.700
 102930044.114 7  80056851.511 7                  19248390.100    19248394.060
  19248392.000          44.800          46.700
 124483545.144 8                  92958624.470 8  23688378.280
                        50.250


 125010132.114 8                  93351829.645 8  23788583.600
                        50.700
 15  1 27  0  2  5.0000000  0 20G31G08G21G25G05G16G14G12G29G02R11R21
                                R10R16R19R09R20E12E18E11
 108783150.733 8  84766102.937 8                  20700739.200    20700734.400
  20700733.580          50.100          49.450
 118036845.023 8  91976742.85447                  22461662.740
  22461658.600          48.450          43.550
 117953969.819 8  91912240.01547                  22445865.100
  22445859.800          48.250          43.300
 113883449.020 8  88740523.224 8  85042995.455 8  21671218.020    21671216.480
  21671215.800          50.000          48.300
 133839271.080 7 104290345.866 6                  25468764.960    25468761.860
  25468761.220          43.800          37.150
 132208754.705 6 103019805.53845                  25158490.920
  25158482.660          37.600          31.200
 128319360.607 7  99989105.43745                  24418355.540
  24418351.700          44.000          33.950
 130257782.934 7 101499738.868 6                  24787158.500    24787155.020
  24787153.820          45.450          38.950
 108223932.838 8  84330477.625 8                  20594266.360    20594262.220
  20594261.460          49.650          48.950
 133125651.752 7 103734269.86846                  25332962.860
  25332956.320          42.750          36.450
 121136571.873 7  94217345.807 5                  22669058.160    22669061.880
  22669060.100          44.250          35.900
 116172348.363 7  90356318.921 7                  21709562.680    21709564.700
  21709563.800          47.550          43.200
 102944956.119 8  80068336.286 7                  19312204.680    19312211.520
  19312210.180          48.600          42.700
 131601349.669 6 102356620.208 5                  24636050.700    24636054.060
  24636052.860          41.900          31.400
 112543052.265 8  87533610.162 7                  21038686.080    21038686.360
  21038684.840          48.850          44.750
 109067330.591 8  84830136.928 6                  20424791.880    20424794.840
  20424792.280          48.300          36.700
 102928481.504 7  80055636.154 7                  19248097.880    19248101.860
  19248099.740          44.900          46.700
 124488744.973 8                  92962507.461 8  23689367.780
                        50.250


 125003053.124 8                  93346543.400 8  23787236.520
                        50.600
 15  1 27  0  2 10.0000000  0 20G31G08G21G25G05G16G14G12G29G02R11R21
                                R10R16R19R09R20E12E18E11
 108780943.778 8  84764383.226 8                  20700319.220    20700314.420
  20700313.600          50.150          49.300
 118021800.592 8  91965019.91347                  22458799.860
  22458795.740          48.500          42.850
 117941380.727 8  91902430.33447                  22443469.480
  22443464.180          48.100          42.900
 113892709.344 8  88747739.051 8  85049910.618 8  21672980.220    21672978.660
  21672977.980          49.950          48.100
 133832356.896 7 104284958.206 6                  25467449.260    25467446.160
  25467445.480          43.750          37.000
 132194159.980 6 103008433.01245                  25155713.900
  25155704.220          38.500          31.600
 128334529.705 7 100000925.51045                  24421242.180
  24421238.320          43.850          32.050
 130271762.505 7 101510632.039 6                  24789818.760    24789815.340
  24789814.080          45.600          40.200
 108232007.542 8  84336769.590 8                  20595802.900    20595798.780
  20595798.040          49.600          48.750
 133140021.397 7 103745466.99245                  25335697.320
  25335690.660          42.500          35.150
 121116972.145 7  94202101.570 5                  22665390.220    22665394.100
  22665392.300          43.950          35.650
 116155634.978 7  90343319.619 7                  21706439.360    21706441.420
  21706440.500          47.000          43.400
 102938477.564 8  80063297.409 7                  19310989.340    19310996.100
  19310994.820          48.450          42.750
 131622022.862 6 102372699.345 5                  24639920.900    24639924.000
  24639922.900          38.500          32.100
 112559325.944 8  87546267.459 7                  21041728.200    21041728.580
  21041727.020          48.650          44.950
 109080362.220 8  84840272.631 6                  20427232.300    20427235.200
  20427232.700          48.450          37.100
 102926937.361 7  80054435.148 7                  19247809.200    19247813.080
  19247810.920          44.950          46.700
 124493952.842 8                  92966396.442 8  23690358.820
                        50.250


 124995982.737 8                  93341263.553 8  23785891.060
                        50.500
 15  1 27  0  2 15.0000000  0 20G31G08G21G25G05G16G14G12G29G02R11R21
                                R10R16R19R09R20E12E18E11
 108778752.578 8  84762675.802 8                  20699902.260    20699897.440
  20699896.640          50.250          49.200
 118006765.163 8  91953304.01147                  22455938.660
  22455934.600          48.550          43.100
 117928800.622 8  91892627.66047                  22441075.600
  22441070.260          48.050          42.900
 113901977.082 8  88754960.669 8  85056831.335 8  21674743.820    21674742.240
  21674741.580          49.750          48.100
 133825453.495 7 104279578.947 6                  25466135.600    25466132.440
  25466131.680          44.100          36.900
 132179565.598 6 102997060.77744                  25152936.780
  25152927.900          38.100          29.200
 128349699.695 7 100012746.24845                  24424128.960
  24424125.020          43.150          33.050
 130285744.998 7 101521527.469 6                  24792479.580    24792476.180
  24792475.020          45.050          40.550
 108240091.770 8  84343068.982 8                  20597341.280    20597337.160
  20597336.420          49.900          48.650
 133154397.805 7 103756669.40945                  25338433.060
  25338426.420          42.550          34.950
 121097376.400 7  94186860.449 5                  22661723.020    22661726.940
  22661725.280          43.650          35.700
 116138933.159 7  90330329.335 7                  21703318.200    21703320.360
  21703319.360          47.000          43.350
 102932017.191 8  80058272.687 7                  19309777.400    19309784.160
  19309782.880          48.550          42.850
 131642700.063 6 102388781.490 5                  24643791.840    24643794.980
  24643793.680          38.650          33.250
 112575608.497 8  87558931.665 7                  21044772.000    21044772.440
  21044770.880          48.900          45.050
 109093409.376 8  84850420.427 6                  20429675.640    20429678.460
  20429676.020          48.450          37.100
 102925412.376 7  80053249.054 7                  19247524.020    19247527.920
  19247525.720          44.950          46.700
 124499169.511 8                  92970292.012 8  23691351.540
                        50.300


 124988921.695 8                  93335990.712 8  23784547.400
                        50.550
 15  1 27  0  2 20.0000000  0 20G31G08G21G25G05G16G14G12G29G02R11R21
                                R10R16R19R09R20E12E18E11
 108776574.954 8  84760978.954 8                  20699487.880    20699483.040
  20699482.260          50.300          49.350
 117991736.634 8  91941593.46447                  22453078.820
  22453074.800          48.750          42.900
 117916227.342 7  91882830.30247                  22438682.980
  22438677.660          47.750          42.850
 113911250.081 8  88762186.380 8  85063755.969 8  21676508.420    21676506.840
  21676506.180          49.550          48.300
 133818558.776 7 104274206.424 6                  25464823.580    25464820.440
  25464819.700          43.700          36.600
 132164969.335 6 102985687.07045                  25150159.080
  25150150.980          37.300          30.300
 128364868.465 7 100024566.10445                  24427015.540
  24427011.520          43.450          33.500
 130299728.359 7 101532423.570 6                  24795140.500    24795137.180
  24795136.100          44.950          40.300
 108248183.343 8  84349374.112 8                  20598881.060    20598876.940
  20598876.200          50.000          48.700
 133168778.824 7 103767875.41445                  25341169.640
  25341162.980          42.200          35.100
 121077782.309 7  94171620.601 5                  22658056.160    22658060.180
  22658058.480          43.450          35.000
 116122240.692 7  90317346.311 7                  21700198.800    21700200.980
  21700199.980          47.350          43.150
 102925572.783 8  80053260.370 7                  19308568.480    19308575.160
  19308573.940          48.650          42.850
 131663378.969 6 102404865.030 5                  24647663.040    24647666.040
  24647664.860          39.450          33.000
 112591897.859 8  87571601.176 7                  21047817.120    21047817.560
  21047816.020          48.850          45.150
 109106470.014 8  84860578.693 6                  20432121.460    20432124.480
  20432121.860          48.350          37.700
 102923904.408 7  80052076.197 7                  19247242.040    19247245.920
  19247243.700          44.750          47.000
 124504392.808 8                  92974192.517 8  23692345.500
                        50.350


 124981867.864 8                  93330723.234 8  23783205.100
                        50.650
 15  1 27  0  2 25.0000000  0 20G31G08G21G25G05G16G14G12G29G02R11R21
                                R10R16R19R09R20E12E18E11
 108774412.954 8  84759294.275 8                  20699076.460    20699071.620
  20699070.840          50.150          49.350
 117976717.020 8  91929889.87147                  22450220.640
  22450216.660          48.800          43.650
 117903662.923 7  91873039.84747                  22436292.060
  22436286.700          47.900          42.900
 113920530.350 8  88769417.755 8  85070686.031 8  21678274.360    21678272.800
  21678272.160          49.000          48.300
 133811674.716 7 104268842.209 6                  25463513.580    25463510.420
  25463509.600          44.100          36.550
 132150373.208 6 102974313.41044                  25147381.260
  25147373.980          38.000          29.250
 128380037.987 7 100036386.48846                  24429902.240
  24429898.060          43.000          36.250
 130313714.538 7 101543321.883 6                  24797801.940    24797798.620
  24797797.600          45.300          39.650
 108256284.306 8  84355686.548 8                  20600422.640    20600418.540
  20600417.760          50.100          48.750
 133183166.394 7 103779086.52845                  25343907.480
  25343900.780          42.650          32.000
 121058192.105 7  94156383.761 5                  22654390.040    22654394.000
  22654392.380          43.250          35.600
 116105559.647 7  90304372.160 7                  21697081.540    21697083.740
  21697082.760          47.250          43.350
 102919146.283 8  80048261.971 7                  19307362.900    19307369.580
  19307368.340          48.750          42.750
                                                  24651534.960    24651537.840
  24651536.760          41.500          32.850
 112608195.974 8  87584277.485 7                  21050863.860    21050864.320
  21050862.840          48.800          45.600
 109119545.967 7  84870748.873 6                  20434570.160    20434573.220
  20434570.580          47.900          37.700
 102922415.499 7  80050918.146 7                  19246963.620    19246967.480
  19246965.280          44.600          46.950
 124509624.721 8                  92978099.467 8  23693341.100
                        50.400


 124974823.236 8                  93325462.622 8  23781864.540
                        50.600
 15  1 27  0  2 30.0000000  0 20G31G08G21G25G05G16G14G12G29G02R11R21
                                R10R16R19R09R20E12E18E11
 108772267.370 8  84757622.393 8                  20698668.180    20698663.340
  20698662.540          50.000          49.300
 117961707.115 8  91918193.84347                  22447364.320
  22447360.400          48.600          43.150
 117891108.173 7  91863256.92147                  22433902.960
  22433897.600          47.600          42.900
 113929818.686 8  88776655.409 8  85077622.129 8  21680041.820    21680040.320
  21680039.660          49.300          48.250
 133804802.149 7 104263486.954 6                  25462205.820    25462202.660
  25462201.800          43.900          37.150
 132135778.038 6 102962940.62844                  25144603.760
  25144597.820          38.900          27.950
 128395209.098 7 100048208.13145                  24432789.220
  24432784.980          43.150          33.650
 130327704.355 7 101554223.037 6                  24800464.080    24800460.700
  24800459.700          45.900          39.550
 108264395.453 8  84362006.931 8                  20601966.140    20601962.020
  20601961.240          50.000          48.850
 133197561.368 7 103790303.39345                  25346646.700
  25346640.160          42.650          33.700
 121038606.719 7  94141150.683 6                  22650724.840    22650728.880
  22650727.240          43.300          36.100
 116088890.870 7  90291407.572 7                  21693966.540    21693968.820
  21693967.800          47.200          43.550
 102912738.579 8  80043278.191 7                  19306160.840    19306167.460
  19306166.260          48.800          42.750
 131704761.890 7 102437048.565 5                  24655407.740    24655410.520
  24655409.560          43.550          34.250
 112624503.743 8  87596961.289 7                  21053912.440    21053912.900
  21053911.440          49.050          45.550
 109132638.205 7  84880931.720 6                  20437021.860    20437024.980
  20437022.320          47.800          37.350
 102920946.499 7  80049775.592 7                  19246688.940    19246692.780
  19246690.560          44.550          46.900
 124514866.068 8                  92982013.469 8  23694338.480
                        50.250


 124967788.623 8                  93320209.511 8  23780525.880
                        50.600
 15  1 27  0  2 35.0000000  0 20G31G08G21G25G05G16G14G12G29G02R11R21
                                R10R16R19R09R20E12E18E11
 108770135.699 8  84755961.347 8                  20698262.540    20698257.680
  20698256.900          49.950          49.050
 117946704.475 8  91906503.47247                  22444509.380
  22444505.520          48.400          43.600
 117878560.601 7  91853479.59647                  22431515.200
  22431509.860          47.650          42.400
 113939112.623 8  88783897.440 7  85084562.403 8  21681810.340    21681808.880
  21681808.240          49.200          47.900
 133797938.618 7 104258138.746 6                  25460899.800    25460896.600
  25460895.620          43.900          37.150
 132121181.334 6 102951566.55845                  25141826.120
  25141820.620          39.550          31.100
 128410379.229 7 100060029.00945                  24435676.040
  24435671.640          43.150          35.350
 130341695.272 7 101565125.054 6                  24803126.520    24803123.020
  24803121.980          46.050          38.600
 108272514.335 8  84368333.329 8                  20603511.140    20603507.000
  20603506.220          49.750          48.650
 133211961.274 7 103801524.09745                  25349386.900
  25349380.400          42.300          32.200
 121019023.484 7  94125919.288 5                  22647060.060    22647064.260
  22647062.480          43.650          35.950
 116072231.866 7  90278450.576 7                  21690853.420    21690855.700
  21690854.680          47.800          43.900
 102906347.251 8  80038307.147 7                  19304961.840    19304968.400
  19304967.240          48.900          42.900
 131725451.204 7 102453140.200 5                  24659280.880    24659283.580
  24659282.700          43.450          34.600
 112640818.473 8  87609650.519 7                  21056962.300    21056962.760
  21056961.340          49.000          45.050
 109145744.126 7  84891125.216 6                  20439476.140    20439479.320
  20439476.660          47.550          37.750
 102919494.800 7  80048646.491 7                  19246417.460    19246421.320
  19246419.060          44.800          46.850
 124520114.371 8                  92985932.659 8  23695337.200
                        50.200


 124960761.550 8                  93314962.020 8  23779188.660
                        50.500
 15  1 27  0  2 40.0000000  0 20G31G08G21G25G05G16G14G12G29G02R11R21
                                R10R16R19R09R20E12E18E11
 108768018.112 8  84754311.275 8                  20697859.580    20697854.720
  20697853.920          50.000          49.000
 117931709.271 8  91894818.90547                  22441655.880
  22441652.020          48.250          43.350
 117866020.418 7  91843708.01747                  22429128.860
  22429123.540          47.200          42.800
 113948412.331 8  88791143.951 7  85091506.975 8  21683579.960    21683578.540
  21683577.880          49.150          47.800
 133791084.260 7 104252797.698 6                  25459595.480    25459592.360
  25459591.320          43.250          36.850
 132106583.224 6 102940191.39544                  25139048.400
  25139042.640          40.300          28.100
 128425548.575 7 100071849.26645                  24438562.680
  24438558.320          43.250          35.300
 130355687.471 7 101576028.097 6                  24805789.180    24805785.620
  24805784.520          45.600          38.750
 108280640.996 8  84374665.789 8                  20605057.600    20605053.460
  20605052.700          49.800          48.600
 133226366.185 6 103812748.73045                  25352128.020
  25352121.580          41.850          32.900
 120999442.567 7  94110689.693 5                  22643395.760    22643399.920
  22643398.140          43.400          35.950
 116055582.762 7  90265501.275 7                  21687742.140    21687744.440
  21687743.400          47.350          43.700
 102899972.345 8  80033348.889 7                  19303765.940    19303772.520
  19303771.340          48.750          43.050
 131746142.647 6 102469233.528 5                  24663154.360    24663157.160
  24663156.220          40.600          33.700
 112657140.434 8  87622345.384 7                  21060013.480    21060013.980
  21060012.560          48.900          45.200
 109158863.886 7  84901329.470 6                  20441933.020    20441936.200
  20441933.580          47.650          37.300
 102918060.585 7  80047530.996 7                  19246149.240    19246153.140
  19246150.820          44.900          46.850
 124525369.767 8                  92989857.141 8  23696337.280
                        50.050


 124953742.162 8                  93309720.281 8  23777852.900
                        50.300
 15  1 27  0  2 45.0000000  0 20G31G08G21G25G05G16G14G12G29G02R11R21
                                R10R16R19R09R20E12E18E11
 108765916.707 8  84752673.818 8                  20697459.700    20697454.820
  20697454.000          50.100          48.950
 117916723.557 8  91883141.73647                  22438804.180
  22438800.340          48.450          43.350
 117853489.660 7  91833943.79847                  22426744.260
  22426738.980          47.250          42.100
 113957719.800 8  88798396.529 7  85098457.367 8  21685351.080    21685349.680
  21685349.020          49.300          47.650
 133784241.124 7 104247465.382 6                  25458293.180    25458290.180
  25458289.140          42.300          36.350
 132091985.818 6 102928816.82644                  25136270.860
  25136265.160          40.850          27.950
 128440719.179 7 100083670.51845                  24441449.580
  24441445.240          43.250          35.050
 130369683.055 7 101586933.737 6                  24808452.420    24808448.860
  24808447.760          45.150          39.000
 108288777.498 8  84381005.931 8                  20606605.920    20606601.800
  20606601.040          49.700          48.750
 133240778.220 6 103823978.90545                  25354870.480
  25354864.080          41.550          31.950
 120979866.118 7  94095463.576 5                  22639732.200    22639736.380
  22639734.640          43.650          35.850
 116038945.592 7  90252561.272 7                  21684633.060    21684635.380
  21684634.340          47.100          43.400
 102893615.945 8  80028405.037 7                  19302573.520    19302580.100
  19302578.900          48.550          42.900
 131766838.438 6 102485330.273 5                  24667028.720    24667031.460
  24667030.560          37.450          34.500
 112673471.720 8  87635047.495 7                  21063066.400    21063066.920
  21063065.520          48.700          45.150
 109171999.577 7  84911546.119 6                  20444392.840    20444396.100
  20444393.460          47.550          37.600
 102916645.981 7  80046430.755 7                  19245884.700    19245888.640
  19245886.260          44.850          46.950
 124530634.301 8                  92993788.450 8  23697339.120
                        50.050


 124946732.526 8                  93304485.812 8  23776518.980
                        50.300
 15  1 27  0  2 50.0000000  0 20G31G08G21G25G05G16G14G12G29G02R11R21
                                R10R16R19R09R20E12E18E11
 108763830.519 8  84751048.215 8                  20697062.700    20697057.820
  20697057.000          50.200          48.900
 117901746.443 8  91871471.26447                  22435954.080
  22435950.280          48.300          43.550
 117840967.420 7  91824186.21546                  22424361.280
  22424356.020          47.350          41.800
 113967034.111 8  88805654.438 7  85105412.861 8  21687123.480    21687122.120
  21687121.460          49.100          47.650
 133777408.301 7 104242141.127 5                  25456992.900    25456989.940
  25456988.960          42.200          35.700
 132077388.160 6 102917442.00245                  25133493.240
  25133487.900          40.800          32.300
 128455890.033 7 100095491.95645                  24444336.540
  24444332.280          43.800          35.500
 130383681.061 7 101597841.270 6                  24811116.120    24811112.580
  24811111.460          44.600          38.750
 108296922.977 8  84387353.047 8                  20608155.960    20608151.800
  20608151.100          49.900          48.650
 133255196.364 6 103835213.83445                  25357614.140
  25357607.860          41.750          33.550
 120960293.204 7  94080240.211 5                  22636069.340    22636073.620
  22636071.800          43.800          35.950
 116022319.509 7  90239629.874 7                  21681526.040    21681528.380
  21681527.340          47.050          43.300
 102887277.141 8  80023474.866 7                  19301384.400    19301391.000
  19301389.780          48.600          43.150
 131787537.544 6 102501429.463 5                  24670903.640    24670906.520
  24670905.560          36.850          33.550
 112689811.361 8  87647756.092 7                  21066120.860    21066121.400
  21066120.060          48.350          45.100
 109185150.250 7  84921774.422 6                  20446855.460    20446858.820
  20446856.100          47.600          37.650
 102915249.906 7  80045344.920 7                  19245623.640    19245627.540
  19245625.180          44.850          47.150
 124535907.025 8                  92997725.868 8  23698342.500
                        50.050


 124939731.686 8                  93299257.909 8  23775186.760
                        50.400
 15  1 27  0  2 55.0000000  0 20G31G08G21G25G05G16G14G12G29G02R11R21
                                R10R16R19R09R20E12E18E11
 108761758.784 8  84749433.872 8                  20696668.460    20696663.580
  20696662.740          50.200          48.900
 117886777.115 8  91859806.86047                  22433105.480
  22433101.740          48.750          43.200
 117828452.913 7  91814434.65746                  22421979.760
  22421974.580          47.400          41.600
 113976354.563 8  88812917.121 7  85112372.939 8  21688897.080    21688895.700
  21688895.060          49.550          47.550
 133770585.047 7 104236824.323 6                  25455694.400    25455691.440
  25455690.620          42.700          36.450
 132062789.519 6 102906066.48144                  25130715.300
  25130709.920          41.000          26.300
 128471060.372 7 100107312.99146                  24447223.400
  24447219.080          43.450          36.900
 130397680.756 7 101608750.115 6                  24813780.120    24813776.580
  24813775.500          44.350          38.700
 108305076.593 8  84393706.514 8                  20609707.560    20609703.400
  20609702.700          50.100          48.700
 133269619.920 7 103846452.95545                  25360358.840
  25360352.520          42.450          30.550
 120940722.989 7  94065018.939 6                  22632406.980    22632411.260
  22632409.520          44.050          36.250
 116005703.767 7  90226706.503 7                  21678420.960    21678423.300
  21678422.260          47.150          43.300
 102880955.256 8  80018557.841 7                  19300198.460    19300205.060
  19300203.800          48.700          42.950
 131808239.219 6 102517530.671 5                  24674779.020    24674781.880
  24674780.960          38.800          34.650
 112706158.542 8  87660470.560 7                  21069176.760    21069177.320
  21069175.980          48.500          44.850
 109198315.132 8  84932013.764 6                  20449320.760    20449324.140
  20449321.460          48.000          37.400
 102913871.767 7  80044273.033 7                  19245365.940    19245369.820
  19245367.480          44.700          47.100
 124541187.156 8                  93001668.827 8  23699347.300
                        50.300


 124932738.884 8                  93294036.021 8  23773856.020
                        50.450
 15  1 27  0  3  0.0000000  0 20G31G08G21G25G05G16G14G12G29G02R11R21
                                R10R16R19R09R20E12E18E11
 108759702.591 8  84747831.640 8                  20696277.160    20696272.300
  20696271.440          50.100          48.900
 117871816.709 8  91848149.40447                  22430258.580
  22430254.900          48.950          43.150
 117815947.261 7  91804689.99946                  22419599.940
  22419594.800          47.650          41.800
 113985682.180 8  88820185.396 7  85119338.367 8  21690672.020    21690670.660
  21690670.000          49.600          47.450
 133763772.432 7 104231515.787 6                  25454397.960    25454395.080
  25454394.300          42.050          36.650
 132048190.988 6 102894690.99644                  25127937.320
  25127931.980          41.250          25.950
 128486231.250 7 100119134.44845                  24450110.340
  24450106.080          43.850          34.900
 130411683.208 7 101619661.113 6                  24816444.660    24816441.120
  24816440.060          44.600          38.900
 108313239.462 8  84400067.190 8                  20611260.920    20611256.760
  20611256.060          49.950          48.700
 133284049.895 7 103857697.09444                  25363104.840
  25363098.520          42.900          29.850
 120921156.752 7  94049800.758 5                  22628745.360    22628749.760
  22628747.960          44.000          35.750
 115989099.397 7  90213791.995 7                  21675318.100    21675320.320
  21675319.260          47.150          43.150
 102874651.413 8  80013654.847 7                  19299015.880    19299022.440
  19299021.200          48.750          42.900
 131828944.489 6 102533634.747 5                  24678655.160    24678658.000
  24678657.080          40.000          34.050
 112722514.281 8  87673191.687 7                  21072234.260    21072234.800
  21072233.500          48.400          44.600
 109211495.233 7  84942264.943 6                  20451788.920    20451792.360
  20451789.620          47.950          37.100
 102912512.520 7  80043215.833 7                  19245111.780    19245115.620
  19245113.280          44.650          46.950
 124546475.834 8                  93005618.159 8  23700353.720
                        50.350


 124925755.228 8                  93288820.949 8  23772527.040
                        50.550
 15  1 27  0  3  5.0000000  0 20G31G08G21G25G05G16G14G12G29G02R11R21
                                R10R16R19R09R20E12E18E11
 108757661.341 8  84746241.061 8                  20695888.720    20695883.860
  20695883.000          50.050          48.800
 117856864.662 8  91836498.47247                  22427413.280
  22427409.640          49.200          42.850
 117803449.864 7  91794951.77646                  22417221.700
  22417216.620          47.750          41.950
 113995016.392 8  88827458.814 7  85126308.711 8  21692448.220    21692446.900
  21692446.220          49.200          47.400
 133756969.868 6 104226215.096 6                  25453103.400    25453100.600
  25453099.800          41.350          36.600
 132033591.937 6 102883315.08644                  25125159.140
  25125153.380          40.650          27.750
 128501402.051 7 100130955.84046                  24452997.260
  24452993.060          43.300          36.900
 130425687.817 7 101630573.808 6                  24819109.600    24819106.100
  24819105.040          44.600          39.250
 108321410.990 8  84406434.614 8                  20612815.920    20612811.740
  20612811.060          50.100          48.500
 133298485.754 7 103868945.86345                  25365851.920
  25365845.520          42.850          31.000
 120901593.820 7  94034585.165 5                  22625084.420    22625088.840
  22625087.000          43.900          35.900
 115972505.811 7  90200885.898 7                  21672217.200    21672219.360
  21672218.320          47.600          42.750
 102868364.928 8  80008765.363 7                  19297836.580    19297843.080
  19297841.860          48.750          42.900
 131849652.729 6 102549741.100 5                  24682531.720    24682534.740
  24682533.740          37.750          34.100
 112738877.968 8  87685919.001 7                  21075293.300    21075293.800
  21075292.480          48.750          44.250
 109224689.992 8  84952527.538 6                  20454259.840    20454263.340
  20454260.540          48.100          36.950
 102911171.551 7  80042172.865 7                  19244861.040    19244864.860
  19244862.500          44.600          46.900
 124551772.408 8                  93009573.391 8  23701361.620
                        50.400


 124918780.109 8                  93283612.253 8  23771199.680
                        50.500
 15  1 27  0  3 10.0000000  0 20G31G08G21G25G05G16G14G12G29G02R11R21
                                R10R16R19R09R20E12E18E11
 108755633.819 8  84744661.170 8                  20695502.900    20695498.040
  20695497.160          50.100          48.750
 117841919.706 8  91824853.04447                  22424569.340
  22424565.700          49.300          42.600
 117790959.494 8  91785219.02646                  22414844.840
  22414839.760          48.150          40.950
 114004355.949 8  88834736.376 7  85133283.055 8  21694225.420    21694224.140
  21694223.440          49.300          47.550
 133750176.221 7 104220921.343 6                  25451810.640    25451807.780
  25451807.000          42.600          36.100
 132018991.142 6 102871937.87844                  25122380.660
  25122374.060          41.850          24.850
 128516571.644 7 100142776.28546                  24455883.960
  24455879.800          43.100          37.150
 130439693.265 7 101641487.129 6                  24821774.700    24821771.280
  24821770.260          45.250          39.450
 108329589.838 8  84412807.746 8                  20614372.340    20614368.140
  20614367.460          50.000          48.450
 133312926.236 7 103880198.21445                  25368599.880
  25368593.380          43.200          30.950
 120882032.801 7  94019371.033 6                  22621423.880    22621428.160
  22621426.380          44.150          36.000
 115955921.776 8  90187987.212 7                  21669118.080    21669120.160
  21669119.160          48.300          42.750
 102862094.523 8  80003888.374 7                  19296660.280    19296666.740
  19296665.540          48.800          42.900
 131870362.586 6 102565848.734 5                  24686408.660    24686411.660
  24686410.760          38.400          31.850
 112755248.373 8  87698651.544 7                  21078353.580    21078354.080
  21078352.740          48.900          44.350
 109237898.200 8  84962800.582 6                  20456733.300    20456736.680
  20456734.000          48.350          36.900
 102909847.672 7  80041143.184 7                  19244613.520    19244617.260
  19244614.900          44.950          46.800
 124557075.645 8                  93013533.598 8  23702370.820
                        50.450


 124911812.279 8                  93278409.011 8  23769873.740
                        50.600
 15  1 27  0  3 15.0000000  0 19G31G08G21G25G05G16G14G12G29G02R11R21
                                R10R19R09R20E12E18E11
 108753622.426 8  84743093.842 8                  20695120.120    20695115.280
  20695114.380          49.950          48.800
 117826984.273 8  91813215.04647                  22421727.220
  22421723.600          49.350          42.650
 117778478.561 8  91775493.62446                  22412469.740
  22412464.720          48.150          41.550
 114013703.243 8  88842019.983 7  85140263.175 8  21696004.080    21696002.840
  21696002.140          49.250          47.350
 133743393.738 6 104215636.314 6                  25450519.980    25450517.160
  25450516.320          41.550          37.050
 132004390.972 6 102860561.11144                  25119602.240
  25119596.120          41.350          26.600
 128531742.327 7 100154597.57845                  24458770.800
  24458766.700          42.950          33.000
 130453702.022 7 101652403.028 6                  24824440.460    24824437.000
  24824436.180          45.550          39.400
 108337778.402 8  84419188.440 8                  20615930.580    20615926.360
  20615925.680          49.950          48.350
 133327373.658 7 103891455.94245                  25371349.160
  25371342.680          42.800          33.600
 120862476.343 7  94004160.455 6                  22617764.200    22617768.400
  22617766.680          44.250          36.050
 115939349.745 7  90175097.853 7                  21666021.220    21666023.180
  21666022.220          47.800          42.900
 102855842.680 8  79999025.828 7                  19295487.500    19295493.900
  19295492.720          48.850          42.900
 112771627.850 8  87711391.138 7                  21081415.580    21081416.080
  21081414.700          48.950          44.550
 109251122.187 8  84973085.916 6                  20459209.740    20459213.020
  20459210.400          48.350          36.800
 102908543.256 7  80040128.648 7                  19244369.600    19244373.320
  19244370.960          44.950          46.900
 124562387.897 8                  93017500.544 8  23703381.740
                        50.400


 124904854.126 8                  93273212.989 8  23768549.680
                        50.450
 15  1 27  0  3 20.0000000  0 19G31G08G21G25G05G16G14G12G29G02R11R21
                                R10R19R09R20E12E18E11
 108751626.272 8  84741538.398 8                  20694740.260    20694735.420
  20694734.520          49.950          48.850
 117812057.497 8  91801583.78647                  22418886.780
  22418883.120          49.250          42.800
 117766006.200 8  91765774.90246                  22410096.300
  22410091.320          48.000          41.650
 114023057.398 8  88849308.932 7  85147248.415 8  21697784.060    21697782.880
  21697782.140          49.150          47.300
 133736621.740 7 104210359.469 6                  25449231.340    25449228.620
  25449227.600          42.450          36.450
 131989790.583 6 102849184.20844                  25116823.900
  25116818.040          41.750          27.650
 128546913.249 7 100166419.05545                  24461657.700
  24461653.620          42.350          32.550
 130467713.153 7 101663320.773 6                  24827106.740    24827103.260
  24827102.440          46.100          39.050
 108345975.919 8  84425576.109 8                  20617490.520    20617486.320
  20617485.620          50.000          48.550
 133341827.158 7 103902718.42345                  25374099.560
  25374093.140          42.300          35.500
 120842923.481 7  93988952.673 6                  22614105.260    22614109.360
  22614107.660          44.550          36.250
 115922788.843 7  90162217.157 7                  21662926.440    21662928.320
  21662927.360          47.200          43.100
 102849608.637 8  79994177.127 7                  19294318.040    19294324.440
  19294323.220          48.800          42.800
 112788015.595 8  87724137.161 7                  21084479.100    21084479.580
  21084478.220          48.900          44.700
 109264361.121 8  84983382.867 6                  20461689.000    20461692.200
  20461689.600          48.350          37.400
 102907257.360 7  80039128.505 7                  19244129.120    19244132.840
  19244130.500          44.750          47.050
 124567708.326 8                  93021473.588 8  23704394.180
                        50.400


 124897904.796 8                  93268023.553 8  23767227.280
                        50.600
 15  1 27  0  3 25.0000000  0 19G31G08G21G25G05G16G14G12G29G02R11R21
                                R10R19R09R20E12E18E11
 108749645.877 8  84739995.237 8                  20694363.400    20694358.560
  20694357.660          49.850          48.900
 117797139.870 8  91789959.67147                  22416048.080
  22416044.400          49.300          42.600
 117753542.921 8  91756063.26346                  22407724.600
  22407719.680          48.250          41.700
 114032418.894 8  88856603.601 7  85154239.139 8  21699565.460    21699564.280
  21699563.540          49.350          47.450
 133729860.553 7 104205090.981 5                  25447944.780    25447942.000
  25447941.000          42.200          35.400
 131975190.560 6 102837807.53244                  25114045.640
  25114040.100          41.850          27.400
 128562084.865 6 100178241.09445                  24464544.760
  24464540.820          41.600          35.250
 130481727.184 7 101674240.816 6                  24829773.560    24829770.060
  24829769.220          45.600          38.750
 108354182.839 8  84431971.109 8                  20619052.260    20619048.040
  20619047.340          50.000          48.700
 133356287.226 7 103913986.02145                  25376851.220
  25376844.780          42.350          34.950
 120823374.736 7  93973748.076 6                  22610447.060    22610451.080
  22610449.400          44.300          36.400
 115906239.541 7  90149345.486 7                  21659833.760    21659835.700
  21659834.680          46.850          42.950
 102843392.838 8  79989342.617 7                  19293152.000    19293158.400
  19293157.140          48.850          42.900
 112804412.046 8  87736889.954 7                  21087544.200    21087544.720
  21087543.400          48.650          44.900
 109277615.488 8  84993691.818 6                  20464171.140    20464174.280
  20464171.720          48.150          37.100
 102905990.533 7  80038143.197 7                  19243892.220    19243895.960
  19243893.620          44.600          47.100
 124573037.439 8                  93025453.122 8  23705408.320
                        50.400


 124890964.773 8                  93262841.076 8  23765906.640
                        50.550
 15  1 27  0  3 30.0000000  0 19G31G08G21G25G05G16G14G12G29G02R11R21
                                R10R19R09R20E12E18E11
 108747680.003 8  84738463.387 8                  20693989.280    20693984.460
  20693983.540          49.950          48.900
 117782230.120 8  91778341.67647                  22413210.880
  22413207.140          49.100          43.600
 117741087.423 8  91746357.68047                  22405354.380
  22405349.500          48.100          42.900
 114041786.508 8  88863903.037 7  85161234.422 8  21701348.060    21701346.860
  21701346.100          49.550          47.650
 133723109.007 7 104199830.012 6                  25446659.960    25446657.160
  25446656.140          42.400          36.000
 131960589.505 7 102826430.06144                  25111267.180
  25111261.660          42.050          29.000
 128577255.889 6 100190062.63245                  24467431.680
  24467427.800          41.800          35.400
 130495742.887 7 101685162.139 6                  24832440.640    24832437.100
  24832436.300          45.000          38.350
 108362397.842 8  84438372.408 8                  20620615.520    20620611.300
  20620610.600          50.200          48.700
 133370752.628 6 103925257.75145                  25379603.900
  25379597.520          41.950          32.950
 120803828.813 7  93958545.703 6                  22606789.360    22606793.320
  22606791.660          44.300          36.050
 115889700.597 7  90136481.849 7                  21656743.040    21656744.900
  21656743.940          46.800          42.750
 102837193.842 8  79984521.177 7                  19291989.120    19291995.480
  19291994.240          48.850          42.700
 112820815.860 8  87749648.470 7                  21090610.680    21090611.240
  21090609.940          48.300          44.950
 109290883.935 8  85004011.712 6                  20466655.960    20466659.080
  20466656.480          48.200          37.300
 102904741.535 7  80037171.748 7                  19243658.680    19243662.400
  19243660.060          44.500          47.100
 124578373.907 8                  93029438.135 8  23706423.840
                        50.450


 124884032.795 8                  93257664.595 8  23764587.540
                        50.650
 15  1 27  0  3 35.0000000  0 19G31G08G21G25G05G16G14G12G29G02R11R21
                                R10R19R09R20E12E18E11
 108745727.791 8  84736942.183 8                  20693617.760    20693612.980
  20693612.040          50.000          48.950
 117767327.484 8  91766729.23847                  22410375.040
  22410371.260          49.100          43.550
 117728638.961 8  91736657.58847                  22402985.540
  22402980.660          48.350          42.700
 114051159.370 8  88871206.563 7  85168233.646 8  21703131.640    21703130.460
  21703129.680          49.400          47.600
 133716366.266 7 104194575.936 5                  25445376.880    25445374.100
  25445372.900          42.950          35.700
 131945986.626 7 102815051.18045                  25108488.360
  25108483.020          42.600          30.350
 128592425.495 7 100201883.10745                  24470318.320
  24470314.380          42.000          33.200
 130509759.428 7 101696084.137 6                  24835107.920    24835104.320
  24835103.460          45.550          38.700
 108370620.120 8  84444779.386 8                  20622180.180    20622175.960
  20622175.260          50.000          48.700
 133385222.479 7 103936532.95945                  25382357.440
  25382350.980          42.250          30.800
 120784284.881 7  93943344.871 5                  22603132.080    22603136.000
  22603134.280          44.200          35.650
 115873171.181 7  90123625.630 7                  21653654.140    21653656.020
  21653654.980          46.750          43.050
 102831010.981 8  79979712.283 7                  19290829.240    19290835.620
  19290834.360          48.900          42.600
 112837226.324 8  87762412.152 7                  21093678.420    21093679.040
  21093677.720          48.450          44.750
 109304165.717 8  85014341.986 6                  20469143.240    20469146.360
  20469143.720          48.400          37.000
 102903509.504 7  80036213.504 7                  19243428.260    19243432.020
  19243429.680          44.200          46.900
 124583716.938 8                  93033428.064 8  23707440.620
                        50.550


 124877108.051 8                  93252493.524 8  23763269.800
                        50.550
 15  1 27  0  3 40.0000000  0 19G31G08G21G25G05G16G14G12G29G02R11R21
                                R10R19R09R20E12E18E11
 108743792.987 8  84735434.544 8                  20693249.560    20693244.800
  20693243.860          50.050          48.900
 117752435.662 8  91755125.22147                  22407541.260
  22407537.440          49.100          42.800
 117716201.207 8  91726965.82747                  22400618.740
  22400613.860          48.350          42.700
 114060541.246 8  88878517.113 7  85175239.590 8  21704916.960    21704915.780
  21704914.980          49.400          47.650
 133709636.095 6 104189331.677 5                  25444096.200    25444093.320
  25444092.160          41.600          35.800
 131931385.620 7 102803673.82944                  25105709.880
  25105704.880          42.750          29.050
 128607597.368 6 100213705.33145                  24473205.380
  24473201.460          41.350          30.700
 130523780.516 7 101707009.671 6                  24837776.040    24837772.500
  24837771.520          44.700          39.550
 108378853.383 8  84451194.914 8                  20623746.920    20623742.700
  20623742.000          50.000          48.700
 133399700.480 6 103947814.58645                  25385112.500
  25385106.120          41.900          32.350
 120764746.947 7  93928148.717 5                  22599475.860    22599479.840
  22599478.020          44.850          35.700
 115856655.057 7  90110779.762 7                  21650567.720    21650569.580
  21650568.580          47.150          43.550
 102824848.064 8  79974918.903 7                  19289673.120    19289679.420
  19289678.220          49.100          42.700
 112853646.980 8  87775183.765 7                  21096748.060    21096748.700
  21096747.420          48.600          44.950
 109317464.504 8  85024685.491 6                  20471633.700    20471636.800
  20471634.160          48.500          36.850
 102902298.226 7  80035271.399 7                  19243201.740    19243205.520
  19243203.180          44.350          47.050
 124589070.258 8                  93037425.680 8  23708459.340
                        50.600


 124870194.240 8                  93247330.634 8  23761954.140
                        50.400
 15  1 27  0  3 45.0000000  0 19G31G08G21G25G05G16G14G12G29G02R11R21
                                R10R19R09R20E12E18E11
 108741870.514 8  84733936.508 8                  20692883.700    20692878.960
  20692878.020          50.100          48.900
 117737549.625 8  91743525.72247                  22404708.560
  22404704.720          49.250          43.400
 117703768.991 8  91717278.38546                  22398253.020
  22398248.100          48.550          41.900
 114069927.031 8  88885830.716 7  85182248.449 8  21706703.020    21706701.820
  21706701.020          49.450          47.650
 133702913.420 7 104184093.238 6                  25442816.960    25442814.040
  25442812.880          42.000          36.850
 131916781.495 7 102792293.97944                  25102930.780
  25102925.860          43.000          29.200
 128622766.425 6 100225525.34745                  24476091.960
  24476088.040          41.650          35.150
 130537801.056 7 101717934.771 6                  24840444.040    24840440.540
  24840439.640          45.000          39.450
 108387092.525 8  84457615.025 8                  20625314.780    20625310.560
  20625309.900          50.000          48.600
 133414181.584 7 103959098.56145                  25387868.140
  25387861.720          42.350          32.050
 120745209.750 7  93912953.113 5                  22595819.800    22595823.700
  22595821.880          44.850          34.850
 115840147.110 7  90097940.254 7                  21647482.840    21647484.700
  21647483.680          47.300          43.550
 102818699.934 8  79970137.024 7                  19288519.800    19288526.020
  19288524.840          49.000          42.700
 112870072.866 8  87787959.450 7                  21099818.680    21099819.360
  21099818.060          48.850          44.850
 109330775.276 8  85035038.312 6                  20474126.380    20474129.580
  20474126.860          48.600          37.250
 102901102.529 7  80034341.414 7                  19242978.160    19242981.900
  19242979.580          44.300          46.950
 124594428.752 8                  93041427.153 8  23709479.040
                        50.600


 124863286.320 8                  93242172.113 8  23760639.600
                        50.450
 15  1 27  0  3 50.0000000  0 19G31G08G21G25G05G16G14G12G29G02R11R21
                                R10R19R09R20E12E18E11
 108739965.295 8  84732451.916 8                  20692521.140    20692516.420
  20692515.460          50.000          48.900
 117722674.315 8  91731934.57347                  22401877.920
  22401874.040          49.250          42.700
 117691347.443 8  91707599.25847                  22395889.300
  22395884.380          48.600          42.850
 114079321.686 8  88893151.224 7  85189263.935 8  21708490.760    21708489.540
  21708488.760          49.250          47.700
 133696203.223 7 104178864.521 6                  25441540.040    25441537.180
  25441536.120          42.250          36.650
 131902179.113 7 102780915.48745                  25100152.020
  25100147.240          43.000          30.650
 128637937.576 6 100237347.04145                  24478978.920
  24478975.140          41.200          30.200
 130551825.989 7 101728863.278 6                  24843112.920    24843109.380
  24843108.560          45.250          39.950
 108395342.492 8  84464043.562 8                  20626884.680    20626880.500
  20626879.820          49.950          48.600
 133428670.702 7 103970388.78945                  25390625.320
  25390618.700          42.100          34.050
 120725678.156 7  93897761.869 5                  22592164.740    22592168.460
  22592166.740          44.950          35.250
 115823652.308 7  90085110.966 7                  21644400.400    21644402.260
  21644401.220          46.900          43.900
 102812571.618 8  79965370.556 7                  19287370.180    19287376.380
  19287375.220          48.850          42.750
 112886508.870 8  87800743.015 7                  21102891.240    21102891.900
  21102890.600          48.450          45.050
 109344102.911 8  85045404.249 6                  20476622.260    20476625.360
  20476622.780          48.300          37.300
 102899927.410 7  80033427.431 7                  19242758.360    19242762.140
  19242759.860          44.150          47.100
 124599797.394 8                  93045436.201 8  23710500.700
                        50.550


 124856389.209 8                  93237021.679 8  23759327.140
                        50.650
 15  1 27  0  3 55.0000000  0 19G31G08G21G25G05G16G14G12G29G02R11R21
                                R10R19R09R20E12E18E11
 108738074.660 8  84730978.694 8                  20692161.340    20692156.640
  20692155.680          49.850          48.900
 117707807.060 8  91720349.70647                  22399048.800
  22399044.880          49.400          42.850
 117678933.864 8  91697926.34447                  22393527.140
  22393522.180          48.350          42.650
 114088722.490 8  88900476.526 7  85196284.020 8  21710279.680    21710278.480
  21710277.680          49.350          47.550
 133689502.782 7 104173643.390 6                  25440265.000    25440262.160
  25440261.060          43.350          37.000
 131887575.921 7 102769536.38445                  25097373.060
  25097368.160          43.200          30.600
 128653108.154 6 100249168.26045                  24481865.760
  24481861.900          41.200          34.250
 130565852.609 7 101739793.113 6                  24845782.100    24845778.660
  24845777.840          44.900          39.400
 108403600.609 8  84470478.463 8                  20628456.120    20628451.980
  20628451.320          49.850          48.550
 133443165.141 7 103981683.16745                  25393383.500
  25393376.800          42.000          32.750
 120706149.651 7  93882573.034 5                  22588510.300    22588514.020
  22588512.200          45.050          35.300
 115807167.990 7  90072289.835 7                  21641319.920    21641321.780
  21641320.760          47.350          44.300
 102806460.402 8  79960617.391 7                  19286223.780    19286229.940
  19286228.780          48.950          42.800
 112902952.223 8  87813532.288 7                  21105965.140    21105965.820
  21105964.500          48.600          44.900
 109357444.773 8  85055781.246 6                  20479120.780    20479123.760
  20479121.320          48.250          37.150
 102898770.083 7  80032527.296 7                  19242541.940    19242545.740
  19242543.480          44.300          47.200
 124605173.474 8                  93049450.810 8  23711523.760
                        50.550


 124849500.218 8                  93231877.312 8  23758016.200
                        50.650
 15  1 27  0  4  0.0000000  0 19G31G08G21G25G05G16G14G12G29G02R11R21
                                R10R19R09R20E12E18E11
 108736198.410 8  84729516.681 8                  20691804.280    20691799.600
  20691798.640          49.800          48.850
 117692947.706 8  91708770.98847                  22396221.200
  22396217.240          49.600          42.800
 117666528.094 8  91688259.51247                  22391166.440
  22391161.480          48.750          42.700
 114098129.306 8  88907806.502 7  85203308.580 8  21712069.740    21712068.520
  21712067.720          49.500          47.250
 133682811.942 7 104168429.761 5                  25438991.760    25438988.920
  25438987.900          44.150          35.750
 131872971.615 7 102758156.41445                  25094593.960
  25094589.220          43.200          31.400
 128668277.943 6 100260988.85345                  24484752.480
  24484748.640          41.200          32.750
 130579880.679 7 101750724.081 6                  24848451.520    24848448.080
  24848447.220          44.900          39.850
 108411866.622 8  84476919.504 8                  20630029.060    20630024.960
  20630024.300          50.000          48.400
 133457664.745 7 103992981.60945                  25396142.680
  25396136.060          42.000          31.950
 120686624.026 7  93867386.443 5                  22584856.400    22584860.020
  22584858.240          45.050          35.100
 115790693.996 7  90059476.725 7                  21638241.380    21638243.240
  21638242.220          47.900          44.300
 102800366.053 8  79955877.333 7                  19285080.520    19285086.620
  19285085.500          48.950          42.950
 112919402.820 8  87826327.190 7                  21109040.400    21109041.080
  21109039.740          48.750          44.850
 109370800.603 8  85066169.114 6                  20481621.900    20481624.760
  20481622.440          48.300          37.500
 102897630.464 7  80031640.920 7                  19242328.800    19242332.640
  19242330.400          44.600          47.200
 124610556.800 8                  93053470.825 8  23712548.200
                        50.550


 124842619.190 8                  93226738.880 8  23756706.780
                        50.650
 15  1 27  0  4  5.0000000  0 19G31G08G21G25G05G16G14G12G29G02R11R21
                                R10R19R09R20E12E18E11
 108734338.040 8  84728067.042 8                  20691450.260    20691445.580
  20691444.640          49.950          48.850
 117678097.707 8  91697199.55247                  22393395.360
  22393391.380          49.500          42.850
 117654131.592 8  91678599.88546                  22388807.520
  22388802.500          48.550          41.950
 114107543.547 8  88915142.270 7  85210338.681 8  21713861.200    21713860.000
  21713859.200          49.600          47.250
 133676132.198 7 104163224.780 5                  25437720.640    25437717.740
  25437716.840          43.850          35.200
 131858367.622 7 102746776.70644                  25091814.940
  25091810.080          43.800          28.350
 128683448.385 6 100272809.99945                  24487639.340
  24487635.520          41.400          32.900
 130593911.779 7 101761657.400 6                  24851121.500    24851118.160
  24851117.180          44.700          39.100
 108420142.000 8  84483367.856 8                  20631603.800    20631599.720
  20631599.040          49.800          48.400
 133472170.887 7 104004285.06844                  25398903.080
  25398896.280          42.400          29.500
 120667102.660 7  93852203.158 5                  22581203.260    22581206.900
  22581205.040          45.450          35.500
 115774231.793 7  90046672.796 7                  21635165.080    21635166.860
  21635165.820          47.850          44.100
 102794290.120 8  79951151.605 7                  19283940.740    19283946.800
  19283945.660          48.950          42.700
 112935862.059 8  87839128.824 7                  21112117.260    21112117.960
  21112116.640          48.300          44.850
 109384171.853 8  85076568.975 6                  20484125.960    20484128.740
  20484126.460          48.400          37.500
 102896509.944 7  80030769.408 7                  19242119.240    19242123.100
  19242120.880          44.700          47.000
 124615948.829 8                  93057497.326 8  23713574.300
                        50.650


 124835747.556 8                  93221607.457 8  23755399.160
                        50.700
 15  1 27  0  4 10.0000000  0 19G31G08G21G25G05G16G14G12G29G02R11R21
                                R10R19R09R20E12E18E11
 108732488.615 8  84726625.936 8                  20691098.320    20691093.640
  20691092.700          49.950          48.900
 117663252.047 8  91685631.51647                  22390570.340
  22390566.320          49.450          42.700
 117641739.335 8  91668943.59447                  22386449.400
  22386444.380          48.500          42.050
 114116960.221 8  88922479.943 7  85217370.613 8  21715653.160    21715651.960
  21715651.140          49.500          47.350
 133669458.469 7 104158024.471 5                  25436450.620    25436447.880
  25436446.900          43.100          35.600
 131843758.997 7 102735393.33345                  25089034.980
  25089029.860          44.100          30.600
 128698614.449 6 100284627.68045                  24490525.300
  24490521.400          41.750          33.550
 130607940.847 7 101772589.139 6                  24853791.120    24853787.760
  24853786.800          44.750          39.550
 108428421.726 8  84489819.591 8                  20633179.360    20633175.300
  20633174.620          49.650          48.350
 133486678.577 7 104015589.76545                  25401663.740
  25401656.980          42.950          32.750
 120647580.620 7  93837019.346 5                  22577549.980    22577553.600
  22577551.740          45.600          35.800
 115757776.208 8  90033874.019 7                  21632089.980    21632091.700
  21632090.720          48.100          43.900
 102788227.612 8  79946436.326 7                  19282803.440    19282809.500
  19282808.340          48.800          42.650
 112952324.823 8  87851933.196 7                  21115194.760    21115195.560
  21115194.180          48.150          44.800
 109397553.510 8  85086976.932 6                  20486631.900    20486634.640
  20486632.460          48.250          37.200
 102895403.423 7  80029908.793 7                  19241912.300    19241916.180
  19241913.960          44.600          46.950
 124621344.513 8                  93061526.575 8  23714601.080
                        50.600


 124828880.302 8                  93216479.323 8  23754092.380
                        50.600
 15  1 27  0  4 15.0000000  0 19G31G08G21G25G05G16G14G12G29G02R11R21
                                R10R19R09R20E12E18E11
 108730655.890 8  84725197.834 8                  20690749.540    20690744.900
  20690743.960          50.000          49.050
 117648416.636 8  91674071.45147                  22387747.260
  22387743.220          49.450          43.350
 117629357.166 8  91659295.14647                  22384093.220
  22384088.120          48.500          42.750
 114126385.177 8  88929824.056 7  85224408.734 8  21717446.700    21717445.480
  21717444.660          49.300          47.500
 133662796.639 7 104152833.407 6                  25435182.920    25435180.140
  25435179.220          43.850          36.200
 131829151.574 7 102724010.96745                  25086255.240
  25086250.000          43.700          32.000
 128713782.008 7 100296446.54345                  24493411.580
  24493407.840          42.400          35.250
 130621973.781 7 101783523.879 6                  24856461.440    24856458.080
  24856457.200          44.350          38.650
 108436711.652 8  84496279.272 8                  20634756.840    20634752.820
  20634752.160          49.350          48.450
 133501193.655 7 104026900.26245                  25404425.840
  25404418.980          42.850          34.250
 120628063.810 7  93821839.606 5                  22573897.700    22573901.320
  22573899.420          45.550          35.750
 115741333.318 8  90021085.107 7                  21629017.260    21629018.940
  21629017.980          48.050          43.450
 102782184.290 8  79941735.963 7                  19281669.760    19281675.760
  19281674.620          48.850          42.950
 112968797.039 8  87864744.909 7                  21118274.060    21118274.880
  21118273.520          48.450          44.700
 109410951.417 8  85097397.524 6                  20489140.920    20489143.620
  20489141.500          48.350          37.500
 102894316.869 7  80029063.693 7                  19241709.100    19241712.980
  19241710.780          44.700          47.000
 124626749.730 8                  93065562.932 8  23715629.680
                        50.550


 124822023.293 8                  93211358.837 8  23752787.560
                        50.600
 15  1 27  0  4 20.0000000  0 19G31G08G21G25G05G16G14G12G29G02R11R21
                                R10R19R09R20E12E18E11
 108728842.125 8  84723784.507 8                  20690404.380    20690399.760
  20690398.820          50.100          49.000
 117633593.686 8  91662521.09447                  22384926.560
  22384922.480          49.400          42.750
 117616987.356 8  91649656.33447                  22381739.340
  22381734.220          48.600          42.300
 114135820.656 8  88937176.369 7  85231454.701 8  21719242.260    21719241.000
  21719240.160          49.650          47.400
 133656148.956 7 104147653.394 6                  25433917.920    25433915.220
  25433914.220          43.500          36.200
 131814547.621 7 102712631.22845                  25083476.180
  25083470.900          43.600          31.050
 128728953.287 7 100308268.29345                  24496298.620
  24496294.760          42.800          32.050
 130636012.785 7 101794463.360 6                  24859132.880    24859129.620
  24859128.760          44.250          39.350
 108445014.078 8  84502748.694 8                  20636336.720    20636332.700
  20636332.060          49.150          48.650
 133515718.462 6 104038218.30745                  25407189.820
  25407182.920          41.950          31.800
 120608554.494 7  93806665.700 5                  22570246.800    22570250.400
  22570248.480          45.900          35.750
 115724905.449 7  90008307.874 7                  21625947.360    21625949.020
  21625948.020          47.950          43.450
 102776162.579 8  79937052.405 7                  19280540.140    19280546.140
  19280544.960          48.950          42.850
 112985280.951 8  87877565.730 7                  21121355.560    21121356.440
  21121355.040          48.500          44.650
 109424367.882 7  85107832.553 6                  20491653.400    20491656.140
  20491653.980          47.900          37.250
 102893252.606 7  80028235.925 7                  19241510.060    19241513.980
  19241511.760          44.550          47.200
 124632166.707 8                  93069608.077 8  23716660.500
                        50.550


 124815178.780 8                  93206247.671 8  23751485.120
                        50.650
 15  1 27  0  4 25.0000000  0 19G31G08G21G25G05G16G14G12G29G02R11R21
                                R10R19R09R20E12E18E11
 108727040.717 8  84722380.812 8                  20690061.560    20690056.960
  20690056.040          50.200          49.000
 117618776.656 8  91650975.36347                  22382107.000
  22382102.860          49.400          42.800
 117604623.361 8  91640022.05646                  22379386.560
  22379381.440          48.600          41.850
 114145260.121 8  88944531.805 7  85238503.654 8  21721038.580    21721037.300
  21721036.440          49.850          47.350
 133649508.930 7 104142479.366 6                  25432654.420    25432651.580
  25432650.680          44.750          37.500
 131799940.506 7 102701249.06745                  25080696.520
  25080691.180          43.950          30.850
 128744121.703 7 100320087.85845                  24499185.080
  24499181.200          42.850          33.050
 130650051.312 7 101805402.458 6                  24861804.320    24861801.100
  24861800.260          44.900          39.850
 108453322.368 8  84509222.682 8                  20637917.720    20637913.720
  20637913.080          49.250          48.550
 133530246.273 6 104049538.67945                  25409954.320
  25409947.460          41.750          33.600
 120589046.060 7  93791492.471 5                  22566596.140    22566599.700
  22566597.740          45.800          35.800
 115708485.797 7  89995537.050 7                  21622878.980    21622880.560
  21622879.600          47.600          43.700
 102770155.739 8  79932380.424 7                  19279413.300    19279419.300
  19279418.100          49.000          43.000
 113001769.935 8  87890390.497 7                  21124438.000    21124438.920
  21124437.500          48.500          44.900
 109437796.213 7  85118276.817 6                  20494168.100    20494170.840
  20494168.680          47.800          37.550
 102892203.891 7  80027420.260 7                  19241313.960    19241317.860
  19241315.660          44.550          47.250
 124637588.876 8                  93073657.101 8  23717692.340
                        50.650


 124808340.195 8                  93201140.943 8  23750183.840
                        50.750
 15  1 27  0  4 30.0000000  0 19G31G08G21G25G05G16G14G12G29G02R11R21
                                R10R19R09R20E12E18E11
 108725255.799 8  84720989.963 8                  20689721.900    20689717.320
  20689716.400          50.100          49.050
 117603969.661 8  91639437.44547                  22379289.320
  22379285.140          49.250          42.900
 117592269.301 8  91630395.50946                  22377035.640
  22377030.540          48.450          41.800
 114154707.608 8  88951893.485 7  85245558.600 8  21722836.420    21722835.100
  21722834.220          49.600          47.400
 133642880.630 7 104137314.445 6                  25431393.140    25431390.240
  25431389.300          44.850          37.200
 131785334.392 7 102689867.70645                  25077917.040
  25077911.700          43.800          30.600
 128759291.327 7 100331908.33045                  24502071.760
  24502067.860          43.600          30.550
 130664093.450 7 101816344.381 6                  24864476.460    24864473.260
  24864472.460          45.000          39.400
 108461640.629 8  84515704.438 8                  20639500.620    20639496.640
  20639496.020          49.600          48.600
 133544781.228 6 104060864.65345                  25412720.180
  25412713.260          41.100          34.800
 120569542.723 7  93776323.212 5                  22562946.420    22562949.900
  22562947.960          45.900          35.750
 115692078.599 7  89982775.915 7                  21619812.900    21619814.480
  21619813.540          47.400          43.850
 102764168.046 8  79927723.325 7                  19278290.040    19278296.020
  19278294.840          48.950          43.100
 113018268.247 8  87903222.512 7                  21127522.200    21127523.120
  21127521.700          48.650          45.100
 109451240.567 7  85128733.526 6                  20496685.780    20496688.560
  20496686.380          47.900          37.500
 102891174.967 7  80026619.984 7                  19241121.540    19241125.440
  19241123.280          45.000          47.150
 124643020.331 8                  93077713.062 8  23718725.940
                        50.550


 124801511.620 8                  93196041.686 8  23748884.440
                        50.900
 15  1 27  0  4 35.0000000  0 19G31G08G21G25G05G16G14G12G29G02R11R21
                                R10R19R09R20E12E18E11
 108723486.106 8  84719610.983 8                  20689385.140    20689380.560
  20689379.640          50.050          49.050
 117589171.466 8  91627906.38947                  22376473.320
  22376469.140          49.450          42.850
 117579923.891 8  91620775.71147                  22374686.340
  22374681.260          48.250          42.400
 114164161.916 8  88959260.472 7  85252618.629 8  21724635.540    21724634.180
  21724633.320          49.650          47.350
 133636262.814 7 104132157.687 6                  25430133.840    25430130.920
  25430130.040          44.050          37.550
 131770728.011 7 102678486.08545                  25075137.480
  25075132.080          44.000          32.650
 128774460.914 7 100343728.77345                  24504958.500
  24504954.460          44.100          31.750
 130678137.979 7 101827288.183 6                  24867149.080    24867145.920
  24867145.060          44.900          39.550
 108469967.566 8  84522192.958 8                  20641085.180    20641081.200
  20641080.600          50.050          48.700
 133559322.072 6 104072195.19645                  25415487.140
  25415480.160          40.850          34.900
 120550043.119 7  93761156.849 5                  22559297.360    22559300.720
  22559298.840          46.150          35.600
 115675682.615 7  89970023.489 7                  21616748.920    21616750.500
  21616749.560          47.400          43.800
 102758198.162 8  79923080.082 7                  19277170.140    19277176.020
  19277174.920          49.000          43.000
 113034774.370 8  87916060.597 7                  21130607.820    21130608.780
  21130607.380          48.400          45.100
 109464699.696 7  85139201.744 6                  20499206.180    20499209.040
  20499206.880          47.800          37.500
 102890164.331 7  80025833.944 7                  19240932.540    19240936.420
  19240934.300          45.150          47.000
 124648459.811 8                  93081774.995 8  23719761.060
                        50.550


 124794691.811 8                  93190948.974 8  23747586.720
                        50.900
 15  1 27  0  4 40.0000000  0 19G31G08G21G25G05G16G14G12G29G02R11R21
                                R10R19R09R20E12E18E11
 108721730.107 8  84718242.679 8                  20689050.980    20689046.400
  20689045.500          50.000          49.050
 117574380.532 8  91616380.98747                  22373658.720
  22373654.500          49.400          42.850
 117567585.540 8  91611161.42246                  22372338.380
  22372333.320          48.150          41.850
 114173621.461 8  88966631.548 7  85259682.567 8  21726435.660    21726434.280
  21726433.400          49.750          47.600
 133629653.982 7 104127007.957 6                  25428876.200    25428873.320
  25428872.440          43.900          37.200
 131756119.779 7 102667103.08945                  25072357.600
  25072352.280          44.600          33.300
 128789628.852 7 100355547.95745                  24507844.920
  24507840.780          44.200          32.050
 130692183.299 7 101838232.594 6                  24869821.860    24869818.660
  24869817.780          45.250          38.850
 108478301.616 8  84528687.028 8                  20642671.100    20642667.120
  20642666.540          50.100          48.450
 133573867.274 6 104083529.11045                  25418254.920
  25418247.980          41.100          31.650
 120530545.730 7  93745992.217 5                  22555648.800    22555651.980
  22555650.120          46.150          35.700
 115659296.207 7  89957278.513 7                  21613686.700    21613688.340
  21613687.360          47.300          43.800
 102752244.440 8  79918449.414 7                  19276053.260    19276059.160
  19276058.040          48.900          42.700
 113051286.891 8  87928903.658 7                  21133694.640    21133695.680
  21133694.240          48.350          44.800
 109478172.039 7  85149680.226 6                  20501729.060    20501731.900
  20501729.840          47.700          37.400
 102889170.674 7  80025061.101 7                  19240746.700    19240750.620
  19240748.480          44.700          46.950
 124653905.730 8                  93085841.755 8  23720797.400
                        50.650


 124787879.204 8                  93185861.628 8  23746290.400
                        50.850
 15  1 27  0  4 45.0000000  0 19G31G08G21G25G05G16G14G12G29G02R11R21
                                R10R19R09R20E12E18E11
 108719991.336 8  84716887.782 8                  20688720.100    20688715.520
  20688714.620          50.050          49.100
 117559600.385 8  91604863.98547                  22370846.160
  22370841.920          49.450          43.000
 117555257.810 8  91601555.39946                  22369992.420
  22369987.420          48.050          41.650
 114183089.771 8  88974009.450 7  85266753.064 8  21728237.460    21728236.060
  21728235.160          49.700          47.650
 133623057.599 7 104121867.924 6                  25427620.980    25427618.000
  25427617.220          43.650          37.050
 131741513.238 7 102655721.36445                  25069578.060
  25069572.900          44.800          30.850
 128804798.689 7 100367368.62445                  24510731.660
  24510727.560          44.400          31.550
 130706232.925 7 101849180.365 6                  24872495.440    24872492.220
  24872491.300          45.100          39.850
 108486646.284 8  84535189.362 8                  20644259.020    20644255.060
  20644254.480          50.050          48.500
 133588420.212 6 104094869.06045                  25421024.220
  25421017.300          41.550          33.900
 120511054.139 7  93730832.089 5                  22552001.280    22552004.500
  22552002.540          46.000          35.850
 115642922.993 7  89944543.791 7                  21610626.960    21610628.640
  21610627.660          47.200          44.300
 102746310.669 8  79913834.252 7                  19274940.120    19274945.980
  19274944.860          48.850          42.850
 113067809.209 8  87941754.341 7                  21136783.280    21136784.340
  21136782.940          48.300          44.700
 109491661.066 7  85160171.682 6                  20504255.060    20504258.080
  20504255.940          47.600          37.500
 102888197.347 7  80024304.069 7                  19240564.720    19240568.580
  19240566.460          44.500          47.000
 124659361.647 8                  93089915.981 8  23721835.620
                        50.600


 124781077.325 8                  93180782.313 8  23744996.100
                        50.750
 15  1 27  0  4 50.0000000  0 19G31G08G21G25G05G16G14G12G29G02R11R21
                                R10R19R09R20E12E18E11
 108718265.972 8  84715543.336 8                  20688391.780    20688387.200
  20688386.320          50.000          49.150
 117544827.117 8  91593352.35547                  22368034.920
  22368030.660          49.400          42.700
 117542936.857 7  91591954.66247                  22367647.740
  22367642.800          47.800          42.250
 114192562.947 8  88981391.144 7  85273827.185 8  21730040.180    21730038.760
  21730037.880          49.700          47.700
 133616469.823 7 104116734.595 6                  25426367.400    25426364.340
  25426363.620          44.050          36.700
 131726904.549 7 102644337.95844                  25066798.120
  25066792.940          44.650          29.100
 128819966.500 7 100379187.69545                  24513618.000
  24513613.940          44.350          33.900
 130720282.956 7 101860128.427 6                  24875169.080    24875165.820
  24875165.060          45.600          39.900
 108494997.718 8  84541696.975 8                  20645848.260    20645844.280
  20645843.680          50.050          48.400
 133602977.107 6 104106212.13845                  25423794.280
  25423787.420          40.650          34.950
 120491564.448 7  93715673.432 5                  22548354.100    22548357.360
  22548355.300          45.800          35.200
 115626559.020 7  89931816.267 7                  21607568.940    21607570.620
  21607569.660          47.200          43.950
 102740392.896 8  79909231.540 7                  19273829.960    19273835.800
  19273834.680          48.900          42.650
 113084337.459 8  87954609.653 7                  21139873.020    21139874.120
  21139872.700          48.300          44.650
 109505162.952 7  85170673.138 6                  20506783.440    20506786.660
  20506784.440          47.600          37.400
 102887240.507 7  80023559.854 7                  19240385.760    19240389.660
  19240387.540          44.600          47.050
 124664823.623 8                  93093994.731 8  23722875.020
                        50.550


 124774282.291 8                  93175708.110 8  23743703.100
                        50.750
 15  1 27  0  4 55.0000000  0 19G31G08G21G25G05G16G14G12G29G02R11R21
                                R10R19R09R20E12E18E11
 108716555.902 8  84714210.818 8                  20688066.380    20688061.800
  20688060.900          50.100          49.200
 117530062.740 8  91581847.64647                  22365225.360
  22365221.080          49.700          42.900
 117530624.566 7  91582360.68447                  22365304.720
  22365299.840          47.850          42.450
 114202042.947 8  88988778.159 7  85280906.404 8  21731844.200    21731842.760
  21731841.900          49.850          47.600
 133609892.547 7 104111609.449 6                  25425115.800    25425112.720
  25425111.880          43.900          37.150
 131712295.640 7 102632954.40945                  25064018.120
  25064013.060          44.750          32.200
 128835134.248 7 100391006.70445                  24516504.360
  24516500.200          44.400          30.700
 130734335.349 7 101871078.354 6                  24877843.200    24877839.880
  24877839.220          46.300          39.650
 108503357.854 8  84548211.377 8                  20647439.120    20647435.180
  20647434.540          49.900          48.450
 133617539.825 6 104117559.72845                  25426565.420
  25426558.680          40.550          34.900
 120472078.599 7  93700517.767 5                  22544707.640    22544710.900
  22544708.780          45.650          35.850
 115610206.271 7  89919097.466 7                  21604513.020    21604514.700
  21604513.780          46.950          43.950
 102734492.984 8  79904642.718 7                  19272723.160    19272729.040
  19272727.820          48.950          42.700
 113100873.557 8  87967471.052 7                  21142964.260    21142965.300
  21142963.940          48.550          44.650
 109518679.510 7  85181186.018 6                  20509314.580    20509317.800
  20509315.640          47.650          37.100
 102886302.187 7  80022830.054 7                  19240210.260    19240214.180
  19240212.100          44.800          47.150
 124670293.600 8                  93098079.456 8  23723915.940
                        50.600


 124767496.036 8                  93170640.450 8  23742411.740
                        50.800
 15  1 27  0  5  0.0000000  0 19G31G08G21G25G05G16G14G12G29G02R11R21
                                R10R19R09R20E12E18E11
 108714862.995 8  84712891.676 8                  20687744.240    20687739.660
  20687738.760          50.200          49.150
 117515309.196 8  91570351.38347                  22362417.880
  22362413.560          49.600          43.050
 117518322.959 8  91572775.02046                  22362963.720
  22362958.940          48.100          41.800
 114211531.705 8  88996171.998 7  85287992.168 8  21733649.880    21733648.400
  21733647.580          49.850          47.750
 133603327.739 7 104106494.012 6                  25423866.520    25423863.440
  25423862.600          43.650          36.200
 131697688.423 7 102621572.17644                  25061238.420
  25061233.320          44.350          29.800
 128850303.848 7 100402827.19045                  24519391.060
  24519386.980          44.000          33.000
 130748391.962 7 101882031.558 6                  24880518.200    24880514.740
  24880514.100          46.550          39.300
 108511728.611 8  84554734.042 8                  20649032.020    20649028.080
  20649027.440          49.700          48.450
 133632110.320 6 104128913.36545                  25429338.060
  25429331.360          41.100          34.600
 120452598.532 7  93685366.616 6                  22541062.220    22541065.440
  22541063.400          45.800          36.200
 115593866.774 7  89906388.986 7                  21601459.560    21601461.260
  21601460.360          47.200          43.650
 102728612.952 8  79900069.359 7                  19271620.080    19271625.960
  19271624.720          48.950          42.850
 113117419.478 8  87980340.103 7                  21146057.360    21146058.400
  21146057.020          48.500          44.550
 109532212.744 7  85191711.869 6                  20511848.880    20511852.140
  20511850.020          47.800          37.250
 102885384.238 7  80022116.098 7                  19240038.580    19240042.520
  19240040.440          44.750          47.050
 124675773.559 8                  93102171.627 8  23724958.760
                        50.650


 124760720.514 8                  93165580.815 8  23741122.440
                        50.900
 15  1 27  0  5  5.0000000  0 19G31G08G21G25G05G16G14G12G29G02R11R21
                                R10R19R09R20E12E18E11
 108713182.865 8  84711582.484 8                  20687424.540    20687419.920
  20687419.040          50.200          49.050
 117500562.043 8  91558860.10047                  22359611.620
  22359607.260          49.550          42.850
 117506027.577 7  91563194.20946                  22360623.920
  22360619.220          47.950          41.750
 114221024.784 8  89003569.205 7  85295081.152 8  21735456.400    21735454.900
  21735454.100          49.600          47.700
 133596771.063 7 104101384.930 6                  25422618.820    25422615.780
  25422614.900          44.100          37.150
 131683078.465 7 102610187.79945                  25058458.180
  25058453.100          44.250          33.550
 128865470.835 7 100414645.62545                  24522277.220
  24522273.220          43.750          32.300
 130762448.381 7 101892984.626 6                  24883193.160    24883189.600
  24883188.960          46.150          39.650
 108520105.531 8  84561261.511 8                  20650626.060    20650622.160
  20650621.500          49.650          48.500
 133646684.130 6 104140269.60645                  25432111.340
  25432104.520          40.550          33.900
 120433119.926 7  93670216.602 6                  22537417.100    22537420.280
  22537418.320          45.700          36.300
 115577535.973 7  89893687.241 7                  21598407.780    21598409.460
  21598408.540          46.850          43.300
 102722748.353 8  79895508.008 7                  19270519.880    19270525.780
  19270524.560          48.700          43.000
 113133970.666 8  87993213.249 7                  21149151.440    21149152.480
  21149151.080          48.450          44.500
 109545758.239 7  85202247.258 6                  20514385.520    20514388.720
  20514386.640          47.800          37.300
 102884482.108 7  80021414.445 7                  19239869.900    19239873.800
  19239871.740          44.650          47.100
 124681258.996 8                  93106267.894 8  23726002.600
                        50.650


 124753951.276 8                  93160525.863 8  23739834.320
                        50.850
 15  1 27  0  5 10.0000000  0 19G31G08G21G25G05G16G14G12G29G02R11R21
                                R10R19R09R20E12E18E11
 108711519.045 8  84710285.995 8                  20687107.940    20687103.320
  20687102.440          50.250          49.000
 117485824.803 8  91547376.53147                  22356807.240
  22356802.840          49.600          42.550
 117493741.947 7  91553620.99146                  22358285.980
  22358281.320          47.950          41.700
 114230525.678 8  89010972.484 7  85302175.978 8  21737264.360    21737262.880
  21737262.080          49.700          47.650
 133590225.963 7 104096284.871 6                  25421373.300    25421370.260
  25421369.340          43.100          36.650
 131668469.296 7 102598804.02145                  25055678.060
  25055673.020          44.050          34.500
 128880638.704 7 100426464.71345                  24525163.560
  24525159.660          43.650          34.850
 130776508.202 7 101903940.323 6                  24885868.720    24885865.140
  24885864.520          46.300          40.000
 108528492.158 8  84567796.532 8                  20652221.980    20652218.080
  20652217.420          49.600          48.400
 133661264.804 6 104151631.16445                  25434885.940
  25434879.180          40.750          34.550
 120413646.169 7  93655070.343 6                  22533772.880    22533776.040
  22533774.120          45.750          36.550
 115561217.443 7  89880995.042 7                  21595358.240    21595359.980
  21595359.020          46.550          43.300
 102716902.647 8  79890961.346 7                  19269423.220    19269429.080
  19269427.980          48.650          43.050
 113150530.740 8  88006093.304 7                  21152247.180    21152248.240
  21152246.800          48.200          44.400
 109559319.481 7  85212794.875 6                  20516925.100    20516928.340
  20516926.220          47.800          37.200
 102883599.436 7  80020727.918 7                  19239704.860    19239708.720
  19239706.660          44.600          47.050
 124686753.451 8                  93110370.909 8  23727048.160
                        50.550


 124747191.835 8                  93155478.218 8  23738548.060
                        50.800
 15  1 27  0  5 15.0000000  0 19G31G08G21G25G05G16G14G12G29G02R11R21
                                R10R19R09R20E12E18E11
 108709871.743 8  84709002.387 8                  20686794.500    20686789.860
  20686788.960          50.150          49.100
 117471097.713 8  91535900.87647                  22354004.800
  22354000.380          49.400          42.950
 117481466.298 8  91544055.55646                  22355949.980
  22355945.300          48.000          41.950
 114240034.626 8  89018382.058 7  85309276.809 8  21739073.860    21739072.400
  21739071.620          49.650          47.650
 133583692.504 7 104091193.857 6                  25420130.000    25420126.920
  25420126.000          42.700          36.850
 131653861.119 7 102587421.03445                  25052898.180
  25052893.200          44.100          31.000
 128895807.647 7 100438284.67145                  24528050.120
  24528046.160          43.000          34.850
 130790571.597 7 101914898.806 6                  24888544.920    24888541.380
  24888540.760          45.900          39.200
 108536888.606 8  84574339.221 8                  20653819.760    20653815.880
  20653815.220          49.850          48.400
 133675852.512 6 104162998.24245                  25437661.800
  25437655.040          41.100          35.200
 120394177.604 7  93639928.136 6                  22530129.620    22530132.800
  22530130.840          45.950          36.100
 115544911.434 7  89868312.610 7                  21592311.040    21592312.800
  21592311.840          47.300          43.550
 102711076.139 8  79886429.626 7                  19268330.180    19268336.000
  19268334.980          48.950          42.750
 113167099.872 8  88018980.405 7                  21155344.560    21155345.660
  21155344.200          48.000          44.150
 109572896.698 8  85223354.936 6                  20519467.680    20519471.040
  20519468.800          48.000          36.900
 102882736.430 7  80020056.700 7                  19239543.480    19239547.340
  19239545.280          44.600          46.950
 124692257.121 8                  93114480.783 8  23728095.460
                        50.400


 124740442.396 8                  93150438.057 8  23737263.700
                        50.550
 15  1 27  0  5 20.0000000  0 19G31G08G21G25G05G16G14G12G29G02R11R21
                                R10R19R09R20E12E18E11
 108708237.301 8  84707728.796 8                  20686483.480    20686478.820
  20686477.940          50.400          49.050
 117456377.124 8  91524430.28747                  22351203.580
  22351199.120          49.600          42.800
 117469196.943 8  91534495.02046                  22353615.160
  22353610.500          48.300          41.800
 114249547.932 8  89025795.024 7  85316380.901 8  21740884.200    21740882.720
  21740881.980          49.850          47.700
 133577167.331 7 104086109.303 6                  25418888.320    25418885.120
  25418884.280          44.050          36.350
 131639250.258 7 102576035.93745                  25050117.760
  25050112.900          44.300          31.650
 128910973.963 7 100450102.54345                  24530936.180
  24530932.140          43.250          35.350
 130804634.917 7 101925857.240 6                  24891221.120    24891217.560
  24891216.860          46.350          39.600
 108545291.279 8  84580886.761 8                  20655418.740    20655414.880
  20655414.220          49.900          48.600
 133690443.552 6 104174367.88746                  25440438.340
  25440431.400          40.900          36.950
 120374710.504 7  93624787.051 5                  22526486.660    22526489.780
  22526487.840          45.800          35.650
 115528614.217 7  89855636.999 7                  21589265.480    21589267.220
  21589266.280          47.100          43.200
 102705265.170 8  79881909.980 7                  19267240.040    19267245.960
  19267244.900          49.000          42.800
 113183674.239 7  88031871.573 7                  21158442.920    21158444.080
  21158442.600          47.900          44.000
 109586486.114 7  85233924.475 6                  20522012.560    20522015.940
  20522013.640          47.700          36.900
 102881889.354 7  80019397.861 7                  19239385.080    19239388.920
  19239386.880          44.300          46.950
 124697766.321 8                  93118594.800 8  23729143.820
                        50.600


 124733699.305 8                  93145402.632 8  23735980.560
                        50.800
 15  1 27  0  5 25.0000000  0 19G31G08G21G25G05G16G14G12G29G02R11R21
                                R10R19R09R20E12E18E11
 108706618.493 8  84706467.389 8                  20686175.460    20686170.780
  20686169.900          50.400          49.100
 117441665.815 8  91512966.92847                  22348404.100
  22348399.640          49.300          42.900
 117456936.743 8  91524941.61747                  22351282.140
  22351277.440          48.300          42.450
 114259068.406 8  89033213.569 7  85323490.339 8  21742695.880    21742694.400
  21742693.700          49.700          47.850
 133570653.058 7 104081033.254 6                  25417648.720    25417645.360
  25417644.740          43.700          36.550
 131624639.512 7 102564650.94545                  25047337.340
  25047332.520          44.050          32.750
 128926140.474 7 100461920.58745                  24533822.300
  24533818.300          43.250          34.950
 130818700.971 7 101936817.809 6                  24893897.840    24893894.260
  24893893.520          46.200          39.650
 108553702.920 8  84587441.280 8                  20657019.400    20657015.560
  20657014.900          50.000          48.650
 133705040.782 6 104185742.36446                  25443216.120
  25443209.080          40.600          37.200
 120355247.763 7  93609649.368 6                  22522844.480    22522847.620
  22522845.660          45.900          36.250
 115512328.653 7  89842970.446 7                  21586222.120    21586223.920
  21586222.940          47.250          43.400
 102699472.469 8  79877404.552 7                  19266153.320    19266159.240
  19266158.200          49.000          42.900
 113200256.782 7  88044769.115 7                  21161542.820    21161544.060
  21161542.520          47.750          44.200
 109600090.572 7  85244505.723 6                  20524560.240    20524563.640
  20524561.300          47.800          37.200
 102881060.997 7  80018753.587 7                  19239230.180    19239234.000
  19239231.980          44.350          46.850
 124703283.864 8                  93122715.041 8  23730193.760
                        50.600


 124726965.358 8                  93140374.033 8  23734699.120
                        50.750
 15  1 27  0  5 30.0000000  0 19G31G08G21G25G05G16G14G12G29G02R11R21
                                R10R19R09R20E12E18E11
 108705014.383 8  84705217.431 8                  20685870.240    20685865.520
  20685864.660          50.300          48.950
 117426962.864 8  91501510.09147                  22345606.220
  22345601.720          49.300          43.000
 117444684.702 8  91515394.57647                  22348950.660
  22348945.940          48.250          42.300
 114268595.089 8  89040636.954 7  85330604.426 8  21744508.760    21744507.280
  21744506.580          49.700          47.800
 133564148.767 7 104075964.949 6                  25416411.020    25416407.560
  25416406.960          43.900          36.950
 131610027.949 7 102553265.30745                  25044556.820
  25044552.060          43.950          32.600
 128941306.191 7 100473738.01645                  24536708.240
  24536704.180          42.750          35.000
 130832768.735 7 101947779.701 6                  24896574.900    24896571.260
  24896570.540          46.000          38.750
 108562122.564 8  84594002.048 8                  20658621.620    20658617.760
  20658617.100          49.900          48.600
 133719643.175 6 104197120.84646                  25445994.800
  25445987.660          40.700          36.850
 120335788.253 7  93594514.196 6                  22519202.880    22519206.040
  22519204.080          45.650          36.100
 115496053.702 7  89830312.168 7                  21583180.740    21583182.580
  21583181.580          47.650          43.400
 102693697.186 8  79872912.660 7                  19265069.900    19265075.800
  19265074.760          48.950          42.900
 113216846.381 7  88057672.126 7                  21164644.060    21164645.300
  21164643.760          47.900          44.300
 109613709.117 7  85255097.929 6                  20527110.540    20527113.960
  20527111.600          47.950          37.300
 102880250.497 7  80018123.198 7                  19239078.640    19239082.400
  19239080.420          44.850          47.000
 124708808.769 8                  93126840.784 8  23731245.100
                        50.400


 124720239.591 8                  93135351.546 8  23733419.220
                        50.700
 15  1 27  0  5 35.0000000  0 19G31G08G21G25G05G16G14G12G29G02R11R21
                                R10R19R09R20E12E18E11
 108703425.386 8  84703979.248 8                  20685567.880    20685563.140
  20685562.280          50.200          49.050
 117412268.710 8  91490060.10347                  22342810.000
  22342805.500          49.400          42.900
 117432441.239 8  91505854.21547                  22346620.840
  22346616.100          48.450          42.600
 114278128.425 8  89048065.527 7  85337723.470 8  21746322.880    21746321.420
  21746320.720          49.550          47.800
 133557654.935 7 104070904.814 6                  25415175.340    25415171.920
  25415171.200          44.150          38.050
 131595415.960 7 102541879.35845                  25041776.180
  25041771.480          43.700          33.200
 128956471.485 7 100485555.13345                  24539594.140
  24539590.140          42.650          34.400
 130846838.675 7 101958743.313 6                  24899252.340    24899248.720
  24899247.920          46.150          38.900
 108570550.595 8  84600569.343 8                  20660225.440    20660221.580
  20660220.900          49.850          48.600
 133734251.141 6 104208503.73645                  25448774.580
  25448767.560          41.100          34.300
 120316332.537 7  93579381.972 5                  22515562.000    22515565.140
  22515563.200          45.200          35.650
 115479789.933 8  89817662.587 7                  21580141.460    21580143.280
  21580142.300          48.050          43.300
 102687939.746 8  79868434.652 7                  19263989.800    19263995.700
  19263994.640          48.850          42.850
 113233443.550 7  88070581.037 7                  21167746.700    21167747.960
  21167746.440          47.950          44.300
 109627342.123 8  85265701.378 6                  20529663.580    20529666.980
  20529664.580          48.100          36.850
 102879458.187 7  80017506.961 7                  19238930.460    19238934.240
  19238932.240          44.800          46.950
 124714341.473 8                  93130972.342 8  23732297.920
                        50.300


 124713522.413 8                  93130335.478 8  23732140.920
                        50.600
 15  1 27  0  5 40.0000000  0 19G31G08G21G25G05G16G14G12G29G02R11R21
                                R10R19R09R20E12E18E11
 108701853.224 8  84702754.188 8                  20685268.720    20685263.980
  20685263.100          50.050          49.050
 117397585.012 8  91478618.25847                  22340015.800
  22340011.260          49.150          42.800
 117420208.073 8  91496321.88547                  22344292.980
  22344288.220          48.650          42.450
 114287670.053 8  89055500.560 7  85344848.713 8  21748138.560    21748137.120
  21748136.440          49.400          47.650
 133551173.267 7 104065854.180 6                  25413941.920    25413938.620
  25413937.900          43.550          37.600
 131580805.256 7 102530494.39845                  25038995.820
  25038991.200          43.850          34.250
 128971638.048 7 100497373.21945                  24542480.220
  24542476.300          42.750          32.900
 130860912.480 7 101969709.924 6                  24901930.480    24901926.840
  24901926.040          45.250          38.850
 108578988.721 8  84607144.510 8                  20661831.140    20661827.300
  20661826.640          49.800          48.450
 133748866.324 6 104219892.21545                  25451555.740
  25451548.820          40.600          35.650
 120296882.469 7  93564254.144 5                  22511922.100    22511925.200
  22511923.360          44.900          35.350
 115463538.932 8  89805022.909 7                  21577104.600    21577106.400
  21577105.400          48.100          43.750
 102682201.862 8  79863971.851 7                  19262913.360    19262919.280
  19262918.200          48.750          42.700
 113250049.999 7  88083497.168 7                  21170851.160    21170852.380
  21170850.860          47.850          44.500
 109640991.335 8  85276317.434 6                  20532219.640    20532223.020
  20532220.600          48.050          36.850
 102878685.716 7  80016906.155 7                  19238786.000    19238789.760
  19238787.780          44.850          46.950
 124719883.612 8                  93135110.959 8  23733352.540
                        50.300


 124706815.537 8                  93125327.094 8  23730864.580
                        50.550
 15  1 27  0  5 45.0000000  0 19G31G08G21G25G05G16G14G12G29G02R11R21
                                R10R19R09R20E12E18E11
 108700294.478 8  84701539.579 8                  20684972.120    20684967.360
  20684966.480          50.050          49.050
 117382908.415 8  91467181.95347                  22337222.920
  22337218.400          49.000          42.750
 117407981.808 8  91486794.92647                  22341966.460
  22341961.680          48.800          42.750
 114297216.598 8  89062939.426 7  85351977.619 8  21749955.160    21749953.780
  21749953.080          49.100          47.650
 133544700.327 7 104060810.331 6                  25412710.180    25412706.840
  25412706.180          42.800          38.000
 131566192.450 7 102519107.80045                  25036215.060
  25036210.440          44.000          32.650
 128986802.496 7 100509189.66045                  24545365.940
  24545362.040          42.750          34.200
 130874986.710 7 101980676.851 6                  24904608.680    24904605.040
  24904604.380          45.600          39.000
 108587433.576 8  84613724.912 8                  20663438.140    20663434.320
  20663433.640          49.650          48.500
 133763485.465 6 104231283.72945                  25454337.600
  25454330.660          40.300          35.150
 120277434.478 7  93549127.934 6                  22508282.620    22508285.760
  22508283.920          44.950          36.250
 115447297.360 7  89792390.581 7                  21574069.460    21574071.280
  21574070.260          47.900          43.800
 102676480.033 8  79859521.546 7                  19261839.940    19261845.940
  19261844.800          48.550          42.750
 113266662.202 8  88096417.764 7                  21173956.700    21173957.860
  21173956.320          48.050          44.700
 109654653.302 8  85286943.410 6                  20534778.120    20534781.360
  20534779.000          48.250          36.950
 102877929.744 7  80016318.181 7                  19238644.640    19238648.380
  19238646.400          44.800          46.950
 124725431.805 8                  93139254.094 8  23734408.320
                        50.400


 124700115.548 8                  93120323.858 8  23729589.560
                        50.400
 15  1 27  0  5 50.0000000  0 19G31G08G21G25G05G16G14G12G29G02R11R21
                                R10R19R09R20E12E18E11
 108698752.165 8  84700337.776 8                  20684678.640    20684673.860
  20684672.980          50.050          49.050
 117368241.944 8  91455753.53647                  22334431.980
  22334427.460          48.900          42.800
 117395765.469 8  91477275.70347                  22339641.840
  22339637.020          48.850          42.550
 114306771.082 8  89070384.471 7  85359112.457 8  21751773.260    21751771.940
  21751771.240          49.200          47.650
 133538239.222 7 104055775.701 6                  25411480.580    25411477.400
  25411476.820          42.400          38.250
 131551580.580 7 102507721.92545                  25033434.520
  25033429.880          44.250          33.650
 129001967.819 7 100521006.77845                  24548251.760
  24548247.920          42.800          31.800
 130889064.440 7 101991646.501 6                  24907287.540    24907283.940
  24907283.360          45.150          39.350
 108595888.130 8  84620312.874 8                  20665046.980    20665043.160
  20665042.480          49.900          48.600
 133778111.369 6 104242680.54445                  25457120.800
  25457113.840          40.550          34.200
 120257991.605 7  93534005.713 6                  22504644.120    22504647.340
  22504645.500          44.950          36.250
 115431068.264 7  89779767.953 7                  21571036.640    21571038.460
  21571037.440          47.600          43.900
 102670777.261 8  79855086.054 7                  19260770.100    19260776.100
  19260774.980          48.700          42.850
 113283283.252 7  88109345.239 7                  21177063.860    21177064.960
  21177063.440          47.950          44.800
 109668331.086 8  85297581.680 6                  20537339.560    20537342.800
  20537340.380          48.300          37.250
 102877193.285 7  80015745.382 7                  19238506.880    19238510.680
  19238508.640          44.850          46.950
 124730989.097 8                  93143404.014 8  23735465.800
                        50.400


 124693425.462 8                  93115328.017 8  23728316.420
                        50.350
 15  1 27  0  5 55.0000000  0 19G31G08G21G25G05G16G14G12G29G02R11R21
                                R10R19R09R20E12E18E11
 108697224.678 8  84699147.529 8                  20684387.980    20684383.200
  20684382.320          50.050          48.900
 117353584.000 8  91444331.76447                  22331642.640
  22331638.160          48.750          42.700
 117383557.477 8  91467762.98147                  22337318.800
  22337313.960          48.950          42.600
 114316331.886 8  89077834.454 7  85366252.019 8  21753592.560    21753591.320
  21753590.580          49.050          47.650
 133531788.311 7 104050749.015 6                  25410252.940    25410249.860
  25410249.360          42.650          38.350
 131536967.963 7 102496335.49745                  25030653.820
  25030649.120          44.750          30.800
 129017132.372 7 100532823.30945                  24551137.480
  24551133.640          42.700          33.700
 130903144.018 7 102002617.602 6                  24909966.780    24909963.280
  24909962.640          45.250          38.950
 108604350.760 8  84626907.133 8                  20666657.360    20666653.560
  20666652.880          49.750          48.400
 133792742.521 6 104254081.48845                  25459904.960
  25459898.060          40.250          34.050
 120238552.294 7  93518886.251 6                  22501006.260    22501009.480
  22501007.740          44.750          36.700
 115414850.014 7  89767153.759 7                  21568005.840    21568007.680
  21568006.660          47.700          43.650
 102665092.141 8  79850664.299 7                  19259703.600    19259709.620
  19259708.460          48.900          43.050
 113299911.433 8  88122278.263 7                  21180172.340    21180173.420
  21180171.920          48.100          44.850
 109682022.970 8  85308230.930 6                  20539903.640    20539906.820
  20539904.400          48.400          37.050
 102876474.677 7  80015186.464 7                  19238372.460    19238376.300
  19238374.260          44.400          47.000
 124736553.825 8                  93147559.488 8  23736524.720
                        50.450


 124686743.674 8                  93110338.368 8  23727044.860
                        50.400
 15  1 27  0  6  0.0000000  0 19G31G08G21G25G05G16G14G12G29G02R11R21
                                R10R19R09R20E12E18E11
 108695712.029 8  84697968.842 8                  20684100.140    20684095.320
  20684094.480          50.000          49.000
 117338934.606 8  91432916.66447                  22328854.940
  22328850.500          48.650          43.250
 117371357.847 8  91458256.77547                  22334997.380
  22334992.460          48.900          42.700
 114325899.020 8  89085289.358 7  85373396.297 8  21755413.080    21755411.900
  21755411.140          48.900          47.650
 133525347.532 7 104045730.257 6                  25409027.200    25409024.240
  25409023.820          42.800          37.850
 131522354.698 7 102484948.51645                  25027873.000
  25027868.140          44.700          31.650
 129032296.232 7 100544639.28145                  24554023.040
  24554019.160          42.550          33.650
 130917225.456 7 102013590.147 6                  24912646.400    24912642.920
  24912642.260          45.750          39.650
 108612821.478 8  84633507.687 8                  20668269.300    20668265.460
  20668264.800          49.950          48.450
 133807378.914 6 104265486.47645                  25462690.060
  25462683.240          40.050          31.800
 120219116.529 7  93503769.542 6                  22497369.080    22497372.400
  22497370.560          44.800          36.350
 115398642.596 7  89754547.981 7                  21564977.040    21564978.920
  21564977.900          47.850          43.650
 102659424.562 8  79846256.175 7                  19258640.380    19258646.380
  19258645.220          49.050          42.850
 113316546.771 7  88135216.857 7                  21183282.160    21183283.180
  21183281.760          47.900          44.700
 109695729.039 8  85318891.206 6                  20542470.360    20542473.580
  20542471.080          48.400          37.450
 102875773.957 7  80014641.462 7                  19238241.400    19238245.220
  19238243.200          44.300          46.950
 124742126.001 8                  93151720.529 8  23737585.040
                        50.350


 124680070.192 8                  93105354.933 8  23725774.900
                        50.450
 15  1 27  0  6  5.0000000  0 19G31G08G21G25G05G16G14G12G29G02R11R21
                                R10R19R09R20E12E18E11
 108694215.140 8  84696802.431 8                  20683815.300    20683810.500
  20683809.640          50.050          49.000
 117324294.692 8  91421508.94347                  22326069.040
  22326064.600          48.650          43.050
 117359167.465 8  91448757.77647                  22332677.680
  22332672.720          48.950          42.950
 114335473.382 8  89092749.897 7  85380545.983 8  21757234.960    21757233.840
  21757233.080          49.200          47.600
 133518917.912 7 104040720.145 6                  25407803.620    25407800.780
  25407800.300          42.250          37.600
 131507741.629 7 102473561.73445                  25025092.220
  25025087.420          44.450          35.150
 129047460.199 7 100556455.32045                  24556908.620
  24556904.740          42.750          32.500
 130931309.665 7 102024564.872 6                  24915326.520    24915323.120
  24915322.480          45.500          39.700
 108621301.134 8  84640115.219 8                  20669882.900    20669879.080
  20669878.440          49.850          48.550
 133822021.513 6 104276896.30546                  25465476.360
  25465469.600          41.550          36.650
 120199685.281 7  93488656.354 6                  22493732.780    22493736.120
  22493734.260          44.950          36.300
 115382446.916 7  89741951.351 7                  21561950.420    21561952.360
  21561951.340          47.750          43.700
 102653775.538 8  79841862.484 7                  19257580.640    19257586.660
  19257585.480          48.950          42.700
 113333190.177 7  88148161.717 7                  21186393.460    21186394.480
  21186393.080          47.950          44.550
 109709450.117 8  85329563.159 6                  20545039.920    20545043.100
  20545040.600          48.350          37.250
 102875091.936 7  80014111.003 7                  19238113.840    19238117.700
  19238115.640          44.400          46.800
 124747706.539 8                  93155887.820 8  23738646.980
                        50.350


 124673405.934 8                  93100378.377 8  23724506.700
                        50.450
 15  1 27  0  6 10.0000000  0 19G31G08G21G25G05G16G14G12G29G02R11R21
                                R10R19R09R20E12E18E11
 108692733.178 8  84695647.655 8                  20683533.300    20683528.480
  20683527.620          50.100          49.100
 117309663.444 8  91410107.97647                  22323284.760
  22323280.380          48.650          43.000
 117346985.513 8  91439265.34447                  22330359.600
  22330354.580          48.650          43.550
 114345054.160 8  89100215.443 7  85387700.474 8  21759058.080    21759056.980
  21759056.240          49.250          47.600
 133512498.560 7 104035718.063 6                  25406581.960    25406579.320
  25406578.620          42.400          37.050
 131493127.948 7 102462174.45345                  25022311.300
  25022306.540          44.350          34.150
 129062623.491 6 100568270.85845                  24559794.080
  24559790.160          41.700          35.000
 130945395.838 7 102035541.094 6                  24918007.020    24918003.620
  24918003.100          45.900          39.450
 108629788.934 8  84646729.083 8                  20671498.060    20671494.260
  20671493.600          49.900          48.550
 133836669.359 6 104288310.21046                  25468263.700
  25468257.000          41.700          37.350
 120180257.697 7  93473546.011 6                  22490097.140    22490100.500
  22490098.660          44.450          36.050
 115366262.229 7  89729363.276 7                  21558925.880    21558927.860
  21558926.860          47.550          43.550
 102648144.166 8  79837482.526 7                  19256524.160    19256530.220
  19256529.040          48.700          42.650
 113349840.785 8  88161112.188 7                  21189506.160    21189507.180
  21189505.740          48.000          44.300
 109723185.396 8  85340246.150 6                  20547612.100    20547615.220
  20547612.760          48.150          37.300
 102874427.884 7  80013594.518 7                  19237989.620    19237993.520
  19237991.420          44.350          46.800
 124753294.607 8                  93160060.726 8  23739710.340
                        50.200


 124666750.067 8                  93095408.092 8  23723240.080
                        50.350
 15  1 27  0  6 15.0000000  0 19G31G08G21G25G05G16G14G12G29G02R11R21
                                R10R19R09R20E12E18E11
 108691267.126 8  84694505.281 8                  20683254.300    20683249.500
  20683248.620          50.050          49.200
 117295041.862 8  91398714.53647                  22320502.300
  22320498.000          48.600          42.850
 117334813.009 8  91429780.28447                  22328043.320
  22328038.220          48.450          43.300
 114354642.356 8  89107686.762 7  85394860.473 8  21760882.600    21760881.540
  21760880.820          49.100          47.800
 133506090.554 7 104030724.806 6                  25405362.520    25405359.900
  25405359.120          43.100          37.950
 131478514.638 7 102450787.45345                  25019530.420
  25019525.620          44.400          34.250
 129077787.019 6 100580086.55846                  24562679.620
  24562675.760          41.150          36.050
 130959484.911 7 102046519.611 6                  24920688.100    24920684.600
  24920684.260          45.700          39.250
 108638285.882 8  84653350.086 8                  20673114.960    20673111.160
  20673110.520          49.650          48.500
 133851323.441 6 104299729.01145                  25471052.180
  25471045.580          41.650          34.950
 120160834.773 7  93458439.296 6                  22486462.340    22486465.720
  22486463.920          44.550          36.250
 115350089.503 7  89716784.495 7                  21555903.620    21555905.580
  21555904.600          47.300          43.450
 102642531.446 8  79833117.075 7                  19255471.240    19255477.260
  19255476.120          48.650          42.800
 113366499.558 8  88174069.018 7                  21192620.340    21192621.380
  21192619.920          48.350          44.100
 109736935.971 7  85350941.038 6                  20550187.180    20550190.260
  20550187.840          47.850          37.500
 102873782.773 7  80013092.767 7                  19237869.000    19237872.880
  19237870.740          44.350          46.650
 124758891.162 8                  93164239.962 8  23740775.320
                        50.300


 124660103.571 8                  93090444.794 8  23721975.260
                        50.250
 15  1 27  0  6 20.0000000  0 19G31G08G21G25G05G16G14G12G29G02R11R21
                                R10R19R09R20E12E18E11
 108689814.587 8  84693373.432 8                  20682977.900    20682973.100
  20682972.200          50.100          49.150
 117280427.532 8  91387326.75047                  22317721.240
  22317716.980          48.600          43.450
 117322647.523 8  91420300.68047                  22325728.340
  22325723.220          48.650          42.950
 114364235.494 8  89115161.929 7  85402024.180 8  21762708.060    21762707.060
  21762706.340          49.150          47.800
 133499691.387 7 104025738.470 6                  25404144.760    25404142.200
  25404141.500          42.950          38.100
 131463899.315 7 102439398.88245                  25016749.160
  25016744.500          44.450          34.650
 129092948.427 6 100591900.66245                  24565564.680
  24565561.080          40.800          35.300
 130973574.499 7 102057498.519 6                  24923369.280    24923365.800
  24923365.460          45.600          38.300
 108646789.515 8  84659976.287 8                  20674733.140    20674729.340
  20674728.700          49.950          48.600
 133865981.382 6 104311150.79045                  25473841.480
  25473835.000          41.800          33.150
 120141414.098 7  93443334.339 6                  22482827.940    22482831.360
  22482829.620          44.500          36.550
 115333926.288 7  89704213.117 7                  21552883.080    21552885.100
  21552884.120          47.200          43.450
 102636935.027 8  79828764.319 7                  19254421.340    19254427.400
  19254426.240          48.500          42.900
 113383164.104 8  88187030.340 7                  21195735.640    21195736.620
  21195735.200          48.400          44.250
 109750699.245 7  85361645.810 6                  20552764.560    20552767.620
  20552765.300          47.800          37.400
 102873154.175 7  80012603.864 7                  19237751.480    19237755.340
  19237753.160          44.250          46.850
 124764493.792 8                  93168423.746 8  23741841.440
                        50.450


 124653464.023 8                  93085486.698 8  23720711.780
                        50.350
 15  1 27  0  6 25.0000000  0 19G31G08G21G25G05G16G14G12G29G02R11R21
                                R10R19R09R20E12E18E11
 108688378.036 8  84692254.036 8                  20682704.520    20682699.720
  20682698.820          49.650          49.200
 117265822.987 8  91375946.59247                  22314942.020
  22314937.820          48.100          43.750
 117310491.567 7  91410828.50747                  22323415.160
  22323410.020          47.950          43.550
 114373836.121 8  89122642.935 7  85409193.467 8  21764534.920    21764534.020
  21764533.280          48.050          47.850
 133493303.613 6 104020761.011 6                  25402929.200    25402926.600
  25402926.080          41.800          37.400
 131449284.412 7 102428010.65246                  25013968.000
  25013963.440          43.650          36.800
 129108110.134 6 100603714.92045                  24568449.780
  24568446.280          38.950          35.650
 130987667.044 7 102068479.727 6                  24926051.000    24926047.480
  24926047.140          44.800          38.200
 108655302.325 8  84666609.646 8                  20676353.080    20676349.280
  20676348.640          49.450          48.550
 133880645.635 6 104322577.51145                  25476631.960
  25476625.380          40.900          34.300
 120121998.315 7  93428233.169 6                  22479194.480    22479197.860
  22479196.220          44.950          36.200
 115317775.181 7  89691651.132 7                  21549864.840    21549866.860
  21549865.920          47.800          43.600
 102631357.310 8  79824426.101 7                  19253374.960    19253381.020
  19253379.880          49.050          42.850
 113399836.824 8  88199998.013 7                  21198852.460    21198853.440
  21198851.980          48.750          44.400
 109764477.788 8  85372362.455 6                  20555344.820    20555347.840
  20555345.600          48.300          37.300
 102872544.536 7  80012129.696 7                  19237637.460    19237641.340
  19237639.160          45.000          47.100
 124770104.990 8                  93172613.926 8  23742909.180
                        50.100


 124646833.931 8                  93080535.657 8  23719450.120
                        49.950
 15  1 27  0  6 30.0000000  0 19G31G08G21G25G05G16G14G12G29G02R11R21
                                R10R19R09R20E12E18E11
 108686957.689 8  84691147.276 8                  20682434.240    20682429.440
  20682428.540          49.750          49.150
 117251228.419 8  91364574.20147                  22312164.720
  22312160.620          48.500          43.200
 117298345.340 8  91401363.91547                  22321103.820
  22321098.720          48.100          42.950
 114383444.399 8  89130129.900 7  85416368.476 8  21766363.220    21766362.440
  21766361.700          48.150          47.850
 133486927.429 6 104015792.562 6                  25401715.800    25401713.220
  25401712.820          41.400          37.250
 131434670.169 7 102416622.94746                  25011187.000
  25011182.480          43.750          37.550
 129123272.351 6 100615529.64946                  24571335.080
  24571331.680          39.550          36.000
 131001762.812 7 102079463.442 6                  24928733.320    24928729.780
  24928729.440          44.950          37.450
 108663824.514 8  84673250.312 8                  20677974.780    20677971.000
  20677970.340          49.550          48.500
 133895316.399 6 104334009.30445                  25479423.680
  25479417.080          39.900          35.600
 120102587.473 7  93413135.849 6                  22475561.900    22475565.540
  22475563.780          44.650          36.050
 115301636.301 8  89679098.671 7                  21546848.900    21546850.960
  21546849.980          48.000          43.750
 102625798.663 8  79820102.707 7                  19252332.180    19252338.220
  19252337.080          49.000          42.700
 113416518.033 8  88212972.280 7                  21201970.860    21201971.820
  21201970.360          48.700          44.500
 109778271.822 8  85383091.146 6                  20557928.000    20557931.060
  20557928.800          48.350          37.750
 102871954.063 7  80011670.435 7                  19237527.060    19237530.920
  19237528.740          45.000          46.950
 124775724.935 8                  93176810.640 8  23743978.600
                        50.150


 124640213.483 8                  93075591.820 8  23718190.280
                        50.150
 15  1 27  0  6 35.0000000  0 19G31G08G21G25G05G16G14G12G29G02R11R21
                                R10R19R09R20E12E18E11
 108685549.671 8  84690050.119 8                  20682166.280    20682161.500
  20682160.580          49.850          49.050
 117236639.913 8  91353206.52747                  22309388.580
  22309384.560          48.600          43.350
 117286204.942 8  91391903.87147                  22318793.580
  22318788.480          48.250          42.800
 114393056.416 8  89137619.769 7  85423546.281 8  21768192.280    21768191.540
  21768190.820          48.500          47.850
 133480558.959 6 104010830.116 6                  25400503.880    25400501.340
  25400500.760          41.000          36.100
 131420052.631 7 102405232.67445                  25008405.420
  25008400.920          44.100          35.250
 129138431.119 6 100627341.64946                  24574219.680
  24574216.260          38.950          37.350
 131015857.863 7 102090446.599 6                  24931415.480    24931411.960
  24931411.520          44.750          37.250
 108672352.122 8  84679895.198 8                  20679597.520    20679593.740
  20679593.080          49.400          48.550
 133909989.779 6 104345443.12745                  25482215.860
  25482209.240          39.950          31.500
 120083177.659 7  93398039.329 6                  22471929.540    22471933.280
  22471931.540          44.050          36.200
 115285505.643 7  89666552.598 7                  21543834.500    21543836.520
  21543835.580          47.350          43.700
 102620255.099 8  79815791.035 7                  19251292.200    19251298.220
  19251297.100          48.900          42.800
 113433203.596 8  88225949.928 7                  21205090.040    21205091.040
  21205089.540          48.450          44.350
 109792077.324 8  85393828.751 6                  20560513.280    20560516.500
  20560514.180          48.050          37.650
 102871378.768 7  80011222.980 7                  19237419.480    19237423.360
  19237421.140          44.800          46.800
 124781349.712 8                  93181010.965 8  23745048.940
                        50.300


 124633598.775 8                  93070652.264 8  23716931.560
                        50.250
 15  1 27  0  6 40.0000000  0 19G31G08G21G25G05G16G14G12G29G02R11R21
                                R10R19R09R20E12E18E11
 108684159.315 8  84688966.722 8                  20681901.720    20681896.920
  20681896.000          49.800          49.000
 117222062.865 8  91341847.79747                  22306614.660
  22306610.680          48.600          43.050
 117274075.763 8  91382452.56647                  22316485.440
  22316480.380          48.200          42.750
 114402677.582 8  89145116.778 7  85430730.914 8  21770023.060    21770022.380
  21770021.660          48.750          47.700
 133474203.553 6 104005877.862 5                  25399294.480    25399291.900
  25399291.400          41.600          35.150
 131405437.216 7 102393844.03645                  25005624.240
  25005619.680          44.250          34.350
 129153591.851 6 100639155.17446                  24577104.620
  24577101.140          39.900          37.350
 131029957.535 7 102101433.359 6                  24934098.500    24934094.960
  24934094.540          45.450          37.850
 108680890.546 8  84686548.513 8                  20681222.320    20681218.540
  20681217.860          49.450          48.400
 133924671.085 6 104356883.08945                  25485009.560
  25485002.920          40.350          35.800
 120063774.397 7  93382947.915 6                  22468298.380    22468302.280
  22468300.480          43.650          36.200
 115269388.770 7  89654017.260 7                  21540822.700    21540824.640
  21540823.740          47.350          43.750
 102614732.045 8  79811495.326 7                  19250256.040    19250262.120
  19250260.980          48.700          42.800
 113449899.138 8  88238935.356 7                  21208211.120    21208212.100
  21208210.560          48.350          44.750
 109805899.781 7  85404579.546 6                  20563101.740    20563105.040
  20563102.700          47.900          37.450
 102870824.147 7  80010791.616 7                  19237315.780    19237319.660
  19237317.420          44.900          46.800
 124786984.703 8                  93185218.914 8  23746121.220
                        50.300


 124626995.156 8                  93065720.997 8  23715674.940
                        50.350
 15  1 27  0  6 45.0000000  0 19G31G08G21G25G05G16G14G12G29G02R11R21
                                R10R19R09R20E12E18E11
 108682783.347 8  84687894.533 8                  20681639.840    20681635.060
  20681634.140          49.750          48.950
 117207494.014 8  91330495.44047                  22303842.260
  22303838.340          48.600          42.850
 117261954.553 7  91373007.47847                  22314178.800
  22314173.800          47.900          42.900
 114412304.576 8  89152618.327 7  85437919.889 8  21771854.980    21771854.320
  21771853.620          48.700          47.650
 133467857.967 6 104000933.234 5                  25398086.900    25398084.280
  25398083.720          41.300          35.050
 131390820.687 7 102382454.54846                  25002842.800
  25002838.420          44.450          36.100
 129168751.136 6 100650967.59446                  24579989.360
  24579985.960          40.600          37.350
 131044058.569 7 102112421.167 6                  24936781.840    24936778.340
  24936777.780          46.000          37.750
 108689436.495 8  84693207.694 8                  20682848.540    20682844.780
  20682844.100          49.350          48.450
 133939357.041 6 104368326.69945                  25487804.140
  25487797.520          40.800          34.300
 120044374.437 7  93367859.060 6                  22464667.840    22464671.880
  22464670.080          43.400          36.050
 115253282.302 7  89641490.003 7                  21537812.800    21537814.760
  21537813.840          47.550          43.900
 102609226.234 8  79807213.023 7                  19249223.160    19249229.220
  19249228.100          48.600          42.950
 113466601.073 8  88251925.742 7                  21211333.380    21211334.340
  21211332.820          48.500          44.650
 109819735.830 7  85415340.913 6                  20565692.760    20565696.060
  20565693.740          47.800          37.500
 102870286.867 7  80010373.731 7                  19237215.300    19237219.200
  19237216.920          44.800          46.850
 124792626.614 8                  93189432.022 8  23747194.820
                        50.300


 124620399.374 8                  93060795.576 8  23714419.840
                        50.350
 15  1 27  0  6 50.0000000  0 19G31G08G21G25G05G16G14G12G29G02R11R21
                                R10R19R09R20E12E18E11
 108681422.479 8  84686834.117 8                  20681380.860    20681376.100
  20681375.180          49.800          49.000
 117192934.085 8  91319150.04247                  22301071.580
  22301067.680          48.450          42.950
 117249842.033 7  91363569.15547                  22311873.800
  22311868.860          47.850          42.250
 114421938.133 8  89160124.989 7  85445113.789 8  21773688.180    21773687.520
  21773686.820          48.950          47.750
 133461522.927 6 103995996.836 6                  25396881.240    25396878.720
  25396878.140          41.700          36.650
 131376203.690 7 102371064.67445                  25000061.260
  25000057.020          44.500          34.800
 129183909.851 6 100662779.57746                  24582874.000
  24582870.780          40.950          36.350
 131058161.592 7 102123410.544 6                  24939465.580    24939462.040
  24939461.520          46.250          38.250
 108697990.647 8  84699873.259 8                  20684476.320    20684472.560
  20684471.920          49.550          48.600
 133954048.386 6 104379774.49445                  25490599.800
  25490593.160          40.800          34.500
 120024978.399 7  93352773.267 6                  22461038.040    22461042.220
  22461040.380          43.600          36.100
 115237187.039 7  89628971.470 7                  21534805.060    21534806.960
  21534806.040          47.900          43.550
 102603738.263 8  79802944.601 7                  19248193.620    19248199.680
  19248198.560          48.500          42.900
 113483310.350 8  88264921.844 7                  21214457.000    21214457.900
  21214456.440          48.600          44.750
 109833586.171 7  85426113.399 6                  20568286.440    20568289.760
  20568287.500          47.950          37.650
 102869767.595 7  80009969.853 7                  19237118.180    19237122.120
  19237119.800          44.900          46.950
 124798276.137 8                  93193650.827 8  23748269.880
                        50.350


 124613812.132 8                  93055876.533 8  23713166.360
                        50.500
 15  1 27  0  6 55.0000000  0 19G31G08G21G25G05G16G14G12G29G02R11R21
                                R10R19R09R20E12E18E11
 108680077.455 8  84685786.045 8                  20681124.880    20681120.140
  20681119.220          49.900          48.950
 117178383.835 8  91307812.19547                  22298302.740
  22298298.840          48.350          42.400
 117237738.830 7  91354138.09547                  22309570.540
  22309565.680          47.700          43.250
 114431578.979 8  89167637.336 7  85452313.110 8  21775522.780    21775522.100
  21775521.420          49.050          47.650
 133455199.104 7 103991069.191 6                  25395677.820    25395675.360
  25395674.760          42.450          36.800
 131361586.982 7 102359675.04246                  24997279.740
  24997275.540          44.550          36.100
 129199068.584 6 100674591.55745                  24585758.640
  24585755.480          41.350          35.400
 131072267.447 7 102134402.135 6                  24942149.840    24942146.300
  24942145.800          45.900          38.500
 108706553.769 8  84706545.825 8                  20686105.820    20686102.080
  20686101.420          49.650          48.600
 133968745.871 6 104391227.12245                  25493396.620
  25493389.960          41.200          34.000
 120005587.059 7  93337691.122 6                  22457409.160    22457413.420
  22457411.560          44.000          36.450
 115221103.739 7  89616462.235 7                  21531799.520    21531801.420
  21531800.520          47.700          43.200
 102598268.935 8  79798690.681 7                  19247167.580    19247173.560
  19247172.560          48.600          42.700
 113500027.594 8  88277924.130 7                  21217582.100    21217583.040
  21217581.560          48.700          44.650
 109847451.579 8  85436897.609 6                  20570883.000    20570886.220
  20570884.080          48.000          37.550
 102869267.168 7  80009580.636 7                  19237024.600    19237028.560
  19237026.240          45.100          47.100
 124803934.018 8                  93197875.855 8  23749346.540
                        50.400


 124607234.173 8                  93050964.417 8  23711914.640
                        50.600
 15  1 27  0  7  0.0000000  0 19G31G08G21G25G05G16G14G12G29G02R11R21
                                R10R19R09R20E12E18E11
 108678746.699 8  84684749.094 8                  20680871.620    20680866.880
  20680865.980          49.950          48.950
 117163841.717 8  91296480.67347                  22295535.400
  22295531.540          48.300          43.050
 117225643.496 7  91344713.15847                  22307268.780
  22307264.000          47.800          42.400
 114441225.553 8  89175154.149 7  85459516.726 8  21777358.500    21777357.820
  21777357.100          49.100          47.550
 133448885.032 7 103986149.137 6                  25394476.320    25394473.840
  25394473.220          42.800          37.400
 131346968.982 7 102348284.39445                  24994497.960
  24994493.940          44.950          34.300
 129214225.822 7 100686402.38545                  24588643.000
  24588639.880          42.650          35.150
 131086374.566 7 102145394.704 6                  24944834.320    24944830.840
  24944830.320          45.300          38.600
 108715124.306 8  84713224.164 8                  20687736.720    20687733.000
  20687732.340          49.600          48.600
 133983447.873 6 104402683.23945                  25496194.340
  25496187.780          41.550          32.950
 119986198.868 7  93322611.416 5                  22453780.880    22453785.160
  22453783.280          44.350          35.950
 115205030.743 8  89603961.030 7                  21528795.880    21528797.880
  21528796.920          48.000          43.050
 102592816.873 8  79794450.188 7                  19246144.780    19246150.760
  19246149.760          48.650          42.750
 113516751.261 8  88290931.418 7                  21220708.400    21220709.340
  21220707.880          48.850          44.250
 109861330.401 8  85447692.236 6                  20573482.060    20573485.360
  20573483.180          48.300          37.650
 102868783.825 7  80009204.696 7                  19236934.180    19236938.180
  19236935.860          45.050          46.950
 124809598.697 8                  93202105.978 8  23750424.500
                        50.550


 124600663.939 8                  93046058.081 8  23710664.380
                        50.750
 15  1 27  0  7  5.0000000  0 19G31G08G21G25G05G16G14G12G29G02R11R21
                                R10R19R09R20E12E18E11
 108677431.902 8  84683724.581 8                  20680621.380    20680616.700
  20680615.780          49.950          48.950
 117149309.358 8  91285156.76747                  22292769.960
  22292766.100          48.500          42.100
 117213557.679 7  91335295.64247                  22304968.840
  22304964.120          47.800          42.100
 114450879.505 8  89182676.712 7  85466725.846 8  21779195.620    21779194.880
  21779194.180          49.350          47.400
 133442582.315 7 103981237.938 6                  25393276.980    25393274.460
  25393273.880          43.050          37.350
 131332351.504 7 102336894.15045                  24991716.320
  24991712.220          44.650          35.500
 129229383.160 7 100698213.28245                  24591527.360
  24591524.300          43.100          34.650
 131100484.544 7 102156389.480 6                  24947519.300    24947515.900
  24947515.420          44.800          38.500
 108723703.827 8  84719909.509 8                  20689369.340    20689365.640
  20689364.980          49.450          48.550
 133998155.953 6 104414144.07545                  25498993.160
  25498986.560          41.850          34.300
 119966815.463 7  93307535.445 6                  22450153.520    22450157.780
  22450155.940          44.400          36.400
 115188969.750 8  89591469.155 7                  21525794.500    21525796.540
  21525795.580          48.150          43.750
 102587383.550 8  79790224.275 7                  19245125.480    19245131.520
  19245130.480          48.800          42.400
 113533482.868 8  88303944.897 7                  21223836.240    21223837.160
  21223835.680          49.050          44.350
 109875224.343 8  85458498.636 6                  20576083.980    20576087.380
  20576085.100          48.250          37.400
 102868319.380 7  80008843.468 7                  19236847.320    19236851.340
  19236849.020          45.250          46.900
 124815271.812 8                  93206342.397 8  23751504.060
                        50.650


 124594103.064 8                  93041158.728 8  23709415.900
                        50.750
 15  1 27  0  7 10.0000000  0 19G31G08G21G25G05G16G14G12G29G02R11R21
                                R10R19R09R20E12E18E11
 108676132.519 8  84682712.074 8                  20680374.100    20680369.420
  20680368.500          49.950          48.950
 117134786.271 8  91273840.07847                  22290006.280
  22290002.420          48.400          43.100
 117201480.943 7  91325885.20747                  22302670.680
  22302665.960          47.800          43.100
 114460540.328 8  89190204.628 7  85473940.095 8  21781034.040    21781033.260
  21781032.560          49.300          47.450
 133436290.503 7 103976335.217 6                  25392079.700    25392077.180
  25392076.740          42.650          37.550
 131317733.851 7 102325503.78945                  24988934.680
  24988930.580          45.050          34.100
 129244540.106 7 100710023.88345                  24594411.620
  24594408.660          43.400          35.100
 131114596.942 7 102167386.145 6                  24950204.720    24950201.420
  24950200.900          44.850          38.000
 108732291.848 8  84726601.473 8                  20691003.580    20690999.880
  20690999.240          49.250          48.400
 134012869.653 7 104425609.32445                  25501793.080
  25501786.560          42.350          35.250
 119947436.389 7  93292462.835 6                  22446527.000    22446531.180
  22446529.400          44.300          36.650
 115172920.267 7  89578986.247 7                  21522795.280    21522797.380
  21522796.400          47.900          43.800
 102581968.423 8  79786012.512 7                  19244109.600    19244115.620
  19244114.560          48.750          42.650
 113550221.968 8  88316964.199 7                  21226965.460    21226966.340
  21226964.880          49.100          44.550
 109889132.901 7  85469316.400 6                  20578688.580    20578692.040
  20578689.720          47.900          37.400
 102867873.280 7  80008496.501 7                  19236763.880    19236767.900
  19236765.600          44.950          47.000
 124820952.813 8                  93210584.699 8  23752585.120
                        50.550


 124587551.038 8                  93036265.980 8  23708169.100
                        50.750
 15  1 27  0  7 15.0000000  0 19G31G08G21G25G05G16G14G12G29G02R11R21
                                R10R19R09R20E12E18E11
 108674848.974 8  84681711.903 8                  20680129.820    20680125.180
  20680124.240          49.950          49.050
 117120272.904 8  91262530.96047                  22287244.460
  22287240.620          48.550          43.200
 117189413.721 7  91316482.16447                  22300374.320
  22300369.620          47.700          42.900
 114470208.416 8  89197738.199 7  85481159.768 8  21782873.840    21782873.020
  21782872.320          49.150          47.450
 133430009.950 7 103971441.259 6                  25390884.560    25390882.040
  25390881.540          42.300          36.750
 131303116.483 7 102314113.62845                  24986153.100
  24986148.960          44.800          35.650
 129259697.074 7 100721834.48745                  24597295.880
  24597292.940          43.650          34.500
 131128712.135 7 102178385.005 6                  24952890.660    24952887.420
  24952886.820          44.700          37.500
 108740888.792 8  84733300.386 8                  20692639.500    20692635.820
  20692635.180          49.300          48.500
 134027589.457 7 104437079.31945                  25504594.180
  25504587.820          42.300          33.400
 119928062.111 7  93277393.955 6                  22442901.360    22442905.500
  22442903.760          44.650          36.550
 115156882.758 7  89566512.636 7                  21519798.260    21519800.460
  21519799.420          47.850          43.800
 102576572.087 8  79781815.355 7                  19243097.260    19243103.280
  19243102.160          48.850          42.400
 113566968.930 8  88329989.614 7                  21230096.160    21230097.000
  21230095.560          49.000          44.400
 109903056.442 8  85480145.824 6                  20581296.020    20581299.400
  20581297.160          48.000          37.750
 102867445.952 7  80008164.131 7                  19236683.960    19236688.040
  19236685.680          45.150          47.000
 124826642.127 8                  93214833.211 8  23753667.760
                        50.450


 124581008.275 8                  93031380.144 8  23706924.080
                        50.800
 15  1 27  0  7 20.0000000  0 19G31G08G21G25G05G16G14G12G29G02R11R21
                                R10R19R09R20E12E18E11
 108673579.289 8  84680722.536 8                  20679888.200    20679883.540
  20679882.640          50.000          49.000
 117105767.274 8  91251227.87947                  22284484.100
  22284480.280          48.900          42.700
 117177353.956 8  91307084.95947                  22298079.400
  22298074.700          48.050          42.800
 114479881.788 8  89205275.885 7  85488383.380 8  21784714.640    21784713.820
  21784713.100          49.350          47.600
 133423738.730 7 103966554.607 6                  25389691.160    25389688.720
  25389688.200          42.750          37.050
 131288497.387 7 102302722.11946                  24983371.220
  24983367.020          45.050          36.600
 129274852.029 7 100733643.52445                  24600179.820
  24600176.800          44.100          32.150
 131142828.135 7 102189384.488 6                  24955576.740    24955573.580
  24955572.820          44.800          37.150
 108749492.638 8  84740004.676 8                  20694276.720    20694273.100
  20694272.440          49.350          48.350
 134042313.257 7 104448552.41845                  25507396.020
  25507389.660          43.050          35.100
 119908690.537 7  93262327.175 6                  22439276.200    22439280.400
  22439278.560          44.150          36.400
 115140855.150 7  89554046.713 7                  21516803.120    21516805.320
  21516804.320          47.450          43.850
 102571192.408 8  79777631.152 7                  19242088.020    19242094.060
  19242092.880          48.950          42.450
 113583721.606 8  88343019.467 7                  21233227.960    21233228.740
  21233227.280          48.700          44.750
 109916992.957 8  85490985.331 6                  20583905.880    20583909.260
  20583907.060          48.100          37.800
 102867035.295 7  80007844.735 7                  19236607.220    19236611.240
  19236608.900          44.950          47.150
 124832337.795 8                  93219086.459 8  23754751.620
                        50.400


 124574472.768 8                  93026499.740 8  23705680.440
                        50.850
 15  1 27  0  7 25.0000000  0 19G31G08G21G25G05G16G14G12G29G02R11R21
                                R10R19R09R20E12E18E11
 108672325.513 8  84679745.564 8                  20679649.580    20679644.980
  20679644.060          49.800          49.150
 117091271.414 8  91239932.40347                  22281725.620
  22281721.860          48.900          43.100
 117165303.710 8  91297695.15347                  22295786.300
  22295781.600          48.350          42.450
 114489562.475 8  89212819.276 7  85495612.464 8  21786556.860    21786556.000
  21786555.260          49.450          47.700
 133417478.932 7 103961676.836 6                  25388500.000    25388497.500
  25388497.140          42.700          37.450
 131273878.551 7 102291330.83046                  24980589.340
  24980585.180          44.650          37.000
 129290006.947 7 100745452.56745                  24603063.720
  24603060.660          44.300          30.700
 131156946.957 7 102200386.169 6                  24958263.360    24958260.280
  24958259.460          44.600          38.100
 108758105.383 8  84746715.898 8                  20695915.660    20695912.060
  20695911.380          49.400          48.500
 134057043.097 7 104460030.23346                  25510199.020
  25510192.700          43.350          36.200
 119889323.798 7  93247264.171 6                  22435651.960    22435656.220
  22435654.320          44.700          36.300
 115124839.517 7  89541590.109 7                  21513810.180    21513812.400
  21513811.460          47.400          43.950
 102565831.501 8  79773461.558 7                  19241082.320    19241088.360
  19241087.160          48.700          42.250
 113600482.245 8  88356055.513 7                  21236361.220    21236362.000
  21236360.500          48.700          44.650
 109930944.499 7  85501836.524 6                  20586518.560    20586522.000
  20586519.780          47.950          37.850
 102866643.367 7  80007539.898 7                  19236533.900    19236537.940
  19236535.620          44.850          47.150
 124838041.771 8                  93223345.926 8  23755837.080
                        50.400


 124567946.571 8                  93021626.281 8  23704438.560
                        50.800
 15  1 27  0  7 30.0000000  0 19G31G08G21G25G05G16G14G12G29G02R11R21
                                R10R19R09R20E12E18E11
 108671085.969 8  84678779.683 8                  20679413.700    20679409.100
  20679408.180          49.850          49.050
 117076783.670 8  91228643.25047                  22278968.680
  22278964.980          49.050          42.350
 117153261.289 8  91288311.45147                  22293494.720
  22293489.980          48.350          42.700
 114499248.780 8  89220367.046 7  85502845.754 8  21788400.140    21788399.220
  21788398.520          49.650          47.550
 133411228.774 7 103956806.585 6                  25387310.620    25387308.160
  25387307.940          43.000          37.350
 131259258.357 7 102279938.47746                  24977807.160
  24977802.980          44.250          36.050
 129305160.188 7 100757260.25745                  24605947.320
  24605944.280          44.550          32.350
 131171066.941 7 102211388.750 6                  24960950.200    24960947.180
  24960946.320          44.300          37.800
 108766725.357 8  84753432.759 8                  20697555.960    20697552.380
  20697551.700          49.650          48.500
 134071777.318 7 104471511.45845                  25513002.880
  25512996.480          43.000          33.600
 119869960.291 7  93232203.658 6                  22432028.320    22432032.560
  22432030.680          43.950          36.800
 115108834.216 7  89529141.542 7                  21510819.180    21510821.400
  21510820.500          46.900          44.050
 102560487.713 8  79769305.274 7                  19240079.800    19240085.900
  19240084.660          48.100          42.800
 113617249.016 7  88369096.331 7                  21239495.600    21239496.400
  21239494.860          47.800          44.800
 109944909.368 7  85512698.085 6                  20589133.720    20589137.220
  20589134.980          47.600          37.350
 102866268.508 7  80007248.337 7                  19236463.860    19236467.840
  19236465.520          44.600          47.150
 124843752.410 8                  93227610.366 8  23756923.780
                        50.450


 124561427.997 8                  93016758.520 8  23703198.120
                        50.850
 15  1 27  0  7 35.0000000  0 19G31G08G21G25G05G16G14G12G29G02R11R21
                                R10R19R09R20E12E18E11
 108669862.938 8  84677826.670 8                  20679180.940    20679176.400
  20679175.460          49.900          49.100
 117062306.331 8  91217362.20747                  22276213.720
  22276210.020          49.050          43.000
 117141229.005 8  91278935.64947                  22291205.100
  22291200.300          48.750          42.750
 114508943.036 8  89227921.015 7  85510084.961 8  21790244.940    21790243.980
  21790243.280          49.300          47.650
 133404990.572 7 103951945.654 6                  25386123.580    25386121.020
  25386120.940          42.300          36.850
 131244639.134 7 102268546.87946                  24975025.160
  24975021.080          44.050          36.800
 129320314.047 7 100769068.46945                  24608831.100
  24608827.960          44.600          32.900
 131185190.348 7 102222393.996 6                  24963637.720    24963634.680
  24963633.900          44.950          37.300
 108775354.872 8  84760157.056 8                  20699198.100    20699194.560
  20699193.860          49.550          48.500
 134086518.155 7 104482997.84145                  25515807.980
  25515801.580          42.900          34.650
 119850602.313 7  93217147.468 6                  22428405.740    22428410.020
  22428408.100          44.000          36.350
 115092841.552 7  89516702.797 7                  21507830.540    21507832.780
  21507831.900          47.200          44.100
 102555163.387 8  79765164.136 7                  19239080.940    19239087.080
  19239085.840          48.000          42.650
 113634024.443 7  88382143.878 7                  21242631.580    21242632.360
  21242630.840          47.550          44.500
 109958889.786 7  85523571.730 6                  20591751.840    20591755.280
  20591753.060          47.750          36.800
 102865913.055 7  80006971.881 7                  19236397.400    19236401.400
  19236399.060          44.600          46.900
 124849472.011 8                  93231881.491 8  23758012.180
                        50.450


 124554919.338 8                  93011898.158 8  23701959.560
                        50.850
 15  1 27  0  7 40.0000000  0 19G31G08G21G25G05G16G14G12G29G02R11R21
                                R10R19R09R20E12E18E11
 108668655.045 8  84676885.459 8                  20678951.080    20678946.540
  20678945.620          49.900          49.100
 117047838.057 8  91206088.22747                  22273460.520
  22273456.800          49.150          42.700
 117129205.518 8  91269566.69847                  22288917.160
  22288912.340          49.000          42.700
 114518643.857 8  89235480.091 7  85517329.085 8  21792091.000    21792089.980
  21792089.300          49.400          47.550
 133398763.052 6 103947093.058 6                  25384938.520    25384935.960
  25384935.920          41.850          36.650
 131230019.484 7 102257154.95845                  24972243.120
  24972239.000          44.750          35.750
 129335467.129 7 100780876.05345                  24611714.680
  24611711.500          44.550          32.200
 131199315.891 7 102233400.941 6                  24966325.700    24966322.580
  24966321.860          45.350          37.650
 108783992.571 8  84766887.728 8                  20700841.780    20700838.260
  20700837.540          49.750          48.450
 134101264.292 7 104494488.34945                  25518614.060
  25518607.760          42.650          33.550
 119831248.400 7  93202094.435 5                  22424783.920    22424788.200
  22424786.200          44.050          35.700
 115076860.118 7  89504272.805 7                  21504844.020    21504846.280
  21504845.380          47.450          44.100
 102549857.183 8  79761037.092 7                  19238085.500    19238091.660
  19238090.440          48.100          42.650
 113650806.834 7  88395196.839 7                  21245768.860    21245769.660
  21245768.120          47.900          44.400
 109972884.474 7  85534456.496 6                  20594372.620    20594376.060
  20594373.800          47.800          36.850
 102865575.591 7  80006709.418 7                  19236334.260    19236338.300
  19236335.960          44.750          46.900
 124855199.186 8                  93236158.281 8  23759102.020
                        50.600


 124548419.246 8                  93007044.205 8  23700722.640
                        50.850
 15  1 27  0  7 45.0000000  0 19G31G08G21G25G05G16G14G12G29G02R11R21
                                R10R19R09R20E12E18E11
 108667461.329 8  84675955.297 8                  20678723.920    20678719.380
  20678718.480          49.950          49.100
 117033377.781 8  91194820.48447                  22270708.840
  22270705.080          49.150          43.000
 117117189.743 8  91260203.75847                  22286630.720
  22286625.800          49.100          42.550
 114528350.152 8  89243043.446 7  85524577.300 8  21793938.080    21793936.980
  21793936.360          49.400          47.550
 133392545.095 7 103942247.898 6                  25383755.240    25383752.640
  25383752.660          43.150          36.500
 131215398.425 7 102245761.91945                  24969460.800
  24969456.760          44.350          35.550
 129350618.316 7 100792682.16645                  24614597.920
  24614594.800          44.600          33.200
 131213442.438 7 102244408.638 6                  24969013.940    24969010.780
  24969010.020          45.350          37.900
 108792637.351 8  84773623.929 8                  20702486.840    20702483.300
  20702482.600          49.800          48.350
 134116014.654 7 104505982.17945                  25521421.000
  25521414.620          43.050          31.650
 119811897.506 7  93187043.750 5                  22421162.680    22421166.940
  22421164.920          44.250          35.900
 115060888.848 7  89491850.732 7                  21501859.380    21501861.660
  21501860.760          47.400          43.950
 102544567.817 8  79756923.143 7                  19237093.200    19237099.380
  19237098.160          48.250          42.650
 113667595.278 8  88408254.522 7                  21248907.300    21248908.120
  21248906.540          48.400          44.400
 109986892.277 7  85545351.462 6                  20596995.840    20596999.320
  20596997.000          47.800          36.700
 102865254.982 7  80006460.057 7                  19236274.320    19236278.320
  19236276.020          44.650          46.950
 124860932.873 8                  93240439.939 8  23760193.120
                        50.650


 124541926.644 8                  93002195.830 8  23699487.160
                        50.700
 15  1 27  0  7 50.0000000  0 19G31G08G21G25G05G16G14G12G29G02R11R21
                                R10R19R09R20E12E18E11
 108666283.712 8  84675037.669 8                  20678499.820    20678495.300
  20678494.400          50.050          49.050
 117018927.537 8  91183560.54747                  22267959.080
  22267955.240          49.250          42.450
 117105183.692 8  91250848.38647                  22284346.120
  22284341.100          49.050          42.300
 114538063.962 8  89250612.642 7  85531831.109 8  21795786.600    21795785.480
  21795784.840          49.200          47.500
 133386338.764 7 103937411.769 5                  25382574.220    25382571.520
  25382571.420          43.950          35.850
 131200777.850 7 102234369.27345                  24966678.580
  24966674.520          44.200          35.050
 129365769.652 7 100804488.38445                  24617481.180
  24617477.960          44.400          32.200
 131227572.009 7 102255418.694 6                  24971702.740    24971699.540
  24971698.780          45.450          38.050
 108801291.168 8  84780367.163 8                  20704133.600    20704130.060
  20704129.360          50.000          48.450
 134130771.185 7 104517480.76645                  25524229.100
  25524222.580          43.300          34.750
 119792551.699 7  93171997.013 5                  22417542.360    22417546.660
  22417544.580          44.150          35.550
 115044929.814 7  89479438.149 7                  21498877.040    21498879.320
  21498878.420          47.750          43.850
 102539297.551 8  79752824.045 7                  19236104.500    19236110.700
  19236109.480          48.400          42.600
 113684391.583 8  88421318.311 7                  21252047.240    21252048.020
  21252046.420          48.750          44.450
 110000915.299 7  85556258.255 6                  20599621.940    20599625.340
  20599623.060          47.900          37.400
 102864953.313 7  80006225.416 7                  19236217.940    19236221.880
  19236219.600          44.750          47.000
 124866675.035 8                  93244727.909 8  23761285.800
                        50.600


 124535443.525 8                  92997354.534 8  23698253.480
                        50.750
 15  1 27  0  7 55.0000000  0 19G31G08G21G25G05G16G14G12G29G02R11R21
                                R10R19R09R20E12E18E11
 108665121.081 8  84674131.723 8                  20678278.580    20678274.060
  20678273.180          50.200          48.950
 117004486.277 8  91172307.62147                  22265211.040
  22265207.120          49.250          43.200
 117093186.286 8  91241499.75847                  22282063.180
  22282058.060          49.050          43.000
 114547784.206 8  89258186.850 7  85539089.729 8  21797636.340    21797635.160
  21797634.520          49.350          47.450
 133380142.967 7 103932583.878 6                  25381395.220    25381392.460
  25381392.320          43.900          37.400
 131186156.714 7 102222976.17745                  24963896.240
  24963892.140          44.050          35.600
 129380920.048 7 100816293.90445                  24620364.240
  24620360.920          43.850          31.250
 131241703.498 7 102266430.248 6                  24974391.920    24974388.600
  24974387.960          45.400          38.250
 108809952.974 8  84787116.629 8                  20705781.880    20705778.360
  20705777.640          49.700          48.350
 134145532.808 7 104528983.34645                  25527038.180
  25527031.540          43.450          32.300
 119773210.017 7  93156953.487 5                  22413922.820    22413927.160
  22413925.020          44.350          35.650
 115028981.953 7  89467034.247 7                  21495896.800    21495899.060
  21495898.180          47.450          44.100
 102534045.353 8  79748739.008 7                  19235119.180    19235125.380
  19235124.160          48.550          42.600
 113701194.786 8  88434387.468 7                  21255188.480    21255189.220
  21255187.600          49.100          44.450
 110014952.362 8  85567175.973 6                  20602250.680    20602254.000
  20602251.720          48.050          37.550
 102864669.415 7  80006004.606 7                  19236164.880    19236168.800
  19236166.520          45.000          47.000
 124872424.611 8                  93249021.427 8  23762379.900
                        50.650


 124528968.820 8                  92992519.536 8  23697021.400
                        50.700
 15  1 27  0  8  0.0000000  0 19G31G08G21G25G05G16G14G12G29G02R11R21
                                R10R19R09R20E12E18E11
 108663973.770 8  84673237.708 8                  20678060.260    20678055.760
  20678054.860          50.200          48.900
 116990054.315 8  91161061.94147                  22262464.760
  22262460.780          49.450          42.700
 117081197.910 8  91232158.16447                  22279781.940
  22279776.760          49.100          42.500
 114557511.156 8  89265766.291 7  85546353.351 8  21799487.360    21799486.120
  21799485.480          49.600          47.200
 133373958.024 7 103927764.437 6                  25380218.280    25380215.520
  25380215.260          43.700          37.350
 131171535.351 7 102211582.91445                  24961113.940
  24961109.700          44.500          34.200
 129396069.769 7 100828098.87745                  24623247.120
  24623243.740          43.850          30.000
 131255837.231 7 102277443.540 6                  24977081.520    24977078.140
  24977077.520          45.150          38.050
 108818623.094 8  84793872.562 8                  20707431.760    20707428.240
  20707427.500          49.750          48.150
 134160299.881 7 104540490.17245                  25529848.320
  25529841.660          42.700          33.300
 119753872.611 7  93141913.288 5                  22410304.040    22410308.420
  22410306.220          44.650          35.550
 115013045.573 7  89454639.289 7                  21492918.720    21492920.980
  21492920.080          47.400          44.100
 102528811.532 8  79744668.253 7                  19234137.300    19234143.560
  19234142.260          48.150          42.200
 113718005.312 8  88447462.330 7                  21258331.080    21258331.800
  21258330.120          48.900          44.250
 110029003.830 8  85578104.894 6                  20604882.120    20604885.460
  20604883.120          48.400          37.300
 102864403.652 7  80005797.907 7                  19236115.220    19236119.100
  19236116.840          45.250          46.800
 124878181.907 8                  93253320.701 8  23763475.480
                        50.700


 124522502.840 8                  92987691.045 8  23695791.000
                        50.800
 15  1 27  0  8  5.0000000  0 19G31G08G21G25G05G16G14G12G29G02R11R21
                                R10R19R09R20E12E18E11
 108662841.028 8  84672355.052 8                  20677844.720    20677840.220
  20677839.320          50.300          49.000
 116975630.895 8  91149822.90647                  22259720.120
  22259716.080          49.250          43.100
 117069217.730 8  91222822.95547                  22277502.260
  22277497.040          49.100          42.900
 114567244.081 8  89273350.393 7  85553621.452 8  21801339.520    21801338.240
  21801337.560          49.700          47.100
 133367783.192 7 103922952.874 6                  25379043.300    25379040.520
  25379040.140          43.150          36.850
 131156912.973 7 102200188.84845                  24958331.380
  24958327.100          44.250          34.850
 129411218.047 7 100839902.71245                  24626129.780
  24626126.260          43.300          31.600
 131269972.433 7 102288457.988 6                  24979771.360    24979767.960
  24979767.280          44.700          38.000
 108827300.732 8  84800634.362 8                  20709083.060    20709079.560
  20709078.820          49.750          48.250
 134175071.554 7 104552000.58045                  25532659.300
  25532652.560          43.050          33.750
 119734538.838 7  93126875.920 5                  22406685.960    22406690.340
  22406688.140          44.800          35.750
 114997119.871 7  89442252.628 7                  21489942.640    21489944.900
  21489943.940          47.450          44.550
 102523595.043 8  79740610.979 7                  19233158.660    19233164.960
  19233163.620          48.050          42.100
 113734822.132 8  88460542.081 7                  21261474.820    21261475.500
  21261473.840          48.700          44.600
 110043068.925 8  85589044.409 6                  20607516.100    20607519.380
  20607517.040          48.300          37.100
 102864155.276 7  80005604.735 7                  19236068.780    19236072.640
  19236070.380          45.150          46.850
 124883946.161 8                  93257625.188 8  23764572.380
                        50.650


 124516044.830 8                  92982868.510 8  23694562.080
                        50.800
 15  1 27  0  8 10.0000000  0 19G31G08G21G25G05G16G14G12G29G02R11R21
                                R10R19R09R20E12E18E11
 108661724.094 8  84671484.724 8                  20677632.200    20677627.700
  20677626.780          50.200          49.050
 116961217.253 8  91138591.51147                  22256977.320
  22256973.260          49.300          43.250
 117057247.014 8  91213495.13047                  22275224.380
  22275219.140          49.150          42.550
 114576984.228 8  89280940.126 7  85560894.943 8  21803193.080    21803191.740
  21803191.040          49.750          47.200
 133361619.689 7 103918150.157 6                  25377870.460    25377867.700
  25377867.220          43.300          37.900
 131142290.860 7 102188795.02445                  24955548.940
  24955544.520          44.250          34.850
 129426366.123 7 100851706.41645                  24629012.400
  24629008.860          42.850          33.300
 131284110.371 7 102299474.570 6                  24982461.700    24982458.360
  24982457.620          45.150          38.300
 108835987.116 8  84807402.971 8                  20710736.020    20710732.520
  20710731.780          49.850          48.250
 134189849.066 7 104563515.56345                  25535471.400
  25535464.720          43.550          34.350
 119715209.965 7  93111842.360 5                  22403068.860    22403073.120
  22403071.000          45.050          35.550
 114981206.124 7  89429875.270 7                  21486968.800    21486971.040
  21486970.060          47.550          44.400
 102518397.411 8  79736568.383 7                  19232183.540    19232189.860
  19232188.540          48.250          42.250
 113751646.636 8  88473627.804 7                  21264620.000    21264620.660
  21264619.000          48.850          44.250
 110057148.807 8  85599995.426 6                  20610152.820    20610156.100
  20610153.720          48.400          37.250
 102863925.518 7  80005426.040 7                  19236025.800    19236029.660
  19236027.400          45.300          46.900
 124889718.625 8                  93261935.801 8  23765670.840
                        50.450


 124509596.034 8                  92978052.861 8  23693334.900
                        50.750
 15  1 27  0  8 15.0000000  0 19G31G08G21G25G05G16G14G12G29G02R11R21
                                R10R19R09R20E12E18E11
 108660623.093 8  84670626.804 8                  20677422.700    20677418.200
  20677417.300          50.300          49.150
 116946813.521 8  91127367.83247                  22254236.400
  22254232.340          49.100          43.350
 117045285.907 8  91204174.78547                  22272948.340
  22272943.060          48.850          43.050
 114586731.681 8  89288535.548 7  85568173.890 8  21805048.020    21805046.620
  21805045.920          49.550          47.200
 133355467.611 7 103913356.340 6                  25376699.800    25376697.100
  25376696.600          43.550          38.350
 131127669.102 7 102177401.44545                  24952766.540
  24952762.100          44.200          35.650
 129441514.044 7 100863509.96045                  24631894.980
  24631891.420          42.750          33.600
 131298251.148 7 102310493.358 6                  24985152.600    24985149.220
  24985148.460          45.350          38.200
 108844682.319 8  84814178.455 8                  20712390.680    20712387.160
  20712386.440          49.800          48.300
 134204632.547 7 104575035.16745                  25538284.580
  25538277.940          44.000          33.050
 119695886.054 7  93096812.650 5                  22399452.680    22399456.860
  22399454.780          45.450          35.400
 114965304.455 7  89417507.307 7                  21483997.220    21483999.420
  21483998.440          47.900          43.700
 102513218.669 8  79732540.472 7                  19231211.960    19231218.320
  19231217.020          48.250          42.200
 113768478.859 8  88486719.544 7                  21267766.580    21267767.240
  21267765.580          48.600          44.300
 110071243.619 8  85610958.066 6                  20612792.340    20612795.660
  20612793.180          48.400          37.100
 102863714.403 7  80005261.844 7                  19235986.340    19235990.140
  19235987.920          45.100          46.750
 124895499.388 8                  93266252.596 8  23766770.900
                        50.350


 124503156.527 8                  92973244.142 8  23692109.460
                        50.600
 15  1 27  0  8 20.0000000  0 19G31G08G21G25G05G16G14G12G29G02R11R21
                                R10R19R09R20E12E18E11
 108659535.729 8  84669779.501 8                  20677215.780    20677211.300
  20677210.380          50.150          49.200
 116932417.454 8  91116150.11147                  22251496.940
  22251492.860          49.350          43.600
 117033332.118 8  91194860.14647                  22270673.660
  22270668.340          48.900          43.050
 114596484.162 8  89296134.878 7  85575456.577 8  21806903.900    21806902.460
  21806901.720          49.450          47.250
 133349324.761 7 103908569.694 6                  25375530.920    25375528.220
  25375527.780          43.250          39.350
 131113045.437 7 102166006.38145                  24949983.800
  24949979.300          44.350          35.600
 129456659.595 6 100875311.68145                  24634777.080
  24634773.600          41.900          34.800
 131312392.475 7 102321512.578 6                  24987843.620    24987840.260
  24987839.440          45.300          38.000
 108853384.103 8  84820959.052 8                  20714046.580    20714043.060
  20714042.320          49.700          48.400
 134219419.676 7 104586557.61945                  25541098.480
  25541091.820          43.400          34.600
 119676564.903 7  93081785.071 5                  22395837.080    22395841.160
  22395839.040          45.600          35.550
 114949412.557 7  89405146.927 7                  21481027.460    21481029.600
  21481028.640          47.950          43.700
 102508056.525 8  79728525.471 7                  19230243.520    19230249.880
  19230248.620          48.500          42.350
 113785316.541 8  88499815.504 7                  21270914.180    21270914.880
  21270913.220          48.600          44.650
 110085351.073 8  85621930.520 6                  20615434.240    20615437.540
  20615435.000          48.350          37.050
 102863519.649 7  80005110.362 7                  19235949.920    19235953.720
  19235951.500          45.050          46.750
 124901286.128 8                  93270573.865 8  23767872.080
                        50.350


 124496724.074 8                  92968440.676 8  23690885.380
                        50.450
 15  1 27  0  8 25.0000000  0 19G31G08G21G25G05G16G14G12G29G02R11R21
                                R10R19R09R20E12E18E11
 108658465.218 8  84668945.336 8                  20677012.080    20677007.600
  20677006.700          49.950          49.200
 116918032.259 8  91104940.86447                  22248759.580
  22248755.480          49.300          43.750
 117021388.880 8  91185553.72947                  22268400.960
  22268395.660          48.750          43.500
 114606244.907 8  89303740.655 7  85582745.441 8  21808761.340    21808759.860
  21808759.120          49.350          47.350
 133343194.339 7 103903792.737 6                  25374364.360    25374361.740
  25374361.340          42.950          39.250
 131098423.078 7 102154612.33445                  24947201.320
  24947196.840          44.000          35.400
 129471805.905 7 100887114.00945                  24637659.320
  24637655.820          42.100          35.850
 131326537.543 7 102332534.731 6                  24990535.360    24990531.980
  24990531.160          45.250          38.400
 108862095.614 8  84827747.241 8                  20715704.340    20715700.800
  20715700.080          49.750          48.300
 134234213.652 7 104598085.41145                  25543913.660
  25543906.960          43.100          35.300
 119657249.681 7  93066762.125 5                  22392222.580    22392226.480
  22392224.420          45.350          35.850
 114933533.724 7  89392796.723 7                  21478060.140    21478062.220
  21478061.320          47.700          43.800
 102502914.280 8  79724525.948 7                  19229278.820    19229285.280
  19229283.980          48.150          42.300
 113802162.894 8  88512918.211 7                  21274063.420    21274064.100
  21274062.440          48.550          44.550
 110099474.438 8  85632915.353 6                  20618079.080    20618082.400
  20618079.840          48.150          37.250
 102863344.536 7  80004974.161 7                  19235917.160    19235920.940
  19235918.720          45.000          46.650
 124907082.077 8                  93274902.003 8  23768975.020
                        50.400


 124490301.872 8                  92963644.869 8  23689663.280
                        50.400
 15  1 27  0  8 30.0000000  0 19G31G08G21G25G05G16G14G12G29G02R11R21
                                R10R19R09R20E12E18E11
 108657407.779 8  84668121.358 8                  20676810.880    20676806.360
  20676805.480          49.850          49.200
 116903654.130 8  91093737.13347                  22246023.560
  22246019.420          49.650          43.500
 117009452.432 8  91176252.60347                  22266129.540
  22266124.260          48.600          43.450
 114616010.100 8  89311349.891 7  85590037.631 8  21810619.600    21810618.120
  21810617.360          49.550          47.300
 133337072.478 7 103899022.468 6                  25373199.440    25373196.920
  25373196.440          43.400          39.450
 131083798.253 7 102143216.38245                  24944418.360
  24944413.680          44.000          34.350
 129486949.217 7 100898913.94845                  24640541.020
  24640537.520          42.000          34.600
 131340682.575 7 102343556.840 6                  24993227.100    24993223.720
  24993222.840          45.000          38.150
 108870813.077 8  84834540.067 8                  20717363.240    20717359.680
  20717358.960          49.750          48.400
 134249010.752 7 104609615.62945                  25546729.480
  25546722.720          43.000          33.650
 119637936.444 7  93051740.731 5                  22388608.400    22388612.280
  22388610.200          45.400          35.600
 114917664.007 7  89380453.637 7                  21475094.480    21475096.580
  21475095.680          47.700          43.550
 102497788.001 8  79720538.844 7                  19228317.120    19228323.560
  19228322.340          48.000          42.150
 113819013.987 8  88526024.618 7                  21277213.560    21277214.220
  21277212.560          48.650          44.600
 110113609.804 8  85643909.529 6                  20620726.180    20620729.520
  20620726.920          48.150          36.850
 102863185.278 7  80004850.298 7                  19235887.400    19235891.120
  19235888.940          44.800          46.600
 124912883.447 8                  93279234.200 8  23770079.000
                        50.350


 124483886.102 8                  92958853.886 8  23688442.380
                        50.550
 15  1 27  0  8 35.0000000  0 19G31G08G21G25G05G16G14G12G29G02R11R21
                                R10R19R09R20E12E18E11
 108656367.613 8  84667310.835 8                  20676612.940    20676608.440
  20676607.560          49.850          49.350
 116889287.318 8  91082542.21347                  22243289.680
  22243285.520          49.550          43.700
 116997526.955 8  91166960.02947                  22263860.180
  22263854.940          48.500          43.350
 114625783.938 8  89318965.870 7  85597336.272 8  21812479.480    21812478.020
  21812477.280          49.300          47.650
 133330963.536 7 103894262.249 6                  25372036.900    25372034.520
  25372034.040          42.550          39.650
 131069175.079 7 102131821.70145                  24941635.720
  24941630.880          43.750          33.800
 129502093.688 6 100910714.83245                  24643422.940
  24643419.240          41.500          35.150
 131354831.766 7 102354582.179 6                  24995919.580    24995916.280
  24995915.360          44.850          38.100
 108879540.685 8  84841340.794 8                  20719024.060    20719020.500
  20719019.780          49.850          48.550
 134263815.059 7 104621151.49445                  25549546.680
  25549539.960          43.000          34.950
 119618629.811 7  93036724.455 5                  22384995.420    22384999.280
  22384997.200          45.000          35.550
 114901807.807 7  89368121.045 7                  21472131.340    21472133.460
  21472132.580          47.850          43.550
 102492682.068 8  79716567.562 7                  19227359.180    19227365.660
  19227364.500          48.000          42.150
 113835874.160 8  88539138.080 7                  21280365.400    21280366.060
  21280364.400          48.850          44.550
 110127761.466 8  85654916.374 6                  20623376.340    20623379.680
  20623377.080          48.400          37.000
 102863045.974 7  80004741.949 7                  19235861.420    19235865.060
  19235862.860          45.250          46.550
 124918694.410 8                  93283573.550 8  23771184.800
                        50.300


 124477480.978 8                  92954070.829 8  23687223.500
                        50.550
 15  1 27  0  8 40.0000000  0 19G31G08G21G25G05G16G14G12G29G02R11R21
                                R10R19R09R20E12E18E11
 108655342.810 8  84666512.283 8                  20676417.940    20676413.440
  20676412.580          49.900          49.200
 116874929.925 8  91071354.63447                  22240557.600
  22240553.400          49.700          43.850
 116985610.563 8  91157674.52547                  22261592.540
  22261587.340          48.400          43.200
 114635564.526 8  89326587.099 7  85604639.948 8  21814340.660    21814339.240
  21814338.480          49.400          47.550
 133324865.559 7 103889510.573 6                  25370876.520    25370874.120
  25370873.620          42.550          38.850
 131054551.719 7 102120426.88545                  24938853.000
  24938848.220          44.000          34.300
 129517237.402 6 100922515.11745                  24646304.720
  24646300.880          41.600          31.750
 131368983.187 7 102365609.261 6                  24998612.440    24998609.240
  24998608.260          44.750          38.800
 108888276.451 8  84848147.882 8                  20720686.440    20720682.860
  20720682.160          49.700          48.400
 134278624.721 7 104632691.47845                  25552364.860
  25552358.120          43.300          33.200
 119599327.729 7  93021711.741 5                  22381383.320    22381387.140
  22381385.060          45.000          35.900
 114885963.149 7  89355797.425 7                  21469170.420    21469172.560
  21469171.640          47.850          43.550
 102487594.654 8  79712610.676 7                  19226404.760    19226411.280
  19226410.100          48.200          42.250
 113852741.360 8  88552257.007 7                  21283518.560    21283519.220
  21283517.580          48.850          44.750
 110141927.475 8  85665934.376 6                  20626029.160    20626032.520
  20626029.900          48.350          36.900
 102862924.769 7  80004647.676 7                  19235838.780    19235842.360
  19235840.180          45.050          46.750
 124924513.054 8                  93287918.645 8  23772292.040
                        50.550


 124471084.596 8                  92949294.320 8  23686006.280
                        50.550
 15  1 27  0  8 45.0000000  0 19G31G08G21G25G05G16G14G12G29G02R11R21
                                R10R19R09R20E12E18E11
 108654332.141 8  84665724.744 8                  20676225.600    20676221.120
  20676220.260          49.950          49.100
 116860580.699 8  91060173.41447                  22237827.060
  22237822.840          49.550          43.650
 116973701.922 8  91148395.07347                  22259326.340
  22259321.240          48.250          42.950
 114645350.611 8  89334212.608 7  85611947.733 8  21816202.880    21816201.480
  21816200.720          49.600          47.250
 133318777.235 7 103884766.410 6                  25369717.900    25369715.480
  25369715.060          42.450          38.900
 131039926.842 7 102109030.87945                  24936069.960
  24936065.200          43.100          34.600
 129532379.091 7 100934313.82145                  24649186.120
  24649182.200          42.250          31.150
 131383135.644 7 102376637.137 6                  25001305.480    25001302.380
  25001301.380          44.100          38.400
 108897019.172 8  84854960.380 8                  20722350.160    20722346.560
  20722345.860          50.000          48.150
 134293438.474 7 104644234.69145                  25555183.860
  25555177.120          43.550          34.650
 119580028.733 7  93006701.415 5                  22377771.800    22377775.540
  22377773.500          44.750          35.900
 114870128.809 7  89343481.829 7                  21466211.400    21466213.480
  21466212.600          47.300          43.500
 102482524.345 8  79708667.105 7                  19225453.560    19225460.080
  19225458.920          48.150          42.350
 113869614.382 8  88565380.458 7                  21286672.800    21286673.500
  21286671.860          48.650          44.750
 110156106.560 8  85676962.554 6                  20628684.440    20628687.740
  20628685.140          48.250          36.900
 102862820.408 7  80004566.508 7                  19235819.260    19235822.860
  19235820.660          44.700          46.900
 124930338.139 8                  93292268.541 8  23773400.520
                        50.500


 124464695.726 8                  92944523.405 8  23684790.500
                        50.600
 15  1 27  0  8 50.0000000  0 19G31G08G21G25G05G16G14G12G29G02R11R21
                                R10R19R09R20E12E18E11
 108653336.976 8  84664949.281 8                  20676036.220    20676031.740
  20676030.900          49.850          49.200
 116846241.005 8  91048999.62947                  22235098.360
  22235094.140          49.650          43.650
 116961802.501 7  91139122.80347                  22257061.880
  22257056.880          47.850          43.150
 114655143.538 8  89341843.460 7  85619260.635 8  21818066.400    21818065.040
  21818064.280          49.400          47.500
 133312699.991 6 103880030.879 6                  25368561.340    25368559.060
  25368558.600          41.750          38.850
 131025301.900 7 102097634.80146                  24933286.900
  24933282.020          42.800          36.050
 129547520.143 6 100946112.01145                  24652067.380
  24652063.460          41.650          30.550
 131397290.463 7 102387666.864 6                  25003999.020    25003995.980
  25003994.980          44.000          38.300
 108905770.233 8  84861779.396 8                  20724015.460    20724011.840
  20724011.120          49.800          48.100
 134308257.669 7 104655782.13245                  25558003.860
  25557997.100          43.400          33.550
 119560734.434 7  92991694.744 5                  22374161.160    22374164.920
  22374162.840          45.000          35.900
 114854306.134 7  89331175.306 7                  21463254.540    21463256.640
  21463255.760          47.100          43.700
 102477472.520 8  79704737.910 7                  19224505.820    19224512.400
  19224511.200          48.050          42.400
 113886494.529 8  88578509.447 7                  21289828.340    21289829.100
  21289827.440          48.650          44.650
 110170299.974 8  85688001.881 6                  20631342.400    20631345.740
  20631343.160          48.100          37.200
 102862734.250 7  80004499.492 7                  19235803.140    19235806.760
  19235804.540          44.600          47.000
 124936171.003 8                  93296624.252 8  23774510.460
                        50.350


 124458315.680 8                  92939759.098 8  23683576.380
                        50.400
 15  1 27  0  8 55.0000000  0 19G31G08G21G25G05G16G14G12G29G02R11R21
                                R10R19R09R20E12E18E11
 108652358.830 8  84664187.085 8                  20675850.100    20675845.620
  20675844.780          49.700          49.100
 116831912.391 8  91037834.47447                  22232371.740
  22232367.520          49.650          43.750
 116949913.837 7  91129858.90947                  22254799.440
  22254794.520          47.750          43.650
 114664944.825 8  89349480.826 7  85626579.776 8  21819931.520    21819930.180
  21819929.420          49.250          47.300
 133306635.368 7 103875305.217 6                  25367407.240    25367405.000
  25367404.440          42.550          38.600
 131010678.347 7 102086239.85645                  24930504.120
  24930499.440          42.950          32.800
 129562662.013 6 100957910.85445                  24654948.780
  24654944.820          41.700          31.300
 131411449.134 7 102398699.573 6                  25006693.320    25006690.300
  25006689.340          44.500          38.700
 108914531.102 8  84868606.040 7                  20725682.640    20725678.940
  20725678.240          49.850          47.900
 134323083.764 7 104667334.94745                  25560825.180
  25560818.380          43.750          33.800
 119541446.347 7  92976692.890 5                  22370551.660    22370555.340
  22370553.320          44.750          35.750
 114838496.663 7  89318879.051 7                  21460300.160    21460302.260
  21460301.360          47.650          44.100
 102472440.797 8  79700824.353 7                  19223561.880    19223568.440
  19223567.260          48.100          42.600
 113903383.367 8  88591645.206 7                  21292985.560    21292986.300
  21292984.620          48.900          44.750
 110184509.272 7  85699053.549 6                  20634003.340    20634006.680
  20634004.120          47.950          36.750
 102862667.773 7  80004447.780 7                  19235790.700    19235794.300
  19235792.100          44.450          47.000
 124942013.178 8                  93300986.916 8  23775622.200
                        50.350


 124451946.025 8                  92935002.536 8  23682364.260
                        50.350
 15  1 27  0  9  0.0000000  0 19G31G08G21G25G05G16G14G12G29G02R11R21
                                R10R19R09R20E12E18E11
 108651395.049 8  84663436.095 8                  20675666.700    20675662.200
  20675661.400          49.650          49.650
 116817592.241 8  91026675.91547                  22229646.760
  22229642.520          49.650          44.750
 116938033.295 7  91120601.35647                  22252538.540
  22252533.740          47.550          43.850
 114674751.846 8  89357122.661 7  85633903.195 8  21821797.740    21821796.380
  21821795.660          49.300          47.800
 133300580.700 6 103870587.310 6                  25366255.100    25366252.840
  25366252.260          41.550          39.600
 130996053.618 7 102074843.96545                  24927721.120
  24927716.560          42.800          33.550
 129577802.067 6 100969708.29045                  24657829.800
  24657825.900          41.750          33.300
 131425609.064 7 102409733.292 6                  25009387.880    25009384.800
  25009383.880          45.200          39.250
 108923299.158 8  84875438.297 8                  20727351.180    20727347.460
  20727346.740          50.000          48.700
 134337914.154 7 104678891.15745                  25563647.340
  25563640.440          42.850          34.050
 119522161.763 7  92961693.784 5                  22366942.800    22366946.440
  22366944.440          44.950          35.850
 114822697.758 7  89306591.014 7                  21457347.800    21457349.880
  21457348.920          47.550          43.550
 102467426.504 8  79696924.352 7                  19222621.200    19222627.780
  19222626.580          48.250          42.600
 113920278.204 8  88604785.645 7                  21296143.880    21296144.600
  21296142.900          48.850          44.100
 110198731.949 7  85710115.635 6                  20636666.800    20636670.080
  20636667.580          47.650          37.150
 102862618.387 7  80004409.372 7                  19235781.480    19235785.100
  19235782.860          44.600          46.850
 124947861.996 8                  93305354.535 8  23776735.180
                        50.400


 124445584.098 8                  92930251.748 8  23681153.600
                        50.550
 15  1 27  0  9  5.0000000  0 19G31G08G21G25G05G16G14G12G29G02R11R21
                                R10R19R09R20E12E18E11
 108650445.695 8  84662696.337 8                  20675486.040    20675481.560
  20675480.740          49.650          49.450
 116803280.588 8  91015523.98847                  22226923.400
  22226919.120          49.600          44.150
 116926160.911 7  91111350.15247                  22250279.220
  22250274.520          47.450          44.250
 114684564.660 8  89364769.010 7  85641230.948 8  21823665.040    21823663.680
  21823663.000          49.200          47.600
 133294536.077 6 103865877.220 6                  25365104.820    25365102.660
  25365102.040          40.900          39.550
 130981427.703 7 102063447.15545                  24924937.900
  24924933.400          42.900          34.100
 129592940.421 6 100981504.40445                  24660710.500
  24660706.680          41.650          32.950
 131439770.247 7 102420767.996 6                  25012082.720    25012079.580
  25012078.680          45.100          39.300
 108932074.523 8  84882276.246 8                  20729021.100    20729017.340
  20729016.620          50.050          48.450
 134352748.859 7 104690450.65745                  25566470.280
  25566463.440          42.900          32.900
 119502880.719 7  92946697.422 5                  22363334.640    22363338.220
  22363336.240          44.600          35.550
 114806909.443 7  89294311.215 7                  21454397.340    21454399.400
  21454398.480          47.650          43.050
 102462429.627 8  79693037.888 7                  19221683.800    19221690.380
  19221689.180          48.000          42.450
 113937179.027 8  88617930.738 7                  21299303.340    21299304.040
  21299302.300          48.600          44.000
 110212967.850 7  85721187.994 6                  20639332.720    20639336.100
  20639333.520          47.550          36.800
 102862586.051 7  80004384.233 7                  19235775.440    19235779.040
  19235776.820          44.450          46.800
 124953717.530 8                  93309727.176 8  23777849.440
                        50.300


 124439229.953 8                  92925506.774 8  23679944.420
                        50.600
 15  1 27  0  9 10.0000000  0 19G31G08G21G25G05G16G14G12G29G02R11R21
                                R10R19R09R20E12E18E11
 108649512.338 8  84661969.039 8                  20675308.400    20675303.920
  20675303.140          49.650          49.200
 116788979.014 8  91004379.90047                  22224201.920
  22224197.600          49.550          43.850
 116914298.283 7  91102106.55247                  22248021.740
  22248017.140          47.650          43.650
 114694384.816 8  89372421.071 7  85648564.171 8  21825533.720    21825532.400
  21825531.720          49.100          47.550
 133288503.065 6 103861176.184 6                  25363956.760    25363954.580
  25363954.060          41.550          38.600
 130966802.225 7 102052050.69646                  24922154.820
  24922150.200          42.900          36.000
 129608078.499 6 100993300.27345                  24663591.160
  24663587.380          41.500          31.950
 131453934.259 7 102431804.891 6                  25014778.140    25014774.900
  25014774.080          45.500          39.100
 108940858.688 8  84889121.050 8                  20730692.700    20730688.920
  20730688.200          49.950          48.250
 134367589.432 7 104702014.75446                  25569294.360
  25569287.380          42.700          36.050
 119483604.885 7  92931705.103 5                  22359727.400    22359730.980
  22359729.020          44.500          35.950
 114791133.324 7  89282040.896 7                  21451449.220    21451451.220
  21451450.300          47.500          43.200
 102457451.851 8  79689166.283 7                  19220749.960    19220756.580
  19220755.360          48.200          42.600
 113954087.483 8  88631081.759 7                  21302464.180    21302464.860
  21302463.140          48.600          44.200
 110227218.698 7  85732271.989 6                  20642001.460    20642004.860
  20642002.260          47.600          36.950
 102862572.388 7  80004373.610 7                  19235772.880    19235776.460
  19235774.240          44.500          46.750
 124959581.319 8                  93314105.974 8  23778965.260
                        50.350


 124432885.144 8                  92920768.759 8  23678737.040
                        50.550
 15  1 27  0  9 15.0000000  0 19G31G08G21G25G05G16G14G12G29G02R11R21
                                R10R19R09R20E12E18E11
 108648594.420 8  84661253.778 8                  20675133.720    20675129.240
  20675128.460          49.800          49.000
 116774686.978 8  90993243.24947                  22221482.280
  22221477.900          49.650          43.800
 116902444.810 7  91092870.08147                  22245766.060
  22245761.500          47.650          43.200
 114704211.730 8  89380078.404 7  85655902.453 8  21827403.680    21827402.420
  21827401.720          49.150          47.350
 133282481.102 6 103856483.735 6                  25362810.780    25362808.680
  25362808.180          40.950          38.250
 130952176.565 7 102040654.09545                  24919371.680
  24919366.940          43.200          33.800
 129623215.711 6 101005095.48645                  24666471.660
  24666467.820          41.750          32.950
 131468100.563 7 102442843.598 6                  25017473.940    25017470.620
  25017469.880          44.950          38.700
 108949651.040 8  84895972.233 8                  20732365.840    20732362.040
  20732361.320          49.850          48.200
 134382435.319 7 104713582.99445                  25572119.460
  25572112.480          43.350          33.100
 119464333.738 7  92916716.443 6                  22356121.040    22356124.580
  22356122.700          44.900          36.800
 114775368.843 7  89269779.642 7                  21448503.260    21448505.240
  21448504.320          47.450          43.400
 102452492.634 8  79685309.110 7                  19219819.640    19219826.220
  19219825.040          48.250          42.350
 113971002.968 8  88644238.250 7                  21305626.360    21305627.040
  21305625.300          48.200          44.300
 110241483.905 7  85743367.144 6                  20644672.860    20644676.300
  20644673.640          47.850          36.700
 102862576.803 7  80004377.044 7                  19235773.680    19235777.300
  19235775.040          44.600          46.900
 124965452.788 8                  93318490.523 8  23780082.540
                        50.600


 124426549.106 8                  92916037.312 8  23677531.340
                        50.450
 15  1 27  0  9 20.0000000  0 19G31G08G21G25G05G16G14G12G29G02R11R21
                                R10R19R09R20E12E18E11
 108647690.257 8  84660549.236 8                  20674961.660    20674957.180
  20674956.400          49.950          48.900
 116760402.836 8  90982112.75647                  22218764.120
  22218759.680          49.700          43.400
 116890598.804 7  91083639.43747                  22243511.780
  22243507.300          47.850          43.000
 114714043.754 8  89387739.722 7  85663244.545 8  21829274.600    21829273.400
  21829272.700          49.050          47.450
 133276468.498 7 103851798.604 6                  25361666.560    25361664.560
  25361664.120          42.200          37.950
 130937549.092 7 102029256.05845                  24916588.180
  24916583.380          42.800          33.150
 129638350.407 6 101016888.73546                  24669351.700
  24669347.800          40.800          36.850
 131482267.508 7 102453882.768 6                  25020169.780    25020166.420
  25020165.720          44.300          38.350
 108958449.922 8  84902828.503 8                  20734040.220    20734036.400
  20734035.680          49.800          48.050
 134397284.820 7 104725154.05045                  25574945.220
  25574938.200          43.550          33.550
 119445065.534 7  92901730.065 6                  22352515.300    22352518.760
  22352516.940          44.650          36.200
 114759614.262 7  89257526.094 7                  21445559.160    21445561.120
  21445560.180          47.450          43.600
 102447550.251 7  79681465.040 7                  19218892.480    19218899.000
  19218897.860          47.950          42.100
 113987923.696 7  88657398.810 7                  21308789.500    21308790.180
  21308788.440          47.800          44.300
 110255761.672 7  85754472.067 6                  20647346.580    20647350.060
  20647347.380          47.650          36.650
 102862597.583 7  80004393.212 7                  19235777.580    19235781.180
  19235778.940          44.600          46.800
 124971330.241 8                  93322879.531 8  23781200.960
                        50.550


 124420220.175 8                  92911311.168 8  23676327.000
                        50.600
 15  1 27  0  9 25.0000000  0 19G31G08G21G25G05G16G14G12G29G02R11R21
                                R10R19R09R20E12E18E11
 108646803.175 8  84659858.001 8                  20674792.860    20674788.400
  20674787.600          49.900          48.950
 116746129.946 8  90970991.01847                  22216048.080
  22216043.600          49.650          43.350
 116878763.686 8  91074417.26447                  22241259.600
  22241255.120          48.300          42.550
 114723884.247 8  89395407.628 7  85670592.953 8  21831147.120    21831146.020
  21831145.300          49.100          47.550
 133270468.608 7 103847123.367 6                  25360524.800    25360522.800
  25360522.460          42.850          38.600
 130922923.165 7 102017859.21945                  24913805.000
  24913800.120          42.250          35.600
 129653485.931 6 101028682.62445                  24672231.880
  24672227.860          41.350          32.550
 131496438.384 7 102464924.991 6                  25022866.340    25022863.020
  25022862.320          43.950          38.050
 108967258.704 8  84909692.491 8                  20735716.520    20735712.640
  20735711.940          49.800          48.100
 134412141.265 7 104736730.50745                  25577772.320
  25577765.120          43.000          33.700
 119425803.741 7  92886748.674 5                  22348910.740    22348914.280
  22348912.360          44.800          35.900
 114743873.124 7  89245282.984 7                  21442617.560    21442619.480
  21442618.580          47.400          43.950
 102442628.071 8  79677636.680 7                  19217969.120    19217975.620
  19217974.460          48.000          42.000
 114004853.156 7  88670566.163 7                  21311954.280    21311954.960
  21311953.240          47.800          44.250
 110270055.431 7  85765589.432 6                  20650023.360    20650026.800
  20650024.160          47.950          36.750
 102862638.165 7  80004424.774 7                  19235785.120    19235788.760
  19235786.540          44.550          46.800
 124977217.047 8                  93327275.521 8  23782321.180
                        50.550


 124413901.699 8                  92906592.818 8  23675124.660
                        50.450
 15  1 27  0  9 30.0000000  0 19G31G08G21G25G05G16G14G12G29G02R11R21
                                R10R19R09R20E12E18E11
 108645929.657 8  84659177.338 8                  20674626.620    20674622.180
  20674621.360          49.750          48.850
 116731864.724 8  90959875.25947                  22213333.520
  22213329.000          49.800          43.250
 116866935.876 8  91065200.79247                  22239008.840
  22239004.320          48.250          42.500
 114733729.595 8  89403079.328 7  85677945.007 8  21833020.580    21833019.520
  21833018.820          49.150          47.400
 133264477.870 7 103842455.258 6                  25359384.800    25359382.800
  25359382.540          42.600          38.700
 130908295.153 6 102006460.75645                  24911021.360
  24911016.440          40.950          34.650
 129668618.642 6 101040474.31145                  24675111.520
  24675107.580          41.250          34.000
 131510609.662 7 102475967.545 6                  25025562.960    25025559.780
  25025559.000          44.050          38.400
 108976073.794 8  84916561.389 8                  20737394.000    20737390.060
  20737389.400          49.850          48.050
 134427001.084 7 104748309.61345                  25580600.080
  25580592.840          42.700          32.700
 119406544.622 7  92871769.362 5                  22345306.680    22345310.200
  22345308.260          44.550          35.950
 114728141.620 7  89233047.368 7                  21439677.760    21439679.660
  21439678.780          47.150          43.950
 102437722.511 7  79673821.240 6                  19217048.860    19217055.280
  19217054.180          47.900          41.950
 114021787.605 7  88683737.393 7                  21315119.980    21315120.700
  21315118.960          47.400          44.350
 110284361.508 7  85776716.378 6                  20652702.420    20652705.780
  20652703.220          47.650          36.850
 102862694.848 7  80004468.862 7                  19235795.700    19235799.360
  19235797.140          44.400          46.750
 124983109.621 8                  93331675.824 8  23783442.500
                        50.500


 124407590.099 8                  92901879.616 8  23673923.620
                        50.600
 15  1 27  0  9 35.0000000  0 19G31G08G21G25G05G16G14G12G29G02R11R21
                                R10R19R09R20E12E18E11
 108645073.351 8  84658510.095 8                  20674463.680    20674459.220
  20674458.400          49.800          48.900
 116717610.861 8  90948768.36247                  22210621.120
  22210616.540          49.700          43.250
 116855119.061 8  91055992.89547                  22236760.180
  22236755.620          48.600          42.850
 114743583.488 8  89410757.686 7  85685303.430 8  21834895.700    21834894.680
  21834893.980          49.350          47.400
 133258500.052 7 103837797.236 6                  25358247.320    25358245.320
  25358245.040          42.350          38.350
 130893668.784 6 101995063.63145                  24908237.980
  24908233.200          41.150          35.150
 129683752.285 6 101052266.76045                  24677991.300
  24677987.480          40.900          34.100
 131524784.947 7 102487013.242 6                  25028260.400    25028257.200
  25028256.460          44.350          38.700
 108984898.849 8  84923438.060 8                  20739073.380    20739069.400
  20739068.740          50.050          48.150
 134441867.973 7 104759894.24145                  25583429.180
  25583421.880          42.300          32.550
 119387292.076 7  92856795.176 6                  22341703.780    22341707.320
  22341705.400          44.450          36.050
 114712423.666 7  89220822.298 7                  21436740.480    21436742.380
  21436741.520          47.050          43.900
 102432837.357 8  79670021.680 6                  19216132.440    19216138.940
  19216137.720          48.250          41.850
 114038730.840 7  88696915.452 7                  21318287.300    21318288.060
  21318286.340          47.750          44.500
 110298683.636 7  85787855.822 6                  20655384.500    20655387.900
  20655385.320          47.350          36.850
 102862771.319 7  80004528.344 7                  19235809.980    19235813.660
  19235811.440          44.350          46.650
 124989011.651 8                  93336083.178 8  23784565.620
                        50.400


 124401289.073 8                  92897174.296 8  23672724.580
                        50.600
 15  1 27  0  9 40.0000000  0 19G31G08G21G25G05G16G14G12G29G02R11R21
                                R10R19R09R20E12E18E11
 108644232.477 8  84657854.860 8                  20674303.660    20674299.200
  20674298.400          49.900          49.000
 116703366.601 8  90937668.93147                  22207910.540
  22207905.940          49.900          43.300
 116843311.467 8  91046792.16447                  22234513.300
  22234508.640          48.650          42.650
 114753444.176 8  89418441.335 7  85692666.916 8  21836772.100    21836771.100
  21836770.440          49.200          47.600
 133252533.314 7 103833147.821 6                  25357111.880    25357109.880
  25357109.620          42.350          37.950
 130879042.252 6 101983666.31745                  24905454.640
  24905449.860          41.350          32.300
 129698885.058 6 101064058.52345                  24680870.920
  24680867.220          40.800          34.550
 131538962.499 7 102498060.683 6                  25030958.260    25030955.060
  25030954.380          44.950          38.150
 108993732.056 8  84930321.075 8                  20740754.320    20740750.320
  20740749.640          50.100          48.100
 134456740.060 7 104771482.88244                  25586259.240
  25586252.000          42.850          29.350
 119368044.233 7  92841824.629 6                  22338101.760    22338105.300
  22338103.440          43.850          36.000
 114696717.323 7  89208606.256 7                  21433805.340    21433807.280
  21433806.440          47.950          44.400
 102427970.745 8  79666236.529 7                  19215219.500    19215225.960
  19215224.740          48.500          42.350
 114055680.884 8  88710098.808 7                  21321455.940    21321456.700
  21321455.000          48.350          44.650
 110313020.017 7  85799006.327 6                  20658069.260    20658072.560
  20658070.100          47.550          37.050
 102862865.915 7  80004601.915 7                  19235827.620    19235831.340
  19235829.120          44.450          46.900
 124994921.298 8                  93340496.226 8  23785690.180
                        50.450


 124394996.798 8                  92892475.522 8  23671527.220
                        50.650
 15  1 27  0  9 45.0000000  0 19G31G08G21G25G05G16G14G12G29G02R11R21
                                R10R19R09R20E12E18E11
 108643406.142 8  84657210.960 8                  20674146.380    20674141.960
  20674141.140          49.900          48.950
 116689131.086 8  90926576.31847                  22205201.600
  22205197.020          49.850          43.150
 116831512.255 8  91037597.97447                  22232268.020
  22232263.280          48.750          42.550
 114763310.726 8  89426129.547 7  85700034.796 8  21838649.620    21838648.660
  21838648.000          49.250          47.600
 133246576.821 7 103828506.369 6                  25355978.380    25355976.420
  25355976.020          43.350          38.550
 130864414.680 6 101972268.21845                  24902671.120
  24902666.380          41.150          35.950
 129714016.055 6 101075848.87645                  24683750.260
  24683746.560          41.200          32.750
 131553141.428 7 102509109.209 6                  25033656.460    25033653.200
  25033652.540          44.750          38.500
 109002572.534 8  84937209.751 8                  20742436.640    20742432.620
  20742431.920          50.150          48.150
 134471616.579 7 104783075.00645                  25589090.160
  25589082.880          42.900          31.200
 119348800.269 7  92826857.114 6                  22334500.500    22334504.020
  22334502.180          44.000          36.050
 114681021.782 7  89196398.615 7                  21430872.240    21430874.160
  21430873.340          47.700          44.150
 102423121.735 8  79662465.075 7                  19214309.840    19214316.260
  19214315.100          48.350          42.350
 114072636.974 8  88723286.873 7                  21324625.720    21324626.500
  21324624.820          48.400          44.700
 110327369.747 7  85810167.229 6                  20660756.520    20660759.800
  20660757.340          47.750          36.800
 102862977.581 7  80004688.768 7                  19235848.460    19235852.240
  19235849.980          44.550          46.900
 125000837.722 8                  93344914.331 8  23786816.040
                        50.400


 124388712.438 8                  92887782.651 8  23670331.360
                        50.600
 15  1 27  0  9 50.0000000  0 19G31G08G21G25G05G16G14G12G29G02R11R21
                                R10R19R09R20E12E18E11
 108642594.677 8  84656578.650 8                  20673991.960    20673987.560
  20673986.720          49.950          48.950
 116674904.622 8  90915490.76247                  22202494.380
  22202489.820          49.700          43.650
 116819721.684 8  91028410.51747                  22230024.400
  22230019.560          48.850          42.000
 114773183.474 8  89433822.600 7  85707407.307 8  21840528.340    21840527.400
  21840526.760          49.200          47.500
 133240630.871 7 103823873.174 6                  25354846.980    25354844.920
  25354844.540          44.250          37.950
 130849786.358 6 101960869.54745                  24899887.420
  24899882.820          41.200          34.200
 129729145.578 6 101087638.08245                  24686629.340
  24686625.480          41.500          33.050
 131567322.020 7 102520159.024 6                  25036355.000    25036351.700
  25036350.980          44.700          38.100
 109011420.627 8  84944104.373 8                  20744120.400    20744116.380
  20744115.660          49.900          48.150
 134486497.668 7 104794670.68645                  25591921.940
  25591914.640          42.650          32.150
 119329560.422 7  92811892.784 6                  22330899.980    22330903.480
  22330901.680          44.250          36.050
 114665337.326 8  89184199.619 7                  21427941.200    21427943.140
  21427942.280          48.000          43.600
 102418290.798 8  79658707.679 7                  19213403.580    19213410.040
  19213408.840          48.650          42.300
 114089599.378 8  88736479.848 7                  21327796.660    21327797.420
  21327795.760          48.700          44.350
 110341733.113 8  85821338.748 6                  20663446.340    20663449.560
  20663447.140          48.050          36.650
 102863106.735 7  80004789.221 7                  19235872.560    19235876.400
  19235874.140          44.800          46.900
 125006761.206 8                  93349337.710 8  23787943.240
                        50.400


 124382436.273 8                  92883095.914 8  23669137.080
                        50.600
 15  1 27  0  9 55.0000000  0 19G31G08G21G25G05G16G14G12G29G02R11R21
                                R10R19R09R20E12E18E11
 108641798.991 8  84655958.629 8                  20673840.520    20673836.140
  20673835.300          49.900          49.100
 116660688.128 8  90904412.97447                  22199789.060
  22199784.520          49.400          43.400
 116807940.714 8  91019230.53647                  22227782.640
  22227777.680          48.650          42.900
 114783063.340 8  89441521.185 7  85714785.119 8  21842408.380    21842407.500
  21842406.860          49.050          47.550
 133234696.378 7 103819248.898 6                  25353717.760    25353715.460
  25353715.160          43.000          37.550
 130835158.234 6 101949471.00045                  24897103.740
  24897099.180          40.400          35.750
 129744274.504 7 101099426.83145                  24689508.260
  24689504.500          42.200          34.350
 131581505.272 7 102531210.902 6                  25039054.020    25039050.640
  25039049.920          44.850          38.350
 109020277.185 8  84951005.579 8                  20745805.740    20745801.700
  20745801.020          49.750          48.250
 134501384.332 7 104806270.69845                  25594754.780
  25594747.380          42.300          31.950
 119310325.577 7  92796932.360 6                  22327300.440    22327303.940
  22327302.120          44.350          36.050
 114649664.908 7  89172009.958 7                  21425012.400    21425014.360
  21425013.460          47.750          43.100
 102413478.888 8  79654965.077 7                  19212500.860    19212507.320
  19212506.140          48.400          42.250
 114106568.956 8  88749678.414 7                  21330968.960    21330969.720
  21330968.040          48.300          44.100
 110356111.107 7  85832521.622 6                  20666138.920    20666142.060
  20666139.640          47.950          36.550
 102863254.263 7  80004903.957 7                  19235900.100    19235903.960
  19235901.740          44.400          46.700
 125012692.664 8                  93353767.040 8  23789071.960
                        50.350


 124376169.220 8                  92878415.964 8  23667944.540
                        50.400
 15  1 27  0 10  0.0000000  0 19G31G08G21G25G05G16G14G12G29G02R11R21
                                R10R19R09R20E12E18E11
 108641018.193 8  84655350.217 8                  20673691.920    20673687.540
  20673686.720          49.850          49.200
 116646480.695 8  90893342.24947                  22197085.440
  22197080.960          49.300          43.600
 116796168.434 8  91010057.32947                  22225542.500
  22225537.460          48.600          43.150
 114792949.404 8  89449224.607 7  85722167.566 8  21844289.640    21844288.740
  21844288.120          49.100          47.400
 133228772.414 7 103814632.824 6                  25352590.600    25352588.020
  25352587.760          43.700          37.100
 130820529.384 6 101938071.90745                  24894319.940
  24894315.360          40.400          33.100
 129759401.889 7 101111214.39345                  24692386.940
  24692383.220          42.100          35.900
 131595690.173 7 102542264.090 6                  25041753.400    25041749.900
  25041749.160          44.550          38.000
 109029141.287 8  84957912.669 8                  20747492.540    20747488.480
  20747487.820          49.750          48.150
 134516275.647 7 104817874.30645                  25597588.500
  25597581.260          42.300          30.650
 119291095.052 7  92781975.291 5                  22323701.660    22323705.100
  22323703.320          44.200          35.900
 114634003.556 7  89159828.906 7                  21422085.660    21422087.600
  21422086.720          47.150          43.400
 102408685.017 8  79651236.515 7                  19211601.580    19211608.020
  19211606.820          48.200          42.350
 114123544.792 8  88762881.847 7                  21334142.400    21334143.200
  21334141.500          48.300          44.000
 110370502.698 7  85843715.079 6                  20668834.000    20668837.280
  20668834.740          47.850          36.600
 102863419.152 7  80005032.206 7                  19235930.960    19235934.800
  19235932.560          44.600          46.800
 125018631.146 8                  93358201.632 8  23790202.040
                        50.350


 124369910.365 8                  92873742.152 8  23666753.520
                        50.400
 15  1 27  0 10  5.0000000  0 19G31G08G21G25G05G16G14G12G29G02R11R21
                                R10R19R09R20E12E18E11
 108640252.897 8  84654753.888 8                  20673546.280    20673541.920
  20673541.100          49.800          49.050
 116632282.990 8  90882279.11047                  22194383.700
  22194379.240          49.100          43.850
 116784405.483 8  91000891.40047                  22223304.140
  22223299.020          48.700          43.000
 114802842.271 8  89456933.339 7  85729555.099 8  21846172.200    21846171.300
  21846170.680          48.900          47.350
 133222859.695 7 103810025.508 6                  25351465.500    25351462.820
  25351462.580          43.200          36.800
 130805900.506 6 101926672.83045                  24891536.100
  24891531.620          40.600          33.900
 129774528.429 7 101123001.30245                  24695265.440
  24695261.780          42.100          31.500
 131609877.439 7 102553319.113 6                  25044453.180    25044449.640
  25044448.900          44.300          37.750
 109038013.550 8  84964826.127 8                  20749180.860    20749176.820
  20749176.140          49.700          48.100
 134531172.233 7 104829482.07245                  25600423.260
  25600415.900          43.000          31.700
 119271869.342 7  92767021.967 6                  22320103.840    22320107.260
  22320105.460          44.650          36.200
 114618354.038 7  89147657.063 7                  21419161.160    21419163.120
  21419162.200          47.000          44.300
 102403909.790 8  79647522.455 7                  19210705.780    19210712.240
  19210711.000          48.350          42.600
 114140527.593 8  88776090.684 7                  21337317.160    21337317.980
  21337316.240          48.350          44.250
 110384908.586 7  85854919.663 6                  20671531.780    20671535.000
  20671532.480          47.900          37.000
 102863602.093 7  80005174.502 7                  19235965.140    19235969.000
  19235966.760          44.700          46.900
 125024577.337 8                  93362641.969 8  23791333.560
                        50.250


 124363660.349 8                  92869074.934 8  23665564.200
                        50.350
 15  1 27  0 10 10.0000000  0 19G31G08G21G25G05G16G14G12G29G02R11R21
                                R10R19R09R20E12E18E11
 108639503.778 8  84654170.154 8                  20673403.700    20673399.360
  20673398.540          49.850          49.150
 116618095.679 8  90871224.05947                  22191683.920
  22191679.500          49.100          43.650
 116772652.518 8  90991733.24047                  22221067.680
  22221062.480          48.600          42.800
 114812742.603 8  89464647.883 7  85736948.209 8  21848056.180    21848055.260
  21848054.660          49.150          47.600
 133216958.821 7 103805427.412 6                  25350342.640    25350339.800
  25350339.640          43.150          37.650
 130791272.179 6 101915274.12845                  24888752.400
  24888747.940          40.250          34.600
 129789654.702 7 101134787.99345                  24698143.880
  24698140.260          42.700          32.300
 131624067.662 7 102564376.425 6                  25047153.480    25047149.880
  25047149.140          44.100          38.250
 109046894.625 8  84971746.441 8                  20750870.880    20750866.800
  20750866.160          49.750          48.250
 134546074.672 7 104841094.40045                  25603259.080
  25603251.660          42.800          30.900
 119252649.230 7  92752072.995 6                  22316507.040    22316510.380
  22316508.660          44.850          36.250
 114602716.924 7  89135494.874 7                  21416238.980    21416240.940
  21416240.020          47.000          44.350
 102399153.870 8  79643823.404 7                  19209813.600    19209820.020
  19209818.800          48.400          42.400
 114157517.915 8  88789305.373 7                  21340493.340    21340494.140
  21340492.420          48.150          44.100
 110399329.367 7  85866135.824 6                  20674232.320    20674235.660
  20674233.060          47.850          37.200
 102863803.807 7  80005331.389 7                  19236002.880    19236006.740
  19236004.460          44.700          47.000
 125030531.831 8                  93367088.513 8  23792466.660
                        50.350


 124357419.821 8                  92864414.800 8  23664376.660
                        50.550
 15  1 27  0 10 15.0000000  0 19G31G08G21G25G05G16G14G12G29G02R11R21
                                R10R19R09R20E12E18E11
 108638770.123 8  84653598.472 8                  20673264.100    20673259.760
  20673258.940          49.700          49.200
 116603918.053 8  90860176.56647                  22188985.960
  22188981.620          48.950          43.350
 116760908.835 8  90982582.32547                  22218832.980
  22218827.700          48.500          42.850
 114822649.724 8  89472367.720 7  85744346.373 8  21849941.460    21849940.520
  21849939.920          49.150          47.600
 133211069.145 7 103800838.030 6                  25349221.840    25349218.980
  25349218.880          43.200          37.500
 130776643.721 6 101903875.34845                  24885968.720
  24885964.120          39.950          35.300
 129804779.990 7 101146573.92845                  24701022.200
  24701018.500          42.750          34.900
 131638260.146 7 102575435.485 6                  25049854.200    25049850.580
  25049849.800          43.550          38.500
 109055783.796 8  84978673.068 8                  20752562.440    20752558.360
  20752557.700          49.850          48.150
 134560982.296 7 104852710.74645                  25606095.920
  25606088.320          43.350          32.500
 119233433.927 7  92737127.759 5                  22312911.160    22312914.540
  22312912.740          45.250          35.750
 114587091.531 7  89123341.801 7                  21413318.980    21413320.960
  21413320.040          47.200          43.800
 102394416.516 8  79640138.800 7                  19208924.880    19208931.280
  19208930.060          48.650          42.450
 114174515.005 7  88802525.335 7                  21343670.760    21343671.560
  21343669.840          47.900          43.900
 110413764.405 8  85877363.074 6                  20676935.540    20676938.880
  20676936.260          48.050          36.750
 102864023.512 7  80005502.273 7                  19236044.000    19236047.820
  19236045.560          44.300          46.850
 125036493.918 8                  93371540.719 8  23793601.200
                        50.300


 124351188.069 8                  92859761.220 8  23663190.780
                        50.450
 15  1 27  0 10 20.0000000  0 19G31G08G21G25G05G16G14G12G29G02R11R21
                                R10R19R09R20E12E18E11
 108638050.772 8  84653037.941 8                  20673127.180    20673122.860
  20673122.060          49.750          49.100
 116589749.001 8  90849135.75047                  22186289.640
  22186285.380          48.950          43.800
 116749173.321 8  90973437.77147                  22216599.840
  22216594.460          48.650          42.600
 114832562.445 8  89480091.922 7  85751748.731 8  21851827.820    21851826.860
  21851826.260          49.250          47.550
 133205189.493 7 103796256.481 6                  25348103.000    25348100.100
  25348100.080          43.700          37.300
 130762013.986 6 101892475.55045                  24883184.780
  24883180.180          39.950          33.350
 129819903.149 7 101158358.19945                  24703900.040
  24703896.540          43.000          34.800
 131652453.782 7 102586495.455 6                  25052555.140    25052551.520
  25052550.720          43.350          37.800
 109064679.907 8  84985605.110 8                  20754255.300    20754251.220
  20754250.560          49.700          48.000
 134575893.974 7 104864330.24645                  25608933.540
  25608925.880          44.500          32.500
 119214222.308 7  92722185.385 5                  22309316.040    22309319.280
  22309317.520          45.300          35.500
 114571476.737 7  89111196.955 7                  21410401.000    21410403.000
  21410402.040          47.050          43.900
 102389696.713 8  79636467.844 7                  19208039.460    19208045.800
  19208044.620          48.600          42.250
 114191517.780 8  88815749.714 7                  21346849.260    21346849.980
  21346848.300          48.300          43.850
 110428212.425 8  85888600.423 6                  20679641.200    20679644.460
  20679641.900          48.100          37.200
 102864260.086 7  80005686.272 7                  19236088.240    19236092.080
  19236089.800          44.400          47.000
 125042462.466 8                  93375997.744 8  23794736.980
                        50.250


 124344963.947 8                  92855113.329 8  23662006.360
                        50.600
 15  1 27  0 10 25.0000000  0 19G31G08G21G25G05G16G14G12G29G02R11R21
                                R10R19R09R20E12E18E11
 108637347.204 8  84652489.702 8                  20672993.280    20672988.960
  20672988.160          49.700          49.100
 116575589.972 8  90838102.73547                  22183595.200
  22183591.020          48.900          43.700
 116737447.401 8  90964300.68847                  22214368.500
  22214363.080          48.600          42.750
 114842482.231 8  89487821.619 7  85759156.367 8  21853715.520    21853714.540
  21853713.940          49.150          47.400
 133199321.314 7 103791683.886 6                  25346986.340    25346983.440
  25346983.460          43.400          37.400
 130747384.438 6 101881075.92745                  24880400.940
  24880396.260          39.400          33.850
 129835025.556 7 101170141.84645                  24706777.740
  24706774.360          43.050          30.850
 131666649.934 7 102597557.394 6                  25055256.600    25055252.880
  25055252.080          43.800          37.400
 109073584.420 8  84992543.678 8                  20755949.780    20755945.700
  20755945.000          49.950          48.000
 134590811.076 7 104875953.98045                  25611772.140
  25611764.500          44.350          32.900
 119195015.862 7  92707247.030 6                  22305721.840    22305725.020
  22305723.300          45.250          36.000
 114555873.917 7  89099061.430 7                  21407485.240    21407487.240
  21407486.280          47.250          43.850
 102384995.847 8  79632811.613 6                  19207157.600    19207163.880
  19207162.740          48.600          41.900
 114208527.649 8  88828979.612 7                  21350029.080    21350029.740
  21350028.100          48.450          43.850
 110442674.954 8  85899849.050 6                  20682349.580    20682352.880
  20682350.280          48.000          36.850
 102864514.921 7  80005884.473 7                  19236135.880    19236139.720
  19236137.480          45.100          46.950
 125048438.884 8                  93380460.657 8  23795874.260
                        50.250


 124338748.898 8                  92850472.229 8  23660823.680
                        50.550
 15  1 27  0 10 30.0000000  0 19G31G08G21G25G05G16G14G12G29G02R11R21
                                R10R19R09R20E12E18E11
 108636657.202 8  84651952.042 8                  20672861.940    20672857.660
  20672856.880          49.750          49.200
 116561438.782 8  90827075.84047                  22180902.280
  22180898.180          48.850          44.250
 116725728.895 8  90955169.37947                  22212138.560
  22212133.080          48.350          42.800
 114852406.896 8  89495555.124 7  85766567.641 8  21855604.140    21855603.140
  21855602.560          49.350          47.400
 133193462.377 7 103787118.493 6                  25345871.400    25345868.600
  25345868.540          43.050          38.650
 130732752.817 6 101869674.64145                  24877616.580
  24877611.940          39.300          35.850
 129850144.990 7 101181923.21545                  24709654.900
  24709651.460          43.100          32.950
 131680846.428 7 102608619.605 6                  25057958.140    25057954.380
  25057953.580          44.250          37.700
 109082495.073 8  84999487.050 8                  20757645.420    20757641.360
  20757640.640          49.750          48.000
 134605731.440 7 104887580.26745                  25614611.380
  25614603.780          44.000          33.550
 119175812.358 7  92692310.977 6                  22302128.200    22302131.320
  22302129.620          45.000          36.000
 114540280.934 7  89086933.557 7                  21404571.300    21404573.360
  21404572.380          47.550          44.100
 102380311.807 8  79629168.466 6                  19206278.900    19206285.160
  19206284.000          48.600          41.850
 114225542.295 8  88842213.234 7                  21353209.800    21353210.440
  21353208.800          48.050          43.900
 110457149.700 8  85911107.188 6                  20685060.240    20685063.460
  20685060.920          48.150          36.700
 102864785.772 7  80006095.142 7                  19236186.520    19236190.360
  19236188.140          45.050          46.850
 125054421.014 8                  93384927.832 8  23797012.600
                        50.250


 124332540.712 8                  92845836.254 8  23659642.280
                        50.550
 15  1 27  0 10 35.0000000  0 19G31G08G21G25G05G16G14G12G29G02R11R21
                                R10R19R09R20E12E18E11
 108635984.634 8  84651427.967 8                  20672733.940    20672729.700
  20672728.900          49.800          49.300
 116547299.281 8  90816058.05147                  22178211.560
  22178207.560          48.900          43.650
 116714021.646 8  90946046.85547                  22209910.780
  22209905.260          48.350          43.450
 114862340.272 8  89503295.419 7  85773985.416 8  21857494.400    21857493.400
  21857492.840          49.200          47.700
 133187616.655 7 103782563.395 6                  25344758.940    25344756.220
  25344756.200          42.750          39.100
 130718123.061 6 101858274.84145                  24874832.620
  24874828.120          38.950          32.600
 129865265.353 7 101193705.30445                  24712532.240
  24712528.740          43.350          34.650
 131695047.113 7 102619685.099 6                  25060660.520    25060656.820
  25060655.780          44.250          38.050
 109091415.793 8  85006438.256 8                  20759342.960    20759338.920
  20759338.200          49.950          48.000
 134620658.894 7 104899212.08445                  25617451.980
  25617444.500          43.200          33.650
 119156615.691 7  92677380.238 6                  22298535.840    22298538.920
  22298537.240          44.500          36.200
 114524701.707 7  89074816.388 7                  21401659.960    21401662.000
  21401661.040          47.450          44.500
 102375648.492 8  79625541.444 7                  19205404.100    19205410.360
  19205409.160          48.600          42.300
 114242565.740 8  88855453.683 7                  21356392.140    21356392.800
  21356391.180          48.300          44.250
 110471640.544 8  85922377.853 6                  20687773.900    20687777.060
  20687774.620          48.300          37.150
 102865076.527 7  80006321.296 7                  19236240.900    19236244.760
  19236242.500          44.850          46.850
 125060412.688 8                  93389402.130 8  23798152.760
                        50.400


 124326343.270 8                  92841208.280 8  23658462.940
                        50.550
 15  1 27  0 10 40.0000000  0 19G31G08G21G25G05G16G14G12G29G02R11R21
                                R10R19R09R20E12E18E11
 108635327.037 8  84650915.552 8                  20672608.780    20672604.580
  20672603.780          49.600          49.400
 116533169.051 8  90805047.48247                  22175522.620
  22175518.680          48.700          44.000
 116702323.217 8  90936931.19447                  22207684.600
  22207679.140          48.150          43.100
 114872279.922 8  89511040.593 7  85781407.884 8  21859385.860    21859384.840
  21859384.280          49.000          47.600
 133181781.655 7 103778016.626 6                  25343648.540    25343645.900
  25343645.920          43.600          39.250
 130703492.784 6 101846874.63246                  24872048.540
  24872044.080          38.800          36.650
 129880384.216 7 101205486.25546                  24715409.300
  24715405.740          42.850          37.750
 131709249.574 7 102630751.947 6                  25063363.220    25063359.460
  25063358.400          44.200          38.000
 109100344.059 8  85013395.346 8                  20761041.940    20761037.900
  20761037.200          49.800          48.300
 134635590.933 6 104910847.46145                  25620293.440
  25620285.760          41.950          32.500
 119137423.488 7  92662452.986 6                  22294944.300    22294947.440
  22294945.700          44.750          36.400
 114509133.752 7  89062707.981 7                  21398750.740    21398752.780
  21398751.780          47.650          44.350
 102371003.354 8  79621928.557 7                  19204532.700    19204538.960
  19204537.780          48.500          42.350
 114259595.361 8  88868698.933 7                  21359575.640    21359576.340
  21359574.740          48.600          44.600
 110486145.053 8  85933659.133 6                  20690490.120    20690493.340
  20690490.880          48.450          37.050
 102865384.762 7  80006561.037 7                  19236298.560    19236302.400
  19236300.140          44.750          46.900
 125066411.426 8                  93393881.719 8  23799294.260
                        50.300


 124320154.102 8                  92836586.517 8  23657285.140
                        50.450
 15  1 27  0 10 45.0000000  0 19G31G08G21G25G05G16G14G12G29G02R11R21
                                R10R19R09R20E12E18E11
 108634684.832 8  84650415.133 8                  20672486.560    20672482.360
  20672481.580          49.600          49.250
 116519048.500 8  90794044.46147                  22172835.520
  22172831.620          48.650          44.150
 116690634.018 8  90927822.73247                  22205460.200
  22205454.800          48.050          43.350
 114882226.261 8  89518790.991 7  85788835.335 8  21861278.560    21861277.560
  21861277.000          49.050          47.650
 133175957.749 7 103773478.530 6                  25342540.260    25342537.660
  25342537.740          42.450          40.000
 130688862.264 6 101835474.27145                  24869264.400
  24869259.860          39.600          35.550
 129895501.979 7 101217266.29245                  24718286.120
  24718282.540          42.650          30.700
 131723454.229 7 102641820.514 6                  25066066.300    25066062.560
  25066061.480          43.850          38.400
 109109280.218 8  85020358.583 8                  20762742.420    20762738.400
  20762737.700          49.800          48.050
 134650528.006 6 104922486.73744                  25623135.840
  25623128.240          41.900          28.150
 119118236.106 7  92647529.465 6                  22291353.660    22291356.820
  22291355.120          44.700          36.750
 114493577.495 7  89050608.680 7                  21395843.700    21395845.700
  21395844.720          47.950          43.850
 102366376.802 8  79618330.125 7                  19203664.780    19203671.060
  19203669.860          48.550          42.400
 114276631.594 8  88881949.339 7                  21362760.380    21362761.100
  21362759.540          48.500          44.450
 110500663.702 8  85944951.412 6                  20693208.980    20693212.200
  20693209.760          48.450          37.050
 102865710.846 7  80006814.664 7                  19236359.560    19236363.360
  19236361.140          44.850          46.900
 125072417.658 8                  93398366.893 8  23800437.200
                        50.300


 124313973.650 8                  92831971.248 8  23656109.000
                        50.450
 15  1 27  0 10 50.0000000  0 19G31G08G21G25G05G16G14G12G29G02R11R21
                                R10R19R09R20E12E18E11
 108634056.813 8  84649925.765 8                  20672367.060    20672362.860
  20672362.080          49.700          49.250
 116504936.473 8  90783048.07847                  22170150.020
  22170146.180          48.800          43.650
 116678952.915 8  90918720.58847                  22203237.300
  22203232.000          48.400          43.250
 114892178.108 8  89526545.669 7  85796266.903 8  21863172.340    21863171.300
  21863170.740          49.250          47.700
 133170143.814 7 103768948.213 6                  25341433.860    25341431.360
  25341431.440          42.100          39.850
 130674230.398 6 101824072.79945                  24866480.060
  24866475.360          40.400          33.250
 129910617.418 7 101229044.53245                  24721162.480
  24721159.120          42.700          35.100
 131737659.904 7 102652889.875 6                  25068769.560    25068765.960
  25068764.760          44.550          38.650
 109118223.140 8  85027327.098 8                  20764444.200    20764440.160
  20764439.500          50.050          48.300
 134665468.923 7 104934129.04545                  25625979.000
  25625971.320          42.250          31.300
 119099052.323 7  92632608.763 6                  22287763.660    22287766.880
  22287765.200          44.600          37.200
 114478031.734 8  89038517.518 7                  21392938.600    21392940.580
  21392939.640          48.100          43.900
 102361767.776 8  79614745.329 7                  19202800.140    19202806.440
  19202805.260          48.350          42.600
 114293673.340 8  88895204.026 7                  21365946.160    21365946.860
  21365945.340          48.350          44.400
 110515195.140 8  85956253.639 6                  20695930.240    20695933.460
  20695931.000          48.350          36.750
 102866053.532 7  80007081.198 7                  19236423.660    19236427.460
  19236425.240          45.000          47.000
 125078430.186 8                  93402856.767 8  23801581.320
                        50.400


 124307800.707 8                  92827361.579 8  23654934.300
                        50.450
