     2.11           OBSERVATION DATA    M (MIXED)           RINEX VERSION / TYPE
teqc  2011Oct11     IGN-E (SPG)         20150127 21:00:56UTCPGM / RUN BY / DATE
Linux 2.4.21-27.ELsmp|Opteron|gcc -static|Linux x86_64|=+   COMMENT
BIT 2 OF LLI FLAGS DATA COLLECTED UNDER A/S CONDITION       COMMENT
VALE                                                        MARKER NAME
13439M001                                                   MARKER NUMBER
Programas GeodesicosInstituto Geografico Nacional           OBSERVER / AGENCY
1700071             LEICA GR10          3.03/6.214          REC # / TYPE / VERS
10190012            LEIAR25.R3      LEIT                    ANT # / TYPE
  4929534.0457   -29050.6755  4033709.9250                  APPROX POSITION XYZ
        3.0390        0.0000        0.0000                  ANTENNA: DELTA H/E/N
     1     1                                                WAVELENGTH FACT L1/2
     8    L1    L2    L5    C1    C2    P2    S1    S2      # / TYPES OF OBSERV
     5.0000                                                 INTERVAL
Forced Modulo Decimation to 5 seconds                       COMMENT
DefaultJobName                                              COMMENT
DefaultUserDiscription                                      COMMENT
Project creator:                                            COMMENT
 SNR is mapped to RINEX snr flag value [0-9]                COMMENT
  L1 & L2: min(max(int(snr_dBHz/6), 0), 9)                  COMMENT
  2015     1    27    20     0    0.0000000     GPS         TIME OF FIRST OBS
    15                                                      LEAP SECONDS
                                                            END OF HEADER
 15  1 27 20  0  0.0000000  0 23G22G14G18G13G17G15G06G24G12G25G29G02
                                R18R16R17R08R06R09R07R19R10E19E20
 127058584.873 7  99006701.41946                  24178438.720
  24178432.760          45.600          36.750
 126167183.138 7  98312089.93446                  24008810.500
  24008806.200          45.300          37.050
 125469855.282 7  97768730.00045                  23876109.380
  23876105.840          45.100          35.350
 132153616.813 7 102976897.14145                  25147982.220
  25147981.140          43.400          30.150
 129424216.869 7 100850105.180 6                  24628578.360    24628573.940
  24628573.420          45.250          39.650
 117048643.599 8  91206765.054 7                  22273597.740    22273594.460
  22273593.960          49.450          45.700
 133328563.879 6 103892390.170 6  99563536.669 7  25371582.040    25371581.880
  25371581.200          41.300          36.750
 107450483.113 8  83727737.054 8  80239098.987 8  20447113.260    20447111.460
  20447110.820          50.000          49.850
 105843230.023 8  82475355.201 8                  20141230.780    20141226.120
  20141225.280          50.550          49.100
 116565936.559 8  90830704.119 7  87046119.249 8  22181719.120    22181718.740
  22181717.960          48.850          47.050
 132640637.236 7 103356425.639 6                  25240661.000    25240676.440
  25240676.840          42.600          38.900
 134771432.917 7 105016682.94645                  25646148.620
  25646143.720          42.250          30.800
 113473509.516 8  88257251.757 7                  21257392.600    21257395.780
  21257394.740          48.800          45.600
 113000528.366 7  87889360.015 7                  21153919.200    21153921.620
  21153920.860          46.850          44.700
 130103339.948 6 101191495.721 5                  24312917.620    24312918.800
  24312917.660          40.150          34.800
 118655785.091 7  92287841.703 7                  22158129.680    22158130.540
  22158129.720          46.200          43.550
 124208837.386 7  96606919.235 6                  23276677.680    23276682.000
  23276681.980          44.700          38.000
 106948007.382 7  83181729.715 6                  20027890.600    20027893.840
  20027891.360          47.100          37.700
 113367664.862 8  88174865.060 7                  21178031.020    21178032.600
  21178031.660          48.850          45.850
 114686414.643 8  89200542.064 7                  21439363.400    21439364.700
  21439362.940          48.800          44.150
 120983541.431 7  94098351.768 6                  22696194.780    22696202.880
  22696202.260          44.700          38.100
 133261888.785 8                  99513784.875 7  25358881.860
                        49.800
 127743963.060 7                                  24308867.740
                        46.250
 15  1 27 20  0  5.0000000  0 23G22G14G18G13G17G15G06G24G12G25G29G02
                                R18R16R17R08R06R09R07R19R10E19E20
 127062340.775 7  99009628.08846                  24179153.440
  24179147.520          45.750          36.800
 126150971.816 7  98299457.74946                  24005725.600
  24005721.240          45.350          36.650
 125479686.407 7  97776390.59945                  23877980.180
  23877976.780          44.800          33.200
 132173008.441 7 102992007.43244                  25151672.420
  25151671.040          43.800          29.350
 129437642.449 7 100860566.682 6                  24631133.120    24631128.760
  24631128.180          44.950          39.650
 117063871.365 8  91218630.839 7                  22276495.440    22276492.160
  22276491.680          49.650          45.450
 133318653.418 6 103884667.718 6  99556135.982 7  25369696.100    25369696.040
  25369695.260          41.450          37.300
 107451599.992 8  83728607.353 8  80239933.022 8  20447325.800    20447324.000
  20447323.340          50.050          49.750
 105841406.311 8  82473934.129 8                  20140883.740    20140879.040
  20140878.240          50.700          49.050
 116553501.306 8  90821014.318 7  87036833.197 8  22179352.740    22179352.380
  22179351.600          48.800          46.850
 132621654.860 6 103341634.687 6                  25237048.400    25237063.760
  25237064.160          41.500          38.950
 134760354.655 7 105008050.56645                  25644040.460
  25644035.480          42.050          31.150
 113477309.302 8  88260207.144 7                  21258104.420    21258107.600
  21258106.560          48.450          45.750
 113009938.730 7  87896679.190 7                  21155680.860    21155683.280
  21155682.520          47.400          45.050
 130120832.573 6 101205101.131 6                  24316186.520    24316187.780
  24316186.580          40.250          36.500
 118648599.971 7  92282253.280 7                  22156787.880    22156788.800
  22156787.940          46.400          43.400
 124230152.025 7  96623497.225 6                  23280671.960    23280676.520
  23280676.420          44.050          38.150
 106945249.458 7  83179584.670 6                  20027374.080    20027377.340
  20027374.900          47.000          38.000
 113378763.490 8  88183497.318 7                  21180104.320    21180105.940
  21180104.980          49.100          45.500
 114669584.357 8  89187451.847 7                  21436217.120    21436218.420
  21436216.640          48.850          44.050
 120970856.389 7  94088485.646 6                  22693815.060    22693823.140
  22693822.580          44.600          38.200
 133266903.127 8                  99517529.361 7  25359836.100
                        49.950
 127757633.375 7                                  24311469.120
                        46.400
 15  1 27 20  0 10.0000000  0 23G22G14G18G13G17G15G06G24G12G25G29G02
                                R18R16R17R08R06R09R07R19R10E19E20
 127066108.476 7  99012563.94445                  24179870.400
  24179864.460          45.400          34.650
 126134765.397 7  98286829.38546                  24002641.620
  24002637.260          45.250          36.050
 125489523.839 7  97784056.13645                  23879852.160
  23879848.840          43.850          34.050
 132192401.132 7 103007118.59844                  25155362.820
  25155361.480          43.350          29.700
 129451076.674 7 100871034.913 6                  24633689.520    24633685.240
  24633684.640          44.850          40.150
 117079106.948 8  91230502.720 7                  22279394.640    22279391.380
  22279390.900          49.700          45.450
 133308749.361 6 103876950.301 6  99548740.122 7  25367811.380    25367811.320
  25367810.660          41.350          37.200
 107452725.058 8  83729484.037 8  80240773.176 8  20447539.880    20447538.100
  20447537.440          49.950          49.850
 105839594.558 8  82472522.384 8                  20140538.980    20140534.280
  20140533.480          50.550          49.200
 116541074.064 8  90811330.771 7  87027553.122 8  22176987.880    22176987.560
  22176986.760          48.800          46.800
 132602670.102 6 103326841.903 6                  25233435.340    25233450.620
  25233451.120          40.200          38.300
 134749274.463 6 104999416.71544                  25641931.980
  25641927.080          40.000          29.800
 113481131.169 8  88263179.724 7                  21258820.380    21258823.580
  21258822.560          48.650          45.550
 113019353.638 7  87904001.894 7                  21157443.320    21157445.780
  21157445.000          46.850          44.800
 130138336.162 6 101218715.033 5                  24319457.480    24319458.760
  24319457.560          40.000          35.800
 118641435.175 7  92276680.662 7                  22155449.900    22155450.820
  22155449.960          46.550          43.300
 124251467.431 7  96640075.814 6                  23284666.440    23284671.000
  23284670.940          44.200          37.950
 106942497.620 7  83177444.347 6                  20026858.760    20026861.960
  20026859.560          47.000          37.350
 113389879.818 8  88192143.357 7                  21182180.960    21182182.560
  21182181.560          48.900          45.350
 114652766.807 8  89174371.537 7                  21433073.220    21433074.560
  21433072.740          48.800          44.350
 120958172.600 7  94078620.483 6                  22691435.560    22691443.560
  22691443.080          44.700          37.850
 133271928.218 8                  99521281.860 7  25360792.380
                        49.650
 127771307.298 7                                  24314071.160
                        46.150
 15  1 27 20  0 15.0000000  0 23G22G14G18G13G17G15G06G24G12G25G29G02
                                R18R16R17R08R06R09R07R19R10E19E20
 127069887.566 7  99015508.69846                  24180589.540
  24180583.560          45.000          37.300
 126118563.516 7  98274204.53246                  23999558.520
  23999554.120          45.250          36.900
 125499367.243 7  97791726.31346                  23881725.260
  23881722.060          43.800          36.200
 132211794.567 7 103022230.26345                  25159053.320
  25159052.120          42.850          31.400
 129464519.176 7 100881509.577 6                  24636247.540    24636243.300
  24636242.700          44.600          39.900
 117094350.003 8  91242380.427 7                  22282295.280    22282292.020
  22282291.540          49.850          45.600
 133298851.454 6 103869237.635 6  99541348.821 7  25365927.940    25365927.760
  25365927.020          41.700          36.950
 107453858.049 8  83730366.887 8  80241619.241 8  20447755.460    20447753.700
  20447753.040          49.900          49.900
 105837794.428 8  82471119.684 8                  20140196.440    20140191.740
  20140190.920          50.450          49.250
 116528654.437 8  90801653.144 7  87018278.736 8  22174624.460    22174624.180
  22174623.380          48.700          46.750
 132583682.605 6 103312046.958 6                  25229821.760    25229837.080
  25229837.720          40.000          38.400
 134738191.966 6 104990781.03045                  25639823.040
  25639818.260          39.900          30.750
 113484974.888 8  88266169.291 7                  21259540.440    21259543.640
  21259542.660          48.800          45.300
 113028772.600 7  87911327.749 7                  21159206.560    21159209.020
  21159208.200          46.750          44.200
 130155850.012 6 101232336.948 6                  24322730.360    24322731.740
  24322730.520          40.100          36.650
 118634290.196 7  92271123.458 7                  22154115.580    22154116.540
  22154115.660          46.600          42.750
 124272783.377 7  96656654.825 6                  23288661.040    23288665.580
  23288665.600          44.250          38.300
 106939751.425 7  83175308.426 6                  20026344.460    20026347.680
  20026345.280          47.150          37.400
 113401013.539 8  88200802.905 7                  21184260.860    21184262.400
  21184261.400          48.700          45.100
 114635961.649 8  89161300.850 7                  21429931.660    21429932.940
  21429931.180          48.750          44.050
 120945489.792 7  94068756.093 6                  22689056.340    22689064.340
  22689063.780          44.850          38.000
 133276963.687 8                  99525042.117 7  25361750.600
                        49.600
 127784984.363 7                                  24316673.800
                        46.250
 15  1 27 20  0 20.0000000  0 23G22G14G18G13G17G15G06G24G12G25G29G02
                                R18R16R17R08R06R09R07R19R10E19E20
 127073678.940 7  99018463.01146                  24181310.980
  24181305.080          45.250          36.750
 126102367.108 7  98261583.96546                  23996476.400
  23996472.000          45.300          36.200
 125509217.484 7  97799401.82945                  23883599.640
  23883596.700          44.400          34.600
 132231189.582 7 103037343.20845                  25162744.100
  25162742.960          42.900          31.100
 129477970.771 7 100891991.340 6                  24638807.240    24638803.080
  24638802.440          44.800          39.850
 117109601.395 8  91254264.623 7                  22285197.520    22285194.280
  22285193.760          49.950          45.600
 133288960.547 6 103861530.398 6  99533962.726 7  25364045.800    25364045.520
  25364044.620          41.200          37.150
 107454999.853 8  83731256.606 8  80242471.887 8  20447972.720    20447970.960
  20447970.320          49.950          50.000
 105836006.743 8  82469726.688 8                  20139856.260    20139851.540
  20139850.740          50.450          49.400
 116516243.330 8  90791982.166 7  87009010.706 8  22172262.680    22172262.420
  22172261.640          48.850          46.950
 132564693.219 6 103297250.562 6                  25226207.860    25226223.160
  25226223.880          39.700          38.950
 134727108.048 6 104982144.26645                  25637713.780
  25637709.220          40.400          31.750
 113488841.280 8  88269176.471 7                  21260264.740    21260267.960
  21260267.000          49.100          45.150
 113038196.600 7  87918657.529 7                  21160970.760    21160973.200
  21160972.340          47.150          44.100
 130173375.271 6 101245967.671 6                  24326005.340    24326006.800
  24326005.640          38.950          36.900
 118627166.205 7  92265582.570 7                  22152785.200    22152786.220
  22152785.260          46.650          42.700
 124294100.451 7  96673234.711 6                  23292655.840    23292660.620
  23292660.540          44.350          37.250
 106937011.935 7  83173177.697 6                  20025831.420    20025834.660
  20025832.240          46.900          37.300
 113412165.387 8  88209476.561 7                  21186344.100    21186345.640
  21186344.640          48.500          45.450
 114619169.720 8  89148240.477 7                  21426792.580    21426793.840
  21426792.100          48.750          44.100
 120932808.914 7  94058893.190 6                  22686677.420    22686685.400
  22686684.860          44.750          38.200
 133282010.413 8                  99528810.754 7  25362710.940
                        49.750
 127798665.483 7                                  24319277.220
                        46.350
 15  1 27 20  0 25.0000000  0 23G22G14G18G13G17G15G06G24G12G25G29G02
                                R18R16R17R08R06R09R07R19R10E19E20
 127077483.544 7  99021427.63846                  24182034.980
  24182029.080          45.600          36.900
 126086177.119 7  98248968.39746                  23993395.520
  23993391.120          45.000          37.400
 125519075.468 7  97807083.36746                  23885475.500
  23885472.800          44.350          36.750
 132250587.160 7 103052458.15145                  25166435.300
  25166434.300          42.050          31.100
 129491432.459 7 100902480.965 6                  24641368.920    24641364.800
  24641364.160          45.100          39.950
 117124862.074 8  91266156.065 7                  22288101.520    22288098.280
  22288097.740          50.000          46.000
 133279077.573 6 103853829.387 6  99526582.630 7  25362165.040    25362164.820
  25362164.020          40.000          38.250
 107456151.310 8  83732153.855 8  80243331.749 8  20448191.820    20448190.100
  20448189.420          50.000          50.000
 105834232.541 8  82468344.194 8                  20139518.640    20139513.900
  20139513.120          50.350          49.450
 116503841.712 8  90782318.578 7  86999749.765 8  22169902.720    22169902.480
  22169901.680          48.800          47.100
 132545703.084 6 103282453.595 6                  25222593.880    25222608.960
  25222609.840          40.000          39.100
 134716023.752 6 104973507.15445                  25635604.420
  25635599.880          40.550          30.650
 113492731.394 8  88272202.107 7                  21260993.480    21260996.720
  21260995.780          48.850          44.900
 113047626.593 7  87925991.966 7                  21162736.040    21162738.500
  21162737.620          47.400          43.950
 130190912.843 6 101259607.984 6                  24329282.720    24329284.140
  24329283.080          39.050          36.500
 118620064.020 7  92260058.635 7                  22151458.900    22151459.980
  22151458.960          45.800          42.950
 124315419.802 7  96689816.385 6                  23296651.120    23296655.920
  23296655.800          44.500          36.900
 106934280.011 7  83171052.868 6                  20025319.780    20025323.040
  20025320.640          46.750          37.050
 113423336.512 8  88218165.203 7                  21188430.960    21188432.540
  21188431.500          48.150          45.600
 114602392.151 8  89135191.263 7                  21423656.180    21423657.480
  21423655.740          48.500          44.150
 120920130.824 7  94049032.467 6                  22684299.040    22684306.980
  22684306.440          45.050          37.900
 133287069.349 8                  99532588.537 7  25363673.640
                        49.750
 127812351.692 7                                  24321881.620
                        46.200
 15  1 27 20  0 30.0000000  0 23G22G14G18G13G17G15G06G24G12G25G29G02
                                R18R16R17R08R06R09R07R19R10E19E20
 127081299.640 7  99024401.21746                  24182761.180
  24182755.340          45.200          36.350
 126069991.814 7  98236356.48246                  23990315.560
  23990311.140          44.950          36.700
 125528939.485 7  97814769.60445                  23887352.540
  23887349.960          44.700          34.200
 132269985.470 7 103067573.60445                  25170126.620
  25170125.780          42.650          31.050
 129504902.439 7 100912977.059 6                  24643932.140    24643927.980
  24643927.420          45.050          39.700
 117140130.309 8  91278053.391 7                  22291006.960    22291003.740
  22291003.160          50.050          45.850
 133269200.939 6 103846133.333 6  99519207.204 7  25360285.480    25360285.480
  25360284.660          41.200          38.850
 107457310.718 8  83733057.292 8  80244197.546 8  20448412.440    20448410.740
  20448410.060          50.050          49.950
 105832469.999 8  82466970.781 8                  20139183.240    20139178.520
  20139177.720          50.200          49.150
 116491447.848 8  90772661.025 7  86990494.622 8  22167544.240    22167544.020
  22167543.200          48.750          46.850
 132526710.348 6 103267654.570 6                  25218979.280    25218994.420
  25218995.180          40.850          38.650
 134704937.272 6 104964868.37545                  25633494.700
  25633490.180          41.900          32.650
 113496643.346 8  88275244.738 7                  21261726.300    21261729.560
  21261728.640          48.250          45.000
 113057060.844 7  87933329.719 7                  21164502.160    21164504.620
  21164503.680          47.450          44.000
 130208460.962 6 101273256.536 6                  24332562.060    24332563.400
  24332562.440          39.300          36.300
 118612981.892 7  92254550.334 7                  22150136.300    22150137.440
  22150136.420          45.950          42.600
 124336739.616 7  96706398.413 6                  23300646.520    23300651.280
  23300651.140          44.950          37.050
 106931553.874 7  83168932.547 6                  20024809.260    20024812.480
  20024810.120          46.450          37.950
 113434524.949 8  88226867.321 7                  21190521.040    21190522.640
  21190521.620          48.350          45.700
 114585627.075 8  89122151.773 7                  21420522.120    21420523.440
  21420521.720          48.650          44.150
 120907453.895 7  94039172.645 6                  22681920.800    22681928.820
  22681928.280          45.150          38.200
 133292138.756 8                  99536374.135 7  25364638.340
                        49.800
 127826041.201 7                                  24324486.660
                        45.900
 15  1 27 20  0 35.0000000  0 23G22G14G18G13G17G15G06G24G12G25G29G02
                                R18R16R17R08R06R09R07R19R10E19E20
 127085128.230 7  99027384.52846                  24183489.700
  24183483.900          45.350          37.700
 126053812.212 7  98223748.99945                  23987236.680
  23987232.160          44.800          35.150
 125538810.580 7  97822461.36245                  23889230.960
  23889228.440          45.500          34.400
 132289385.613 7 103082690.51344                  25173818.420
  25173817.600          43.300          29.100
 129518381.820 7 100923480.482 6                  24646497.200    24646493.020
  24646492.480          45.400          39.250
 117155407.075 8  91289957.360 7                  22293914.040    22293910.820
  22293910.240          50.100          45.700
 133259331.541 6 103838442.895 6  99511837.211 7  25358407.400    25358407.380
  25358406.720          41.700          39.300
 107458479.170 8  83733967.774 8  80245070.086 8  20448634.760    20448633.080
  20448632.420          50.000          49.850
 105830720.178 8  82465607.286 8                  20138850.240    20138845.540
  20138844.740          50.150          49.050
 116479062.743 8  90763010.298 7  86981246.008 8  22165187.400    22165187.220
  22165186.380          48.650          46.900
 132507716.133 6 103252854.395 6                  25215364.400    25215379.680
  25215380.280          41.350          38.550
 134693849.657 7 104956228.68945                  25631384.740
  25631380.340          42.450          31.800
 113500578.239 8  88278305.219 7                  21262463.420    21262466.680
  21262465.820          48.350          45.350
 113066500.351 7  87940671.559 7                  21166269.280    21166271.660
  21166270.760          47.350          44.000
 130226020.522 6 101286913.969 6                  24335843.460    24335844.820
  24335843.940          39.000          36.850
 118605920.966 7  92249058.497 7                  22148817.700    22148818.820
  22148817.800          46.100          42.550
 124358060.981 7  96722981.642 6                  23304642.180    23304646.780
  23304646.820          45.150          37.000
 106928834.603 7  83166817.561 6                  20024300.040    20024303.200
  20024300.880          46.200          37.100
 113445731.964 8  88235583.888 7                  21192614.580    21192616.260
  21192615.220          48.650          45.600
 114568875.667 8  89109122.902 7                  21417390.620    21417391.960
  21417390.240          48.300          44.400
 120894779.224 7  94029314.571 6                  22679543.040    22679551.100
  22679550.520          44.900          37.850
 133297219.650 8                  99540168.307 7  25365605.240
                        49.800
 127839734.962 7                                  24327092.500
                        46.100
 15  1 27 20  0 40.0000000  0 23G22G14G18G13G17G15G06G24G12G25G29G02
                                R18R16R17R08R06R09R07R19R10E19E20
 127088967.352 7  99030376.04745                  24184220.280
  24184214.440          46.350          35.150
 126037636.380 7  98211144.46545                  23984158.480
  23984154.040          45.900          35.050
 125548686.712 7  97830157.02745                  23891110.320
  23891107.840          45.950          33.800
 132308785.509 7 103097807.24544                  25177510.180
  25177509.320          45.200          28.300
 129531868.598 7 100933989.657 6                  24649063.660    24649059.460
  24649058.900          46.650          39.750
 117170690.413 8  91301866.457 7                  22296822.380    22296819.160
  22296818.560          50.700          45.800
 133249467.521 7 103830756.646 6  99504471.199 7  25356530.260    25356530.420
  25356529.680          43.150          39.450
 107459654.658 8  83734883.745 8  80245947.895 8  20448858.440    20448856.780
  20448856.120          50.600          49.850
 105828981.113 8  82464252.177 8                  20138519.280    20138514.620
  20138513.820          50.900          49.200
 116466684.434 8  90753364.872 7  86972002.482 8  22162831.840    22162831.720
  22162830.860          49.400          46.900
 132488718.360 7 103238051.431 6                  25211748.880    25211764.160
  25211764.780          43.100          38.550
 134682758.923 7 104947586.57144                  25629274.200
  25629269.780          43.500          29.200
 113504534.001 8  88281381.931 7                  21263204.420    21263207.740
  21263206.900          49.200          45.050
 113075943.071 8  87948015.893 7                  21168037.000    21168039.320
  21168038.420          48.100          44.200
 130243589.529 6 101300578.774 6                  24339126.640    24339128.080
  24339127.180          39.700          36.300
 118598879.142 7  92243581.521 7                  22147502.700    22147503.780
  22147502.760          46.700          42.750
 124379381.801 7  96739564.457 6                  23308637.720    23308642.280
  23308642.320          46.000          36.450
 106926120.275 7  83164706.447 6                  20023791.740    20023794.800
  20023792.560          47.200          37.700
 113456955.394 8  88244313.220 7                  21194711.200    21194712.880
  21194711.880          49.050          45.650
 114552135.832 8  89096103.043 7                  21414261.280    21414262.620
  21414260.920          49.250          44.500
 120882104.665 7  94019456.594 6                  22677165.300    22677173.380
  22677172.800          45.850          38.500
 133302310.040 8                  99543969.562 7  25366573.940
                        50.400
 127853431.032 7                                  24329698.760
                        46.900
 15  1 27 20  0 45.0000000  0 23G22G14G18G13G17G15G06G24G12G25G29G02
                                R18R16R17R08R06R09R07R19R10E19E20
 127092818.313 7  99033376.78246                  24184953.080
  24184947.320          45.000          36.400
 126021465.679 7  98198543.92946                  23981081.300
  23981076.860          45.000          36.600
 125558569.222 7  97837857.68646                  23892990.920
  23892988.480          43.900          36.500
 132328186.556 7 103112924.89745                  25181202.180
  25181201.240          44.400          32.500
 129545364.081 7 100944505.624 6                  24651631.800    24651627.600
  24651627.020          45.750          39.850
 117185981.657 8  91313781.708 7                  22299732.240    22299729.000
  22299728.400          50.250          45.900
 133239610.183 7 103823075.601 6  99497110.180 7  25354654.460    25354654.700
  25354653.900          42.200          39.700
 107460838.644 8  83735806.334 8  80246832.046 8  20449083.740    20449082.080
  20449081.440          49.900          49.850
 105827254.072 8  82462906.435 8                  20138190.620    20138185.960
  20138185.160          50.400          49.300
 116454314.306 8  90743725.820 7  86962765.055 8  22160477.860    22160477.760
  22160476.880          48.750          47.050
 132469718.387 7 103223246.757 6                  25208132.900    25208148.320
  25208148.840          42.600          38.750
 134671666.441 7 104938943.12045                  25627163.320
  25627158.780          42.000          30.500
 113508512.049 8  88284475.964 7                  21263949.620    21263953.020
  21263952.140          48.350          44.800
 113085390.417 7  87955363.825 7                  21169805.560    21169807.860
  21169806.960          46.700          44.000
 130261169.370 6 101314252.008 5                  24342411.900    24342413.360
  24342412.360          38.000          35.750
 118591857.854 7  92238120.525 7                  22146191.500    22146192.600
  22146191.580          45.500          42.450
 124400703.502 7  96756147.965 6                  23312633.500    23312637.920
  23312638.020          44.850          37.300
 106923412.181 7  83162600.115 6                  20023284.580    20023287.680
  20023285.400          46.600          36.650
 113468196.633 7  88253056.394 7                  21196811.120    21196812.840
  21196811.840          47.600          45.000
 114535409.007 8  89083093.279 7                  21411134.380    21411135.760
  21411134.040          48.300          44.400
 120869431.482 7  94009599.696 6                  22674787.860    22674795.980
  22674795.380          44.850          38.350
 133307411.292 8                  99547778.943 7  25367544.700
                        49.850
 127867130.765 7                                  24332305.700
                        46.000
 15  1 27 20  0 50.0000000  0 23G22G14G18G13G17G15G06G24G12G25G29G02
                                R18R16R17R08R06R09R07R19R10E19E20
 127096682.238 7  99036387.63246                  24185688.360
  24185682.700          44.600          37.400
 126005301.229 7  98185948.27146                  23978005.300
  23978000.840          45.600          36.050
 125568459.251 7  97845564.19445                  23894872.960
  23894870.380          44.150          35.400
 132347589.823 7 103128044.27345                  25184894.620
  25184893.620          44.600          32.850
 129558869.428 7 100955029.269 6                  24654201.840    24654197.560
  24654197.060          45.950          40.200
 117201281.887 8  91325703.967 7                  22302643.820    22302640.560
  22302639.960          50.100          46.050
 133229760.649 6 103815400.632 6  99489754.983 7  25352780.160    25352780.440
  25352779.760          41.150          40.100
 107462032.112 8  83736736.305 8  80247723.271 8  20449310.820    20449309.200
  20449308.560          49.800          50.000
 105825540.166 8  82461570.929 8                  20137864.440    20137859.780
  20137859.020          50.450          49.350
 116441953.417 8  90734093.967 7  86953534.527 8  22158125.640    22158125.560
  22158124.680          48.850          47.250
 132450717.354 7 103208441.257 6                  25204516.720    25204532.280
  25204532.560          42.650          38.050
 134660573.393 7 104930299.23545                  25625052.320
  25625047.720          42.250          34.800
 113512513.508 8  88287588.210 7                  21264699.200    21264702.600
  21264701.740          48.700          44.800
 113094843.564 7  87962716.275 7                  21171575.220    21171577.480
  21171576.620          46.800          44.600
 130278761.177 6 101327934.514 6                  24345699.300    24345700.880
  24345699.840          37.950          36.800
 118584858.157 7  92232676.311 7                  22144884.380    22144885.400
  22144884.440          45.050          42.800
 124422027.001 7  96772732.836 6                  23316629.600    23316634.000
  23316634.080          45.300          36.100
 106920711.443 7  83160499.555 6                  20022778.840    20022781.980
  20022779.620          46.650          37.100
 113479456.724 7  88261814.244 7                  21198914.540    21198916.260
  21198915.280          47.700          44.950
 114518696.333 8  89070094.544 7                  21408010.140    21408011.520
  21408009.840          48.550          44.850
 120856761.006 7  93999744.888 6                  22672410.940    22672418.960
  22672418.460          44.800          38.600
 133312524.491 8                  99551597.245 7  25368517.740
                        49.700
 127880835.230 7                                  24334913.560
                        45.900
 15  1 27 20  0 55.0000000  0 23G22G14G18G13G17G15G06G24G12G25G29G02
                                R18R16R17R08R06R09R07R19R10E19E20
 127100556.841 7  99039406.78346                  24186425.620
  24186420.040          44.650          36.250
 125989140.747 7  98173355.67745                  23974930.060
  23974925.620          46.000          35.300
 125578354.464 7  97853274.73045                  23896756.000
  23896753.300          44.650          32.100
 132366993.062 7 103143163.59645                  25188587.020
  25188585.960          44.350          33.400
 129572382.265 7 100965558.763 6                  24656773.260    24656769.020
  24656768.500          46.000          40.050
 117216588.794 8  91337631.421 7                  22305556.700    22305553.400
  22305552.760          50.100          45.950
 133219916.623 6 103807729.974 6  99482403.940 7  25350906.820    25350907.220
  25350906.640          40.900          39.750
 107463232.812 8  83737671.915 8  80248619.897 8  20449539.300    20449537.680
  20449537.060          49.800          50.050
 105823837.124 8  82460243.884 8                  20137540.360    20137535.700
  20137534.920          50.450          49.250
 116429599.483 8  90724467.533 7  86944309.198 8  22155774.780    22155774.680
  22155773.820          48.900          47.100
 132431712.970 7 103193633.117 6                  25200899.960    25200915.560
  25200915.620          43.700          38.350
 134649477.459 7 104921653.07645                  25622940.820
  25622936.280          42.250          32.250
 113516536.006 8  88290716.813 7                  21265452.740    21265456.140
  21265455.260          48.550          44.750
 113104300.053 7  87970071.324 7                  21173345.500    21173347.780
  21173346.900          47.150          44.550
 130296362.524 6 101341624.414 6                  24348988.520    24348990.200
  24348989.040          39.600          36.550
 118577877.725 7  92227247.100 7                  22143580.840    22143581.840
  22143580.880          45.300          42.800
 124443350.132 7  96789317.464 6                  23320625.620    23320630.020
  23320629.960          46.000          36.400
 106918015.737 7  83158402.875 6                  20022274.020    20022277.160
  20022274.780          46.700          37.300
 113490733.403 7  88270584.991 7                  21201021.080    21201022.840
  21201021.800          47.800          45.050
 114501995.503 8  89057105.021 7                  21404888.100    21404889.480
  21404887.860          48.450          44.700
 120844090.845 7  93989890.328 6                  22670034.080    22670042.080
  22670041.600          45.550          38.800
 133317647.342 8                  99555422.738 7  25369492.620
                        49.800
 127894542.110 7                                  24337521.880
                        46.000
 15  1 27 20  1  0.0000000  0 23G22G14G18G13G17G15G06G24G12G25G29G02
                                R18R16R17R08R06R09R07R19R10E19E20
 127104443.925 7  99042435.68646                  24187165.260
  24187159.660          44.800          36.700
 125972986.025 7  98160767.58245                  23971855.920
  23971851.420          46.150          34.550
 125588256.638 7  97860990.70745                  23898640.380
  23898637.600          45.000          32.750
 132386398.026 7 103158284.30945                  25192279.720
  25192278.680          43.350          32.900
 129585904.402 7 100976095.497 6                  24659346.480    24659342.220
  24659341.660          46.100          40.100
 117231904.169 8  91349565.486 7                  22308471.160    22308467.800
  22308467.200          50.100          45.750
 133210079.935 6 103800065.026 6  99475058.367 7  25349035.000    25349035.460
  25349034.740          41.300          39.850
 107464442.450 8  83738614.494 8  80249523.200 8  20449769.480    20449767.860
  20449767.240          49.900          50.000
 105822146.690 8  82458926.667 8                  20137218.660    20137214.020
  20137213.240          50.500          49.100
 116417254.319 8  90714847.935 7  86935090.421 8  22153425.600    22153425.460
  22153424.620          49.000          47.150
 132412707.054 7 103178823.787 6                  25197282.920    25197298.560
  25197298.560          43.650          38.400
 134638380.413 6 104913006.08945                  25620829.100
  25620824.680          41.300          30.600
 113520581.384 8  88293863.220 7                  21266210.560    21266213.940
  21266213.060          48.850          44.400
 113113761.785 7  87977430.463 7                  21175116.780    21175119.040
  21175118.120          47.450          43.950
 130313975.149 6 101355323.130 6                  24352279.940    24352281.520
  24352280.340          39.950          36.200
 118570918.445 7  92221834.341 7                  22142281.220    22142282.260
  22142281.280          45.700          42.400
 124464674.621 7  96805903.122 6                  23324621.880    23324626.240
  23324626.200          45.650          37.050
 106915326.809 7  83156311.498 6                  20021770.480    20021773.640
  20021771.240          46.400          36.900
 113502028.420 8  88279370.008 7                  21203130.980    21203132.800
  21203131.740          48.200          45.100
 114485308.300 8  89044126.096 7                  21401768.580    21401770.000
  21401768.400          48.700          44.550
 120831422.728 7  93980037.359 6                  22667657.560    22667665.580
  22667665.120          45.700          38.750
 133322781.627 8                  99559256.781 7  25370469.660
                        49.900
 127908253.244 7                                  24340131.020
                        46.150
 15  1 27 20  1  5.0000000  0 23G22G14G18G13G17G15G06G24G12G25G29G02
                                R18R16R17R08R06R09R07R19R10E19E20
 127108344.381 7  99045475.00046                  24187907.480
  24187901.880          44.750          36.750
 125956838.007 7  98148184.70945                  23968783.060
  23968778.440          45.900          34.650
 125598166.731 7  97868712.87845                  23900526.300
  23900523.280          44.750          33.450
 132405805.648 7 103173407.04045                  25195972.900
  25195972.000          42.250          32.300
 129599436.788 7 100986640.215 6                  24661921.600    24661917.360
  24661916.720          45.900          40.000
 117247228.969 8  91361506.880 7                  22311387.400    22311384.020
  22311383.400          49.850          45.650
 133200251.549 6 103792406.571 6  99467718.983 7  25347164.740    25347165.180
  25347164.480          40.700          38.850
 107465662.015 8  83739564.796 8  80250433.916 8  20450001.540    20449999.940
  20449999.340          49.950          49.950
 105820469.868 8  82457620.046 8                  20136899.560    20136894.920
  20136894.120          50.550          49.000
 116404918.888 8  90705235.911 7  86925878.904 8  22151078.280    22151078.120
  22151077.260          49.050          46.950
 132393700.547 7 103164013.997 6                  25193665.760    25193681.340
  25193681.340          43.250          38.650
 134627283.263 6 104904358.97946                  25618717.320
  25618712.920          41.250          36.900
 113524650.635 8  88297028.189 7                  21266972.880    21266976.220
  21266975.320          48.700          44.700
 113123229.817 7  87984794.479 7                  21176889.200    21176891.460
  21176890.500          46.900          44.100
 130331600.262 6 101369031.570 5                  24355573.640    24355575.120
  24355573.940          39.700          35.500
 118563981.305 7  92216438.798 7                  22140985.680    22140986.740
  22140985.780          46.400          42.650
 124486001.436 7  96822490.572 6                  23328618.580    23328622.880
  23328622.800          45.950          36.000
 106912645.727 7  83154226.218 6                  20021268.380    20021271.520
  20021269.140          46.950          37.900
 113513342.617 8  88288169.926 7                  21205244.500    21205246.360
  21205245.300          48.500          45.400
 114468635.907 8  89031158.684 7                  21398651.840    21398653.280
  21398651.720          48.700          44.650
 120818757.748 7  93970186.831 6                  22665281.600    22665289.680
  22665289.220          45.900          38.700
 133327928.285 8                  99563100.072 7  25371449.080
                        49.900
 127921969.543 7                                  24342741.120
                        46.100
 15  1 27 20  1 10.0000000  0 23G22G14G18G13G17G15G06G24G12G25G29G02
                                R18R16R17R08R06R09R07R19R10E19E20
 127112254.771 7  99048522.05546                  24188651.580
  24188646.000          45.100          37.250
 125940693.296 7  98135604.43546                  23965710.820
  23965706.200          45.900          36.250
 125608081.257 7  97876438.46445                  23902412.980
  23902409.920          44.600          33.850
 132425212.449 7 103188529.11644                  25199665.880
  25199664.980          42.100          27.300
 129612975.932 7 100997190.202 6                  24664498.040    24664493.800
  24664493.200          45.900          40.550
 117262559.697 8  91373452.900 7                  22314304.740    22314301.360
  22314300.740          49.800          45.550
 133190427.988 6 103784751.877 6  99460383.234 7  25345295.380    25345295.740
  25345295.100          40.800          39.050
 107466888.125 8  83740520.207 8  80251349.514 8  20450234.860    20450233.260
  20450232.660          49.950          49.950
 105818803.173 8  82456321.323 8                  20136582.400    20136577.740
  20136576.960          50.550          49.100
 116392589.697 8  90695628.753 7  86916672.043 8  22148732.140    22148731.920
  22148731.100          48.850          47.100
 132374690.002 7 103149201.081 6                  25190047.820    25190063.440
  25190063.280          43.350          38.800
 134616182.521 6 104895709.07345                  25616604.860
  25616600.420          41.200          34.250
 113528740.167 8  88300208.938 7                  21267738.940    21267742.340
  21267741.380          48.150          44.650
 113132700.381 7  87992160.466 7                  21178662.100    21178664.360
  21178663.380          46.700          44.200
 130349234.110 6 101382746.812 6                  24358869.000    24358870.280
  24358869.180          40.800          36.450
 118557062.741 7  92211057.678 7                  22139693.700    22139694.720
  22139693.780          46.150          42.650
 124507327.094 7  96839077.172 6                  23332615.100    23332619.380
  23332619.200          45.300          36.850
 106909968.965 7  83152144.278 6                  20020767.080    20020770.100
  20020767.820          46.650          36.850
 113524672.819 8  88296982.293 7                  21207361.060    21207362.940
  21207361.880          48.550          45.350
 114451974.493 8  89018199.810 7                  21395537.160    21395538.660
  21395537.080          48.350          44.750
 120806092.307 7  93960335.945 6                  22662905.600    22662913.600
  22662913.240          45.900          38.650
 133333083.869 8                  99566950.012 7  25372430.200
                        49.900
 127935687.538 7                                  24345351.560
                        46.000
 15  1 27 20  1 15.0000000  0 23G22G14G18G13G17G15G06G24G12G25G29G02
                                R18R16R17R08R06R09R07R19R10E19E20
 127116178.758 7  99051579.71646                  24189398.280
  24189392.720          44.900          37.200
 125924555.528 7  98123029.53945                  23962639.900
  23962635.220          45.950          35.950
 125618003.873 7  97884170.36645                  23904301.200
  23904298.100          44.650          33.950
 132444622.091 7 103203653.44345                  25203359.400
  25203358.580          42.450          30.050
 129626525.513 7 101007748.315 6                  24667076.480    24667072.160
  24667071.660          45.700          40.100
 117277900.071 8  91385406.444 7                  22317223.900    22317220.560
  22317219.920          49.650          45.700
 133180613.006 6 103777103.845 6  99453053.848 7  25343427.600    25343428.000
  25343427.420          40.000          38.500
 107468124.359 8  83741483.508 8  80252272.668 8  20450470.100    20450468.520
  20450467.940          49.850          49.900
 105817150.283 8  82455033.353 8                  20136267.840    20136263.200
  20136262.420          50.550          49.150
 116380270.436 8  90686029.341 7  86907472.602 8  22146387.880    22146387.620
  22146386.820          48.750          47.150
 132355679.139 7 103134387.900 6                  25186429.780    25186445.520
  25186445.200          43.200          39.100
 134605081.865 6 104887059.26745                  25614492.480
  25614487.940          41.550          31.100
 113532853.740 7  88303408.395 7                  21268509.540    21268512.900
  21268511.940          47.900          44.500
 113142177.361 7  87999531.448 7                  21180436.160    21180438.480
  21180437.480          46.800          44.150
 130366880.493 6 101396471.787 6                  24362166.680    24362167.960
  24362166.820          40.100          36.550
 118550166.534 7  92205693.960 7                  22138405.900    22138406.940
  22138405.940          46.050          42.700
 124528655.118 7  96855665.573 6                  23336612.020    23336616.280
  23336616.080          45.000          37.250
 106907300.213 7  83150068.607 6                  20020267.320    20020270.260
  20020268.060          46.650          37.800
 113536022.191 8  88305809.585 7                  21209481.200    21209483.120
  21209482.020          48.650          45.250
 114435328.162 8  89005252.680 7                  21392425.320    21392426.820
  21392425.260          48.050          44.300
 120793430.230 7  93950487.675 6                  22660530.200    22660538.200
  22660537.820          45.700          38.200
 133338252.052 8                  99570809.361 7  25373413.740
                        49.850
 127949410.863 7                                  24347963.020
                        45.900
 15  1 27 20  1 20.0000000  0 24G22G14G18G13G17G15G06G24G12G25G29G02
                                R18R20R16R17R08R06R09R07R19R10E19E20
 127120112.696 7  99054645.10846                  24190146.880
  24190141.300          44.350          38.400
 125908421.119 7  98110457.27045                  23959569.600
  23959564.920          45.900          35.900
 125627930.973 7  97891905.76545                  23906190.260
  23906187.120          44.600          34.500
 132464030.952 7 103218777.19045                  25207052.820
  25207052.100          43.450          32.150
 129640081.868 7 101018311.724 6                  24669656.180    24669651.860
  24669651.380          46.050          40.500
 117293246.414 8  91397364.637 7                  22320144.180    22320140.880
  22320140.240          49.600          45.600
 133170802.945 6 103769459.617 6  99445728.179 7  25341560.860    25341561.180
  25341560.580          41.050          38.250
 107469367.196 8  83742451.950 8  80253200.762 8  20450706.620    20450705.000
  20450704.440          49.950          49.900
 105815507.554 8  82453753.308 8                  20135955.220    20135950.580
  20135949.800          50.450          49.250
 116367957.488 8  90676434.853 7  86898277.878 8  22144044.820    22144044.540
  22144043.760          48.700          47.050
 132336664.274 7 103119571.612 6                  25182811.000    25182826.760
  25182826.260          43.200          38.650
 134593977.692 6 104878406.67245                  25612379.360
  25612374.760          41.800          34.800
 113536987.663 7  88306623.670 7                  21269283.980    21269287.320
  21269286.320          47.850          44.650
 131473768.461 6                                  24586258.400
                        38.200
 113151657.084 7  88006904.564 7                  21182210.760    21182213.160
  21182212.140          46.600          44.400
 130384535.706 6 101410203.623 6                  24365466.040    24365467.200
  24365466.100          39.050          36.600
 118543289.002 7  92200344.775 7                  22137121.560    22137122.620
  22137121.580          46.000          42.900
 124549981.981 7  96872253.073 6                  23340608.740    23340612.920
  23340612.800          44.350          37.350
 106904635.858 7  83147996.308 6                  20019768.360    20019771.280
  20019769.080          46.300          37.100
 113547387.410 8  88314649.198 7                  21211604.320    21211606.260
  21211605.160          48.050          45.550
 114418693.011 7  88992314.238 7                  21389315.540    21389317.080
  21389315.500          47.700          44.750
 120780767.734 7  93940639.079 6                  22658154.740    22658162.720
  22658162.360          45.500          38.150
 133343429.179 8                  99574675.395 7  25374398.960
                        49.700
 127963135.951 7                                  24350574.840
                        45.800
 15  1 27 20  1 25.0000000  0 24G22G14G18G13G17G15G06G24G12G25G29G02
                                R18R20R16R17R08R06R09R07R19R10E19E20
 127124058.952 7  99057720.09246                  24190897.800
  24190892.300          44.800          37.700
 125892292.443 7  98097889.48245                  23956500.420
  23956495.700          45.700          35.500
 125637864.832 7  97899646.41045                  23908080.600
  23908077.420          43.750          35.500
 132483441.348 7 103233902.10645                  25210746.580
  25210745.860          43.750          31.900
 129653647.379 7 101028882.245 6                  24672237.640    24672233.260
  24672232.840          46.150          40.200
 117308601.118 8  91409329.346 7                  22323066.060    22323062.800
  22323062.140          49.450          45.650
 133161000.202 7 103761821.101 6  99438407.943 7  25339695.500    25339695.820
  25339695.100          42.400          38.750
 107470619.090 8  83743427.450 8  80254135.616 8  20450944.840    20450943.260
  20450942.680          49.900          49.900
 105813877.353 8  82452483.023 8                  20135645.000    20135640.360
  20135639.580          50.300          49.250
 116355653.248 8  90666847.144 7  86889089.665 8  22141703.440    22141703.120
  22141702.340          48.700          46.950
 132317647.853 7 103104754.086 6                  25179191.960    25179207.780
  25179207.080          43.250          38.550
 134582872.407 6 104869753.25445                  25610266.060
  25610261.440          41.650          34.500
 113541144.344 8  88309856.638 7                  21270062.620    21270066.000
  21270064.960          48.250          44.750
 131451635.459 6                                  24582118.200    24582139.500
  24582136.720          39.750          38.900
 113161141.924 7  88014281.666 7                  21183986.300    21183988.780
  21183987.720          46.000          44.650
 130402202.086 6 101423944.144 6                  24368767.380    24368768.580
  24368767.500          39.200          36.800
 118536432.527 7  92195011.966 7                  22135841.160    22135842.220
  22135841.140          45.600          43.050
 124571310.112 7  96888841.568 6                  23344605.680    23344609.920
  23344609.700          44.400          37.350
 106901978.222 7  83145929.276 6                  20019270.660    20019273.620
  20019271.400          45.850          37.550
 113558770.913 7  88323503.027 7                  21213730.880    21213732.780
  21213731.680          47.600          45.450
 114402071.602 7  88979386.482 7                  21386208.300    21386209.860
  21386208.340          47.700          45.100
 120768107.191 7  93930792.006 6                  22655779.660    22655787.660
  22655787.260          45.550          38.600
 133348617.631 8                  99578549.896 7  25375386.320
                        49.650
 127976865.128 7                                  24353187.440
                        45.750
 15  1 27 20  1 30.0000000  0 24G22G14G18G13G17G15G06G24G12G25G29G02
                                R18R20R16R17R08R06R09R07R19R10E19E20
 127128018.471 7  99060805.44046                  24191651.280
  24191645.720          45.100          37.150
 125876170.480 7  98085326.91445                  23953432.500
  23953427.680          45.600          34.750
 125647806.519 7  97907393.21345                  23909972.460
  23909969.260          44.600          33.450
 132502854.276 7 103249028.98645                  25214440.780
  25214440.100          43.150          35.100
 129667222.983 7 101039460.643 6                  24674821.020    24674816.580
  24674816.240          46.050          40.150
 117323965.133 8  91421301.302 7                  22325989.700    22325986.480
  22325985.840          49.400          45.700
 133151205.780 6 103754189.089 6  99431093.937 7  25337831.700    25337832.020
  25337831.360          41.950          39.350
 107471880.847 8  83744410.636 8  80255077.842 8  20451184.960    20451183.360
  20451182.780          49.850          49.850
 105812260.694 8  82451223.281 8                  20135337.340    20135332.720
  20135331.920          50.200          49.150
 116343358.649 8  90657266.944 7  86879908.644 8  22139363.880    22139363.520
  22139362.740          48.650          46.850
 132298630.799 7 103089936.080 6                  25175572.740    25175588.560
  25175587.800          42.450          38.400
 134571766.985 6 104861099.72845                  25608152.680
  25608148.240          41.600          33.550
 113545324.807 8  88313108.115 7                  21270845.760    21270849.160
  21270848.060          48.450          44.850
 131429499.999 6                                  24577979.060    24577989.980
                        38.400          38.700
 113170633.028 7  88021663.629 7                  21185762.980    21185765.560
  21185764.520          45.650          44.700
 130419880.574 6 101437694.089 6                  24372071.000    24372072.320
  24372071.240          39.350          37.400
 118529598.145 7  92189696.339 7                  22134564.820    22134566.000
  22134564.880          45.250          43.200
 124592640.385 7  96905431.726 6                  23348603.020    23348607.280
  23348607.040          44.000          37.350
 106899328.394 7  83143868.302 6                  20018774.420    20018777.380
  20018775.160          45.800          37.850
 113570173.401 7  88332371.629 7                  21215860.960    21215862.860
  21215861.740          47.750          45.450
 114385464.805 7  88966470.092 7                  21383103.780    21383105.400
  21383103.880          47.550          44.650
 120755449.792 7  93920947.378 6                  22653405.200    22653413.080
  22653412.800          45.800          38.600
 133353818.389 8                  99582433.576 7  25376376.000
                        49.750
 127990599.337 7                                  24355800.980
                        45.950
 15  1 27 20  1 35.0000000  0 24G22G14G18G13G17G15G06G24G12G25G29G02
                                R18R20R16R17R08R06R09R07R19R10E19E20
 127131989.628 7  99063899.85846                  24192406.980
  24192401.440          45.300          37.150
 125860053.610 7  98072768.30945                  23950365.520
  23950360.680          45.250          35.950
 125657754.317 7  97915144.72445                  23911865.480
  23911862.320          44.950          34.800
 132522268.109 7 103264156.57245                  25218135.220
  25218134.500          43.250          33.350
 129680807.047 7 101050045.639 6                  24677406.020    24677401.520
  24677401.200          45.800          40.300
 117339336.808 8  91433279.224 7                  22328914.780    22328911.620
  22328910.980          49.350          45.700
 133141418.012 6 103746562.266 6  99423784.896 7  25335969.140    25335969.500
  25335968.800          40.600          38.900
 107473150.876 8  83745400.273 8  80256026.238 8  20451426.620    20451425.040
  20451424.460          49.900          49.850
 105810655.916 8  82449972.807 8                  20135031.960    20135027.320
  20135026.540          50.300          49.150
 116331072.097 8  90647693.014 7  86870733.622 8  22137025.860    22137025.440
  22137024.660          48.650          46.750
 132279611.581 7 103075116.386 6                  25171953.100    25171968.960
  25171968.200          42.550          39.050
 134560659.779 7 104852444.81845                  25606039.020
  25606034.640          42.250          33.800
 113549527.292 8  88316376.721 7                  21271633.080    21271636.460
  21271635.300          48.650          44.950
 131407360.294 6                                  24573838.740
                        37.500
 113180128.531 7  88029049.018 7                  21187540.480    21187543.160
  21187542.160          46.250          44.750
 130437569.697 6 101451452.279 6                  24375376.620    24375377.940
  24375376.960          39.850          36.900
 118522784.137 7  92184396.561 7                  22133292.340    22133293.520
  22133292.420          45.300          43.050
 124613971.187 7  96922022.283 6                  23352600.440    23352604.720
  23352604.500          44.250          37.950
 106896684.663 7  83141812.066 6                  20018279.320    20018282.240
  20018280.060          45.900          36.800
 113581593.466 8  88341253.901 7                  21217994.320    21217996.240
  21217995.080          48.300          45.450
 114368871.154 8  88953563.930 7                  21380001.720    21380003.360
  21380001.860          48.100          44.850
 120742793.687 7  93911103.747 6                  22651031.000    22651038.820
  22651038.540          45.850          38.200
 133359029.808 8                  99586325.212 7  25377367.740
                        49.950
 128004336.964 7                                  24358415.200
                        45.950
 15  1 27 20  1 40.0000000  0 24G22G14G18G13G17G15G06G24G12G25G29G02
                                R18R20R16R17R08R06R09R07R19R10E19E20
 127135971.847 7  99067002.86946                  24193164.780
  24193159.200          45.600          37.000
 125843941.261 7  98060213.24745                  23947299.380
  23947294.600          45.450          35.900
 125667707.622 7  97922900.53645                  23913759.520
  23913756.400          44.850          34.550
 132541682.286 7 103279284.44645                  25221829.740
  25221828.940          43.550          30.750
 129694399.018 7 101060636.783 6                  24679992.500    24679988.000
  24679987.700          45.850          39.800
 117354715.554 8  91445262.661 7                  22331841.160    22331838.140
  22331837.480          49.100          45.800
 133131636.373 6 103738940.216 6  99416480.420 7  25334107.780    25334108.200
  25334107.440          40.850          38.250
 107474428.539 8  83746395.854 8  80256980.340 8  20451669.740    20451668.180
  20451667.600          50.050          49.900
 105809062.434 8  82448731.139 8                  20134728.720    20134724.100
  20134723.300          50.550          49.100
 116318793.013 8  90638124.901 7  86861564.178 8  22134689.240    22134688.780
  22134688.000          48.700          46.800
 132260589.569 7 103060294.529 6                  25168332.900    25168348.840
  25168348.000          43.100          38.550
 134549550.248 7 104843788.07145                  25603924.940
  25603920.540          42.650          31.000
 113553751.267 8  88319662.048 7                  21272424.360    21272427.740
  21272426.540          48.850          44.600
 131385215.998 6                                  24569697.220
                        38.250
 113189628.008 7  88036437.498 7                  21189318.820    21189321.480
  21189320.520          46.550          44.800
 130455268.766 6 101465218.242 6                  24378684.080    24378685.440
  24378684.480          39.950          36.750
 118515990.092 7  92179112.305 7                  22132023.600    22132024.780
  22132023.680          45.800          42.750
 124635301.935 7  96938612.795 6                  23356597.860    23356602.120
  23356601.940          44.750          37.350
 106894046.450 7  83139760.135 6                  20017785.260    20017788.180
  20017786.000          46.450          37.750
 113593030.363 8  88350149.261 7                  21220130.860    21220132.760
  21220131.600          48.900          45.700
 114352289.956 8  88940667.453 7                  21376902.020    21376903.680
  21376902.180          48.400          44.950
 120730138.387 7  93901260.749 6                  22648656.900    22648664.680
  22648664.520          46.050          38.700
 133364251.287 8                  99590224.376 7  25378361.360
                        50.050
 128018077.410 7                                  24361029.940
                        46.100
 15  1 27 20  1 45.0000000  0 24G22G14G18G13G17G15G06G24G12G25G29G02
                                R18R20R16R17R08R06R09R07R19R10E19E20
 127139965.456 7  99070114.76646                  24193924.780
  24193919.120          46.050          36.400
 125827833.850 7  98047662.01345                  23944234.220
  23944229.400          45.850          34.400
 125677666.797 7  97930660.92845                  23915654.660
  23915651.700          44.900          33.800
 132561097.109 7 103294412.79645                  25225524.360
  25225523.540          42.850          30.950
 129707999.215 7 101071234.335 6                  24682580.540    24682576.080
  24682575.700          45.600          40.650
 117370101.725 8  91457251.866 7                  22334768.940    22334766.040
  22334765.360          49.350          45.800
 133121861.213 7 103731323.206 6  99409180.778 7  25332247.700    25332248.040
  25332247.220          42.100          37.950
 107475714.377 8  83747397.798 8  80257940.541 8  20451914.400    20451912.860
  20451912.260          50.100          49.950
 105807480.669 8  82447498.594 8                  20134427.700    20134423.080
  20134422.300          50.600          49.150
 116306521.720 8  90628562.856 7  86852400.572 8  22132354.080    22132353.620
  22132352.820          48.750          46.900
 132241565.155 7 103045470.759 6                  25164712.240    25164728.320
  25164727.360          42.950          38.250
 134538438.751 7 104835129.80345                  25601810.440
  25601806.000          43.000          32.400
 113557997.145 8  88322964.403 7                  21273219.740    21273223.120
  21273221.880          48.950          44.650
 131363067.274 6                                  24565555.120
                        38.150
 113199131.632 7  88043829.196 7                  21191097.880    21191100.600
  21191099.620          46.150          44.800
 130472977.962 6 101478992.080 6                  24381993.440    24381994.900
  24381993.900          40.350          38.050
 118509216.195 7  92173843.721 7                  22130758.620    22130759.780
  22130758.660          45.400          43.050
 124656632.777 7  96955203.385 6                  23360595.260    23360599.560
  23360599.420          44.700          38.300
 106891414.074 7  83137712.713 6                  20017292.260    20017295.240
  20017293.020          46.650          37.300
 113604484.470 8  88359058.003 7                  21222270.620    21222272.520
  21222271.320          48.900          45.800
 114335721.669 8  88927781.009 7                  21373804.720    21373806.380
  21373804.880          48.250          44.700
 120717484.173 7  93891418.594 6                  22646282.980    22646290.760
  22646290.640          46.200          38.650
 133369483.190 8                  99594131.319 7  25379356.980
                        50.100
 128031821.062 7                                  24363645.300
                        46.100
 15  1 27 20  1 50.0000000  0 24G22G14G18G13G17G15G06G24G12G25G29G02
                                R18R20R16R17R08R06R09R07R19R10E19E20
 127143970.915 7  99073235.90346                  24194687.020
  24194681.360          45.800          36.700
 125811731.790 7  98035114.93545                  23941170.080
  23941165.240          45.750          33.450
 125687632.346 7  97938426.27346                  23917550.980
  23917548.160          44.250          37.400
 132580513.101 7 103309542.07145                  25229219.140
  25229218.400          42.800          33.900
 129721608.052 7 101081838.631 6                  24685170.220    24685165.720
  24685165.400          45.900          40.200
 117385495.784 8  91469247.239 7                  22337698.200    22337695.440
  22337694.740          49.000          45.850
 133112092.985 6 103723711.608 6  99401886.343 7  25330388.940    25330389.140
  25330388.360          41.650          38.750
 107477008.648 8  83748406.329 8  80258907.049 8  20452160.700    20452159.140
  20452158.560          50.100          50.100
 105805911.008 8  82446275.492 8                  20134128.980    20134124.360
  20134123.580          50.450          49.250
 116294258.706 8  90619007.271 7  86843243.132 8  22130020.500    22130020.020
  22130019.240          48.700          47.150
 132222538.808 7 103030645.515 6                  25161091.260    25161107.360
  25161106.300          43.400          37.750
 134527325.752 7 104826470.37245                  25599695.700
  25599691.320          42.950          32.350
 113562265.275 8  88326284.053 7                  21274019.280    21274022.680
  21274021.380          48.350          44.550
 131340914.706 6                                  24561412.280
                        36.350
 113208639.955 7  88051224.556 7                  21192877.860    21192880.620
  21192879.560          46.400          44.500
 130490697.894 6 101492774.242 6                  24385304.780    24385306.260
  24385305.340          40.950          37.950
 118502463.008 7  92168591.246 7                  22129497.500    22129498.680
  22129497.540          45.100          42.750
 124677964.299 7  96971794.498 6                  23364592.800    23364597.120
  23364597.020          44.950          38.050
 106888788.023 7  83135670.255 6                  20016800.480    20016803.520
  20016801.220          46.600          37.850
 113615956.288 8  88367980.531 7                  21224413.680    21224415.560
  21224414.380          48.800          45.500
 114319166.741 8  88914904.973 7                  21370709.900    21370711.580
  21370710.120          48.300          45.000
 120704831.589 7  93881577.698 6                  22643909.420    22643917.140
  22643917.060          46.000          38.600
 133374725.971 8                  99598046.371 7  25380354.660
                        50.000
 128045568.274 7                                  24366261.300
                        46.000
 15  1 27 20  1 55.0000000  0 24G22G14G18G13G17G15G06G24G12G25G29G02
                                R18R20R16R17R08R06R09R07R19R10E19E20
 127147989.185 7  99076366.99846                  24195451.720
  24195446.080          46.050          36.600
 125795636.053 7  98022572.81145                  23938107.120
  23938102.280          45.200          35.600
 125697605.119 7  97946197.23346                  23919448.680
  23919445.980          44.250          38.050
 132599931.080 7 103324672.88645                  25232914.320
  25232913.560          42.300          30.450
 129735226.482 7 101092450.399 6                  24687761.760    24687757.240
  24687756.900          45.600          40.100
 117400898.637 8  91481249.454 7                  22340629.160    22340626.520
  22340625.780          49.350          45.650
 133102332.671 6 103716106.183 6  99394597.811 7  25328531.600    25328531.820
  25328531.040          41.850          38.750
 107478312.425 8  83749422.257 8  80259880.643 8  20452408.780    20452407.240
  20452406.660          50.050          49.900
 105804354.375 8  82445062.535 8                  20133832.740    20133828.120
  20133827.360          50.300          49.100
 116282004.912 8  90609458.874 7  86834092.595 8  22127688.640    22127688.180
  22127687.440          48.700          46.950
 132203511.517 7 103015819.477 6                  25157470.080    25157486.160
  25157485.020          43.900          37.400
 134516212.203 7 104817810.46645                  25597580.820
  25597576.520          42.550          31.050
 113566556.716 7  88329621.833 7                  21274823.180    21274826.560
  21274825.280          47.850          44.500
 131318759.333 6                                  24557269.120
                        36.100
 113218154.080 7  88058624.432 7                  21194658.900    21194661.700
  21194660.580          46.750          44.650
 130508429.388 6 101506565.402 6                  24388618.400    24388619.900
  24388618.920          41.150          37.950
 118495731.501 7  92163355.623 7                  22128240.420    22128241.580
  22128240.460          45.350          43.100
 124699297.585 7  96988386.989 6                  23368590.660    23368595.020
  23368594.960          44.800          38.550
 106886169.258 7  83133633.428 6                  20016310.060    20016313.060
  20016310.780          46.550          37.900
 113627446.633 8  88376917.459 7                  21226560.200    21226562.060
  21226560.880          48.250          45.550
 114302626.137 8  88902040.063 7                  21367617.780    21367619.540
  21367618.020          48.300          44.850
 120692181.447 7  93871738.707 6                  22641536.280    22641543.940
  22641543.920          45.700          38.250
 133379980.581 8                  99601970.268 7  25381354.580
                        49.850
 128059320.043 7                                  24368878.140
                        46.050
 15  1 27 20  2  0.0000000  0 24G22G14G18G13G17G15G06G24G12G25G29G02
                                R18R20R16R17R08R06R09R07R19R10E19E20
 127152018.166 7  99079506.46646                  24196218.460
  24196212.720          46.250          36.850
 125779544.596 7  98010034.02345                  23935045.020
  23935040.180          45.100          35.100
 125707583.120 7  97953972.29946                  23921347.460
  23921344.860          44.600          36.000
 132619349.095 6 103339803.70545                  25236609.440
  25236608.720          41.650          31.850
 129748852.450 7 101103068.030 6                  24690354.700    24690350.160
  24690349.880          45.600          40.100
 117416308.222 8  91493256.923 7                  22343561.420    22343558.860
  22343558.100          49.050          45.400
 133092578.240 7 103708505.311 6  99387313.646 7  25326675.460    25326675.540
  25326674.760          43.000          38.000
 107479623.609 8  83750443.954 8  80260859.778 8  20452658.300    20452656.740
  20452656.160          50.100          49.900
 105802808.708 8  82443858.124 8                  20133538.600    20133534.000
  20133533.220          50.300          49.250
 116269758.301 8  90599916.073 7  86824947.411 8  22125358.160    22125357.720
  22125357.020          48.700          47.100
 132184481.179 7 103000991.067 6                  25153848.360    25153864.520
  25153863.120          43.650          37.400
 134505096.095 7 104809148.63345                  25595465.500
  25595461.060          42.300          31.600
 113570869.336 7  88332976.101 7                  21275631.040    21275634.440
  21275633.160          47.700          44.650
 131296599.048 6                                  24553124.660
                        37.300
 113227671.697 7  88066027.020 7                  21196440.620    21196443.420
  21196442.300          47.100          44.350
 130526170.520 6 101520364.055 6                  24391933.800    24391935.140
  24391934.240          41.650          37.000
 118489019.542 7  92158135.223 7                  22126987.000    22126988.140
  22126987.080          45.950          43.100
 124720630.299 7  97004979.045 6                  23372588.400    23372592.800
  23372592.820          45.350          38.650
 106883555.748 7  83131600.710 6                  20015820.620    20015823.680
  20015821.340          46.600          37.800
 113638953.455 8  88385867.197 7                  21228709.760    21228711.700
  21228710.480          48.050          45.700
 114286097.900 8  88889184.770 7                  21364528.000    21364529.720
  21364528.240          48.750          44.700
 120679531.765 7  93861900.072 6                  22639163.240    22639170.900
  22639170.900          45.850          38.050
 133385244.933 8                  99605901.446 7  25382356.340
                        49.800
 128073074.349 7                                  24371495.480
                        46.050
 15  1 27 20  2  5.0000000  0 24G22G14G18G13G17G15G06G24G12G25G29G02
                                R18R20R16R17R08R06R09R07R19R10E19E20
 127156059.732 7  99082655.73246                  24196987.560
  24196981.800          46.150          37.300
 125763459.284 7  97997500.02246                  23931984.040
  23931979.220          45.450          36.600
 125717568.100 7  97961752.78945                  23923247.580
  23923245.060          44.250          35.700
 132638768.908 7 103354935.93445                  25240304.940
  25240304.160          43.150          32.250
 129762487.806 7 101113692.979 6                  24692949.420    24692944.900
  24692944.560          45.550          40.050
 117431726.388 8  91505271.074 7                  22346495.360    22346492.820
  22346492.060          49.400          45.550
 133082831.523 6 103700910.447 6  99380035.270 7  25324820.760    25324820.780
  25324820.040          41.950          38.300
 107480944.055 8  83751472.873 8  80261845.821 8  20452909.560    20452908.040
  20452907.420          50.000          49.950
 105801275.854 8  82442663.696 8                  20133246.880    20133242.300
  20133241.520          50.400          49.250
 116257520.682 8  90590380.282 7  86815808.940 8  22123029.400    22123028.980
  22123028.280          48.700          47.100
 132165449.658 7 102986161.755 6                  25150226.400    25150242.660
  25150241.220          43.300          37.900
 134493979.233 7 104800486.17845                  25593350.000
  25593345.600          42.350          34.500
 113575204.978 8  88336348.271 7                  21276443.220    21276446.640
  21276445.380          48.300          44.800
 131274435.667 5                                  24548979.640
                        35.150
 113237194.820 7  88073433.895 7                  21198223.360    21198226.160
  21198225.060          47.000          44.700
 130543922.940 6 101534171.516 6                  24395251.280    24395252.620
  24395251.600          41.700          36.650
 118482329.110 7  92152931.543 7                  22125737.620    22125738.800
  22125737.720          46.200          42.750
 124741964.305 7  97021572.090 6                  23376586.400    23376590.860
  23376590.960          45.400          38.900
 106880949.345 7  83129573.504 6                  20015332.500    20015335.480
  20015333.260          46.850          37.800
 113650478.619 8  88394831.214 7                  21230862.740    21230864.680
  21230863.500          48.050          45.650
 114269583.850 8  88876340.510 7                  21361440.920    21361442.620
  21361441.120          48.800          44.950
 120666884.616 7  93852063.415 6                  22636790.620    22636798.400
  22636798.340          46.300          37.950
 133390520.884 8                  99609841.277 7  25383360.340
                        49.950
 128086832.965 7                                  24374113.640
                        46.150
 15  1 27 20  2 10.0000000  0 24G22G14G18G13G17G15G06G24G12G25G29G02
                                R18R20R16R17R08R06R09R07R19R10E19E20
 127160112.384 7  99085813.64946                  24197758.760
  24197753.020          46.200          36.650
 125747378.663 7  97984969.68246                  23928923.960
  23928919.140          45.350          36.000
 125727558.574 7  97969537.58046                  23925148.760
  23925146.260          44.100          36.850
 132658189.039 7 103370068.48545                  25244000.580
  25243999.880          44.000          31.400
 129776131.044 7 101124324.078 6                  24695545.640    24695541.160
  24695540.780          45.400          39.800
 117447151.649 8  91517290.762 7                  22349430.680    22349428.140
  22349427.380          49.150          45.550
 133073091.102 6 103693320.518 6  99372761.565 7  25322967.180    25322967.180
  25322966.440          41.850          37.900
 107482272.307 8  83752507.877 8  80262837.704 8  20453162.320    20453160.780
  20453160.180          50.100          50.000
 105799754.358 8  82441478.117 8                  20132957.340    20132952.740
  20132951.980          50.450          49.250
 116245290.662 8  90580850.411 7  86806676.141 8  22120702.060    22120701.680
  22120701.020          48.650          46.950
 132146415.520 7 102971330.418 6                  25146603.960    25146620.260
  25146618.720          43.750          37.500
 134482860.285 7 104791822.11645                  25591234.140
  25591229.580          42.300          30.150
 113579562.227 8  88339737.240 7                  21277259.480    21277262.900
  21277261.620          48.250          44.750
 131252267.759 5                                  24544833.780
                        34.700
 113246721.879 7  88080843.830 7                  21200006.860    21200009.600
  21200008.560          46.900          44.700
 130561685.278 6 101547986.672 6                  24398570.680    24398571.820
  24398570.860          41.600          37.400
 118475658.657 7  92147743.422 7                  22124491.960    22124493.140
  22124492.060          46.250          43.000
 124763298.199 7  97038165.065 6                  23380584.400    23380588.900
  23380589.020          45.050          38.700
 106878348.555 7  83127550.663 6                  20014845.480    20014848.500
  20014846.240          46.750          37.650
 113662020.673 8  88403808.360 7                  21233018.880    21233020.840
  21233019.680          48.000          45.700
 114253082.375 8  88863506.041 7                  21358356.180    21358357.840
  21358356.340          48.750          44.750
 120654238.331 7  93842227.417 6                  22634418.200    22634425.900
  22634425.900          45.900          37.850
 133395806.985 8                  99613788.684 7  25384366.260
                        50.000
 128100594.416 7                                  24376732.340
                        46.300
 15  1 27 20  2 15.0000000  0 24G22G14G18G13G17G15G06G24G12G25G29G02
                                R18R20R16R17R08R06R09R07R19R10E19E20
 127164177.800 7  99088981.49146                  24198532.400
  24198526.620          46.600          36.200
 125731304.397 7  97972444.27246                  23925865.080
  23925860.280          45.250          36.550
 125737556.274 7  97977327.98345                  23927051.320
  23927048.780          45.400          33.650
 132677611.172 7 103385202.55345                  25247696.600
  25247695.940          43.000          33.750
 129789783.831 7 101134962.620 6                  24698143.660    24698139.200
  24698138.820          45.550          40.100
 117462585.670 8  91529317.257 7                  22352367.660    22352365.120
  22352364.360          49.150          45.400
 133063358.674 6 103685736.802 6  99365493.823 7  25321115.120    25321115.200
  25321114.460          41.900          39.000
 107483610.016 8  83753550.245 8  80263836.632 8  20453416.880    20453415.340
  20453414.760          50.150          50.050
 105798245.864 8  82440302.665 8                  20132670.260    20132665.680
  20132664.920          50.450          49.250
 116233069.851 8  90571327.711 7  86797550.213 8  22118376.440    22118376.120
  22118375.460          48.300          46.800
 132127380.437 7 102956498.293 6                  25142981.320    25142997.700
  25142995.920          43.550          38.000
 134471740.811 6 104783157.60545                  25589118.200
  25589113.680          41.800          32.300
 113583942.656 8  88343144.253 7                  21278080.060    21278083.520
  21278082.240          48.400          44.900
 131230097.135 5                                  24540687.440
                        32.850
 113256254.633 7  88088258.192 7                  21201791.420    21201794.140
  21201793.140          46.650          44.550
 130579459.149 6 101561810.812 6                  24401892.260    24401893.380
  24401892.280          40.900          36.200
 118469009.811 7  92142572.100 7                  22123250.340    22123251.500
  22123250.460          46.150          42.750
 124784633.625 7  97054759.222 6                  23384582.700    23384587.140
  23384587.380          44.900          38.850
 106875755.000 7  83125533.462 6                  20014359.760    20014362.840
  20014360.540          46.450          37.400
 113673581.194 8  88412799.868 7                  21235178.480    21235180.480
  21235179.320          48.450          45.650
 114236595.406 8  88850682.842 7                  21355274.140    21355275.780
  21355274.260          48.850          44.350
 120641594.513 7  93832393.347 6                  22632046.260    22632053.800
  22632053.940          45.850          37.850
 133401104.849 8                  99617744.879 7  25385374.400
                        49.900
 128114360.359 7                                  24379351.900
                        46.300
 15  1 27 20  2 20.0000000  0 24G22G14G18G13G17G15G06G24G12G25G29G02
                                R18R20R16R17R08R06R09R07R19R10E19E20
 127168254.344 7  99092158.01346                  24199308.160
  24199302.420          46.700          37.450
 125715234.904 7  97959922.60145                  23922807.140
  23922802.340          45.700          35.500
 125747559.573 7  97985122.76846                  23928954.920
  23928952.260          45.200          36.600
 132697033.728 7 103400336.91045                  25251392.620
  25251391.980          43.050          32.750
 129803444.556 7 101145607.340 6                  24700743.220    24700738.800
  24700738.380          45.700          39.850
 117478026.790 8  91541349.303 7                  22355305.980    22355303.420
  22355302.700          49.300          45.500
 133053632.605 7 103678158.063 6  99358230.851 7  25319264.320    25319264.440
  25319263.740          42.450          39.050
 107484955.570 8  83754598.729 8  80264841.433 8  20453672.900    20453671.380
  20453670.800          50.150          50.200
 105796748.778 8  82439136.106 8                  20132385.360    20132380.800
  20132380.020          50.450          49.350
 116220856.654 7  90561810.939 7  86788429.994 8  22116052.260    22116052.020
  22116051.340          47.850          47.000
 132108342.765 7 102941664.183 6                  25139358.160    25139374.520
  25139372.620          43.300          38.350
 134460619.272 6 104774491.51045                  25587001.820
  25586997.160          41.700          33.000
 113588344.702 8  88346568.077 7                  21278904.700    21278908.160
  21278906.940          48.450          45.100
 131207922.054 5                                  24536540.080
                        34.000
 113265791.447 7  88095675.707 7                  21203576.720    21203579.440
  21203578.460          46.400          44.600
 130597242.892 6 101575642.611 6                  24405215.600    24405216.580
  24405215.500          41.300          36.650
 118462381.060 7  92137416.409 7                  22122012.500    22122013.620
  22122012.580          46.150          42.700
 124805968.791 7  97071353.185 6                  23388580.940    23388585.460
  23388585.680          45.000          38.800
 106873167.119 7  83123520.651 6                  20013875.140    20013878.220
  20013875.880          46.950          36.850
 113685158.596 8  88421804.508 7                  21237341.260    21237343.240
  21237342.100          48.400          45.600
 114220121.165 8  88837869.550 7                  21352194.480    21352196.040
  21352194.560          48.900          44.650
 120628951.612 7  93822559.986 6                  22629674.480    22629681.980
  22629682.120          45.350          37.750
 133406412.905 8                  99621708.693 7  25386384.460
                        49.800
 128128129.209 7                                  24381972.000
                        46.200
 15  1 27 20  2 25.0000000  0 24G22G14G18G13G17G15G06G24G12G25G29G02
                                R18R20R16R17R08R06R09R07R19R10E19E20
 127172342.165 7  99095343.32646                  24200086.100
  24200080.340          46.700          38.400
 125699170.331 7  97947404.75346                  23919750.120
  23919745.400          45.450          36.700
 125757568.597 7  97992921.97246                  23930859.620
  23930856.900          45.450          36.100
 132716456.772 7 103415471.66645                  25255088.820
  25255088.180          43.600          32.950
 129817113.358 7 101156258.350 6                  24703344.320    24703339.880
  24703339.420          45.650          40.000
 117493475.199 8  91553387.016 7                  22358245.740    22358243.180
  22358242.420          49.250          45.300
 133043913.022 7 103670584.369 6  99350972.723 7  25317414.800    25317414.920
  25317414.280          42.600          38.400
 107486309.178 8  83755653.489 8  80265852.250 8  20453930.480    20453928.960
  20453928.380          50.200          50.200
 105795263.232 8  82437978.546 8                  20132102.660    20132098.120
  20132097.340          50.400          49.350
 116208651.246 7  90552300.243 7  86779315.570 8  22113729.540    22113729.360
  22113728.700          47.950          47.000
 132089302.720 7 102926828.233 6                  25135734.560    25135750.960
  25135749.000          44.000          38.800
 134449495.799 6 104765823.89545                  25584885.120
  25584880.460          41.800          33.150
 113592768.468 8  88350008.780 7                  21279733.400    21279736.900
  21279735.740          48.450          45.550
 131185742.671 5                                  24532392.120
                        35.700
 113275332.371 7  88103096.420 7                  21205362.820    21205365.520
  21205364.580          46.750          44.750
 130615036.682 6 101589482.229 6                  24408540.800    24408541.800
  24408540.580          41.550          36.200
 118455772.559 7  92132276.457 7                  22120778.400    22120779.540
  22120778.480          46.450          42.900
 124827304.124 7  97087947.268 6                  23392579.240    23392583.780
  23392584.040          45.300          39.000
 106870585.085 7  83121512.423 6                  20013391.640    20013394.680
  20013392.340          46.850          37.200
 113696753.088 8  88430822.446 7                  21239507.220    21239509.200
  21239508.060          48.150          45.500
 114203659.995 8  88825066.424 7                  21349117.280    21349118.780
  21349117.280          49.050          44.300
 120616309.703 7  93812727.404 6                  22627302.860    22627310.300
  22627310.520          45.400          37.850
 133411731.290 8                  99625680.212 7  25387396.480
                        49.750
 128141901.128 7                                  24384592.680
                        46.200
 15  1 27 20  2 30.0000000  0 24G22G14G18G13G17G15G06G24G12G25G29G02
                                R18R20R16R17R08R06R09R07R19R10E19E20
 127176442.793 7  99098538.61646                  24200866.440
  24200860.680          46.900          37.750
 125683112.241 7  97934891.97545                  23916694.300
  23916689.680          45.600          35.300
 125767584.873 7  98000726.87145                  23932765.700
  23932762.920          45.700          34.900
 132735881.859 7 103430608.05645                  25258785.420
  25258784.700          42.600          34.300
 129830791.716 7 101166916.817 6                  24705947.240    24705942.740
  24705942.280          45.550          39.900
 117508932.416 8  91565431.605 7                  22361187.180    22361184.540
  22361183.780          49.550          45.200
 133034201.499 7 103663016.948 6  99343720.623 7  25315566.800    25315566.840
  25315566.220          42.250          38.550
 107487672.397 8  83756715.746 8  80266870.247 8  20454189.900    20454188.380
  20454187.780          50.050          50.200
 105793790.760 8  82436831.176 8                  20131822.460    20131817.920
  20131817.140          50.350          49.300
 116196455.139 8  90542796.796 7  86770208.105 8  22111408.640    22111408.520
  22111407.840          48.150          47.100
 132070261.851 7 102911991.626 6                  25132110.860    25132127.240
  25132125.180          44.050          38.950
 134438371.951 6 104757155.96745                  25582768.300
  25582763.600          41.750          33.200
 113597215.562 8  88353467.614 7                  21280566.460    21280570.000
  21280568.920          48.250          45.650
 131163560.656 6                                  24528243.580
                        36.100
 113284879.093 7  88110521.655 7                  21207149.980    21207152.680
  21207151.780          46.550          44.950
 130632842.079 6 101603330.888 6                  24411868.220    24411869.180
  24411867.880          40.600          37.300
 118449185.863 7  92127153.475 7                  22119548.440    22119549.560
  22119548.480          46.150          43.200
 124848640.910 7  97104542.498 6                  23396577.820    23396582.360
  23396582.640          45.000          39.200
 106868010.369 7  83119509.867 6                  20012909.520    20012912.580
  20012910.160          47.150          37.850
 113708366.112 7  88439854.794 7                  21241676.640    21241678.620
  21241677.500          47.950          45.750
 114187213.330 8  88812274.580 7                  21346042.780    21346044.220
  21346042.700          48.950          44.400
 120603670.502 7  93802896.927 6                  22624931.760    22624939.200
  22624939.400          45.450          37.900
 133417061.512 8                  99629660.585 7  25388410.760
                        49.650
 128155677.548 7                                  24387214.200
                        45.950
 15  1 27 20  2 35.0000000  0 24G22G14G18G13G17G15G06G24G12G25G29G02
                                R18R20R16R17R08R06R09R07R19R10E19E20
 127180554.417 7  99101742.46946                  24201648.900
  24201643.100          46.850          37.550
 125667058.806 7  97922382.80445                  23913639.420
  23913634.820          45.950          34.850
 125777606.573 7  98008535.95145                  23934672.800
  23934669.980          45.750          33.750
 132755307.205 7 103445744.57345                  25262482.020
  25262481.340          42.650          32.800
 129844477.875 7 101177581.359 6                  24708551.660    24708547.120
  24708546.620          45.600          39.750
 117524396.624 8  91577481.641 7                  22364129.960    22364127.260
  22364126.520          49.450          44.900
 133024496.292 7 103655454.440 6  99336473.236 7  25313720.020    25313719.980
  25313719.340          42.050          38.100
 107489043.375 8  83757784.034 8  80267894.025 8  20454450.800    20454449.260
  20454448.680          50.000          50.100
 105792329.587 8  82435692.599 8                  20131544.420    20131539.860
  20131539.060          50.350          49.150
 116184266.544 8  90533299.189 7  86761106.242 8  22109089.180    22109089.100
  22109088.380          48.300          46.900
 132051218.375 7 102897152.984 6                  25128486.660    25128503.020
  25128500.960          43.900          38.500
 134427245.892 6 104748486.35645                  25580651.080
  25580646.360          41.650          32.950
 113601684.088 8  88356943.128 7                  21281403.520    21281407.080
  21281406.100          48.150          45.450
 131141374.030 6                                  24524094.240
                        36.750
 113294429.689 7  88117949.886 7                  21208937.880    21208940.580
  21208939.680          46.750          44.050
 130650657.245 6 101617187.097 6                  24415197.360    24415198.320
  24415196.960          41.500          36.000
 118442619.015 7  92122045.933 7                  22118322.120    22118323.240
  22118322.200          45.900          42.850
 124869977.386 7  97121137.467 6                  23400576.320    23400580.920
  23400581.200          44.800          38.950
 106865441.247 7  83117511.661 6                  20012428.440    20012431.460
  20012429.060          47.000          37.600
 113719995.771 7  88448900.078 7                  21243849.100    21243851.140
  21243850.040          47.600          45.600
 114170779.541 8  88799492.742 7                  21342970.680    21342972.080
  21342970.520          49.200          44.400
 120591032.140 7  93793067.086 6                  22622560.860    22622568.240
  22622568.440          45.250          37.700
 133422401.802 8                  99633648.442 7  25389426.940
                        49.450
 128169456.742 7                                  24389836.300
                        45.900
 15  1 27 20  2 40.0000000  0 24G22G14G18G13G17G15G06G24G12G25G29G02
                                R18R20R16R17R08R06R09R07R19R10E19E20
 127184678.866 7  99104956.33546                  24202433.800
  24202428.000          46.700          37.300
 125651011.927 7  97909878.74445                  23910585.780
  23910581.180          46.000          34.750
 125787635.519 7  98016350.73745                  23936581.320
  23936578.380          45.600          33.950
 132774734.614 7 103460882.76245                  25266179.000
  25266178.400          43.000          32.650
 129858173.670 7 101188253.413 6                  24711157.900    24711153.380
  24711152.820          45.950          39.700
 117539869.663 8  91589538.549 7                  22367074.440    22367071.680
  22367070.920          49.900          44.900
 133014799.219 7 103647898.290 6  99329231.930 7  25311874.740    25311874.720
  25311874.140          42.450          37.100
 107490423.913 8  83758859.780 8  80268924.942 8  20454713.500    20454711.980
  20454711.400          50.050          50.050
 105790881.565 8  82434564.274 8                  20131268.880    20131264.300
  20131263.520          50.400          49.300
 116172087.313 8  90523808.894 7  86752011.374 8  22106771.520    22106771.460
  22106770.740          48.650          46.950
 132032174.160 7 102882313.766 6                  25124862.300    25124878.600
  25124876.540          44.200          38.350
 134416119.550 7 104739816.53545                  25578533.800
  25578528.940          42.050          30.800
 113606175.987 8  88360436.840 7                  21282245.020    21282248.560
  21282247.640          48.150          45.500
 131119184.848 6                                  24519944.580
                        37.750
 113303986.118 7  88125382.680 7                  21210726.840    21210729.560
  21210728.640          46.950          44.500
 130668483.971 6 101631052.376 6                  24418528.640    24418529.660
  24418528.220          41.550          36.000
 118436074.064 7  92116955.430 7                  22117099.880    22117100.960
  22117099.960          45.700          42.950
 124891315.467 7  97137733.689 6                  23404575.140    23404579.780
  23404580.080          44.650          38.800
 106862879.599 7  83115519.276 6                  20011948.740    20011951.780
  20011949.340          47.100          38.200
 113731643.976 7  88457959.791 7                  21246025.020    21246027.100
  21246026.060          47.750          45.700
 114154360.265 8  88786722.196 7                  21339901.280    21339902.640
  21339901.040          49.100          44.550
 120578396.465 7  93783239.347 6                  22620190.420    22620197.840
  22620197.980          45.750          37.950
 133427753.972 8                  99637645.198 7  25390445.420
                        49.450
 128183240.555 7                                  24392459.300
                        46.000
 15  1 27 20  2 45.0000000  0 24G22G14G18G13G17G15G06G24G12G25G29G02
                                R18R20R16R17R08R06R09R07R19R10E19E20
 127188814.119 7  99108178.60646                  24203220.700
  24203214.900          46.700          38.000
 125634969.536 7  97897378.18046                  23907532.980
  23907528.340          45.950          36.200
 125797669.707 7  98024169.56845                  23938490.800
  23938487.780          45.550          34.300
 132794162.041 7 103476020.90345                  25269875.880
  25269875.260          42.850          32.700
 129871877.026 7 101198931.359 6                  24713765.600    24713761.060
  24713760.440          45.650          39.950
 117555349.442 8  91601600.719 7                  22370020.220    22370017.380
  22370016.600          50.050          44.750
 133005108.306 7 103640346.940 6  99321995.195 7  25310030.660    25310030.560
  25310030.000          42.750          36.750
 107491811.951 8  83759941.372 8  80269961.470 8  20454977.640    20454976.120
  20454975.560          50.100          50.000
 105789444.622 8  82433444.575 8                  20130995.440    20130990.860
  20130990.060          50.500          49.250
 116159915.421 8  90514324.311 7  86742921.988 8  22104455.280    22104455.200
  22104454.480          48.800          46.800
 132013127.182 7 102867472.383 6                  25121237.480    25121253.780
  25121251.560          44.800          37.250
 134404990.830 7 104731144.85445                  25576416.060
  25576411.180          42.550          32.650
 113610689.136 8  88363947.084 7                  21283090.500    21283094.020
  21283093.120          48.700          45.150
 131096991.064 6                                  24515793.780
                        38.850
 113313546.286 7  88132818.350 7                  21212516.500    21212519.280
  21212518.340          46.900          44.350
 130686320.108 6 101644924.923 6                  24421861.720    24421862.720
  24421861.280          41.800          36.900
 118429548.913 7  92111880.321 7                  22115881.360    22115882.440
  22115881.440          45.750          42.850
 124912652.920 7  97154329.411 6                  23408573.820    23408578.500
  23408578.800          45.150          38.350
 106860323.237 7  83113530.986 6                  20011470.040    20011473.060
  20011470.600          47.600          37.550
 113743308.585 8  88467032.257 7                  21248204.040    21248206.120
  21248205.120          48.100          45.700
 114137953.722 8  88773961.568 7                  21336834.260    21336835.560
  21336833.960          49.250          44.500
 120565761.421 7  93773412.105 6                  22617820.120    22617827.520
  22617827.600          45.550          37.550
 133433115.981 8                  99641649.300 7  25391465.760
                        49.450
 128197026.860 7                                  24395082.760
                        45.800
 15  1 27 20  2 50.0000000  0 24G22G14G18G13G17G15G06G24G12G25G29G02
                                R18R20R16R17R08R06R09R07R19R10E19E20
 127192962.094 7  99111410.77446                  24204010.020
  24204004.300          46.600          38.500
 125618933.607 7  97884882.64445                  23904481.400
  23904476.820          45.850          35.650
 125807711.002 7  98031993.94045                  23940401.600
  23940398.460          44.800          33.750
 132813591.434 7 103491160.58345                  25273573.180
  25273572.600          43.700          30.750
 129885589.886 7 101209616.706 6                  24716375.120    24716370.480
  24716369.900          45.300          40.100
 117570837.934 8  91613669.673 7                  22372967.680    22372964.720
  22372963.960          49.800          44.900
 132995425.446 7 103632801.829 6  99314764.474 7  25308188.100    25308187.860
  25308187.340          42.450          36.450
 107493209.455 8  83761030.332 8  80271005.064 8  20455243.560    20455242.040
  20455241.480          50.200          50.000
 105788020.655 8  82432334.994 8                  20130724.460    20130719.900
  20130719.080          50.550          49.200
 116147752.779 8  90504846.937 7  86733839.510 8  22102140.820    22102140.700
  22102140.000          48.700          46.800
 131994079.302 7 102852630.266 6                  25117612.480    25117628.620
  25117626.560          44.750          37.500
 134393861.708 7 104722472.85645                  25574298.240
  25574293.380          42.600          35.300
 113615225.544 8  88367475.405 7                  21283940.320    21283943.860
  21283942.960          49.050          45.300
 131074794.590 6                                  24511642.540
                        39.300
 113323112.087 7  88140258.415 7                  21214307.280    21214310.020
  21214309.080          46.800          44.650
 130704167.742 6 101658806.416 6                  24425196.980    24425197.900
  24425196.520          41.200          37.350
 118423045.548 7  92106822.146 7                  22114666.840    22114668.020
  22114666.960          45.800          43.100
 124933991.875 7  97170926.327 6                  23412572.780    23412577.440
  23412577.800          44.950          38.600
 106857774.209 7  83111548.427 6                  20010992.740    20010995.720
  20010993.280          47.400          38.150
 113754991.638 8  88476119.059 7                  21250386.500    21250388.620
  21250387.600          48.300          45.600
 114121561.698 8  88761212.220 7                  21333769.940    21333771.220
  21333769.600          49.100          44.400
 120553128.921 7  93763586.841 6                  22615450.280    22615457.740
  22615457.720          45.450          37.600
 133438489.765 8                  99645662.195 7  25392488.320
                        49.200
 128210817.610 7                                  24397707.100
                        45.550
 15  1 27 20  2 55.0000000  0 24G22G14G18G13G17G15G06G24G12G25G29G02
                                R18R20R16R17R08R06R09R07R19R10E19E20
 127197121.610 7  99114651.95346                  24204801.580
  24204795.840          47.150          37.350
 125602903.031 7  97872391.30545                  23901430.880
  23901426.280          45.400          35.850
 125817758.247 7  98039822.96345                  23942313.580
  23942310.220          44.700          35.750
 132833021.578 7 103506300.92445                  25277270.700
  25277270.140          43.950          32.850
 129899311.083 7 101220308.540 6                  24718986.160    24718981.500
  24718980.900          45.050          40.150
 117586333.962 8  91625744.496 7                  22375916.560    22375913.500
  22375912.740          49.750          45.100
 132985749.494 6 103625262.095 6  99307538.921 7  25306346.800    25306346.560
  25306346.000          41.900          37.400
 107494615.424 8  83762125.892 8  80272054.972 8  20455511.120    20455509.580
  20455509.040          50.000          49.950
 105786608.569 8  82431234.676 8                  20130455.780    20130451.200
  20130450.360          50.550          49.150
 116135598.252 8  90495375.886 7  86724763.084 8  22099827.900    22099827.780
  22099827.080          48.250          46.600
 131975029.441 7 102837786.630 6                  25113987.120    25114003.220
  25114001.080          44.900          36.700
 134382731.002 7 104713799.61545                  25572180.140
  25572175.140          42.700          34.700
 113619784.019 8  88371020.890 7                  21284794.300    21284797.820
  21284796.960          49.200          45.300
 131052594.202 6                                  24507490.580
                        39.100
 113332682.447 7  88147702.024 7                  21216098.880    21216101.600
  21216100.660          47.250          44.400
 130722025.533 6 101672695.803 6                  24428534.100    24428535.060
  24428533.620          40.400          36.400
 118416562.725 7  92101779.936 7                  22113456.240    22113457.440
  22113456.340          45.900          43.050
 124955331.055 7  97187523.400 6                  23416571.800    23416576.480
  23416576.820          44.700          38.200
 106855231.394 7  83109570.680 6                  20010516.600    20010519.520
  20010517.120          47.400          37.750
 113766691.907 7  88485219.266 7                  21252572.180    21252574.340
  21252573.320          47.900          45.400
 114105183.116 8  88748473.323 7                  21330708.120    21330709.420
  21330707.740          48.900          44.700
 120540497.776 7  93753762.624 6                  22613080.680    22613088.120
  22613088.080          45.600          37.500
 133443874.169 8                  99649683.008 7  25393512.880
                        49.100
 128224611.695 7                                  24400332.060
                        45.300
 15  1 27 20  3  0.0000000  0 24G22G14G18G13G17G15G06G24G12G25G29G02
                                R18R20R16R17R08R06R09R07R19R10E19E20
 127201292.240 7  99117901.80346                  24205595.280
  24205589.480          47.250          37.550
 125586877.354 7  97859903.77346                  23898381.280
  23898376.640          45.250          36.350
 125827811.027 7  98047656.29745                  23944226.580
  23944223.220          44.950          32.450
 132852452.080 7 103521441.49944                  25280968.240
  25280967.640          43.150          29.500
 129913040.166 7 101231006.533 6                  24721598.740    24721594.000
  24721593.420          45.400          40.200
 117601837.081 8  91637824.853 7                  22378866.760    22378863.620
  22378862.900          49.800          44.850
 132976080.060 6 103617727.488 6  99300318.246 7  25304506.640    25304506.520
  25304506.100          41.550          36.700
 107496029.267 8  83763227.590 8  80273110.765 8  20455780.160    20455778.600
  20455778.100          50.100          49.900
 105785207.921 8  82430143.264 8                  20130189.260    20130184.640
  20130183.820          50.600          49.100
 116123451.414 8  90485910.833 7  86715692.401 8  22097516.440    22097516.320
  22097515.600          48.400          46.650
 131955977.147 7 102822941.073 6                  25110361.260    25110377.280
  25110375.200          44.850          36.350
 134371598.362 6 104705124.87346                  25570061.620
  25570056.600          41.700          36.050
 113624364.049 8  88374583.142 7                  21285652.300    21285655.800
  21285654.980          49.150          44.950
 131030389.635 6                                  24503338.020
                        38.200
 113342256.813 7  88155148.748 7                  21217891.260    21217893.940
  21217893.020          47.350          44.350
 130739893.263 6 101686592.951 6                  24431873.140    24431874.040
  24431872.620          40.550          36.000
 118410100.122 7  92096753.479 7                  22112249.380    22112250.600
  22112249.500          45.950          43.250
 124976669.927 7  97204120.235 6                  23420570.740    23420575.480
  23420575.740          44.700          37.800
 106852694.240 7  83107597.344 6                  20010041.540    20010044.440
  20010042.060          47.350          37.750
 113778408.864 7  88494332.463 7                  21254760.960    21254763.180
  21254762.120          47.900          45.400
 114088817.601 8  88735744.603 7                  21327648.760    21327650.000
  21327648.360          48.550          44.200
 120527867.677 7  93743939.222 6                  22610711.300    22610718.720
  22610718.600          45.400          36.750
 133449268.754 8                  99653711.432 7  25394539.400
                        49.350
 128238408.643 7                                  24402957.560
                        45.300
 15  1 27 20  3  5.0000000  0 24G22G14G18G13G17G15G06G24G12G25G29G02
                                R18R20R16R17R08R06R09R07R19R10E19E20
 127205474.704 7  99121160.85846                  24206391.180
  24206385.380          46.900          37.350
 125570857.294 7  97847420.61145                  23895332.760
  23895328.120          45.150          35.950
 125837870.000 7  98055494.46245                  23946140.720
  23946137.320          44.200          35.900
 132871883.630 7 103536582.88945                  25284666.000
  25284665.440          42.850          33.000
 129926777.798 7 101241711.187 6                  24724212.940    24724208.180
  24724207.580          45.400          40.700
 117617347.988 8  91649911.274 7                  22381818.440    22381815.220
  22381814.520          49.750          44.950
 132966417.842 6 103610198.481 6  99293102.955 7  25302667.900    25302667.860
  25302667.360          41.050          36.400
 107497451.805 8  83764336.066 8  80274173.051 8  20456050.860    20456049.320
  20456048.800          50.100          49.850
 105783819.380 8  82429061.282 8                  20129925.040    20129920.420
  20129919.600          50.400          49.150
 116111312.967 8  90476452.314 7  86706627.986 8  22095206.580    22095206.460
  22095205.700          48.350          46.700
 131936923.142 7 102808094.186 6                  25106735.120    25106750.960
  25106748.980          44.550          36.200
 134360464.463 6 104696449.15945                  25567942.920
  25567937.940          41.850          32.950
 113628966.374 8  88378162.725 7                  21286514.500    21286517.940
  21286517.140          48.700          44.650
 131008181.530 6                                  24499184.600
                        37.900
 113351836.017 7  88162599.244 7                  21219684.540    21219687.180
  21219686.300          47.450          44.300
 130757771.474 6 101700498.251 6                  24435214.160    24435215.040
  24435213.620          40.950          36.350
 118403658.339 7  92091743.214 7                  22111046.380    22111047.640
  22111046.580          45.800          43.150
 124998009.205 7  97220717.385 6                  23424569.760    23424574.440
  23424574.700          44.450          37.650
 106850163.517 7  83105628.994 6                  20009567.640    20009570.520
  20009568.180          47.400          37.850
 113790143.417 7  88503459.333 7                  21256953.040    21256955.280
  21256954.220          47.900          45.600
 114072465.755 8  88723026.508 7                  21324591.920    21324593.200
  21324591.540          48.650          44.350
 120515239.156 7  93734117.045 6                  22608342.260    22608349.680
  22608349.440          45.200          37.300
 133454674.197 8                  99657747.974 7  25395568.000
                        49.400
 128252209.126 7                                  24405583.720
                        45.600
 15  1 27 20  3 10.0000000  0 24G22G14G18G13G17G15G06G24G12G25G29G02
                                R18R20R16R17R08R06R09R07R19R10E19E20
 127209668.440 7  99124428.69246                  24207189.260
  24207183.440          47.000          37.550
 125554842.403 7  97834941.47346                  23892285.220
  23892280.520          45.300          36.300
 125847934.649 7  98063337.02346                  23948055.920
  23948052.520          43.950          36.450
 132891315.658 7 103551724.64145                  25288363.840
  25288363.340          43.400          33.100
 129940523.389 7 101252422.025 6                  24726828.620    24726823.880
  24726823.280          45.650          40.450
 117632866.158 8  91662003.344 7                  22384771.480    22384768.240
  22384767.540          49.750          45.000
 132956762.361 6 103602674.711 6  99285892.695 7  25300830.440    25300830.400
  25300829.880          39.750          36.800
 107498882.512 8  83765450.898 8  80275241.433 8  20456323.120    20456321.580
  20456321.060          50.000          49.800
 105782442.445 8  82427988.337 8                  20129663.040    20129658.400
  20129657.560          50.350          49.150
 116099182.417 8  90466999.941 7  86697569.462 8  22092898.240    22092898.060
  22092897.300          48.450          46.550
 131917866.962 7 102793245.589 6                  25103108.540    25103124.280
  25103122.260          44.550          36.400
 134349328.877 6 104687772.09245                  25565823.880
  25565818.860          41.850          34.400
 113633590.478 8  88381759.249 7                  21287380.780    21287384.200
  21287383.360          48.650          44.500
 130985969.322 6                                  24495030.360
                        38.150
 113361419.513 7  88170053.067 7                  21221478.620    21221481.240
  21221480.380          47.350          44.300
 130775659.662 6 101714411.263 6                  24438556.980    24438557.940
  24438556.500          41.850          36.750
 118397236.986 7  92086748.824 7                  22109847.200    22109848.520
  22109847.460          46.000          43.250
 125019348.460 7  97237314.503 6                  23428568.720    23428573.480
  23428573.720          44.200          37.800
 106847638.706 7  83103665.238 6                  20009094.880    20009097.680
  20009095.380          47.600          37.950
 113801894.901 8  88512599.364 7                  21259148.280    21259150.540
  21259149.500          48.250          45.400
 114056127.264 8  88710318.788 7                  21321537.580    21321538.900
  21321537.200          48.350          44.600
 120502611.868 7  93724295.825 6                  22605973.380    22605980.740
  22605980.540          45.500          37.300
 133460090.028 8                  99661792.254 7  25396598.600
                        49.400
 128266012.645 7                                  24408210.440
                        45.650
 15  1 27 20  3 15.0000000  0 24G22G14G18G13G17G15G06G24G12G25G29G02
                                R18R20R16R17R08R06R09R07R19R10E19E20
 127213874.392 7  99127706.04746                  24207989.680
  24207983.800          46.900          37.800
 125538833.600 7  97822467.07946                  23889238.840
  23889234.120          45.350          36.650
 125858005.927 7  98071184.77045                  23949972.420
  23949969.040          44.150          33.700
 132910749.136 7 103566867.54845                  25292062.000
  25292061.560          43.200          30.100
 129954277.982 7 101263139.881 6                  24729446.020    24729441.280
  24729440.700          45.950          40.650
 117648392.510 8  91674101.798 7                  22387726.080    22387722.840
  22387722.100          49.700          45.100
 132947114.533 6 103595156.936 6  99278688.178 7  25298994.460    25298994.420
  25298994.120          39.250          37.250
 107500322.295 8  83766572.807 8  80276316.595 8  20456597.100    20456595.540
  20456595.020          50.050          49.900
 105781078.038 8  82426925.161 8                  20129403.420    20129398.760
  20129397.920          50.350          49.200
 116087060.663 8  90457554.423 7  86688517.517 8  22090591.560    22090591.340
  22090590.560          48.650          46.700
 131898809.566 7 102778396.047 6                  25099481.700    25099497.300
  25099495.360          43.350          36.100
 134338192.490 6 104679094.44145                  25563704.680
  25563699.600          41.400          35.800
 113638237.378 8  88385373.500 7                  21288251.320    21288254.740
  21288253.840          48.650          44.550
 130963754.073 6                                  24490875.500
                        37.850
 113371008.308 7  88177511.006 7                  21223273.680    21223276.300
  21223275.440          47.600          44.350
 130793558.630 6 101728332.700 6                  24441901.880    24441902.840
  24441901.420          41.650          37.800
 118390836.961 7  92081771.025 7                  22108651.980    22108653.360
  22108652.340          46.350          43.150
 125040688.562 7  97253912.286 6                  23432567.900    23432572.620
  23432572.860          44.750          36.850
 106845120.757 7  83101706.837 6                  20008623.380    20008626.180
  20008623.860          47.300          37.950
 113813664.251 8  88521753.295 7                  21261346.900    21261349.200
  21261348.120          48.600          45.300
 114039802.984 8  88697622.140 7                  21318485.880    21318487.240
  21318485.560          48.650          44.700
 120489986.737 7  93714476.287 6                  22603604.920    22603612.200
  22603612.040          45.650          37.000
 133465517.164 8                  99665844.983 7  25397631.320
                        49.400
 128279820.157 7                                  24410837.940
                        45.650
 15  1 27 20  3 20.0000000  0 24G22G14G18G13G17G15G06G24G12G25G29G02
                                R18R20R16R17R08R06R09R07R19R10E19E20
 127218092.333 7  99130992.76046                  24208792.320
  24208786.440          46.900          38.600
 125522830.671 7  97809997.27146                  23886193.580
  23886188.900          45.350          37.350
 125868083.575 7  98079037.49245                  23951890.160
  23951886.600          44.150          35.600
 132930183.815 7 103582011.35945                  25295760.320
  25295759.920          42.550          34.300
 129968041.327 7 101273864.572 6                  24732065.120    24732060.340
  24732059.820          46.000          40.800
 117663926.794 8  91686206.441 7                  22390682.180    22390678.900
  22390678.160          49.750          45.150
 132937474.197 6 103587645.020 6  99271489.234 7  25297159.920    25297159.860
  25297159.560          40.700          38.300
 107501770.861 8  83767701.564 8  80277398.324 8  20456872.760    20456871.200
  20456870.680          50.150          49.850
 105779725.941 8  82425871.579 8                  20129146.140    20129141.480
  20129140.640          50.650          49.250
 116074947.533 8  90448115.627 7  86679472.004 8  22088286.540    22088286.260
  22088285.460          49.000          46.900
 131879750.632 7 102763545.329 6                  25095854.600    25095870.100
  25095868.120          42.250          36.400
 134327055.075 6 104670415.98146                  25561585.280
  25561580.140          41.650          36.250
 113642906.744 8  88389005.233 7                  21289126.080    21289129.480
  21289128.540          48.650          44.600
 130941535.490 6                                  24486720.200
                        37.900
 113380602.020 7  88184972.787 7                  21225069.680    21225072.300
  21225071.440          47.700          44.450
 130811468.348 6 101742262.470 6                  24445248.740    24445249.600
  24445248.300          41.600          38.200
 118384457.914 7  92076809.552 7                  22107460.720    22107462.120
  22107461.160          46.750          43.550
 125062029.268 7  97270510.563 6                  23436567.160    23436571.980
  23436572.080          44.750          36.450
 106842609.526 7  83099753.663 6                  20008153.120    20008155.940
  20008153.600          47.050          37.850
 113825451.232 8  88530920.944 7                  21263548.800    21263551.100
  21263550.040          48.700          45.450
 114023492.654 8  88684936.345 7                  21315436.800    21315438.260
  21315436.520          48.650          44.650
 120477363.394 7  93704658.142 6                  22601236.840    22601244.140
  22601243.860          45.550          36.600
 133470955.361 8                  99669905.966 7  25398666.160
                        49.550
 128293631.391 7                                  24413466.120
                        45.750
 15  1 27 20  3 25.0000000  0 24G22G14G18G13G17G15G06G24G12G25G29G02
                                R18R20R16R17R08R06R09R07R19R10E19E20
 127222322.600 7  99134289.05646                  24209597.320
  24209591.440          47.150          38.000
 125506833.902 7  97797532.25146                  23883149.500
  23883144.880          45.500          37.050
 125878167.914 7  98086895.39945                  23953809.120
  23953805.540          44.350          34.000
 132949620.021 7 103597156.35245                  25299458.940
  25299458.520          43.100          32.800
 129981813.763 7 101284596.333 6                  24734685.940    24734681.120
  24734680.700          46.150          40.350
 117679469.373 8  91698317.533 7                  22393639.860    22393636.560
  22393635.820          49.550          45.050
 132927841.625 6 103580139.134 6  99264296.099 7  25295326.940    25295326.840
  25295326.400          41.900          37.700
 107503228.708 8  83768837.542 8  80278486.968 8  20457150.180    20457148.620
  20457148.080          50.250          49.850
 105778386.478 8  82424827.841 8                  20128891.280    20128886.580
  20128885.760          50.750          49.250
 116062843.321 8  90438683.771 7  86670433.154 8  22085983.200    22085982.880
  22085982.040          49.000          46.800
 131860690.566 7 102748693.739 6                  25092227.280    25092242.720
  25092240.660          43.350          37.050
 134315916.910 7 104661736.93645                  25559465.740
  25559460.560          42.300          32.650
 113647598.972 8  88392654.748 7                  21290005.120    21290008.480
  21290007.520          48.500          44.950
 130919314.025 6                                  24482564.300
                        38.900
 113390201.063 7  88192438.711 7                  21226866.640    21226869.300
  21226868.420          47.650          44.550
 130829388.964 7 101756200.742 6                  24448597.680    24448598.480
  24448597.240          42.550          38.700
 118378100.359 7  92071864.781 7                  22106273.440    22106274.880
  22106273.980          46.850          43.400
 125083370.926 7  97287109.560 5                  23440566.580    23440571.520
  23440571.540          44.850          35.600
 106840105.212 7  83097805.859 6                  20007684.180    20007687.020
  20007684.620          47.200          37.600
 113837256.172 8  88540102.564 7                  21265754.080    21265756.380
  21265755.300          48.650          45.300
 114007196.613 8  88672261.648 7                  21312390.400    21312391.920
  21312390.160          48.850          44.800
 120464742.316 7  93694841.740 6                  22598869.160    22598876.480
  22598876.060          45.550          36.600
 133476404.924 8                  99673975.434 7  25399703.160
                        49.600
 128307446.629 7                                  24416095.060
                        45.900
 15  1 27 20  3 30.0000000  0 24G22G14G18G13G17G15G06G24G12G25G29G02
                                R18R20R16R17R08R06R09R07R19R10E19E20
 127226563.246 7  99137593.46146                  24210404.320
  24210398.380          47.600          37.650
 125490841.402 7  97785070.57146                  23880106.220
  23880101.640          45.200          37.200
 125888257.002 7  98094757.02145                  23955729.020
  23955725.520          44.550          35.250
 132969055.815 7 103612301.06745                  25303157.540
  25303157.040          42.850          32.600
 129995593.302 7 101295333.641 6                  24737308.120    24737303.340
  24737302.920          46.050          40.550
 117695018.272 8  91710433.560 7                  22396598.720    22396595.440
  22396594.680          49.450          45.250
 132918214.989 6 103572637.857 6  99257107.357 7  25293495.060    25293494.980
  25293494.460          41.950          38.650
 107504693.722 8  83769979.118 8  80279580.986 8  20457428.980    20457427.400
  20457426.860          50.250          49.900
 105777057.718 8  82423792.452 8                  20128638.440    20128633.740
  20128632.900          50.700          49.250
 116050746.111 8  90429257.378 7  86661399.535 8  22083681.220    22083680.840
  22083679.980          48.950          46.900
 131841627.512 7 102733839.794 6                  25088599.380    25088614.760
  25088612.660          44.000          37.350
 134304776.261 7 104653055.94445                  25557345.720
  25557340.500          42.600          31.800
 113652312.043 8  88396320.474 7                  21290888.040    21290891.360
  21290890.380          48.700          44.450
 130897087.590 6                                  24478407.540
  24478421.940          39.450          33.850
 113399803.463 7  88199907.249 7                  21228664.260    21228666.880
  21228665.980          47.550          44.200
 130847318.667 6 101770146.066 6                  24451948.320    24451949.160
  24451947.840          41.750          37.800
 118371762.428 7  92066935.266 7                  22105089.840    22105091.300
  22105090.460          46.700          43.250
 125104711.562 7  97303707.779 5                  23444565.860    23444570.760
  23444570.740          44.850          35.950
 106837605.899 7  83095861.964 6                  20007216.140    20007219.040
  20007216.580          47.500          37.550
 113849077.193 8  88549296.681 7                  21267962.360    21267964.640
  21267963.560          48.450          45.150
 113990913.124 8  88659596.723 7                  21309346.340    21309347.900
  21309346.140          48.800          44.700
 120452121.458 7  93685025.535 6                  22596501.540    22596508.820
  22596508.340          45.750          36.100
 133481863.953 8                  99678051.988 7  25400741.960
                        49.600
 128321263.999 7                                  24418724.400
                        45.700
 15  1 27 20  3 35.0000000  0 24G22G14G18G13G17G15G06G24G12G25G29G02
                                R18R20R16R17R08R06R09R07R19R10E19E20
 127230815.491 7  99140906.91246                  24211213.540
  24211207.600          47.550          37.550
 125474854.355 7  97772613.14846                  23877063.980
  23877059.520          45.900          37.950
 125898352.077 7  98102623.29545                  23957650.040
  23957646.560          45.250          33.350
 132988492.404 7 103627446.37845                  25306856.220
  25306855.860          42.200          30.900
 130009381.225 7 101306077.482 6                  24739931.880    24739927.080
  24739926.680          46.100          40.550
 117710574.740 8  91722555.482 7                  22399559.020    22399555.800
  22399555.000          49.200          45.350
 132908595.470 7 103565142.147 6  99249923.974 7  25291664.560    25291664.500
  25291664.020          43.000          38.850
 107506167.224 8  83771127.307 8  80280681.326 8  20457709.380    20457707.800
  20457707.240          50.150          50.050
 105775740.893 8  82422766.359 8                  20128387.880    20128383.140
  20128382.340          50.550          49.350
 116038657.133 8  90419837.411 7  86652372.065 8  22081380.800    22081380.320
  22081379.480          48.750          46.900
 131822562.664 7 102718984.437 6                  25084971.160    25084986.480
  25084984.240          43.500          37.950
 134293634.209 6 104644373.88045                  25555225.480
  25555220.320          41.650          34.150
 113657047.187 8  88400003.372 7                  21291775.080    21291778.400
  21291777.360          48.900          43.900
 130874857.655 6                                  24474250.100
                        38.950
 113409410.527 7  88207379.403 7                  21230462.740    21230465.260
  21230464.400          47.350          43.950
 130865258.540 6 101784099.298 6                  24455300.820    24455301.720
  24455300.320          41.350          36.900
 118365445.153 7  92062021.837 7                  22103910.120    22103911.600
  22103910.820          46.350          43.200
 125126052.233 7  97320306.006 6                  23448565.080    23448569.940
  23448570.000          45.100          36.100
 106835112.813 7  83093922.899 6                  20006749.240    20006752.140
  20006749.720          47.850          37.500
 113860915.303 8  88558504.096 7                  21270173.820    21270176.120
  21270175.040          48.150          45.250
 113974643.315 8  88646942.438 7                  21306304.900    21306306.420
  21306304.680          49.250          44.600
 120439502.179 7  93675210.535 6                  22594134.240    22594141.500
  22594140.900          45.650          36.100
 133487333.654 8                  99682136.513 7  25401782.800
                        49.600
 128335084.703 7                                  24421354.380
                        45.800
 15  1 27 20  3 40.0000000  0 24G22G14G18G13G17G15G06G24G12G25G29G02
                                R18R20R16R17R08R06R09R07R19R10E19E20
 127235080.770 7  99144230.48546                  24212025.180
  24212019.220          47.100          37.900
 125458874.307 7  97760161.16346                  23874023.100
  23874018.680          45.450          36.950
 125908454.517 7  98110495.33145                  23959572.500
  23959569.140          45.350          34.200
 133007931.214 7 103642593.37744                  25310555.360
  25310554.960          43.100          29.100
 130023178.914 7 101316828.932 6                  24742557.520    24742552.740
  24742552.300          46.050          40.550
 117726140.166 8  91734684.389 7                  22402520.980    22402517.800
  22402517.020          49.100          45.350
 132898984.544 7 103557653.123 6  99242746.999 7  25289835.760    25289835.560
  25289835.060          43.450          37.950
 107507650.647 8  83772283.223 8  80281789.083 8  20457991.700    20457990.080
  20457989.520          50.150          49.900
 105774437.437 8  82421750.676 8                  20128139.860    20128135.100
  20128134.320          50.450          49.250
 116026577.856 8  90410424.996 7  86643351.840 8  22079082.200    22079081.660
  22079080.840          48.650          46.900
 131803497.421 7 102704128.799 6                  25081342.880    25081358.120
  25081355.840          43.500          37.950
 134282492.246 7 104635691.85645                  25553105.160
  25553100.120          42.100          34.800
 113661805.962 8  88403704.634 7                  21292666.540    21292669.840
  21292668.760          48.750          44.000
 130852625.553 6                                  24470092.220
                        38.850
 113419023.606 7  88214856.242 7                  21232262.340    21232264.860
  21232263.960          47.300          44.050
 130883209.987 7 101798061.560 6                  24458655.440    24458656.340
  24458654.960          42.300          37.550
 118359150.083 7  92057125.671 7                  22102734.600    22102736.060
  22102735.300          46.150          43.400
 125147394.628 7  97336905.579 5                  23452564.680    23452569.520
  23452569.560          44.950          35.600
 106832627.541 7  83091989.906 6                  20006283.840    20006286.860
  20006284.280          47.800          37.350
 113872772.021 8  88567725.984 7                  21272388.720    21272391.060
  21272389.960          48.000          45.200
 113958388.774 8  88634300.029 7                  21303266.320    21303267.800
  21303266.060          49.300          44.600
 120426885.854 7  93665397.848 5                  22591767.460    22591774.620
  22591774.000          45.750          35.750
 133492815.467 8                  99686230.076 7  25402825.960
                        49.550
 128348910.184 7                                  24423985.260
                        45.850
 15  1 27 20  3 45.0000000  0 24G22G14G18G13G17G15G06G24G12G25G29G02
                                R18R20R16R17R08R06R09R07R19R10E19E20
 127239355.941 7  99147561.78146                  24212838.700
  24212832.740          46.700          37.850
 125442898.072 7  97747712.15046                  23870982.960
  23870978.580          45.200          38.550
 125918561.212 7  98118370.65746                  23961495.720
  23961492.500          44.350          36.450
 133027369.078 7 103657739.68345                  25314254.360
  25314254.020          42.900          32.900
 130036983.120 7 101327585.450 6                  24745184.420    24745179.580
  24745179.200          46.150          40.600
 117741711.437 8  91746817.837 7                  22405484.020    22405480.940
  22405480.160          49.050          45.650
 132889379.080 7 103550168.346 6  99235574.074 7  25288007.920    25288007.640
  25288007.120          43.150          38.700
 107509140.864 8  83773444.428 8  80282901.900 8  20458275.300    20458273.660
  20458273.080          50.050          50.000
 105773144.162 8  82420742.926 8                  20127893.780    20127889.000
  20127888.220          50.550          49.400
 116014505.106 8  90401017.666 7  86634336.476 8  22076784.840    22076784.280
  22076783.480          48.500          46.950
 131784428.700 7 102689270.427 6                  25077713.920    25077729.100
  25077726.860          43.700          37.800
 134271347.317 7 104627007.53945                  25550984.360
  25550979.160          42.900          33.150
 113666585.084 8  88407421.726 7                  21293561.800    21293565.060
  21293564.000          48.400          44.000
 130830388.239 6                                  24465933.340
                        38.650
 113428639.596 7  88222335.362 7                  21234062.500    21234065.000
  21234064.080          47.150          44.150
 130901169.905 6 101812030.394 6                  24462011.620    24462012.600
  24462011.180          41.750          37.550
 118352874.003 7  92052244.287 7                  22101562.620    22101564.040
  22101563.340          45.750          43.400
 125168735.557 7  97353504.026 6                  23456564.020    23456568.920
  23456568.860          45.150          36.000
 106830146.734 7  83090060.385 6                  20005819.280    20005822.300
  20005819.680          47.350          37.650
 113884644.182 8  88576959.889 7                  21274606.540    21274608.920
  21274607.780          48.100          45.400
 113942146.087 8  88621666.826 7                  21300229.960    21300231.420
  21300229.660          49.200          44.500
 120414269.236 7  93655584.922 5                  22589400.580    22589407.780
  22589407.000          45.600          35.200
 133498306.239 8                  99690330.319 7  25403870.820
                        49.400
 128362737.220 7                                  24426616.440
                        45.950
 15  1 27 20  3 50.0000000  0 24G22G14G18G13G17G15G06G24G12G25G29G02
                                R18R20R16R17R08R06R09R07R19R10E19E20
 127243644.696 7  99150903.66246                  24213654.800
  24213648.900          46.750          37.600
 125426929.409 7  97735269.04746                  23867944.220
  23867939.920          45.050          37.950
 125928675.776 7  98126252.10945                  23963420.420
  23963417.280          44.150          35.550
 133046809.658 7 103672888.14045                  25317953.860
  25317953.540          42.850          30.250
 130050797.667 7 101338350.030 6                  24747813.240    24747808.400
  24747808.000          46.100          40.500
 117757292.226 8  91758958.705 7                  22408448.860    22408445.880
  22408445.100          48.950          45.400
 132879782.812 7 103542690.727 6  99228408.009 7  25286181.820    25286181.580
  25286181.040          43.050          39.100
 107510641.555 8  83774613.795 8  80284022.544 8  20458560.880    20458559.240
  20458558.640          50.150          49.900
 105771864.803 8  82419746.024 8                  20127650.340    20127645.560
  20127644.780          50.550          49.300
 116002442.603 8  90391618.321 7  86625328.769 8  22074489.420    22074488.860
  22074488.040          48.300          46.950
 131765360.239 7 102674412.243 6                  25074085.040    25074100.100
  25074097.960          43.350          38.050
 134260203.081 7 104618323.74145                  25548863.680
  25548858.440          42.850          32.600
 113671388.333 7  88411157.581 7                  21294461.540    21294464.840
  21294463.780          47.950          44.300
 130808149.239 6                                  24461774.200
                        40.000
 113438262.255 7  88229819.655 7                  21235863.860    21235866.380
  21235865.440          47.000          44.150
 130919142.037 6 101826008.742 6                  24465370.180    24465371.100
  24465369.700          40.850          37.100
 118346620.739 7  92047380.645 7                  22100394.880    22100396.300
  22100395.600          46.000          43.250
 125190078.349 7  97370103.903 6                  23460563.640    23460568.620
  23460568.560          44.750          36.350
 106827674.276 7  83088137.356 6                  20005356.280    20005359.300
  20005356.680          46.850          37.600
 113896535.543 8  88586208.721 7                  21276827.960    21276830.340
  21276829.200          48.500          45.750
 113925919.317 8  88609046.007 7                  21297196.600    21297197.960
  21297196.240          49.400          44.950
 120401656.178 7  93645774.766 5                  22587034.400    22587041.520
  22587040.700          45.300          35.600
 133503809.672 8                  99694440.022 7  25404918.100
                        49.250
 128376569.566 7                                  24429248.640
                        45.950
 15  1 27 20  3 55.0000000  0 24G22G14G18G13G17G15G06G24G12G25G29G02
                                R18R20R16R17R08R06R09R07R19R10E19E20
 127247943.610 7  99154253.47346                  24214472.880
  24214466.940          46.800          37.150
 125410964.900 7  97722829.18046                  23864906.300
  23864901.980          45.500          38.300
 125938794.877 7  98134137.12146                  23965346.000
  23965342.960          44.550          36.300
 133066249.658 7 103688036.13345                  25321653.260
  25321652.980          42.750          33.250
 130064619.165 7 101349120.043 6                  24750443.400    24750438.580
  24750438.120          45.950          40.300
 117772879.142 8  91771104.344 7                  22411414.880    22411411.960
  22411411.200          49.150          45.500
 132870192.296 7 103535217.616 6  99221246.283 7  25284356.780    25284356.580
  25284356.080          42.800          38.700
 107512149.396 8  83775788.746 8  80285148.541 8  20458847.820    20458846.160
  20458845.560          50.200          50.000
 105770595.956 8  82418757.325 8                  20127408.900    20127404.120
  20127403.320          50.550          49.400
 115990386.926 8  90382224.308 7  86616326.173 8  22072195.280    22072194.700
  22072193.920          48.500          47.150
 131746288.633 7 102659551.629 6                  25070455.520    25070470.460
  25070468.340          42.950          37.600
 134249056.121 7 104609637.82945                  25546742.380
  25546737.220          42.850          31.750
 113676212.222 7  88414909.503 7                  21295365.200    21295368.500
  21295367.480          47.950          44.800
 130785905.419 6                                  24457614.140
                        38.850
 113447888.082 7  88237306.414 7                  21237665.820    21237668.360
  21237667.440          46.800          44.800
 130937122.849 6 101839993.818 6                  24468730.380    24468731.180
  24468729.860          41.050          38.150
 118340386.820 7  92042532.037 7                  22099230.740    22099232.100
  22099231.420          45.400          43.000
 125211419.773 7  97386702.734 6                  23464563.080    23464568.180
  23464567.980          44.750          36.200
 106825206.607 7  83086218.075 6                  20004894.120    20004897.180
  20004894.580          46.800          37.750
 113908442.625 8  88595469.778 7                  21279052.320    21279054.680
  21279053.560          48.850          45.650
 113909704.890 8  88596434.800 7                  21294165.500    21294166.820
  21294165.120          49.250          44.600
 120389043.267 7  93635964.747 5                  22584668.240    22584675.280
  22584674.440          45.050          35.600
 133509322.372 8                  99698556.658 7  25405967.120
                        49.250
 128390403.828 7                                  24431881.220
                        45.800
 15  1 27 20  4  0.0000000  0 24G22G14G18G13G17G15G06G24G12G25G29G02
                                R18R20R16R17R08R06R09R07R19R10E19E20
 127252253.850 7  99157612.10046                  24215293.100
  24215287.200          46.900          37.750
 125395005.746 7  97710393.47646                  23861869.400
  23861865.120          45.400          38.250
 125948919.639 7  98142026.53345                  23967272.680
  23967269.640          44.300          35.950
 133085690.202 7 103703184.49845                  25325352.720
  25325352.480          42.900          32.200
 130078448.726 7 101359896.318 6                  24753075.060    24753070.260
  24753069.780          46.150          40.350
 117788473.297 8  91783255.629 7                  22414382.300    22414379.400
  22414378.660          49.300          45.500
 132860608.741 7 103527749.892 6  99214089.734 7  25282533.040    25282532.900
  25282532.440          42.550          39.550
 107513665.455 8  83776970.087 8  80286280.659 8  20459136.340    20459134.660
  20459134.060          50.350          49.950
 105769338.752 8  82417777.691 8                  20127169.680    20127164.880
  20127164.100          50.550          49.400
 115978339.242 8  90372836.515 7  86607329.539 8  22069902.680    22069902.080
  22069901.320          48.850          47.250
 131727215.019 7 102644689.430 6                  25066825.620    25066840.400
  25066838.300          42.700          37.650
 134237907.640 7 104600950.76445                  25544620.840
  25544615.680          43.300          32.600
 113681057.947 8  88418678.389 7                  21296272.940    21296276.280
  21296275.280          48.100          45.150
 130763657.562 6                                  24453453.280
  24453467.780          37.550          34.600
 113457518.335 7  88244796.600 7                  21239468.660    21239471.160
  21239470.280          46.200          45.000
 130955113.550 6 101853986.583 6                  24472092.380    24472093.100
  24472091.860          41.400          37.350
 118334173.404 7  92037699.391 7                  22098070.380    22098071.820
  22098071.060          45.450          43.350
 125232761.143 7  97403301.517 6                  23468562.500    23468567.520
  23468567.420          44.350          36.650
 106822745.021 7  83084303.512 6                  20004433.140    20004436.240
  20004433.600          46.550          37.650
 113920366.572 8  88604743.957 7                  21281279.840    21281282.180
  21281281.080          48.750          45.700
 113893504.021 8  88583834.125 7                  21291136.960    21291138.220
  21291136.520          49.000          44.600
 120376431.564 7  93626155.645 5                  22582302.320    22582309.340
  22582308.380          45.050          35.500
 133514845.464 8                  99702681.045 7  25407018.120
                        49.300
 128404241.127 7                                  24434514.340
                        45.900
 15  1 27 20  4  5.0000000  0 24G22G14G18G13G17G15G06G24G12G25G29G02
                                R18R20R16R17R08R06R09R07R19R10E19E20
 127256577.226 7  99160980.95546                  24216115.800
  24216109.940          46.900          38.050
 125379053.734 7  97697963.35746                  23858833.840
  23858829.620          45.250          38.000
 125959051.878 7  98149921.78445                  23969200.720
  23969197.780          44.250          33.350
 133105133.043 7 103718334.69345                  25329052.700
  25329052.320          42.650          31.750
 130092288.164 7 101370680.294 6                  24755708.600    24755703.760
  24755703.320          45.850          39.900
 117804076.533 8  91795413.982 7                  22417351.460    22417348.600
  22417347.840          49.550          45.100
 132851033.948 7 103520289.010 6  99206939.756 7  25280711.000    25280710.900
  25280710.440          42.000          39.750
 107515191.533 8  83778159.243 8  80287420.271 8  20459426.760    20459425.060
  20459424.460          50.100          49.850
 105768095.040 8  82416808.569 8                  20126933.040    20126928.220
  20126927.440          50.450          49.350
 115966301.414 8  90363456.391 7  86598340.264 8  22067611.980    22067611.360
  22067610.600          48.800          47.050
 131708141.195 7 102629827.068 6                  25063195.660    25063210.440
  25063208.200          42.450          37.850
 134226759.539 7 104592263.94545                  25542499.380
  25542494.160          42.050          31.650
 113685927.372 8  88422465.720 7                  21297185.120    21297188.520
  21297187.520          48.250          45.450
 130741408.074 6                                  24449292.200    24449303.100
                        38.650          32.850
 113467154.755 7  88252291.587 7                  21241272.560    21241275.120
  21241274.300          46.300          44.750
 130973115.970 6 101867988.467 6                  24475456.580    24475457.200
  24475456.020          41.000          37.150
 118327982.472 7  92032884.231 7                  22096914.260    22096915.660
  22096914.880          45.900          43.000
 125254104.159 7  97419901.572 6                  23472562.220    23472567.320
  23472567.180          44.650          37.150
 106820291.269 7  83082395.036 6                  20003973.640    20003976.740
  20003974.080          46.850          37.700
 113932309.089 8  88614032.578 7                  21283510.860    21283513.140
  21283512.080          48.800          45.850
 113877318.532 8  88571245.421 7                  21288111.280    21288112.500
  21288110.760          49.050          44.650
 120363823.013 7  93616349.000 5                  22579937.020    22579943.960
  22579942.860          45.550          35.550
 133520380.793 8                  99706814.572 7  25408071.460
                        49.300
 128418083.222 7                                  24437148.400
                        45.750
 15  1 27 20  4 10.0000000  0 24G22G14G18G13G17G15G06G24G12G25G29G02
                                R18R20R16R17R08R06R09R07R19R10E19E20
 127260911.350 7  99164358.18946                  24216940.580
  24216934.720          46.650          37.600
 125363106.514 7  97685536.96046                  23855799.180
  23855794.960          45.250          38.200
 125969189.172 7  98157820.95245                  23971129.760
  23971126.800          44.950          35.100
 133124575.867 6 103733484.87944                  25332752.620
  25332752.200          41.800          27.650
 130106135.051 7 101381470.090 6                  24758343.560    24758338.700
  24758338.320          45.750          40.000
 117819686.413 8  91807577.530 7                  22420321.900    22420319.080
  22420318.280          49.600          45.100
 132841465.621 7 103512833.172 6  99199794.549 7  25278890.180    25278890.220
  25278889.740          42.800          39.900
 107516725.384 8  83779354.451 8  80288565.672 8  20459718.680    20459716.940
  20459716.320          50.150          49.900
 105766862.434 8  82415848.096 8                  20126698.480    20126693.660
  20126692.880          50.600          49.300
 115954271.012 8  90354082.055 7  86589356.524 8  22065322.680    22065322.040
  22065321.260          48.750          47.050
 131689064.886 7 102614962.778 6                  25059565.220    25059579.980
  25059577.680          42.700          37.650
 134215609.315 6 104583575.49645                  25540377.520
  25540372.220          41.950          32.450
 113690818.049 8  88426269.588 7                  21298101.340    21298104.740
  21298103.760          48.350          45.350
 130719154.085 6                                  24445130.200
                        39.000
 113476795.031 7  88259789.565 7                  21243077.180    21243079.820
  21243079.020          46.750          44.100
 130991127.686 6 101881997.577 5                  24478822.520    24478823.020
  24478821.900          40.750          35.700
 118321811.484 7  92028084.572 7                  22095761.840    22095763.260
  22095762.440          45.900          42.850
 125275446.385 7  97436501.015 6                  23476561.840    23476566.880
  23476566.780          44.600          37.400
 106817842.998 7  83080490.819 6                  20003515.120    20003518.220
  20003515.560          47.100          37.650
 113944268.101 8  88623334.023 7                  21285744.980    21285747.180
  21285746.160          48.650          45.700
 113861146.092 8  88558666.848 7                  21285088.000    21285089.180
  21285087.460          48.900          44.700
 120351215.233 7  93606542.939 5                  22577571.800    22577578.800
  22577577.460          45.700          34.850
 133525925.951 8                  99710955.441 7  25409126.660
                        49.250
 128431927.812 7                                  24439782.960
                        45.800
 15  1 27 20  4 15.0000000  0 24G22G14G18G13G17G15G06G24G12G25G29G02
                                R18R20R16R17R08R06R09R07R19R10E19E20
 127265257.393 7  99167744.72946                  24217767.600
  24217761.760          46.300          38.800
 125347165.306 7  97673115.24446                  23852765.680
  23852761.460          45.550          36.600
 125979332.739 7  98165725.02045                  23973059.960
  23973057.040          44.700          34.550
 133144019.853 7 103748635.95745                  25336452.720
  25336452.400          42.650          32.600
 130119990.617 7 101392266.629 6                  24760980.140    24760975.280
  24760974.940          46.000          39.800
 117835304.171 8  91819747.199 7                  22423293.880    22423291.020
  22423290.240          49.900          45.000
 132831904.915 7 103505383.282 6  99192655.059 7  25277070.820    25277070.920
  25277070.420          42.300          39.550
 107518268.154 8  83780556.610 8  80289717.743 8  20460012.260    20460010.520
  20460009.900          50.000          49.900
 105765642.100 8  82414897.194 8                  20126466.260    20126461.440
  20126460.660          50.550          49.300
 115942249.275 8  90344714.476 7  86580379.264 8  22063035.020    22063034.360
  22063033.600          48.800          47.050
 131669987.236 7 102600097.421 6                  25055934.600    25055949.260
  25055946.920          42.950          38.250
 134204458.290 6 104574886.41045                  25538255.520
  25538250.200          41.650          34.350
 113695731.199 8  88430090.947 7                  21299021.760    21299025.180
  21299024.220          48.650          45.550
 130696897.073 6                                  24440967.620
                        38.650
 113486440.380 7  88267291.499 7                  21244882.800    21244885.460
  21244884.680          46.900          44.250
 131009149.860 6 101896014.846 6                  24482190.380    24482190.800
  24482189.760          41.150          36.100
 118315661.693 7  92023301.389 7                  22094613.400    22094614.800
  22094613.980          46.400          42.850
 125296789.081 7  97453100.826 6                  23480561.500    23480566.600
  23480566.480          44.850          37.750
 106815401.362 7  83078591.779 6                  20003057.840    20003060.960
  20003058.280          47.200          37.750
 113956244.399 8  88632648.913 7                  21287982.300    21287984.480
  21287983.460          48.550          45.850
 113844987.991 8  88546099.441 7                  21282067.440    21282068.560
  21282066.860          48.650          44.850
 120338609.299 7  93596738.338 5                  22575206.960    22575213.960
  22575212.480          45.850          35.350
 133531482.152 8                  99715104.552 7  25410183.960
                        49.150
 128445776.047 7                                  24442418.180
                        45.550
 15  1 27 20  4 20.0000000  0 24G22G14G18G13G17G15G06G24G12G25G29G02
                                R18R20R16R17R08R06R09R07R19R10E19E20
 127269616.185 7  99171141.16946                  24218597.020
  24218591.180          46.000          38.050
 125331230.925 7  97660698.84746                  23849733.480
  23849729.240          45.750          37.400
 125989483.305 7  98173634.53345                  23974991.520
  23974988.560          44.300          35.600
 133163465.726 6 103763788.50745                  25340153.200
  25340153.000          41.800          34.250
 130133855.621 7 101403070.526 6                  24763618.560    24763613.700
  24763613.280          46.200          39.950
 117850930.563 8  91831923.614 7                  22426267.480    22426264.620
  22426263.860          49.800          45.150
 132822352.603 7 103497939.945 6  99185521.849 7  25275253.080    25275253.280
  25275252.760          42.250          39.750
 107519820.676 8  83781766.363 8  80290877.088 8  20460307.720    20460305.940
  20460305.340          49.800          49.950
 105764434.871 8  82413956.504 8                  20126236.540    20126231.700
  20126230.940          50.450          49.350
 115930236.986 8  90335354.266 7  86571409.065 8  22060749.180    22060748.500
  22060747.740          48.850          47.050
 131650909.069 7 102585231.665 6                  25052303.880    25052318.360
  25052316.040          42.750          38.750
 134193307.210 6 104566197.29345                  25536133.460
  25536128.160          41.550          35.600
 113700667.612 8  88433930.371 7                  21299946.580    21299949.940
  21299949.020          48.750          45.600
 130674637.751 6                                  24436804.660
                        39.250
 113496091.468 7  88274797.905 7                  21246689.480    21246692.160
  21246691.360          47.000          44.400
 131027183.303 6 101910040.887 6                  24485560.260    24485560.800
  24485559.700          41.350          36.950
 118309533.976 7  92018535.382 7                  22093469.100    22093470.460
  22093469.620          46.550          43.050
 125318132.941 7  97469701.532 6                  23484561.380    23484566.500
  23484566.420          44.900          37.850
 106812967.234 7  83076698.572 6                  20002602.000    20002605.020
  20002602.420          46.900          37.300
 113968238.926 8  88641977.984 7                  21290223.000    21290225.200
  21290224.180          48.650          45.650
 113828844.961 8  88533543.762 7                  21279049.660    21279050.800
  21279049.100          48.650          44.550
 120326005.935 7  93586935.736 5                  22572842.600    22572849.640
  22572848.000          45.700          34.750
 133537050.165 8                  99719262.476 7  25411243.500
                        49.200
 128459628.715 7                                  24445054.240
                        45.300
 15  1 27 20  4 25.0000000  0 24G22G14G18G13G17G15G06G24G12G25G29G02
                                R18R20R16R17R08R06R09R07R19R10E19E20
 127273984.701 7  99174545.21246                  24219428.320
  24219422.400          46.100          37.950
 125315300.387 7  97648285.45546                  23846702.000
  23846697.760          45.900          36.950
 125999637.946 7  98181547.21445                  23976923.880
  23976920.920          44.700          34.200
 133182910.510 7 103778940.15845                  25343853.500
  25343853.440          42.400          31.950
 130147727.054 7 101413879.453 6                  24766258.180    24766253.360
  24766252.860          46.100          39.750
 117866562.641 8  91844104.452 7                  22429242.180    22429239.340
  22429238.540          50.000          45.250
 132812805.835 7 103490500.901 6  99178392.755 7  25273436.400    25273436.600
  25273436.140          42.050          39.100
 107521379.889 8  83782981.332 8  80292041.436 8  20460604.420    20460602.640
  20460602.040          49.700          49.950
 105763237.708 8  82413023.656 8                  20126008.720    20126003.900
  20126003.140          50.600          49.250
 115918231.161 8  90325999.084 7  86562443.680 8  22058464.520    22058463.860
  22058463.100          48.950          47.050
 131631827.444 7 102570363.222 6                  25048672.480    25048686.860
  25048684.600          42.400          38.600
 134182153.093 6 104557505.83745                  25534010.880
  25534005.580          41.350          34.000
 113705624.259 8  88437785.533 7                  21300875.140    21300878.520
  21300877.600          48.850          45.350
 130652373.175 6                                  24432640.760
                        39.600
 113505745.375 7  88282306.513 7                  21248496.680    21248499.380
  21248498.580          46.600          44.400
 131045225.001 6 101924073.315 6                  24488931.780    24488932.440
  24488931.220          41.950          37.000
 118303425.134 7  92013784.061 7                  22092328.320    22092329.740
  22092328.820          46.400          43.050
 125339474.996 7  97486300.839 6                  23488560.920    23488566.080
  23488566.020          44.400          38.100
 106810537.591 7  83074808.871 6                  20002146.960    20002150.060
  20002147.400          46.850          37.650
 113980248.632 8  88651318.856 7                  21292466.540    21292468.760
  21292467.720          48.600          45.450
 113812713.963 8  88520997.429 7                  21276034.120    21276035.260
  21276033.580          48.850          44.650
 120313402.348 7  93577132.960 5                  22570478.200    22570485.280
  22570483.420          45.700          35.450
 133542627.024 8                  99723426.999 7  25412304.720
                        49.100
 128473482.841 7                                  24447690.600
                        45.300
 15  1 27 20  4 30.0000000  0 24G22G14G18G13G17G15G06G24G12G25G29G02
                                R18R20R16R17R08R06R09R07R19R10E19E20
 127278365.659 7  99177958.94946                  24220262.000
  24220256.020          45.850          37.850
 125299376.463 7  97635877.20446                  23843671.780
  23843667.540          45.950          37.750
 126009799.340 7  98189465.19046                  23978857.540
  23978854.600          44.150          36.050
 133202356.932 7 103794093.13445                  25347554.100
  25347553.960          43.350          30.350
 130161607.658 7 101424695.508 6                  24768899.580    24768894.760
  24768894.240          46.250          39.250
 117882203.074 8  91856291.803 7                  22432218.500    22432215.620
  22432214.840          49.900          45.200
 132803267.257 6 103483068.237 6  99171269.762 7  25271621.260    25271621.460
  25271621.100          41.800          38.750
 107522948.557 8  83784203.675 8  80293212.847 8  20460902.940    20460901.160
  20460900.560          49.650          49.900
 105762053.344 8  82412100.777 8                  20125783.340    20125778.500
  20125777.760          50.650          49.200
 115906234.541 8  90316651.082 7  86553485.178 8  22056181.600    22056181.000
  22056180.220          49.000          46.900
 131612745.081 7 102555494.190 6                  25045040.900    25045055.200
  25045052.860          42.350          38.550
 134170998.747 6 104548814.16145                  25531888.240
  25531882.900          41.750          35.200
 113710603.942 8  88441658.620 7                  21301808.060    21301811.320
  21301810.500          49.050          45.250
 130630106.192 6                                  24428476.340
                        39.950
 113515404.869 7  88289819.441 7                  21250304.920    21250307.620
  21250306.820          46.700          44.500
 131063277.618 6 101938114.248 6                  24492305.300    24492306.080
  24492304.800          39.950          36.800
 118297338.182 7  92009049.769 7                  22091191.600    22091193.000
  22091192.100          46.600          43.250
 125360817.951 7  97502900.844 6                  23492560.620    23492565.860
  23492565.780          44.200          38.200
 106808115.112 7  83072924.718 6                  20001693.240    20001696.380
  20001693.720          46.650          37.700
 113992276.279 8  88660673.692 7                  21294713.460    21294715.600
  21294714.580          48.650          45.450
 113796597.905 8  88508462.722 7                  21273021.380    21273022.540
  21273020.860          48.600          44.850
 120300801.262 7  93567332.129 5                  22568114.280    22568121.380
  22568119.360          45.750          35.300
 133548215.428 8                  99727600.161 7  25413368.160
                        49.100
 128487341.116 7                                  24450327.780
                        45.250
 15  1 27 20  4 35.0000000  0 24G22G14G18G13G17G15G06G24G12G25G29G02
                                R18R20R16R17R08R06R09R07R19R10E19E20
 127282756.349 7  99181380.26446                  24221097.520
  24221091.540          45.900          37.650
 125283456.441 7  97623471.98645                  23840642.320
  23840638.000          46.250          35.550
 126019964.778 7  98197386.31245                  23980791.920
  23980789.020          43.950          33.100
 133221802.308 7 103809245.28945                  25351254.540
  25351254.380          44.050          30.700
 130175494.672 7 101435516.566 6                  24771542.200    24771537.340
  24771536.800          46.350          39.400
 117897849.175 8  91868483.565 7                  22435195.920    22435192.960
  22435192.220          50.200          45.250
 132793734.210 7 103475639.893 6  99164150.924 7  25269807.180    25269807.380
  25269807.000          42.800          38.500
 107524523.909 8  83785431.220 8  80294389.248 8  20461202.720    20461200.940
  20461200.340          49.800          49.900
 105760879.125 8  82411185.803 8                  20125559.880    20125555.060
  20125554.300          50.650          49.300
 115894244.431 8  90307308.152 7  86544531.546 8  22053899.960    22053899.340
  22053898.580          49.100          47.000
 131593659.294 7 102540622.498 6                  25041408.740    25041422.920
  25041420.740          42.250          38.650
 134159841.379 7 104540120.14146                  25529765.060
  25529759.620          42.300          36.550
 113715603.881 8  88445547.461 7                  21302744.720    21302747.980
  21302747.160          48.950          45.250
 130607833.881 6                                  24424310.900
                        38.800
 113525067.239 7  88297334.611 7                  21252113.700    21252116.420
  21252115.620          46.650          44.050
 131081338.570 6 101952161.654 6                  24495680.360    24495681.320
  24495679.920          39.700          36.500
 118291270.193 7  92004330.222 7                  22090058.440    22090059.820
  22090058.960          46.600          43.400
 125382158.982 7  97519499.349 6                  23496560.000    23496565.300
  23496565.180          44.750          38.500
 106805697.159 7  83071044.094 6                  20001240.380    20001243.540
  20001240.920          46.300          37.350
 114004319.172 8  88670040.374 7                  21296963.240    21296965.320
  21296964.300          48.950          45.300
 113780493.971 8  88495937.450 7                  21270010.860    21270012.060
  21270010.420          48.450          44.750
 120288199.879 7  93557531.057 5                  22565750.240    22565757.400
  22565755.240          45.750          35.350
 133553812.700 8                  99731779.944 7  25414433.280
                        49.200
 128501200.880 7                                  24452965.200
                        45.600
 15  1 27 20  4 40.0000000  0 24G22G14G18G13G17G15G06G24G12G25G29G02
                                R18R20R16R17R08R06R09R07R19R10E19E20
 127287160.032 7  99184811.69146                  24221935.440
  24221929.540          45.650          38.300
 125267543.581 7  97611072.36145                  23837614.220
  23837609.840          46.300          35.950
 126030137.578 7  98205313.14545                  23982727.700
  23982724.860          44.700          33.500
 133241249.849 7 103824399.16244                  25354955.360
  25354955.220          43.200          28.850
 130189391.353 7 101446345.147 6                  24774186.680    24774181.760
  24774181.220          46.300          38.850
 117913504.196 8  91880682.281 7                  22438175.040    22438172.040
  22438171.280          50.200          45.050
 132784209.942 7 103468218.399 6  99157038.665 7  25267994.840    25267994.980
  25267994.580          42.500          37.300
 107526109.416 8  83786666.682 8  80295573.227 8  20461504.440    20461502.660
  20461502.040          50.000          49.750
 105759718.277 8  82410281.250 8                  20125338.960    20125334.140
  20125333.400          50.600          49.100
 115882264.091 8  90297972.834 7  86535585.194 8  22051620.160    22051619.580
  22051618.820          49.150          46.950
 131574573.339 7 102525750.682 6                  25037776.520    25037790.640
  25037788.420          42.050          38.300
 134148684.318 6 104531426.36445                  25527641.860
  25527636.520          41.850          35.550
 113720627.347 8  88449454.612 7                  21303685.820    21303689.060
  21303688.240          48.750          45.450
 130585559.725 6                                  24420145.220
                        37.950
 113534735.718 7  88304854.539 7                  21253923.640    21253926.360
  21253925.520          46.650          43.750
 131099411.016 6 101966217.993 6                  24499057.540    24499058.540
  24499057.200          40.900          37.050
 118285224.597 7  91999628.100 7                  22088929.480    22088930.820
  22088929.960          46.650          43.350
 125403501.716 7  97536099.168 6                  23500559.640    23500565.000
  23500564.940          44.700          38.350
 106803286.977 7  83069169.517 6                  20000789.000    20000792.200
  20000789.580          46.550          37.950
 114016380.532 8  88679421.428 7                  21299216.480    21299218.460
  21299217.460          48.750          45.400
 113764405.588 8  88483424.276 7                  21267003.280    21267004.480
  21267002.880          48.800          44.850
 120275601.520 7  93547732.354 5                  22563386.780    22563394.020
  22563391.740          45.800          35.400
 133559422.091 8                  99735968.776 7  25415500.680
                        49.100
 128515065.338 7                                  24455603.540
                        45.650
 15  1 27 20  4 45.0000000  0 24G22G14G18G13G17G15G06G24G12G25G29G02
                                R18R20R16R17R08R06R09R07R19R10E19E20
 127291576.229 7  99188252.87446                  24222775.780
  24222769.920          45.600          37.850
 125251637.427 7  97598677.95846                  23834587.400
  23834583.040          46.200          37.900
 126040317.186 7  98213245.30145                  23984664.800
  23984661.800          44.550          33.600
 133260699.121 7 103839554.33744                  25358656.420
  25358656.260          42.700          29.850
 130203297.291 7 101457180.949 6                  24776832.880    24776827.960
  24776827.400          46.300          39.250
 117929167.665 8  91892887.577 7                  22441155.780    22441152.680
  22441151.940          50.200          45.250
 132774694.053 6 103460803.409 6  99149932.650 7  25266184.060    25266184.080
  25266183.700          41.200          37.650
 107527704.493 8  83787909.597 8  80296764.358 8  20461807.980    20461806.180
  20461805.580          49.950          49.750
 105758570.346 8  82409386.757 8                  20125120.500    20125115.700
  20125114.960          50.550          49.150
 115870293.067 8  90288644.766 7  86526645.801 8  22049342.160    22049341.560
  22049340.840          49.200          46.900
 131555486.819 7 102510878.415 6                  25034144.240    25034158.160
  25034155.980          42.350          38.750
 134137527.100 6 104522732.46145                  25525518.680
  25525513.360          40.950          31.900
 113725673.900 8  88453379.707 7                  21304631.240    21304634.480
  21304633.680          48.700          45.350
 130563283.240 6                                  24415979.000
                        36.450
 113544409.878 7  88312378.886 7                  21255734.620    21255737.380
  21255736.480          46.300          43.950
 131117494.394 6 101980282.845 5                  24502436.800    24502437.960
  24502436.500          40.950          35.750
 118279200.993 7  91994943.065 7                  22087804.640    22087805.940
  22087805.120          46.250          43.700
 125424845.209 7  97552699.586 6                  23504559.480    23504564.780
  23504564.780          44.950          38.050
 106800884.237 7  83067300.699 6                  20000339.020    20000342.180
  20000339.620          46.550          37.550
 114028459.909 8  88688816.499 7                  21301473.060    21301475.000
  21301474.000          48.700          45.600
 113748332.287 8  88470922.816 7                  21263998.540    21263999.760
  21263998.140          48.700          44.900
 120263005.798 7  93537935.689 5                  22561023.800    22561031.040
  22561028.760          45.700          35.800
 133565043.124 8                  99740166.301 7  25416570.280
                        49.000
 128528934.001 7                                  24458242.660
                        45.650
 15  1 27 20  4 50.0000000  0 24G22G14G18G13G17G15G06G24G12G25G29G02
                                R18R20R16R17R08R06R09R07R19R10E19E20
 127296002.252 7  99191701.71046                  24223618.000
  24223612.200          45.650          37.800
 125235735.319 7  97586286.70546                  23831561.320
  23831557.000          46.250          36.600
 126050500.938 7  98221180.70445                  23986602.740
  23986599.620          44.250          34.800
 133280147.440 7 103854708.75845                  25362357.380
  25362357.260          42.900          31.300
 130217209.806 7 101468021.876 6                  24779480.340    24779475.420
  24779474.860          46.250          39.200
 117944836.885 8  91905097.360 7                  22444137.620    22444134.420
  22444133.700          50.350          45.300
 132765183.834 6 103453392.836 6  99142830.863 7  25264374.360    25264374.320
  25264373.860          40.700          37.600
 107529306.480 8  83789157.902 8  80297960.653 8  20462112.820    20462111.020
  20462110.440          50.100          49.850
 105757432.617 8  82408500.217 8                  20124903.980    20124899.200
  20124898.460          50.550          49.200
 115858328.697 8  90279321.890 7  86517711.377 8  22047065.440    22047064.840
  22047064.100          49.150          47.000
 131536397.033 7 102496003.601 6                  25030511.320    25030525.120
  25030522.860          43.250          38.900
 134126367.087 6 104514036.41845                  25523394.920
  25523389.740          41.350          31.800
 113730740.882 8  88457320.689 7                  21305580.460    21305583.740
  21305582.960          48.450          45.650
 130541001.688 6                                  24411811.840
                        36.600
 113554087.061 7  88319905.588 7                  21257546.180    21257548.920
  21257548.020          46.200          44.150
 131135586.019 6 101994354.161 6                  24505817.680    24505818.720
  24505817.340          41.750          36.650
 118273196.483 7  91990272.898 7                  22086683.380    22086684.640
  22086683.860          46.350          43.800
 125446186.867 7  97569298.587 6                  23508559.000    23508564.260
  23508564.300          44.400          38.050
 106798486.034 7  83065435.444 6                  19999889.840    19999893.120
  19999890.500          46.300          37.850
 114040554.702 8  88698223.558 7                  21303732.500    21303734.400
  21303733.420          48.300          45.700
 113732271.357 8  88458430.987 7                  21260996.100    21260997.340
  21260995.720          48.850          44.750
 120250409.929 7  93528138.917 5                  22558660.800    22558668.160
  22558665.800          45.700          35.900
 133570673.130 8                  99744370.528 7  25417641.580
                        48.800
 128542804.271 7                                  24460882.100
                        45.650
 15  1 27 20  4 55.0000000  0 24G22G14G18G13G17G15G06G24G12G25G29G02
                                R18R20R16R17R08R06R09R07R19R10E19E20
 127300440.841 7  99195160.33746                  24224462.640
  24224456.840          45.850          38.100
 125219839.938 7  97573900.70046                  23828536.520
  23828532.160          46.050          36.500
 126060691.523 7  98229121.41645                  23988541.900
  23988538.880          44.200          33.450
 133299597.469 7 103869864.55644                  25366058.640
  25366058.600          43.200          25.050
 130231131.546 7 101478869.987 6                  24782129.580    24782124.640
  24782124.060          46.000          39.000
 117960514.558 8  91917313.726 7                  22447121.040    22447117.800
  22447117.020          50.300          45.250
 132755682.065 6 103445988.852 6  99135735.381 7  25262566.260    25262566.180
  25262565.720          40.800          38.400
 107530918.010 8  83790413.640 8  80299164.056 8  20462419.460    20462417.680
  20462417.100          50.250          49.800
 105756307.795 8  82407623.728 8                  20124689.920    20124685.140
  20124684.400          50.450          49.250
 115846373.662 8  90270006.288 7  86508783.920 8  22044790.480    22044789.860
  22044789.160          49.200          47.050
 131517306.692 7 102481128.332 6                  25026878.340    25026891.900
  25026889.820          44.250          38.750
 134115206.981 6 104505340.27945                  25521271.180
  25521266.020          41.150          34.600
 113735830.896 7  88461279.596 7                  21306533.980    21306537.280
  21306536.560          47.950          45.450
 130518717.877 5                                  24407644.300
                        35.950
 113563769.858 7  88327436.645 7                  21259358.800    21259361.580
  21259360.640          46.250          44.050
 131153688.667 6 102008434.013 6                  24509200.600    24509201.580
  24509200.240          40.750          37.050
 118267213.903 7  91985619.793 7                  22085566.200    22085567.460
  22085566.680          46.050          43.950
 125467529.502 7  97585898.321 6                  23512558.600    23512563.900
  23512563.980          43.750          37.950
 106796095.159 7  83063575.862 6                  19999442.080    19999445.440
  19999442.780          46.650          37.200
 114052667.439 8  88707644.576 7                  21305995.220    21305997.180
  21305996.200          48.350          45.550
 113716225.476 8  88445950.852 7                  21257996.480    21257997.720
  21257996.100          48.400          44.650
 120237816.517 7  93518344.068 6                  22556298.240    22556305.720
  22556303.260          45.850          36.150
 133576314.794 8                  99748583.453 7  25418715.080
                        48.800
 128556678.773 7                                  24463522.340
                        45.400
 15  1 27 20  5  0.0000000  0 24G22G14G18G13G17G15G06G24G12G25G29G02
                                R18R20R16R17R08R06R09R07R19R10E19E20
 127304891.126 7  99198628.10146                  24225309.500
  24225303.800          46.050          38.550
 125203950.531 7  97561519.35646                  23825512.840
  23825508.480          46.050          37.850
 126070888.089 7  98237066.77045                  23990482.220
  23990479.180          44.400          31.600
 133319048.410 7 103885021.08044                  25369760.140
  25369759.940          43.250          28.150
 130245061.686 7 101489724.645 6                  24784780.400    24784775.460
  24784774.880          46.200          39.300
 117976199.828 8  91929536.020 7                  22450105.900    22450102.560
  22450101.820          50.250          45.250
 132746187.840 6 103438590.765 6  99128645.541 7  25260759.540    25260759.460
  25260759.000          40.600          38.650
 107532538.282 8  83791676.186 8  80300374.015 8  20462727.800    20462726.000
  20462725.420          50.300          49.850
 105755195.063 8  82406756.670 8                  20124478.160    20124473.400
  20124472.660          50.550          49.250
 115834427.127 8  90260697.312 7  86499862.824 8  22042517.140    22042516.520
  22042515.780          49.250          47.050
 131498214.975 7 102466251.989 6                  25023245.100    25023258.380
  25023256.500          44.150          39.050
 134104046.013 7 104496643.45045                  25519147.320
  25519142.060          42.000          34.550
 113740943.166 8  88465255.807 7                  21307491.640    21307495.040
  21307494.320          48.400          45.300
 130496430.925 6                                  24403476.240
                        37.800
 113573457.552 7  88334971.517 7                  21261172.360    21261175.120
  21261174.180          46.650          44.200
 131171801.485 6 102022521.729 6                  24512585.400    24512586.380
  24512585.040          39.900          36.800
 118261252.457 7  91980983.124 7                  22084452.920    22084454.240
  22084453.440          45.850          43.700
 125488872.291 7  97602498.183 6                  23516558.280    23516563.580
  23516563.740          43.900          37.650
 106793710.842 7  83061721.399 6                  19998995.580    19998998.920
  19998996.260          46.700          37.000
 114064797.161 8  88717078.794 7                  21308261.160    21308263.120
  21308262.160          48.600          45.450
 113700193.943 8  88433481.898 7                  21254999.540    21255000.760
  21254999.160          48.550          44.450
 120225224.899 7  93508550.610 6                  22553936.060    22553943.540
  22553941.100          45.600          36.200
 133581967.289 8                  99752804.484 7  25419790.660
                        48.800
 128570556.660 7                                  24466163.220
                        45.550
 15  1 27 20  5  5.0000000  0 24G22G14G18G13G17G15G06G24G12G25G29G02
                                R18R20R16R17R08R06R09R07R19R10E19E20
 127309353.295 7  99202105.10846                  24226158.680
  24226152.880          45.700          37.400
 125188067.323 7  97549142.83246                  23822490.340
  23822486.000          45.900          37.000
 126081090.841 7  98245016.97145                  23992423.740
  23992420.800          44.450          31.350
 133338500.479 7 103900178.44945                  25373461.800
  25373461.760          42.700          30.850
 130259000.436 7 101500586.019 6                  24787432.840    24787427.960
  24787427.340          46.050          39.600
 117991892.924 8  91941764.413 7                  22453092.240    22453088.860
  22453088.100          50.050          45.250
 132736701.447 6 103431198.809 6  99121561.570 7  25258954.260    25258954.300
  25258953.740          41.150          38.350
 107534167.545 8  83792945.748 8  80301590.665 8  20463037.840    20463036.020
  20463035.460          50.200          49.850
 105754094.627 8  82405899.200 8                  20124268.720    20124263.960
  20124263.240          50.350          49.200
 115822489.339 8  90251395.148 7  86490948.251 8  22040245.500    22040244.820
  22040244.080          49.350          46.900
 131479122.128 7 102451374.765 6                  25019611.660    25019624.760
  25019622.940          43.750          39.000
 134092884.342 6 104487946.07045                  25517023.240
  25517018.140          41.350          34.100
 113746077.920 8  88469249.508 7                  21308453.560    21308456.980
  21308456.260          48.400          45.150
 130474141.151 6 101479895.06915                  24399307.500    24399324.240
  24399319.640          37.550          35.250
 113583150.330 7  88342510.351 7                  21262986.840    21262989.640
  21262988.660          46.850          44.350
 131189924.642 6 102036617.513 6                  24515972.120    24515973.080
  24515971.780          40.450          37.000
 118255312.321 7  91976363.026 7                  22083343.600    22083344.980
  22083344.180          46.000          43.800
 125510215.265 7  97619098.194 6                  23520557.980    23520563.360
  23520563.500          44.050          38.050
 106791333.299 7  83059872.207 6                  19998550.320    19998553.800
  19998551.020          46.550          37.800
 114076944.380 8  88726526.626 7                  21310530.340    21310532.320
  21310531.380          48.750          45.450
 113684176.893 8  88421024.201 7                  21252005.300    21252006.540
  21252004.940          48.450          44.800
 120212635.328 7  93498758.732 6                  22551574.200    22551581.780
  22551579.300          45.300          36.100
 133587630.803 8                  99757033.722 7  25420868.340
                        48.700
 128584438.143 7                                  24468804.780
                        45.450
 15  1 27 20  5 10.0000000  0 24G22G14G18G13G17G15G06G24G12G25G29G02
                                R18R20R16R17R08R06R09R07R19R10E19E20
 127313824.505 7  99205589.17046                  24227009.540
  24227003.740          44.950          38.100
 125172187.394 7  97536768.85846                  23819468.480
  23819464.100          45.450          36.200
 126091296.871 7  98252969.73945                  23994365.860
  23994363.020          44.250          33.250
 133357950.721 6 103915334.39245                  25377163.060
  25377163.040          41.800          34.400
 130272944.859 7 101511451.800 6                  24790086.380    24790081.500
  24790080.840          46.150          39.250
 118007590.921 8  91953996.615 7                  22456079.500    22456076.080
  22456075.340          50.000          45.300
 132727219.976 6 103423810.656 6  99114481.272 7  25257149.960    25257149.960
  25257149.360          40.600          37.600
 107535802.854 8  83794220.013 8  80302811.840 8  20463349.020    20463347.220
  20463346.640          50.300          49.900
 105753003.616 8  82405049.057 8                  20124061.100    20124056.340
  20124055.620          50.300          49.200
 115810557.400 8  90242097.535 7  86482038.047 8  22037974.940    22037974.260
  22037973.480          49.300          46.800
 131460025.242 7 102436494.398 6                  25015977.420    25015990.400
  25015988.620          43.350          39.450
 134081719.033 6 104479245.86945                  25514898.500
  25514893.260          41.500          30.950
 113751232.190 8  88473258.381 7                  21309419.080    21309422.600
  21309421.840          48.000          45.150
 130451845.512 6 101462535.103 6                  24395137.800    24395152.320
  24395151.420          36.900          35.900
 113592845.195 7  88350050.799 7                  21264801.740    21264804.520
  21264803.500          46.750          43.800
 131208055.261 6 102050719.112 6                  24519360.220    24519361.220
  24519359.900          41.350          36.100
 118249390.660 7  91971757.287 7                  22082237.760    22082239.180
  22082238.380          45.650          44.050
 125531555.690 7  97635696.220 6                  23524557.180    23524562.640
  23524562.760          44.600          36.750
 106788959.587 7  83058025.972 6                  19998105.760    19998109.300
  19998106.520          46.650          37.600
 114089105.931 8  88735985.598 7                  21312802.240    21312804.200
  21312803.240          48.950          45.250
 113668171.438 8  88408575.509 7                  21249013.220    21249014.500
  21249012.880          48.150          45.050
 120200044.789 7  93488966.099 6                  22549212.260    22549219.860
  22549217.340          45.650          36.300
 133593302.474 8                  99761269.062 7  25421947.580
                        48.650
 128598320.384 7                                  24471446.480
                        45.650
 15  1 27 20  5 15.0000000  0 24G22G14G18G13G17G15G06G24G12G25G29G02
                                R18R20R16R17R08R06R09R07R19R10E19E20
 127318309.861 7  99209084.23046                  24227863.040
  24227857.260          44.900          37.900
 125156315.955 7  97524401.51946                  23816448.200
  23816443.840          45.550          37.100
 126101511.302 7  98260929.00745                  23996309.600
  23996306.780          43.950          35.650
 133377404.258 6 103930492.87445                  25380864.980
  25380864.900          41.900          32.900
 130286900.129 7 101522326.034 6                  24792741.940    24792737.140
  24792736.460          46.050          39.050
 118023298.966 8  91966236.651 7                  22459068.680    22459065.200
  22459064.460          49.900          45.250
 132717748.634 6 103416430.391 6  99107408.505 7  25255347.560    25255347.700
  25255346.960          40.300          37.150
 107537449.420 8  83795503.051 8  80304041.416 8  20463662.360    20463660.540
  20463659.980          50.350          49.850
 105751927.151 8  82404210.255 8                  20123856.240    20123851.520
  20123850.780          50.300          49.200
 115798636.426 8  90232808.473 7  86473136.031 8  22035706.500    22035705.800
  22035705.000          49.300          46.850
 131440929.439 7 102421614.900 6                  25012343.380    25012356.260
  25012354.460          42.800          39.250
 134070555.341 7 104470546.88845                  25512774.060
  25512768.640          42.350          35.850
 113756411.232 8  88477286.531 7                  21310389.280    21310392.800
  21310392.080          48.000          45.250
 130429549.410 5                                  24390967.940
                        34.700
 113602547.552 7  88357597.079 7                  21266618.040    21266620.820
  21266619.760          46.800          43.800
 131226198.479 6 102064830.529 5                  24522750.720    24522751.700
  24522750.360          40.250          35.300
 118243492.552 7  91967169.881 7                  22081136.320    22081137.780
  22081136.980          46.300          43.750
 125552898.757 7  97652296.319 6                  23528556.860    23528562.300
  23528562.540          44.050          37.350
 106786594.856 7  83056186.759 6                  19997662.920    19997666.440
  19997663.680          46.550          38.050
 114101287.123 8  88745459.844 7                  21315077.820    21315079.740
  21315078.780          48.650          45.300
 113652182.862 8  88396139.967 7                  21246024.280    21246025.560
  21246024.000          48.450          44.900
 120187458.528 7  93479176.814 6                  22546851.120    22546858.660
  22546856.220          45.800          36.400
 133598987.424 8                  99765514.303 7  25423029.340
                        48.600
 128612208.454 7                                  24474089.280
                        45.850
 15  1 27 20  5 20.0000000  0 24G22G14G18G13G17G15G06G24G12G25G29G02
                                R18R20R16R17R08R06R09R07R19R10E19E20
 127322805.279 7  99212587.14746                  24228718.480
  24228712.720          45.200          38.600
 125140448.885 7  97512037.57646                  23813428.780
  23813424.380          45.700          36.850
 126111730.070 7  98268891.65545                  23998254.160
  23998251.360          44.800          32.650
 133396857.030 6 103945650.77844                  25384566.760
  25384566.740          41.550          29.950
 130300862.140 7 101533205.527 6                  24795398.800    24795394.040
  24795393.300          45.900          39.200
 118039012.978 8  91978481.332 7                  22462058.980    22462055.480
  22462054.720          50.050          45.250
 132708283.293 6 103409054.815 6  99100340.246 7  25253546.200    25253546.460
  25253545.700          41.150          36.600
 107539103.195 8  83796791.709 8  80305276.384 8  20463977.040    20463975.240
  20463974.660          50.200          49.800
 105750861.140 8  82403379.598 8                  20123653.380    20123648.660
  20123647.920          50.300          49.100
 115786722.383 8  90223524.811 7  86464239.194 8  22033439.360    22033438.600
  22033437.820          49.350          46.900
 131421830.733 7 102406733.121 6                  25008708.780    25008721.560
  25008719.640          43.700          38.500
 134059389.166 7 104461846.01145                  25510649.180
  25510643.780          42.400          33.350
 113761610.854 8  88481330.684 7                  21311363.320    21311366.820
  21311366.120          48.050          44.900
 130407248.613 6                                  24386797.240    24386811.680
  24386809.960          36.300          35.650
 113612253.049 7  88365145.799 7                  21268434.960    21268437.680
  21268436.620          46.300          43.900
 131244350.149 6 102078948.511 5                  24526142.760    24526143.740
  24526142.380          39.700          34.950
 118237613.977 7  91962597.639 7                  22080038.520    22080039.980
  22080039.200          46.400          43.600
 125574240.101 7  97668895.044 6                  23532556.280    23532561.640
  23532561.960          44.700          36.400
 106784235.039 7  83054351.339 6                  19997221.000    19997224.540
  19997221.740          46.350          38.150
 114113483.775 8  88754946.120 7                  21317356.280    21317358.160
  21317357.200          48.150          45.300
 113636206.975 8  88383714.273 7                  21243037.720    21243039.020
  21243037.460          48.250          44.900
 120174872.323 7  93469387.558 6                  22544489.980    22544497.560
  22544495.080          45.950          36.900
 133604681.565 8                  99769766.435 7  25424112.840
                        48.600
 128626098.262 7                                  24476732.440
                        45.800
 15  1 27 20  5 25.0000000  0 24G22G14G18G13G17G15G06G24G12G25G29G02
                                R18R20R16R17R08R06R09R07R19R10E19E20
 127327313.526 7  99216100.05346                  24229576.320
  24229570.620          45.000          38.250
 125124588.996 7  97499679.22846                  23810410.720
  23810406.340          45.850          36.800
 126121955.943 7  98276859.85345                  24000200.120
  24000197.400          44.750          32.600
 133416311.907 6 103960810.34245                  25388268.900
  25388268.940          41.900          31.050
 130314833.669 7 101544092.433 6                  24798057.440    24798052.700
  24798051.980          45.750          38.850
 118054735.718 8  91990732.822 7                  22465050.900    22465047.400
  22465046.660          49.900          45.050
 132698826.783 6 103401686.104 6  99093278.600 7  25251746.700    25251746.920
  25251746.180          41.850          36.400
 107540766.929 8  83798088.131 8  80306518.776 8  20464293.640    20464291.840
  20464291.260          50.150          49.800
 105749808.344 8  82402559.247 8                  20123453.000    20123448.320
  20123447.580          50.300          49.100
 115774818.051 8  90214248.719 7  86455349.598 8  22031174.040    22031173.280
  22031172.520          49.150          46.950
 131402731.882 7 102391851.196 6                  25005074.180    25005086.700
  25005084.880          44.200          37.700
 134048223.351 6 104453145.41045                  25508524.380
  25508518.840          41.750          34.850
 113766833.884 8  88485393.055 7                  21312341.760    21312345.280
  21312344.540          48.400          44.800
 130384945.949 5                                  24382626.060
                        34.350
 113621964.674 7  88372699.289 7                  21270253.020    21270255.760
  21270254.680          47.000          44.050
 131262513.025 6 102093075.211 6                  24529536.900    24529537.960
  24529536.540          39.550          36.250
 118231757.697 7  91958042.748 7                  22078944.880    22078946.340
  22078945.580          46.400          43.800
 125595582.634 7  97685494.724 5                  23536555.940    23536561.240
  23536561.580          44.500          35.950
 106781882.948 7  83052521.954 6                  19996780.520    19996784.000
  19996781.240          46.400          37.650
 114125698.624 8  88764446.563 7                  21319638.140    21319640.000
  21319639.000          48.400          45.300
 113620246.711 8  88371300.747 7                  21240054.100    21240055.420
  21240053.860          48.250          45.000
 120162289.048 7  93459600.576 6                  22542129.380    22542137.060
  22542134.480          46.200          36.250
 133610387.679 8                  99774027.487 7  25425198.620
                        48.600
 128639992.631 7                                  24479376.460
                        45.800
 15  1 27 20  5 30.0000000  0 24G22G14G18G13G17G15G06G24G12G25G29G02
                                R18R20R16R17R08R06R09R07R19R10E19E20
 127331831.874 7  99219620.82946                  24230436.080
  24230430.380          45.250          37.900
 125108733.574 7  97487324.35346                  23807393.560
  23807389.180          45.850          36.650
 126132186.158 7  98284831.43645                  24002146.900
  24002144.180          44.400          34.050
 133435765.977 7 103975969.26444                  25391970.920
  25391971.060          43.050          29.850
 130328811.943 7 101554984.592 6                  24800717.400    24800712.680
  24800711.940          45.400          39.050
 118070464.431 8  92002988.957 7                  22468043.960    22468040.480
  22468039.740          49.900          45.250
 132689376.397 6 103394322.113 6  99086221.494 7  25249948.380    25249948.580
  25249947.800          41.350          37.500
 107542437.889 8  83799390.175 8  80307766.575 8  20464611.620    20464609.820
  20464609.220          50.150          49.800
 105748766.034 8  82401747.062 8                  20123254.640    20123249.980
  20123249.220          50.300          49.150
 115762920.667 8  90204978.035 7  86446465.195 8  22028910.040    22028909.280
  22028908.520          49.000          46.900
 131383630.125 7 102376966.990 6                  25001439.040    25001451.340
  25001449.620          43.650          38.250
 134037055.079 7 104444442.90045                  25506399.100
  25506393.440          42.200          32.950
 113772077.543 8  88489471.452 7                  21313324.100    21313327.560
  21313326.780          48.650          44.800
 130362638.717 5                                  24378454.140
                        34.950
 113631679.512 7  88380255.262 7                  21272071.700    21272074.400
  21272073.360          47.250          44.350
 131280684.420 6 102107208.487 6                  24532932.660    24532933.700
  24532932.340          40.900          37.750
 118225920.949 7  91953503.055 7                  22077854.880    22077856.380
  22077855.580          46.600          43.950
 125616923.550 7  97702093.141 5                  23540555.220    23540560.500
  23540560.800          44.800          35.450
 106779535.744 7  83050696.350 6                  19996340.960    19996344.500
  19996341.700          46.850          38.250
 114137928.933 8  88773959.019 7                  21321922.820    21321924.640
  21321923.700          48.400          45.300
 113604299.216 8  88358897.141 7                  21237072.840    21237074.180
  21237072.660          48.650          44.750
 120149706.014 7  93449813.777 6                  22539768.820    22539776.440
  22539773.920          45.800          37.150
 133616103.011 8                  99778295.424 7  25426286.160
                        48.700
 128653888.763 7                                  24482020.860
                        45.900
 15  1 27 20  5 35.0000000  0 24G22G14G18G13G17G15G06G24G12G25G29G02
                                R18R20R16R17R08R06R09R07R19R10E19E20
 127336361.936 7  99223150.74546                  24231298.100
  24231292.400          45.950          39.100
 125092884.269 7  97474974.25346                  23804377.580
  23804373.180          46.000          37.500
 126142422.381 7  98292807.72745                  24004094.780
  24004092.100          43.850          34.200
 133455220.952 7 103991128.90645                  25395673.160
  25395673.200          43.250          32.850
 130342798.656 7 101565883.325 6                  24803378.940    24803374.220
  24803373.500          45.250          39.400
 118086200.779 8  92015251.047 7                  22471038.460    22471035.020
  22471034.260          49.900          45.400
 132679933.790 6 103386964.247 6  99079170.195 7  25248151.520    25248151.620
  25248150.960          41.850          37.750
 107544117.611 8  83800699.049 8  80309020.917 8  20464931.260    20464929.460
  20464928.880          50.150          49.900
 105747735.860 8  82400944.329 8                  20123058.580    20123053.920
  20123053.160          50.250          49.250
 115751031.869 8  90195714.047 7  86437587.218 8  22026647.660    22026646.900
  22026646.140          48.950          47.200
 131364527.219 7 102362081.931 6                  24997803.640    24997815.820
  24997814.140          43.850          38.750
 134025886.087 7 104435739.83445                  25504273.620
  25504268.020          42.100          35.600
 113777343.558 8  88493567.239 7                  21314310.580    21314314.040
  21314313.180          48.600          44.400
 130340328.540 6 101375795.658 6                  24374281.720
  24374294.980          36.000          36.000
 113641399.315 7  88387815.113 7                  21273891.300    21273893.940
  21273892.960          47.350          44.600
 131298865.857 6 102121349.600 6                  24536330.220    24536331.280
  24536330.040          40.300          36.600
 118220105.479 7  91948979.918 7                  22076768.920    22076770.340
  22076769.560          46.400          43.750
 125638264.557 7  97718691.628 5                  23544554.540    23544559.760
  23544560.080          44.800          34.400
 106777195.132 7  83048875.857 6                  19995902.640    19995906.140
  19995903.400          46.850          37.050
 114150176.182 8  88783484.655 7                  21324210.700    21324212.560
  21324211.560          48.900          45.350
 113588366.362 8  88346504.928 7                  21234094.380    21234095.720
  21234094.180          48.650          44.700
 120137124.807 7  93440028.418 6                  22537408.620    22537416.180
  22537413.760          45.700          36.950
 133621829.218 8                  99782571.489 7  25427375.760
                        48.750
 128667788.327 7                                  24484665.920
                        45.950
 15  1 27 20  5 40.0000000  0 24G22G14G18G13G17G15G06G24G12G25G29G02
                                R18R20R16R17R08R06R09R07R19R10E19E20
 127340903.697 7  99226689.77646                  24232162.440
  24232156.680          46.400          37.900
 125077041.060 7  97462628.90446                  23801362.720
  23801358.280          45.950          37.650
 126152664.602 7  98300788.64845                  24006043.740
  24006041.100          43.550          35.400
 133474676.761 7 104006289.16544                  25399375.540
  25399375.660          44.050          27.350
 130356793.698 7 101576788.561 6                  24806042.060    24806037.360
  24806036.640          45.350          39.450
 118101944.726 8  92027519.058 7                  22474034.400    22474031.000
  22474030.240          49.950          45.300
 132670498.933 7 103379612.423 6  99072124.679 7  25246356.140    25246356.220
  25246355.500          42.250          37.950
 107545806.167 8  83802014.809 8  80310281.845 8  20465252.580    20465250.780
  20465250.200          50.100          49.850
 105746717.829 8  82400151.058 8                  20122864.840    20122860.180
  20122859.440          50.250          49.250
 115739151.705 8  90186456.787 7  86428715.667 8  22024386.940    22024386.160
  22024385.400          49.200          47.200
 131345423.116 7 102347195.930 6                  24994168.080    24994180.080
  24994178.520          43.800          38.200
 134014716.372 7 104427036.19145                  25502148.060
  25502142.580          43.200          30.500
 113782631.789 8  88497680.316 7                  21315301.240    21315304.680
  21315303.760          48.600          44.600
 130318015.492 5 101358456.748 5                  24370108.860    24370124.800
                        35.800          35.700
 113651124.139 7  88395378.861 7                  21275711.880    21275714.420
  21275713.540          47.250          44.750
 131317057.327 6 102135498.530 5                  24539729.800    24539730.820
  24539729.560          40.600          35.950
 118214311.204 7  91944473.262 7                  22075686.880    22075688.300
  22075687.480          46.100          43.750
 125659605.327 7  97735289.907 5                  23548553.860    23548559.000
  23548559.300          45.050          34.550
 106774861.191 7  83047060.595 6                  19995465.620    19995469.100
  19995466.340          46.800          38.000
 114162440.703 8  88793023.716 7                  21326501.820    21326503.660
  21326502.660          48.900          45.400
 113572447.918 8  88334123.929 7                  21231118.620    21231119.960
  21231118.400          49.000          44.550
 120124545.348 7  93430244.398 6                  22535048.760    22535056.320
  22535053.900          45.450          37.250
 133627566.285 8                  99786855.649 7  25428467.460
                        48.750
 128681691.261 7                                  24487311.620
                        46.000
 15  1 27 20  5 45.0000000  0 24G22G14G18G13G17G15G06G24G12G25G29G02
                                R18R20R16R17R08R06R09R07R19R10E19E20
 127345457.080 7  99230237.86846                  24233028.960
  24233023.120          46.050          37.800
 125061203.957 7  97450288.30046                  23798349.020
  23798344.560          46.450          37.400
 126162912.649 7  98308774.12745                  24007993.840
  24007991.260          44.100          33.800
 133494133.370 7 104021450.04645                  25403078.100
  25403078.120          44.150          30.900
 130370797.054 7 101587700.253 6                  24808706.800    24808702.180
  24808701.420          45.300          39.550
 118117696.119 8  92039792.867 7                  22477031.740    22477028.400
  22477027.640          49.900          45.600
 132661071.775 7 103372266.577 6  99065084.942 7  25244562.220    25244562.260
  25244561.520          42.550          37.300
 107547503.546 8  83803337.438 8  80311549.382 8  20465575.580    20465573.800
  20465573.180          50.250          49.950
 105745711.847 8  82399367.176 8                  20122673.400    20122668.740
  20122668.000          50.450          49.300
 115727280.091 8  90177206.181 7  86419850.515 8  22022127.860    22022127.060
  22022126.300          49.500          47.350
 131326317.709 7 102332308.891 6                  24990532.220    24990544.040
  24990542.460          43.750          38.150
 134003545.862 7 104418331.90745                  25500022.320
  25500017.000          43.650          32.700
 113787942.249 8  88501810.672 7                  21316296.100    21316299.420
  21316298.540          48.750          44.700
 130295699.556 5 101341093.287 6                  24365935.260    24365951.720
  24365948.440          34.950          36.600
 113660853.776 7  88402946.352 7                  21277533.300    21277535.860
  21277535.020          47.100          44.750
 131335258.860 6 102149655.301 6                  24543131.200    24543132.200
  24543130.960          39.850          36.350
 118208538.094 7  91939983.059 7                  22074608.780    22074610.180
  22074609.340          46.100          43.850
 125680946.217 7  97751888.312 5                  23552553.120    23552558.300
  23552558.460          44.400          34.800
 106772533.753 7  83045250.357 6                  19995029.800    19995033.200
  19995030.500          47.000          37.800
 114174722.105 8  88802575.909 7                  21328796.100    21328797.940
  21328796.940          48.950          45.850
 113556544.028 8  88321754.236 7                  21228145.580    21228146.920
  21228145.320          49.050          44.750
 120111967.725 7  93420461.803 6                  22532689.200    22532696.740
  22532694.440          45.600          37.900
 133633314.127 8                  99791147.879 7  25429561.220
                        48.800
 128695597.546 7                                  24489957.900
                        46.000
 15  1 27 20  5 50.0000000  0 24G22G14G18G13G17G15G06G24G12G25G29G02
                                R18R20R16R17R08R06R09R07R19R10E19E20
 127350021.549 7  99233794.58546                  24233897.540
  24233891.720          45.950          38.750
 125045372.369 7  97437952.00246                  23795336.400
  23795331.940          46.300          37.400
 126173166.001 7  98316763.74345                  24009945.060
  24009942.540          44.200          35.050
 133513590.270 7 104036611.23044                  25406780.740
  25406780.740          43.200          29.550
 130384808.208 7 101598618.047 6                  24811373.000    24811368.400
  24811367.640          45.250          39.450
 118133454.494 8  92052072.118 7                  22480030.420    22480027.100
  22480026.380          49.700          45.350
 132651651.856 6 103364926.358 6  99058050.553 7  25242769.680    25242769.680
  25242768.840          41.850          38.150
 107549209.251 8  83804666.560 8  80312823.116 8  20465900.160    20465898.380
  20465897.780          50.200          49.950
 105744717.400 8  82398592.296 8                  20122484.160    20122479.500
  20122478.760          50.600          49.200
 115715416.478 8  90167961.811 7  86410991.325 8  22019870.280    22019869.480
  22019868.740          49.400          47.250
 131307210.542 7 102317420.486 6                  24986896.060    24986907.660
  24986906.160          43.950          38.500
 133992374.016 7 104409626.59845                  25497896.380
  25497891.020          43.350          32.050
 113793274.386 8  88505957.898 7                  21317295.020    21317298.340
  21317297.380          48.900          44.650
 130273380.067 5                                  24361761.200
                        35.100
 113670587.738 7  88410517.213 7                  21279355.580    21279358.140
  21279357.320          47.000          44.300
 131353469.934 6 102163819.478 5                  24546534.380    24546535.500
  24546534.160          40.050          35.750
 118202785.556 7  91935508.873 7                  22073534.580    22073535.900
  22073535.060          46.200          43.800
 125702286.445 7  97768486.188 5                  23556552.240    23556557.600
  23556557.580          44.650          33.850
 106770212.380 7  83043444.866 6                  19994595.120    19994598.480
  19994595.780          47.150          37.950
 114187019.884 8  88812140.841 7                  21331093.460    21331095.280
  21331094.300          48.800          45.650
 113540654.081 8  88309395.403 7                  21225175.160    21225176.480
  21225174.840          49.150          44.600
 120099391.443 7  93410680.279 6                  22530329.900    22530337.460
  22530335.260          45.600          36.850
 133639072.235 8                  99795447.758 7  25430656.920
                        48.850
 128709506.619 7                                  24492604.760
                        45.850
 15  1 27 20  5 55.0000000  0 24G22G14G18G13G17G15G06G24G12G25G29G02
                                R18R20R16R17R08R06R09R07R19R10E19E20
 127354597.266 7  99237360.07746                  24234768.280
  24234762.460          46.300          36.900
 125029546.491 7  97425620.15145                  23792324.860
  23792320.340          46.200          35.950
 126183424.792 7  98324757.60945                  24011897.300
  24011894.780          44.100          34.900
 133533047.507 7 104051772.64844                  25410483.420
  25410483.260          42.600          28.100
 130398827.247 7 101609541.974 6                  24814040.700    24814036.180
  24814035.320          45.450          39.700
 118149220.013 8  92064356.933 7                  22483030.420    22483027.200
  22483026.460          49.400          45.300
 132642239.255 6 103357591.859 6  99051021.678 7  25240978.480    25240978.540
  25240977.600          41.900          38.150
 107550923.302 8  83806002.188 8  80314103.091 8  20466226.340    20466224.560
  20466223.960          50.050          49.950
 105743734.595 8  82397826.478 8                  20122297.140    20122292.480
  20122291.720          50.700          49.250
 115703561.013 8  90158723.797 7  86402138.230 8  22017614.240    22017613.420
  22017612.700          49.200          47.100
 131288101.717 7 102302530.802 6                  24983259.560    24983271.020
  24983269.540          44.450          38.950
 133981201.030 7 104400920.40645                  25495770.220
  25495764.920          43.150          34.950
 113798628.316 8  88510122.066 7                  21318298.000    21318301.300
  21318300.300          49.250          44.650
 130251057.367 5                                  24357586.500
                        35.150
 113680326.210 7  88418091.577 7                  21281178.680    21281181.200
  21281180.420          46.950          44.050
 131371690.384 6 102177990.928 5                  24549939.220    24549940.500
  24549939.080          40.900          35.200
 118197053.848 7  91931050.895 7                  22072464.260    22072465.600
  22072464.700          46.250          43.550
 125723626.227 7  97785083.747 5                  23560551.400    23560556.720
  23560556.540          44.600          33.900
 106767897.135 7  83041644.128 6                  19994161.580    19994164.940
  19994162.240          47.300          38.100
 114199334.287 8  88821718.712 7                  21333393.900    21333395.740
  21333394.760          48.450          45.400
 113524778.288 8  88297047.564 7                  21222207.380    21222208.680
  21222207.020          49.150          44.750
 120086816.449 7  93400899.743 6                  22527970.880    22527978.420
  22527976.280          45.700          37.050
 133644840.722 8                  99799755.387 7  25431754.620
                        48.750
 128723418.621 7                                  24495252.140
                        45.800
 15  1 27 20  6  0.0000000  0 24G22G14G18G13G17G15G06G24G12G25G29G02
                                R18R20R16R17R08R06R09R07R19R10E19E20
 127359185.233 7  99240935.11146                  24235641.340
  24235635.500          46.100          38.600
 125013727.418 7  97413293.60045                  23789314.600
  23789310.020          45.950          35.800
 126193690.134 7  98332756.55746                  24013850.760
  24013848.300          44.550          36.650
 133552506.236 7 104066935.18145                  25414186.360
  25414186.160          42.300          32.250
 130412855.163 7 101620472.813 6                  24816710.080    24816705.620
  24816704.800          45.300          39.950
 118164993.703 8  92076648.102 7                  22486032.000    22486028.860
  22486028.120          49.250          45.450
 132632835.059 7 103350263.931 6  99043999.056 7  25239188.920    25239189.020
  25239188.180          42.050          39.200
 107552646.801 8  83807345.166 8  80315390.117 8  20466554.300    20466552.540
  20466551.940          50.050          50.000
 105742764.518 8  82397070.566 8                  20122112.540    20122107.840
  20122107.100          50.600          49.250
 115691714.778 8  90149492.967 7  86393292.022 8  22015359.960    22015359.140
  22015358.460          49.000          47.100
 131268992.348 7 102287640.667 6                  24979622.960    24979634.320
  24979632.840          44.200          38.900
 133970027.918 7 104392214.09745                  25493644.000
  25493638.720          43.000          31.850
 113804005.133 8  88514304.018 7                  21319305.280    21319308.520
  21319307.520          48.950          44.950
 130228732.346 6 101289005.820 6                  24353411.340    24353427.420
  24353424.040          36.050          37.750
 113690070.225 7  88425670.242 7                  21283002.800    21283005.340
  21283004.540          46.950          44.300
 131389921.584 6 102192170.786 5                  24553346.180    24553347.440
  24553346.020          39.950          35.650
 118191344.071 7  91926609.957 7                  22071398.000    22071399.360
  22071398.420          46.450          43.650
 125744966.583 7  97801681.704 5                  23564550.580    23564555.960
  23564555.660          43.650          33.450
 106765589.027 7  83039848.914 6                  19993729.420    19993732.540
  19993729.980          47.550          37.500
 114211666.211 8  88831310.198 7                  21335697.620    21335699.440
  21335698.500          48.450          45.650
 113508917.652 8  88284711.508 7                  21219242.440    21219243.700
  21219242.040          48.950          44.800
 120074243.911 7  93391121.092 6                  22525612.260    22525619.780
  22525617.780          45.550          37.700
 133650620.633 8                  99804071.560 7  25432854.520
                        48.750
 128737334.538 7                                  24497900.280
                        45.850
 15  1 27 20  6  5.0000000  0 24G22G14G18G13G17G15G06G24G12G25G29G02
                                R18R20R16R17R08R06R09R07R19R10E19E20
 127363784.072 7  99244518.60846                  24236516.460
  24236510.680          45.850          37.300
 124997913.663 7  97400971.20246                  23786305.380
  23786300.740          45.800          36.250
 126203960.509 7  98340759.41745                  24015805.160
  24015802.700          44.700          32.800
 133571964.923 7 104082097.71045                  25417889.220
  25417889.140          42.800          30.350
 130426890.569 7 101631409.499 6                  24819380.900    24819376.480
  24819375.640          44.750          39.400
 118180774.131 8  92088944.527 7                  22489034.860    22489031.780
  22489031.080          49.550          45.300
 132623437.862 7 103342941.450 6  99036981.677 7  25237400.680    25237400.840
  25237400.160          42.550          38.600
 107554378.356 8  83808694.434 8  80316683.164 8  20466883.800    20466882.060
  20466881.460          50.150          50.000
 105741805.705 8  82396323.441 8                  20121930.080    20121925.380
  20121924.620          50.550          49.200
 115679876.321 8  90140268.207 7  86384451.627 8  22013107.140    22013106.340
  22013105.640          48.950          47.000
 131249880.977 7 102272748.986 6                  24975985.940    24975997.240
  24975995.760          43.600          38.200
 133958853.275 7 104383506.59545                  25491517.520
  25491512.200          43.250          34.150
 113809403.324 8  88518502.623 7                  21320316.580    21320319.800
  21320318.780          48.550          45.100
 130206403.713 6 101271639.467 6                  24349235.520    24349251.580
                        36.300          38.150
 113699818.241 7  88433252.030 7                  21284827.680    21284830.200
  21284829.400          47.000          44.850
 131408161.900 6 102206357.683 5                  24556754.740    24556756.120
  24556754.620          39.950          35.650
 118185654.609 7  91922184.816 7                  22070335.560    22070336.860
  22070335.940          46.250          43.900
 125766305.912 7  97818278.879 5                  23568549.520    23568555.040
  23568554.640          44.050          33.650
 106763286.753 7  83038058.261 6                  19993298.340    19993301.440
  19993298.820          47.350          37.950
 114224014.379 8  88840914.322 7                  21338004.360    21338006.200
  21338005.260          48.250          45.650
 113493070.871 8  88272386.244 7                  21216280.080    21216281.320
  21216279.660          49.000          45.000
 120061672.230 7  93381343.136 6                  22523253.820    22523261.340
  22523259.460          45.100          37.950
 133656410.549 8                  99808395.201 7  25433956.300
                        48.700
 128751253.035 7                                  24500548.900
                        45.700
 15  1 27 20  6 10.0000000  0 24G22G14G18G13G17G15G06G24G12G25G29G02
                                R18R20R16R17R08R06R09R07R19R10E19E20
 127368393.552 7  99248110.39746                  24237393.620
  24237387.820          46.350          37.250
 124982105.102 7  97388652.84745                  23783297.120
  23783292.460          45.650          35.850
 126214235.793 7  98348766.12945                  24017760.500
  24017758.000          44.750          33.950
 133591423.412 7 104097260.07644                  25421592.140
  25421592.080          43.000          27.800
 130440933.256 7 101642351.859 6                  24822053.120    24822048.700
  24822047.900          45.100          39.750
 118196561.085 8  92101246.058 7                  22492038.980    22492035.980
  22492035.300          49.600          45.400
 132614047.521 7 103335624.314 6  99029969.402 7  25235613.780    25235613.980
  25235613.400          42.400          39.000
 107556117.781 8  83810049.838 8  80317982.087 8  20467214.780    20467213.060
  20467212.460          50.150          49.950
 105740858.028 8  82395585.002 8                  20121749.740    20121745.040
  20121744.280          50.550          49.200
 115668045.486 8  90131049.389 7  86375616.923 8  22010855.760    22010855.000
  22010854.280          48.950          47.050
 131230767.446 7 102257855.617 6                  24972348.540    24972359.680
  24972358.280          43.100          38.050
 133947677.002 7 104374797.85445                  25489390.760
  25489385.420          43.650          32.800
 113814822.728 8  88522717.723 7                  21321331.840    21321335.040
  21321334.020          48.800          44.850
 130184071.280 6 101254266.158 6                  24345058.940    24345075.120
  24345071.980          38.250          38.500
 113709570.226 7  88440836.914 7                  21286653.280    21286655.820
  21286655.000          47.250          44.750
 131426411.155 6 102220551.584 5                  24560165.000    24560166.580
  24560164.980          39.400          34.950
 118179985.367 7  91917775.405 7                  22069276.920    22069278.160
  22069277.260          46.300          43.850
 125787644.011 7  97834875.122 5                  23572548.300    23572553.900
  23572553.400          44.050          34.600
 106760990.048 7  83036271.928 6                  19992868.280    19992871.260
  19992868.700          47.100          37.500
 114236378.499 8  88850530.858 7                  21340314.060    21340315.920
  21340314.960          48.100          45.600
 113477237.621 8  88260071.505 7                  21213320.260    21213321.520
  21213319.840          49.150          45.100
 120049101.398 7  93371565.854 6                  22520895.540    22520903.100
  22520901.320          45.250          38.150
 133662210.296 8                  99812726.170 7  25435059.920
                        48.800
 128765173.913 7                                  24503197.960
                        45.650
 15  1 27 20  6 15.0000000  0 24G22G14G18G13G17G15G06G24G12G25G29G02
                                R18R20R16R17R08R06R09R07R19R10E19E20
 127373015.910 7  99251712.24346                  24238273.280
  24238267.460          46.300          38.100
 124966303.983 7  97376340.30145                  23780290.260
  23780285.560          45.550          35.600
 126224518.155 7  98356778.34845                  24019717.180
  24019714.620          45.100          33.400
 133610883.994 7 104112424.06144                  25425295.440
  25425295.160          42.550          28.600
 130454985.405 7 101653301.585 6                  24824727.100    24824722.740
  24824722.000          44.950          40.150
 118212356.820 8  92113554.419 7                  22495044.800    22495041.860
  22495041.200          49.600          45.550
 132604666.287 7 103328314.280 6  99022963.956 7  25233828.600    25233828.820
  25233828.220          42.750          39.300
 107557867.366 8  83811413.155 8  80319288.609 8  20467547.700    20467545.980
  20467545.420          50.050          50.000
 105739923.696 8  82394856.951 8                  20121571.940    20121567.240
  20121566.460          50.650          49.300
 115656224.507 8  90121838.247 7  86366789.586 8  22008606.240    22008605.560
  22008604.800          48.750          47.100
 131211654.020 7 102242962.323 6                  24968711.160    24968722.180
  24968720.780          42.950          38.200
 133936501.323 7 104366089.54345                  25487264.080
  25487258.720          43.550          33.200
 113820265.670 8  88526951.115 7                  21322351.460    21322354.680
  21322353.680          48.650          44.850
 130161737.267 6 101236895.579 6                  24340882.120    24340898.300
  24340895.020          37.400          38.350
 113719328.503 7  88448426.673 7                  21288480.080    21288482.580
  21288481.800          47.250          44.350
 131444671.650 6 102234754.206 5                  24563577.380    24563579.000
  24563577.460          38.800          35.900
 118174338.703 7  91913383.560 7                  22068222.480    22068223.720
  22068222.800          46.350          43.800
 125808983.401 7  97851472.355 5                  23576547.360    23576553.120
  23576552.500          44.050          35.150
 106758701.271 7  83034491.760 6                  19992439.700    19992442.640
  19992440.020          47.000          36.900
 114248760.777 8  88860161.516 7                  21342627.140    21342629.000
  21342628.080          48.000          45.400
 113461420.403 8  88247769.222 7                  21210363.400    21210364.660
  21210363.000          49.250          45.100
 120036533.656 7  93361790.943 6                  22518537.840    22518545.340
  22518543.760          45.100          37.950
 133668022.113 8                  99817066.168 7  25436165.900
                        48.900
 128779099.319 7                                  24505847.860
                        45.650
 15  1 27 20  6 20.0000000  0 24G22G14G18G13G17G15G06G24G12G25G29G02
                                R18R20R16R17R08R06R09R07R19R10E19E20
 127377649.296 7  99255322.65346                  24239155.020
  24239149.220          46.150          38.250
 124950508.455 7  97364032.11246                  23777284.460
  23777279.760          45.600          37.150
 126234805.752 7  98364794.67545                  24021674.880
  24021672.320          44.750          34.050
 133630344.746 6 104127588.21845                  25428998.820
  25428998.380          41.850          30.800
 130469045.241 7 101664257.300 6                  24827402.540    24827398.180
  24827397.540          44.700          39.900
 118228159.463 8  92125868.163 7                  22498051.960    22498049.000
  22498048.400          49.750          45.350
 132595292.316 7 103321009.892 6  99015963.913 7  25232044.800    25232045.000
  25232044.420          42.700          38.950
 107559625.207 8  83812782.907 8  80320601.286 8  20467882.200    20467880.480
  20467879.940          50.000          49.950
 105739000.799 8  82394137.814 8                  20121396.340    20121391.600
  20121390.840          50.750          49.200
 115644411.577 8  90112633.376 7  86357968.247 8  22006358.260    22006357.640
  22006356.880          48.800          47.100
 131192538.876 7 102228067.708 6                  24965073.420    24965084.400
  24965083.060          43.100          38.750
 133925324.393 7 104357380.29845                  25485137.160
  25485131.860          42.750          31.850
 113825730.213 8  88531201.317 7                  21323375.140    21323378.380
  21323377.380          48.300          44.850
 130139399.982 5 101219522.472 6                  24336704.580    24336720.660
  24336717.060          34.850          37.800
 113729091.102 7  88456019.799 7                  21290307.660    21290310.140
  21290309.400          47.400          44.250
 131462941.432 6 102248964.018 5                  24566991.480    24566993.100
  24566991.640          40.050          35.700
 118168712.713 7  91909007.792 7                  22067171.840    22067173.100
  22067172.220          46.350          43.700
 125830322.087 7  97868069.042 5                  23580546.340    23580552.020
  23580551.460          44.300          35.750
 106756418.447 7  83032716.243 6                  19992012.240    19992015.120
  19992012.440          46.800          37.250
 114261159.432 8  88869804.909 7                  21344943.280    21344945.200
  21344944.220          48.150          45.300
 113445617.220 8  88235477.863 7                  21207409.180    21207410.440
  21207408.760          49.350          44.900
 120023967.203 7  93352017.038 6                  22516180.420    22516187.980
  22516186.440          45.350          38.550
 133673844.116 8                  99821413.776 7  25437273.820
                        49.050
 128793027.449 7                                  24508498.280
                        45.650
 15  1 27 20  6 25.0000000  0 24G22G14G18G13G17G15G06G24G12G25G29G02
                                R18R20R16R17R08R06R09R07R19R10E19E20
 127382293.725 7  99258941.67446                  24240038.840
  24240033.100          46.250          36.300
 124934718.556 7  97351728.28846                  23774279.780
  23774275.000          45.750          37.150
 126245098.669 7  98372815.11145                  24023633.580
  24023631.000          44.400          33.600
 133649805.721 6 104142752.49945                  25432702.160
  25432701.920          41.200          31.800
 130483112.832 7 101675219.066 6                  24830079.500    24830075.200
  24830074.500          45.050          39.800
 118243969.046 8  92138187.316 7                  22501060.440    22501057.500
  22501056.920          49.700          45.400
 132585925.612 7 103313711.152 6  99008969.304 7  25230262.420    25230262.560
  25230261.960          42.550          39.300
 107561391.443 8  83814159.197 8  80321920.231 8  20468218.280    20468216.600
  20468216.040          49.900          49.900
 105738089.413 8  82393427.645 8                  20121222.920    20121218.140
  20121217.380          50.700          49.150
 115632606.652 8  90103434.744 7  86349152.899 8  22004111.820    22004111.220
  22004110.460          48.700          47.100
 131173422.071 7 102213171.798 6                  24961435.400    24961446.240
  24961445.040          43.300          38.050
 133914146.281 7 104348670.10945                  25483010.000
  25483004.740          42.100          34.050
 113831216.380 8  88535468.354 7                  21324402.860    21324406.160
  21324405.140          48.000          44.800
 130117059.247 5 101202146.749 6                  24332526.440    24332542.640
  24332539.420          34.850          37.600
 113738858.007 7  88463616.288 7                  21292136.080    21292138.480
  21292137.780          47.000          44.050
 131481220.587 6 102263181.151 5                  24570407.360    24570408.940
  24570407.500          40.400          35.850
 118163107.449 7  91904648.132 7                  22066125.100    22066126.380
  22066125.500          46.050          44.050
 125851659.844 7  97884665.010 6                  23584545.120    23584550.740
  23584550.260          44.250          36.700
 106754141.671 7  83030945.417 6                  19991585.900    19991588.660
  19991586.020          46.900          37.100
 114273574.364 8  88879460.958 7                  21347262.520    21347264.400
  21347263.400          48.100          45.000
 113429828.254 8  88223197.565 7                  21204457.580    21204458.860
  21204457.180          49.200          44.900
 120011402.022 7  93342244.138 6                  22513823.160    22513830.860
  22513829.360          45.300          38.400
 133679676.360 8                  99825769.011 7  25438383.660
                        49.050
 128806958.345 7                                  24511149.240
                        45.750
 15  1 27 20  6 30.0000000  0 24G22G14G18G13G17G15G06G24G12G25G29G02
                                R18R20R16R17R08R06R09R07R19R10E19E20
 127386949.253 7  99262569.35046                  24240924.760
  24240919.020          46.250          36.950
 124918934.416 7  97339428.95646                  23771276.160
  23771271.360          45.900          36.500
 126255396.949 7  98380839.70845                  24025593.280
  24025590.800          43.700          35.950
 133669266.994 6 104157917.01345                  25436405.580
  25436405.560          41.950          34.100
 130497188.203 7 101686186.873 6                  24832757.880    24832753.640
  24832752.920          45.200          39.650
 118259785.633 8  92150511.915 7                  22504070.260    22504067.300
  22504066.760          49.400          45.400
 132576566.362 7 103306418.197 6  99001980.218 7  25228481.460    25228481.580
  25228480.920          42.100          39.600
 107563166.063 8  83815542.010 8  80323245.424 8  20468555.960    20468554.280
  20468553.740          49.600          49.950
 105737189.611 8  82392726.499 8                  20121051.700    20121046.920
  20121046.160          50.600          49.100
 115620809.883 8  90094242.454 7  86340343.620 8  22001866.920    22001866.360
  22001865.600          48.800          47.350
 131154303.669 7 102198274.605 6                  24957797.080    24957807.760
  24957806.580          43.150          37.450
 133902967.071 7 104339959.07345                  25480882.640
  25480877.320          42.400          33.400
 113836724.255 8  88539752.248 7                  21325434.660    21325437.980
  21325436.960          48.300          45.000
 130094715.368 5 101184768.524 6                  24328347.760    24328364.020
  24328361.020          34.400          37.250
 113748629.294 7  88471216.181 7                  21293965.300    21293967.680
  21293966.920          47.100          43.800
 131499509.187 6 102277405.602 5                  24573825.000    24573826.420
  24573825.120          39.950          34.950
 118157522.936 7  91900304.623 7                  22065082.220    22065083.580
  22065082.680          46.000          44.350
 125872997.058 7  97901260.528 6                  23588543.800    23588549.420
  23588549.000          44.150          36.750
 106751870.964 7  83029179.320 6                  19991160.700    19991163.480
  19991160.760          47.150          37.550
 114286005.726 8  88889129.798 7                  21349584.800    21349586.680
  21349585.640          48.100          44.800
 113414053.438 8  88210928.257 7                  21201508.640    21201509.900
  21201508.280          49.250          45.100
 119998838.046 7  93332472.152 6                  22511466.180    22511473.840
  22511472.500          44.600          38.550
 133685518.903 8                  99830131.955 7  25439495.500
                        49.000
 128820892.067 7                                  24513800.760
                        45.850
 15  1 27 20  6 35.0000000  0 24G22G14G18G13G17G15G06G24G12G25G29G02
                                R18R20R16R17R08R06R09R07R19R10E19E20
 127391615.050 7  99266205.03746                  24241812.620
  24241806.860          46.250          37.900
 124903155.157 7  97327133.44046                  23768273.480
  23768268.700          45.800          36.100
 126265699.617 7  98388867.75745                  24027553.820
  24027551.460          43.900          33.900
 133688727.691 7 104173081.08145                  25440108.860
  25440108.740          42.400          32.100
 130511270.497 7 101697160.097 6                  24835437.580    24835433.400
  24835432.720          45.250          39.600
 118275608.335 8  92162841.287 7                  22507081.240    22507078.280
  22507077.760          49.800          45.450
 132567213.584 6 103299130.344 6  98994996.050 7  25226701.580    25226701.820
  25226701.340          40.900          39.800
 107564948.251 8  83816930.725 8  80324576.280 8  20468895.080    20468893.400
  20468892.880          49.750          49.900
 105736300.533 8  82392033.717 8                  20120882.540    20120877.740
  20120876.960          50.700          49.150
 115609020.384 8  90085055.838 7  86331539.781 8  21999623.440    21999622.860
  21999622.120          48.850          47.350
 131135182.844 7 102183375.534 6                  24954158.300    24954168.900
  24954167.640          43.100          37.550
 133891785.864 7 104331246.45046                  25478754.920
  25478749.580          43.100          37.250
 113842252.982 8  88544052.374 7                  21326470.380    21326473.740
  21326472.720          48.400          45.150
 130072367.356 6 101167387.067 6                  24324168.320    24324184.540
  24324181.360          36.450          36.400
 113758404.088 7  88478818.809 7                  21295795.220    21295797.480
  21295796.740          47.600          43.850
 131517806.252 6 102291636.651 5                  24577244.200    24577245.720
  24577244.300          38.850          33.050
 118151958.303 7  91895976.600 7                  22064043.060    22064044.420
  22064043.580          45.400          44.250
 125894332.720 7  97917854.858 6                  23592542.180    23592547.780
  23592547.480          43.700          37.050
 106749605.552 7  83027417.314 6                  19990736.460    19990739.260
  19990736.500          47.800          37.650
 114298452.589 8  88898810.693 7                  21351909.980    21351911.860
  21351910.780          48.400          45.050
 113398291.928 8  88198669.317 7                  21198562.180    21198563.500
  21198561.840          49.150          45.050
 119986274.581 7  93322700.591 6                  22509109.320    22509116.940
  22509115.740          44.950          38.650
 133691370.882 8                  99834501.950 7  25440609.120
                        48.900
 128834827.690 7                                  24516452.620
                        46.100
 15  1 27 20  6 40.0000000  0 24G22G14G18G13G17G15G06G24G12G25G29G02
                                R18R20R16R17R08R06R09R07R19R10E19E20
 127396294.251 7  99269851.15846                  24242703.020
  24242697.300          46.150          38.050
 124887383.942 7  97314844.17846                  23765272.340
  23765267.480          45.800          36.450
 126276009.891 7  98396901.73345                  24029515.780
  24029513.440          44.050          32.400
 133708190.836 6 104188247.07545                  25443812.640
  25443812.820          41.150          31.550
 130525362.858 7 101708141.167 6                  24838119.260    24838115.040
  24838114.380          45.600          39.650
 118291440.277 8  92175177.868 7                  22510094.000    22510091.020
  22510090.500          49.650          45.350
 132557870.562 6 103291850.102 6  98988019.108 7  25224923.580    25224923.900
  25224923.460          40.650          39.850
 107566741.032 8  83818327.694 8  80325915.042 8  20469236.220    20469234.560
  20469234.040          49.750          49.900
 105735425.309 8  82391351.725 8                  20120716.020    20120711.180
  20120710.400          50.800          49.250
 115597241.309 8  90075877.340 7  86322743.724 8  21997381.920    21997381.380
  21997380.640          48.650          47.250
 131116062.702 7 102168477.004 6                  24950519.640    24950530.220
  24950528.820          43.000          37.200
 133880605.839 7 104322534.77345                  25476627.420
  25476622.140          44.050          34.050
 113847805.715 8  88548371.168 7                  21327510.600    21327513.960
  21327512.980          49.050          45.250
 130050018.590 6 101150004.980 6                  24319988.840    24320004.980
  24320001.540          37.250          37.150
 113768185.776 7  88486426.780 7                  21297626.380    21297628.600
  21297627.820          47.200          43.650
 131536115.122 6 102305876.900 5                  24580665.680    24580667.080
  24580665.700          40.000          33.200
 118146416.741 7  91891666.510 7                  22063008.120    22063009.640
  22063008.780          45.900          43.950
 125915669.950 7  97934450.400 6                  23596540.800    23596546.340
  23596546.240          43.600          36.750
 106747348.544 7  83025661.872 6                  19990313.820    19990316.520
  19990313.820          47.400          37.550
 114310918.077 8  88908506.052 7                  21354238.640    21354240.520
  21354239.400          48.450          44.950
 113382547.083 8  88186423.325 7                  21195618.860    21195620.180
  21195618.500          49.000          45.100
 119973714.778 7  93312931.856 6                  22506753.120    22506760.840
  22506759.640          45.350          38.150
 133697235.441 8                  99838881.319 7  25441725.120
                        48.950
 128848768.401 7                                  24519105.480
                        46.100
 15  1 27 20  6 45.0000000  0 24G22G14G18G13G17G15G06G24G12G25G29G02
                                R18R20R16R17R08R06R09R07R19R10E19E20
 127400984.762 7  99273506.09446                  24243595.560
  24243589.880          46.250          37.950
 124871618.720 7  97302559.59146                  23762272.340
  23762267.420          45.850          36.250
 126286325.683 7  98404940.00445                  24031478.820
  24031476.360          44.100          33.900
 133727654.503 6 104203413.47244                  25447516.420
  25447517.020          39.400          28.250
 130539463.187 7 101719128.435 6                  24840802.420    24840798.200
  24840797.520          45.450          39.550
 118307279.380 8  92187520.013 7                  22513108.140    22513105.100
  22513104.600          50.050          45.150
 132548535.128 6 103284575.746 6  98981047.874 7  25223147.020    25223147.440
  25223146.940          39.750          38.850
 107568542.493 8  83819731.427 8  80327260.284 8  20469579.040    20469577.380
  20469576.840          49.950          49.850
 105734561.860 8  82390678.907 8                  20120551.700    20120546.840
  20120546.080          50.700          49.300
 115585470.565 8  90066705.342 7  86313953.893 8  21995141.980    21995141.480
  21995140.720          48.700          47.100
 131096941.265 7 102153577.451 6                  24946880.700    24946891.260
  24946889.720          43.200          36.050
 133869424.902 7 104313822.37045                  25474499.760
  25474494.480          44.450          35.200
 113853380.324 8  88552706.967 7                  21328554.920    21328558.280
  21328557.340          49.000          45.450
 130027666.666 6 101132620.466 6                  24315808.740    24315824.660
  24315821.500          36.600          37.050
 113777972.042 7  88494038.314 7                  21299458.380    21299460.580
  21299459.780          47.050          43.400
 131554433.394 6 102320124.499 5                  24584088.860    24584090.160
  24584088.840          40.150          33.650
 118140896.278 7  91887372.812 7                  22061977.160    22061978.700
  22061977.860          46.300          43.750
 125937006.576 7  97951045.487 6                  23600539.360    23600544.880
  23600544.880          43.650          37.050
 106745097.870 7  83023911.343 6                  19989892.340    19989895.020
  19989892.360          47.350          37.750
 114323400.104 8  88918214.283 7                  21356570.360    21356572.260
  21356571.140          48.350          44.900
 113366816.741 8  88174188.625 7                  21192678.240    21192679.580
  21192677.900          49.000          44.850
 119961156.516 7  93303164.320 6                  22504397.240    22504404.980
  22504403.800          45.650          38.350
 133703110.497 8                  99843268.528 7  25442843.140
                        49.100
 128862712.127 7                                  24521758.940
                        46.300
 15  1 27 20  6 50.0000000  0 24G22G14G18G13G17G15G06G24G12G25G29G02
                                R18R20R16R17R08R06R09R07R19R10E19E20
 127405686.747 7  99277169.97846                  24244490.340
  24244484.680          46.250          36.350
 124855859.681 7  97290279.83646                  23759273.500
  23759268.660          45.750          36.400
 126296647.169 7  98412982.71745                  24033442.940
  24033440.480          44.550          31.400
 133747118.765 6 104218580.28445                  25451220.400
  25451221.120          41.600          31.200
 130553571.596 7 101730122.005 6                  24843487.140    24843482.940
  24843482.300          45.600          39.750
 118323125.782 8  92199867.869 7                  22516123.680    22516120.580
  22516120.100          50.000          45.250
 132539207.574 6 103277307.535 6  98974082.469 7  25221371.900    25221372.440
  25221371.860          40.150          39.350
 107570352.663 8  83821141.956 8  80328612.039 8  20469923.500    20469921.840
  20469921.300          50.150          49.950
 105733710.321 8  82390015.374 8                  20120389.700    20120384.800
  20120384.040          50.600          49.350
 115573708.309 8  90057539.962 7  86305170.400 8  21992903.660    21992903.260
  21992902.440          48.700          47.100
 131077818.601 7 102138676.920 6                  24943241.560    24943251.940
  24943250.400          43.550          37.300
 133858243.266 7 104305109.43545                  25472371.980
  25472366.540          44.400          33.350
 113858977.021 8  88557059.968 7                  21329603.400    21329606.760
  21329605.860          48.400          45.700
 130005311.996 6 101115233.829 6                  24311628.000    24311643.780
  24311640.700          36.400          36.350
 113787763.156 7  88501653.639 7                  21301291.320    21301293.460
  21301292.620          47.100          43.550
 131572761.395 6 102334379.634 5                  24587513.860    24587515.140
  24587513.760          39.850          35.000
 118135396.968 7  91883095.570 7                  22060950.160    22060951.800
  22060950.880          46.700          43.900
 125958342.777 7  97967640.232 6                  23604537.840    23604543.360
  23604543.420          44.200          38.000
 106742853.657 7  83022165.838 6                  19989472.080    19989474.840
  19989472.140          47.500          37.700
 114335898.844 8  88927935.522 7                  21358905.220    21358907.120
  21358906.000          48.100          45.200
 113351101.099 8  88161965.352 7                  21189740.340    21189741.720
  21189740.020          49.200          45.100
 119948599.880 7  93293398.069 6                  22502041.620    22502049.440
  22502048.260          45.550          38.550
 133708996.181 8                  99847663.692 7  25443963.180
                        49.100
 128876658.965 7                                  24524412.980
                        46.200
 15  1 27 20  6 55.0000000  0 24G22G14G18G13G17G15G06G24G12G25G29G02
                                R18R20R16R17R08R06R09R07R19R10E19E20
 127410398.956 7  99280841.82946                  24245387.060
  24245381.380          46.550          37.900
 124840105.552 7  97278003.87846                  23756275.600
  23756270.760          45.850          36.450
 126306973.080 7  98421028.87745                  24035407.900
  24035405.500          44.550          33.750
 133766582.439 7 104233746.71244                  25454924.280
  25454924.880          42.700          27.350
 130567686.858 7 101741120.918 6                  24846173.140    24846168.940
  24846168.340          45.500          39.850
 118338978.319 8  92212220.487 7                  22519140.380    22519137.200
  22519136.740          49.850          45.600
 132529886.597 6 103270044.436 6  98967121.997 7  25219598.120    25219598.720
  25219598.200          40.250          39.650
 107572170.414 8  83822558.389 8  80329969.458 8  20470269.420    20470267.740
  20470267.200          50.300          49.950
 105732869.489 8  82389360.184 8                  20120229.700    20120224.780
  20120224.040          50.700          49.400
 115561953.386 8  90048380.291 7  86296392.392 8  21990666.720    21990666.360
  21990665.560          48.800          47.050
 131058693.583 7 102123774.570 6                  24939602.040    24939612.360
  24939610.700          43.450          37.750
 133847059.707 7 104296394.99645                  25470243.820
  25470238.320          43.650          34.250
 113864594.507 8  88561429.124 7                  21330655.740    21330659.100
  21330658.240          48.400          45.600
 129982953.360 6 101097844.094 6                  24307446.600    24307462.320
  24307459.380          37.100          37.500
 113797557.875 7  88509271.761 7                  21303124.900    21303127.060
  21303126.180          47.150          44.050
 131591097.794 6 102348641.267 5                  24590940.460    24590941.580
  24590940.360          37.900          34.700
 118129917.609 7  91878833.847 7                  22059926.920    22059928.600
  22059927.640          46.900          43.600
 125979677.320 7  97984233.671 6                  23608536.020    23608541.680
  23608541.720          44.100          37.950
 106740614.671 7  83020424.430 6                  19989052.780    19989055.500
  19989052.860          46.950          37.800
 114348412.914 8  88937668.690 7                  21361242.960    21361244.880
  21361243.740          48.250          45.250
 113335398.876 8  88149752.507 7                  21186804.980    21186806.340
  21186804.660          49.100          45.250
 119936043.774 7  93283632.215 6                  22499686.120    22499693.900
  22499692.820          45.650          38.900
 133714891.314 8                  99852065.894 7  25445085.040
                        49.100
 128890607.706 7                                  24527067.380
                        46.250
 15  1 27 20  7  0.0000000  0 24G22G14G18G13G17G15G06G24G12G25G29G02
                                R18R20R16R17R08R06R09R07R19R10E19E20
 127415123.840 7  99284523.55946                  24246286.200
  24246280.460          46.550          37.050
 124824358.804 7  97265733.70346                  23753279.100
  23753274.200          45.600          37.950
 126317305.815 7  98429080.33845                  24037374.140
  24037371.800          43.550          34.700
 133786047.934 7 104248914.56245                  25458628.500
  25458629.140          42.600          31.300
 130581811.421 7 101752127.073 6                  24848860.940    24848856.800
  24848856.100          45.500          40.050
 118354839.351 8  92224579.741 7                  22522158.700    22522155.480
  22522155.020          49.700          45.500
 132520574.668 6 103262788.406 6  98960168.293 7  25217826.080    25217826.740
  25217826.140          41.500          38.700
 107573998.142 8  83823982.601 8  80331334.328 8  20470617.220    20470615.560
  20470615.000          50.350          49.950
 105732041.797 8  82388715.238 8                  20120072.200    20120067.280
  20120066.520          50.750          49.450
 115550208.171 8  90039228.195 7  86287621.633 8  21988431.680    21988431.300
  21988430.500          49.050          47.050
 131039568.606 7 102108872.286 6                  24935962.420    24935972.760
  24935971.060          42.900          38.000
 133835876.695 7 104287681.02645                  25468115.780
  25468110.220          42.800          32.350
 113870235.340 8  88565816.446 7                  21331712.460    21331715.800
  21331714.960          48.700          45.450
 129960593.164 6 101080453.156 6                  24303264.940    24303280.620
  24303277.740          37.700          37.050
 113807358.647 7  88516894.575 7                  21304959.600    21304961.800
  21304960.900          47.350          43.950
 131609445.150 6 102362911.402 5                  24594369.100    24594370.220
  24594368.980          38.350          33.800
 118124460.702 7  91874589.571 7                  22058907.940    22058909.560
  22058908.600          46.400          43.500
 126001012.801 7  98000827.850 6                  23612534.380    23612540.020
  23612540.140          44.100          37.800
 106738383.443 7  83018689.019 6                  19988634.960    19988637.720
  19988635.040          47.700          37.400
 114360945.019 8  88947415.885 7                  21363584.040    21363585.960
  21363584.860          48.300          45.200
 113319712.698 8  88137552.163 7                  21183872.600    21183873.940
  21183872.300          49.100          44.900
 119923490.560 7  93273868.614 6                  22497331.180    22497338.860
  22497337.940          45.800          38.550
 133720798.305 8                  99856476.963 7  25446209.140
                        49.050
 128904560.789 7                                  24529722.580
                        46.300
 15  1 27 20  7  5.0000000  0 24G22G14G18G13G17G15G06G24G12G25G29G02
                                R18R20R16R17R08R06R09R07R19R10E19E20
 127419858.440 7  99288212.84146                  24247187.160
  24247181.380          46.750          36.450
 124808616.612 7  97253467.06045                  23750283.480
  23750278.540          45.950          34.800
 126327642.493 7  98437134.87245                  24039341.120
  24039338.840          43.200          34.850
 133805512.370 7 104264081.53845                  25462332.520
  25462333.320          42.700          32.350
 130595942.419 7 101763138.237 6                  24851549.960    24851545.860
  24851545.140          45.350          40.150
 118370706.045 8  92236943.388 7                  22525178.080    22525174.820
  22525174.360          49.600          45.550
 132511268.902 6 103255537.190 6  98953219.191 7  25216055.160    25216055.980
  25216055.220          40.300          38.750
 107575832.924 8  83825412.303 8  80332704.454 8  20470966.380    20470964.680
  20470964.120          50.300          49.900
 105731224.368 8  82388078.276 8                  20119916.660    20119911.740
  20119910.980          50.800          49.250
 115538469.828 8  90030081.438 7  86278855.985 8  21986197.940    21986197.540
  21986196.760          49.200          46.950
 131020440.853 7 102093967.815 6                  24932322.260    24932332.660
  24932330.820          42.750          37.150
 133824691.365 7 104278965.18145                  25465987.300
  25465981.760          43.100          33.450
 113875896.483 8  88570219.554 7                  21332772.980    21332776.340
  21332775.480          48.600          45.150
 129938228.588 6 101063058.783 6                  24299082.360    24299097.980
  24299095.200          37.650          37.100
 113817162.474 7  88524519.776 7                  21306794.860    21306797.080
  21306796.200          46.550          44.000
 131627800.538 6 102377187.821 5                  24597799.160    24597800.220
  24597799.080          38.500          34.700
 118119023.222 7  91870360.412 7                  22057892.540    22057894.180
  22057893.160          46.200          43.650
 126022346.287 7  98017420.463 6                  23616532.420    23616538.020
  23616538.240          43.700          37.150
 106736157.097 7  83016957.427 6                  19988218.020    19988220.880
  19988218.120          46.950          37.550
 114373491.990 8  88957174.619 7                  21365927.920    21365929.860
  21365928.740          48.600          45.300
 113304039.371 8  88125361.811 7                  21180942.600    21180943.980
  21180942.360          48.900          45.250
 119910937.392 7  93264105.041 6                  22494976.240    22494983.960
  22494983.060          45.700          38.850
 133726714.272 8                  99860894.726 7  25447334.960
                        49.100
 128918515.354 7                                  24532378.080
                        46.050
 15  1 27 20  7 10.0000000  0 24G22G14G18G13G17G15G06G24G12G25G29G02
                                R18R20R16R17R08R06R09R07R19R10E19E20
 127424605.327 7  99291911.71646                  24248090.440
  24248084.720          46.200          37.000
 124792881.457 7  97241205.89845                  23747289.160
  23747284.240          45.850          35.800
 126337985.575 7  98445194.41645                  24041309.320
  24041307.100          44.250          33.350
 133824978.206 7 104279249.61245                  25466036.800
  25466037.580          43.050          30.200
 130610082.238 7 101774156.279 6                  24854240.600    24854236.620
  24854235.920          45.550          39.950
 118386580.832 8  92249313.350 7                  22528198.980    22528195.660
  22528195.220          49.650          45.300
 132501971.893 6 103248292.778 6  98946276.602 7  25214286.040    25214286.800
  25214285.940          40.100          37.900
 107577677.334 8  83826849.514 8  80334081.788 8  20471317.380    20471315.640
  20471315.080          50.250          49.900
 105730419.680 8  82387451.251 8                  20119763.560    20119758.620
  20119757.840          50.700          49.250
 115526740.814 8  90020941.953 7  86270097.320 8  21983965.980    21983965.560
  21983964.800          49.100          47.050
 131001312.773 7 102079063.070 6                  24928682.100    24928692.400
  24928690.700          42.200          36.650
 133813506.159 7 104270249.45445                  25463858.780
  25463853.160          43.050          32.200
 113881580.496 8  88574640.465 7                  21333837.780    21333841.160
  21333840.280          48.650          44.850
 129915862.065 6 101045662.888 6                  24294899.540    24294914.960
  24294912.260          38.150          37.000
 113826971.966 7  88532149.356 7                  21308631.200    21308633.400
  21308632.580          46.400          44.200
 131646166.334 6 102391472.331 5                  24601231.280    24601232.380
  24601231.180          37.700          34.900
 118113607.821 7  91866148.439 7                  22056881.280    22056882.880
  22056881.880          46.150          43.800
 126043680.008 7  98034013.270 6                  23620530.480    23620536.060
  23620536.300          43.700          37.500
 106733938.046 7  83015231.501 6                  19987802.460    19987805.320
  19987802.560          47.200          37.850
 114386056.438 8  88966946.966 7                  21368275.060    21368276.980
  21368275.920          48.600          45.250
 113288381.860 8  88113183.751 7                  21178015.560    21178016.960
  21178015.360          48.650          45.000
 119898386.766 7  93254343.461 6                  22492621.760    22492629.520
  22492628.640          45.650          38.600
 133732641.684 8                  99865321.042 7  25448462.960
                        49.000
 128932473.827 7                                  24535034.280
                        45.950
 15  1 27 20  7 15.0000000  0 24G22G14G18G13G17G15G06G24G12G25G29G02
                                R18R20R16R17R08R06R09R07R19R10E19E20
 127429363.577 7  99295619.42946                  24248995.880
  24248990.140          45.850          37.300
 124777152.455 7  97228949.53546                  23744296.000
  23744291.160          45.750          37.300
 126348334.169 7  98453258.24445                  24043278.620
  24043276.400          43.700          34.900
 133844444.531 7 104294418.12045                  25469741.180
  25469741.820          42.500          30.700
 130624230.002 7 101785180.509 6                  24856932.840    24856928.860
  24856928.200          45.150          40.050
 118402462.849 8  92261688.942 7                  22531221.240    22531217.900
  22531217.480          49.450          45.450
 132492682.703 6 103241054.422 6  98939339.881 7  25212518.320    25212519.100
  25212518.260          40.450          37.750
 107579530.430 8  83828293.485 8  80335465.594 8  20471670.020    20471668.260
  20471667.700          50.100          49.850
 105729626.898 8  82386833.496 8                  20119612.720    20119607.740
  20119606.960          50.600          49.200
 115515020.293 8  90011809.077 7  86261344.992 8  21981735.660    21981735.180
  21981734.420          48.900          47.200
 130982183.540 7 102064157.438 6                  24925041.740    24925051.860
  24925050.160          42.350          36.700
 133802320.267 7 104261533.19745                  25461730.140
  25461724.540          43.100          32.150
 113887286.500 8  88579078.471 7                  21334906.720    21334910.100
  21334909.180          48.400          45.050
 129893492.858 6 101028264.895 6                  24290716.080    24290731.420
  24290728.920          37.400          37.300
 113836786.274 7  88539782.696 7                  21310468.400    21310470.680
  21310469.860          46.000          44.050
 131664541.725 6 102405764.283 5                  24604665.240    24604666.220
  24604665.060          38.600          33.500
 118108213.499 7  91861952.866 7                  22055873.940    22055875.540
  22055874.560          45.800          43.750
 126065013.213 7  98050605.655 6                  23624528.340    23624534.020
  23624534.300          43.350          37.400
 106731725.445 7  83013510.585 6                  19987388.120    19987390.860
  19987388.220          47.100          38.000
 114398637.438 7  88976732.178 7                  21370625.300    21370627.220
  21370626.160          47.750          45.300
 113272738.958 8  88101017.049 7                  21175091.280    21175092.660
  21175091.100          48.700          45.000
 119885837.800 7  93244583.163 6                  22490267.580    22490275.360
  22490274.560          45.350          38.500
 133738579.679 8                  99869755.258 7  25449592.960
                        49.000
 128946435.342 7                                  24537691.040
                        45.800
 15  1 27 20  7 20.0000000  0 24G22G14G18G13G17G15G06G24G12G25G29G02
                                R18R20R16R17R08R06R09R07R19R10E19E20
 127434131.671 7  99299334.81946                  24249903.160
  24249897.540          45.750          37.100
 124761428.054 7  97216696.76346                  23741303.760
  23741298.940          45.950          37.000
 126358686.697 7  98461325.14445                  24045248.640
  24045246.360          44.300          33.100
 133863909.803 7 104309585.73944                  25473445.400
  25473445.900          43.000          27.400
 130638384.232 7 101796209.785 6                  24859626.260    24859622.260
  24859621.720          45.350          40.300
 118418350.522 8  92274068.945 7                  22534244.540    22534241.260
  22534240.800          49.450          45.400
 132483399.793 7 103233820.975 6  98932407.848 7  25210751.880    25210752.600
  25210752.000          42.350          38.900
 107581390.802 8  83829743.130 8  80336854.842 8  20472024.040    20472022.260
  20472021.700          50.150          49.900
 105728844.520 8  82386223.856 8                  20119463.840    20119458.860
  20119458.080          50.700          49.300
 115503306.683 8  90002681.601 7  86252597.827 8  21979506.620    21979506.140
  21979505.380          48.950          47.300
 130963051.627 7 102049249.712 6                  24921400.840    24921410.880
  24921409.200          42.750          38.000
 133791132.125 7 104252815.17545                  25459601.100
  25459595.580          43.550          33.350
 113893012.942 8  88583532.366 7                  21335979.480    21335982.840
  21335981.900          48.850          44.750
 129871119.146 6 101010863.422 6                  24286531.840    24286547.060
  24286544.740          36.300          36.350
 113846603.718 7  88547418.481 7                  21312306.200    21312308.540
  21312307.700          46.000          44.050
 131682925.086 6 102420062.505 5                  24608100.660    24608101.580
  24608100.440          38.800          32.600
 118102838.785 7  91857772.546 7                  22054870.260    22054871.860
  22054870.860          46.200          44.050
 126086344.423 7  98067196.513 6                  23628525.940    23628531.560
  23628531.860          43.700          37.100
 106729517.691 7  83011793.445 6                  19986974.700    19986977.400
  19986974.760          46.850          37.550
 114411233.378 7  88986529.016 7                  21372978.300    21372980.300
  21372979.200          47.700          45.050
 113257109.274 8  88088860.643 7                  21172169.440    21172170.820
  21172169.280          48.800          45.100
 119873288.970 7  93234822.981 6                  22487913.440    22487921.240
  22487920.460          45.850          38.500
 133744526.693 8                  99874196.215 7  25450724.680
                        49.000
 128960398.352 7                                  24540348.120
                        45.650
 15  1 27 20  7 25.0000000  0 24G22G14G18G13G17G15G06G24G12G25G29G02
                                R18R20R16R17R08R06R09R07R19R10E19E20
 127438913.829 7  99303061.17046                  24250813.140
  24250807.600          45.350          36.950
 124745712.547 7  97204450.91846                  23738313.180
  23738308.360          46.000          37.050
 126369047.475 7  98469398.45945                  24047220.220
  24047217.820          44.450          32.550
 133883378.324 7 104324755.91545                  25477150.180
  25477150.380          42.400          30.900
 130652549.175 7 101807247.405 6                  24862321.760    24862317.720
  24862317.220          45.100          40.100
 118434248.102 8  92286456.661 7                  22537269.700    22537266.440
  22537266.020          49.400          45.450
 132474127.430 7 103226595.772 6  98925483.694 7  25208987.500    25208988.140
  25208987.620          43.900          38.300
 107583262.567 8  83831201.646 8  80338252.579 8  20472380.220    20472378.440
  20472377.880          50.050          49.900
 105728076.686 8  82385625.543 8                  20119317.720    20119312.760
  20119311.980          50.600          49.250
 115491604.247 8  89993562.830 7  86243858.997 8  21977279.720    21977279.240
  21977278.480          48.900          47.300
 130943921.314 7 102034343.233 6                  24917760.240    24917770.200
  24917768.480          43.100          37.800
 133779946.007 7 104244098.72845                  25457472.440
  25457466.880          43.700          31.800
 113898764.064 8  88588005.453 7                  21337056.900    21337060.220
  21337059.240          49.350          44.900
 129848745.631 6 100993462.103 5                  24282347.620    24282362.800
  24282360.520          37.400          35.650
 113856428.682 7  88555060.116 7                  21314145.360    21314147.800
  21314146.960          46.550          43.900
 131701320.665 6 102434370.210 5                  24611538.280    24611539.360
  24611538.120          38.850          33.050
 118097488.023 7  91853610.850 7                  22053871.040    22053872.620
  22053871.640          46.550          43.900
 126107677.730 7  98083788.979 6                  23632523.900    23632529.540
  23632529.880          43.950          37.050
 106727319.116 7  83010083.436 6                  19986562.940    19986565.640
  19986563.040          47.100          37.700
 114423848.536 8  88996340.804 7                  21375334.940    21375336.920
  21375335.820          48.000          44.900
 113241497.074 8  88076717.823 7                  21169250.880    21169252.260
  21169250.700          48.600          44.750
 119860744.448 7  93225066.138 6                  22485560.100    22485567.960
  22485567.180          45.450          38.350
 133750486.980 8                  99878647.059 7  25451858.900
                        48.900
 128974367.135 7                                  24543006.240
                        45.650
 15  1 27 20  7 30.0000000  0 24G22G14G18G13G17G15G06G24G12G25G29G02
                                R18R20R16R17R08R06R09R07R19R10E19E20
 127443704.793 7  99306794.38446                  24251724.760
  24251719.340          45.050          38.050
 124730000.714 7  97192207.91946                  23735323.360
  23735318.560          46.150          36.800
 126379411.217 7  98477474.07845                  24049192.360
  24049189.780          44.400          32.750
 133902844.781 7 104339924.46844                  25480854.640
  25480854.820          42.100          29.200
 130666719.515 7 101818289.222 6                  24865018.280    24865014.240
  24865013.800          45.100          40.450
 118450150.328 8  92298848.000 7                  22540295.740    22540292.540
  22540292.100          49.250          45.350
 132464860.436 7 103219374.735 6  98918563.534 7  25207224.120    25207224.800
  25207224.200          43.800          38.200
 107585140.575 8  83832665.022 8  80339654.986 8  20472737.600    20472735.820
  20472735.240          49.950          50.050
 105727318.127 8  82385034.456 8                  20119173.380    20119168.420
  20119167.620          50.550          49.350
 115479907.747 8  89984448.676 7  86235124.610 8  21975053.960    21975053.460
  21975052.700          48.750          47.300
 130924787.297 7 102019433.869 6                  24914119.000    24914128.880
  24914127.180          42.950          38.150
 133768756.697 7 104235379.77445                  25455343.220
  25455337.520          43.900          31.100
 113904534.591 8  88592493.617 7                  21338137.920    21338141.260
  21338140.200          49.100          45.000
 129826366.791 6 100976056.576 5                  24278162.520    24278177.720
  24278175.320          37.700          35.700
 113866255.829 7  88562703.446 7                  21315984.960    21315987.440
  21315986.640          46.800          43.950
 131719723.291 6 102448683.376 5                  24614977.260    24614978.380
  24614977.140          36.700          34.200
 118092155.915 7  91849463.643 7                  22052875.300    22052876.900
  22052875.900          46.900          44.000
 126129007.862 7  98100379.001 6                  23636521.240    23636526.960
  23636527.240          43.150          36.900
 106725124.417 7  83008376.442 6                  19986151.960    19986154.580
  19986152.100          46.850          37.850
 114436477.639 8  89006163.416 7                  21377694.200    21377696.160
  21377695.020          48.050          44.850
 113225897.162 8  88064584.549 7                  21166334.660    21166335.960
  21166334.380          49.050          45.000
 119848199.078 7  93215308.645 6                  22483206.620    22483214.480
  22483213.680          45.950          38.150
 133756455.284 8                  99883103.908 7  25452994.660
                        48.950
 128988336.391 7                                  24545664.440
                        45.550
 15  1 27 20  7 35.0000000  0 24G22G14G18G13G17G15G06G24G12G25G29G02
                                R18R20R16R17R08R06R09R07R19R10E19E20
 127448507.764 7  99310536.94046                  24252638.680
  24252633.400          44.650          38.950
 124714295.786 7  97179970.32446                  23732334.800
  23732330.020          46.200          37.250
 126389781.136 7  98485554.53645                  24051165.680
  24051163.160          44.150          33.100
 133922312.425 6 104355093.99345                  25484559.280
  25484559.580          40.200          32.600
 130680898.499 7 101829337.784 6                  24867716.440    24867712.380
  24867712.060          44.800          40.350
 118466060.445 8  92311245.496 7                  22543323.280    22543320.120
  22543319.700          49.250          45.350
 132455602.040 7 103212160.384 6  98911649.799 7  25205462.440    25205462.980
  25205462.380          43.650          38.350
 107587027.947 8  83834135.708 8  80341064.397 8  20473096.780    20473094.980
  20473094.380          49.900          50.000
 105726572.117 8  82384453.160 8                  20119031.420    20119026.480
  20119025.660          50.350          49.350
 115468220.450 8  89975341.702 7  86226397.099 8  21972829.920    21972829.460
  21972828.700          48.700          47.300
 130905652.827 7 102004524.150 6                  24910477.680    24910487.380
  24910485.720          42.850          37.850
 133757567.434 7 104226660.91545                  25453213.980
  25453208.260          44.100          34.300
 113910327.793 8  88596999.441 7                  21339223.180    21339226.540
  21339225.480          48.800          45.200
 129803986.028 6 100958649.603 5                  24273977.100    24273992.180
  24273989.880          38.150          35.650
 113876088.580 7  88570351.137 7                  21317825.660    21317828.120
  21317827.360          46.750          44.100
 131738136.164 6 102463004.442 5                  24618418.140    24618419.280
  24618418.040          36.600          34.300
 118086845.680 7  91845333.462 7                  22051883.700    22051885.220
  22051884.280          47.250          44.400
 126150338.087 7  98116969.081 6                  23640518.580    23640524.120
  23640524.620          43.000          36.200
 106722936.917 7  83006675.065 6                  19985742.320    19985744.960
  19985742.440          47.000          37.300
 114449123.901 8  89015999.404 7                  21380056.660    21380058.540
  21380057.400          48.250          44.750
 113210312.707 8  88052463.308 7                  21163421.320    21163422.600
  21163421.020          49.300          44.950
 119835656.141 7  93205553.042 6                  22480853.560    22480861.300
  22480860.600          45.650          37.900
 133762434.850 8                  99887569.170 7  25454132.560
                        48.800
 129002309.367 7                                  24548323.360
                        45.300
 15  1 27 20  7 40.0000000  0 24G22G14G18G13G17G15G06G24G12G25G29G02
                                R18R20R16R17R08R06R09R07R19R10E19E20
 127453322.154 7  99314288.42346                  24253554.780
  24253549.580          44.900          38.400
 124698597.179 7  97167737.65046                  23729347.440
  23729342.700          45.950          36.950
 126400156.594 7  98493639.29045                  24053140.100
  24053137.460          44.250          34.550
 133941780.658 6 104370263.84844                  25488264.060
  25488264.400          40.650          29.150
 130695085.471 7 101840392.569 6                  24870416.100    24870412.080
  24870411.800          45.050          40.450
 118481977.792 8  92323648.628 7                  22546352.200    22546349.080
  22546348.680          49.150          45.550
 132446351.630 7 103204952.263 6  98904741.996 7  25203702.260    25203702.720
  25203702.060          43.850          38.300
 107588924.106 8  83835613.232 8  80342480.350 8  20473457.600    20473455.800
  20473455.180          49.800          50.050
 105725838.002 8  82383881.130 8                  20118891.720    20118886.780
  20118885.960          50.350          49.300
 115456541.712 8  89966241.399 7  86217675.967 8  21970607.540    21970607.060
  21970606.280          48.800          47.350
 130886517.309 7 101989613.613 6                  24906836.120    24906845.700
  24906844.120          43.100          38.000
 133746377.611 7 104217941.59945                  25451084.640
  25451079.000          43.850          33.000
 113916142.993 8  88601522.389 7                  21340312.520    21340315.960
  21340314.900          48.650          45.150
 129781602.586 6 100941240.525 5                  24269791.100    24269806.100
  24269803.780          38.000          35.400
 113885926.111 7  88578002.548 7                  21319667.280    21319669.760
  21319669.000          46.950          44.000
 131756558.514 6 102477332.920 5                  24621860.740    24621861.920
  24621860.720          39.000          34.300
 118081556.669 7  91841219.793 7                  22050896.040    22050897.500
  22050896.620          47.450          44.300
 126171667.710 7  98133558.690 6                  23644515.820    23644521.380
  23644521.820          42.300          36.700
 106720755.969 7  83004978.776 6                  19985333.900    19985336.600
  19985334.040          46.900          37.800
 114461786.760 8  89025848.295 7                  21382422.200    21382424.060
  21382422.900          48.250          45.050
 113194743.171 8  88040353.682 7                  21160510.820    21160512.040
  21160510.440          48.900          45.000
 119823114.897 7  93195798.747 6                  22478500.840    22478508.520
  22478507.860          45.050          38.500
 133768425.046 8                  99892042.369 7  25455272.480
                        48.800
 129016285.405 7                                  24550982.840
                        45.150
 15  1 27 20  7 45.0000000  0 24G22G14G18G13G17G15G06G24G12G25G29G02
                                R18R20R16R17R08R06R09R07R19R10E19E20
 127458147.913 7  99318048.73346                  24254473.060
  24254467.840          44.800          38.150
 124682904.823 7  97155509.85346                  23726361.280
  23726356.560          45.800          37.250
 126410537.556 7  98501728.32745                  24055115.580
  24055112.920          43.600          35.500
 133961249.390 6 104385434.21145                  25491968.880
  25491969.240          41.600          31.350
 130709280.439 7 101851453.595 6                  24873117.320    24873113.240
  24873113.040          45.000          40.550
 118497902.352 8  92336057.370 7                  22549382.480    22549379.460
  22549379.040          49.050          45.400
 132437109.150 7 103197750.328 6  98897840.152 7  25201943.560    25201943.920
  25201943.300          44.750          38.650
 107590829.161 8  83837097.697 8  80343902.968 8  20473820.120    20473818.320
  20473817.700          49.750          50.000
 105725115.792 8  82383318.373 8                  20118754.280    20118749.320
  20118748.520          50.350          49.350
 115444871.519 8  89957147.752 7  86208961.224 8  21968386.780    21968386.300
  21968385.520          48.750          47.450
 130867380.756 7 101974702.263 6                  24903194.400    24903203.780
  24903202.280          43.600          37.650
 133735187.231 7 104209221.85145                  25448955.200
  25448949.560          44.050          35.000
 113921980.147 8  88606062.397 7                  21341406.000    21341409.460
  21341408.440          48.850          45.000
 129759216.521 6 100923829.389 5                  24265604.660    24265619.660
  24265617.300          37.200          35.800
 113895768.485 7  88585657.734 7                  21321509.760    21321512.280
  21321511.500          47.050          43.750
 131774990.352 6 102491668.817 5                  24625305.220    24625306.440
  24625305.100          39.400          34.100
 118076288.963 7  91837122.690 7                  22049912.340    22049913.780
  22049912.940          47.200          44.100
 126192996.921 7  98150147.950 6                  23648512.920    23648518.560
  23648518.940          43.050          36.050
 106718581.496 7  83003287.530 6                  19984926.720    19984929.460
  19984926.820          47.200          37.050
 114474466.185 8  89035710.065 7                  21384790.820    21384792.700
  21384791.500          48.200          44.850
 113179188.549 8  88028255.655 7                  21157603.060    21157604.220
  21157602.640          49.050          44.600
 119810575.438 7  93186045.854 6                  22476148.440    22476156.140
  22476155.480          45.550          38.250
 133774425.832 8                  99896523.475 7  25456414.400
                        48.750
 129030264.517 7                                  24553642.900
                        45.350
 15  1 27 20  7 50.0000000  0 24G22G14G18G13G17G15G06G24G12G25G29G02
                                R18R20R16R17R08R06R09R07R19R10E19E20
 127462984.298 7  99321817.34546                  24255393.380
  24255388.160          44.300          37.900
 124667218.093 7  97143286.41246                  23723376.180
  23723371.460          45.800          37.800
 126420923.319 7  98509821.12446                  24057091.940
  24057089.200          43.750          36.850
 133980717.951 7 104400604.38544                  25495673.800
  25495674.100          42.550          29.950
 130723482.684 7 101862520.286 6                  24875819.900    24875815.820
  24875815.660          45.250          40.450
 118513833.426 8  92348471.185 7                  22552414.020    22552411.020
  22552410.600          48.900          45.700
 132427873.964 7 103190554.083 6  98890943.754 7  25200186.260    25200186.500
  25200185.840          43.900          38.000
 107592742.315 8  83838588.466 8  80345331.625 8  20474184.180    20474182.360
  20474181.740          49.800          49.950
 105724404.769 8  82382764.336 8                  20118618.960    20118614.020
  20118613.220          50.300          49.350
 115433209.181 8  89948060.220 7  86200252.344 8  21966167.520    21966167.000
  21966166.280          48.600          47.400
 130848242.468 7 101959789.539 6                  24899552.340    24899561.500
  24899560.000          43.550          37.750
 133723995.632 7 104200501.13746                  25446825.520
  25446819.820          45.050          36.200
 113927838.655 8  88610619.016 7                  21342503.480    21342506.940
  21342505.980          49.000          45.050
 129736827.251 6 100906415.819 5                  24261417.640    24261432.500
  24261430.120          37.550          35.300
 113905614.915 7  88593316.067 7                  21323353.080    21323355.540
  21323354.760          47.100          43.550
 131793430.950 6 102506011.546 5                  24628751.360    24628752.560
  24628751.180          38.250          33.850
 118071041.734 7  91833041.516 7                  22048932.480    22048933.900
  22048933.080          47.100          43.650
 126214324.737 7  98166736.164 5                  23652509.800    23652515.500
  23652515.760          43.950          35.500
 106716412.816 7  83001600.775 6                  19984520.640    19984523.260
  19984520.660          47.600          37.500
 114487161.371 7  89045584.101 7                  21387162.400    21387164.320
  21387163.080          47.950          44.950
 113163648.257 8  88016168.757 7                  21154698.020    21154699.120
  21154697.520          49.050          44.700
 119798037.003 7  93176293.746 6                  22473796.240    22473803.940
  22473803.280          45.300          37.700
 133780436.531 8                  99901011.978 7  25457558.180
                        48.550
 129044245.956 7                                  24556303.440
                        45.300
 15  1 27 20  7 55.0000000  0 24G22G14G18G13G17G15G06G24G12G25G29G02
                                R18R20R16R17R08R06R09R07R19R10E19E20
 127467831.722 7  99325594.56046                  24256315.800
  24256310.540          44.050          38.500
 124651537.359 7  97131067.67346                  23720392.220
  23720387.560          45.850          36.200
 126431314.274 7  98517917.98045                  24059069.320
  24059066.420          43.900          35.350
 134000186.627 7 104415774.68644                  25499378.680
  25499379.200          42.850          29.700
 130737692.584 7 101873592.933 6                  24878523.940    24878519.820
  24878519.660          45.100          40.350
 118529771.373 8  92360890.358 7                  22555446.860    22555443.920
  22555443.520          48.950          45.650
 132418646.458 7 103183363.796 6  98884053.084 7  25198430.420    25198430.520
  25198429.840          43.050          37.250
 107594663.994 8  83840085.875 8  80346766.646 8  20474549.840    20474548.040
  20474547.420          50.000          49.950
 105723705.319 8  82382219.310 8                  20118485.840    20118480.920
  20118480.120          50.300          49.250
 115421555.047 8  89938979.081 7  86191549.587 8  21963949.780    21963949.280
  21963948.580          48.650          47.350
 130829102.809 7 101944875.740 6                  24895910.040    24895919.040
  24895917.560          42.850          37.800
 133712803.115 7 104191779.71445                  25444695.660
  25444689.900          44.800          35.000
 113933718.750 8  88615192.432 7                  21343605.020    21343608.480
  21343607.540          48.650          44.900
 129714435.052 6 100888999.915 5                  24257230.060    24257244.900
  24257242.320          39.150          34.100
 113915465.823 7  88600977.886 7                  21325197.160    21325199.680
  21325198.880          46.800          43.650
 131811880.798 6 102520361.412 5                  24632199.100    24632200.080
  24632199.000          39.050          34.150
 118065815.421 7  91828976.623 7                  22047956.520    22047957.960
  22047957.120          47.150          43.400
 126235651.486 7  98183323.548 5                  23656506.540    23656512.220
  23656512.440          43.550          35.750
 106714250.403 7  82999918.894 6                  19984115.700    19984118.280
  19984115.680          47.350          37.350
 114499872.553 8  89055470.561 7                  21389536.940    21389538.880
  21389537.660          48.000          44.900
 113148122.452 8  88004093.129 7                  21151795.660    21151796.740
  21151795.120          49.100          44.700
 119785499.936 7  93166542.708 6                  22471444.260    22471452.000
  22471451.300          45.100          37.650
 133786457.482 8                  99905508.157 7  25458703.920
                        48.450
 129058230.089 7                                  24558964.500
                        45.400
 15  1 27 20  8  0.0000000  0 24G22G14G18G13G17G15G06G24G12G25G29G02
                                R18R20R16R17R08R06R09R07R19R10E19E20
 127472690.956 7  99329380.96846                  24257240.480
  24257235.260          44.150          37.850
 124635863.375 7  97118854.18146                  23717409.560
  23717404.920          45.850          37.500
 126441711.107 7  98526019.38545                  24061047.800
  24061044.940          43.750          34.750
 134019656.282 7 104430945.72244                  25503083.680
  25503084.280          43.000          28.800
 130751910.837 7 101884672.089 6                  24881229.560    24881225.500
  24881225.280          45.350          39.950
 118545716.898 8  92373315.441 7                  22558481.140    22558478.260
  22558477.840          49.200          45.800
 132409427.371 7 103176180.077 6  98877168.687 7  25196676.180    25196676.200
  25196675.480          42.750          36.900
 107596594.878 8  83841590.464 8  80348208.540 8  20474917.280    20474915.480
  20474914.860          50.150          49.900
 105723018.176 8  82381683.871 8                  20118355.060    20118350.180
  20118349.360          50.400          49.200
 115409909.870 8  89929904.929 7  86182853.527 8  21961733.740    21961733.260
  21961732.580          48.550          47.250
 130809962.564 7 101929961.523 6                  24892267.560    24892276.500
  24892275.020          42.700          38.100
 133701610.505 7 104183058.22245                  25442565.780
  25442560.020          44.500          35.150
 113939621.284 8  88619783.298 7                  21344710.760    21344714.240
  21344713.260          48.250          45.000
 129692040.803 6 100871582.392 5                  24253042.080    24253056.560
  24253054.140          38.850          34.350
 113925322.042 7  88608643.830 7                  21327042.280    21327044.800
  21327043.980          46.850          43.700
 131830340.392 6 102534718.888 5                  24635648.700    24635649.640
  24635648.600          37.900          33.400
 118060610.914 7  91824928.667 7                  22046984.640    22046986.020
  22046985.180          47.050          42.950
 126256978.147 7  98199910.860 5                  23660503.220    23660509.020
  23660509.100          43.800          35.550
 106712094.895 7  82998242.387 6                  19983712.060    19983714.540
  19983712.020          47.400          36.950
 114512600.778 8  89065370.290 7                  21391914.680    21391916.640
  21391915.460          48.300          45.150
 113132612.101 8  87992029.523 7                  21148896.200    21148897.280
  21148895.600          49.250          44.650
 119772964.923 7  93156793.272 6                  22469092.680    22469100.400
  22469099.720          45.100          37.600
 133792489.449 8                  99910012.539 7  25459851.740
                        48.650
 129072217.685 7                                  24561626.200
                        45.650
 15  1 27 20  8  5.0000000  0 24G22G14G18G13G17G15G06G24G12G25G29G02
                                R18R20R16R17R08R06R09R07R19R10E19E20
 127477561.762 7  99333176.38546                  24258167.320
  24258162.200          44.150          38.600
 124620195.941 7  97106645.80746                  23714428.120
  23714423.560          46.050          37.300
 126452113.686 7  98534125.27545                  24063027.380
  24063024.640          44.650          34.100
 134039126.608 7 104446117.29945                  25506788.820
  25506789.620          42.550          33.750
 130766137.240 7 101895757.610 6                  24883936.740    24883932.660
  24883932.460          45.350          39.800
 118561669.838 8  92385746.293 7                  22561516.860    22561514.040
  22561513.600          49.450          45.550
 132400216.521 7 103169002.769 6  98870290.451 7  25194923.480    25194923.280
  25194922.580          42.800          37.650
 107598534.780 8  83843102.079 8  80349657.179 8  20475286.440    20475284.620
  20475284.020          50.250          49.900
 105722343.140 8  82381157.870 8                  20118226.580    20118221.720
  20118220.900          50.600          49.150
 115398273.485 8  89920837.632 7  86174164.040 8  21959519.400    21959518.920
  21959518.260          48.450          47.150
 130790821.552 7 101915046.699 6                  24888625.000    24888633.820
  24888632.380          43.750          38.250
 133690417.605 7 104174336.51445                  25440435.840
  25440430.000          44.600          34.500
 113945546.030 8  88624391.432 7                  21345820.680    21345824.120
  21345823.160          48.300          45.100
 129669644.134 6 100854163.002 5                  24248853.600    24248868.020
  24248865.480          39.200          35.650
 113935183.353 7  88616313.741 7                  21328888.320    21328890.860
  21328890.000          46.700          43.850
 131848809.726 6 102549083.917 5                  24639100.040    24639101.180
  24639100.080          37.700          32.800
 118055427.797 7  91820897.346 7                  22046016.780    22046018.140
  22046017.200          47.300          43.300
 126278304.338 7  98216497.796 5                  23664499.780    23664505.660
  23664505.700          44.150          34.550
 106709946.125 7  82996571.132 6                  19983309.640    19983312.160
  19983309.620          47.650          37.600
 114525345.502 8  89075282.845 7                  21394295.520    21394297.480
  21394296.320          48.300          45.000
 113117117.003 8  87979977.782 7                  21145999.580    21146000.640
  21145998.960          49.200          44.850
 119760431.898 7  93147045.391 6                  22466741.460    22466749.220
  22466748.460          45.400          37.700
 133798532.219 8                  99914524.986 7  25461001.640
                        48.900
 129086208.539 7                                  24564288.560
                        45.750
 15  1 27 20  8 10.0000000  0 24G22G14G18G13G17G15G06G24G12G25G29G02
                                R18R20R16R17R08R06R09R07R19R10E19E20
 127482442.562 7  99336979.61046                  24259096.080
  24259091.000          44.000          38.800
 124604533.489 7  97094441.29546                  23711447.680
  23711443.020          46.150          36.650
 126462520.325 7  98542234.30345                  24065007.740
  24065005.000          44.400          34.950
 134058596.002 7 104461288.13544                  25510493.820
  25510494.640          42.800          29.800
 130780370.220 7 101906848.244 6                  24886645.160    24886641.140
  24886640.840          45.550          39.600
 118577628.542 8  92398181.649 7                  22564553.700    22564550.900
  22564550.460          49.350          45.750
 132391012.294 7 103161830.675 6  98863417.183 7  25193172.020    25193171.840
  25193171.120          42.550          37.050
 107600482.115 8  83844619.487 8  80351111.350 8  20475657.020    20475655.180
  20475654.560          50.050          49.900
 105721678.583 8  82380640.031 8                  20118100.100    20118095.260
  20118094.420          50.400          49.100
 115386644.288 8  89911775.929 7  86165479.896 8  21957306.400    21957305.940
  21957305.300          48.600          47.150
 130771678.217 7 101900130.036 6                  24884982.020    24884990.720
  24884989.260          43.100          38.050
 133679222.813 7 104165613.31645                  25438305.560
  25438299.700          44.550          34.100
 113951491.316 8  88629015.543 7                  21346934.440    21346937.900
  21346936.940          48.450          44.950
 129647243.650 6 100836740.663 6                  24244664.420    24244678.800
  24244676.280          39.350          36.600
 113945048.013 7  88623986.239 7                  21330734.980    21330737.580
  21330736.660          46.650          43.800
 131867286.999 6 102563455.112 5                  24642553.000    24642554.160
  24642553.020          38.150          32.400
 118050264.534 7  91816881.464 7                  22045052.580    22045053.920
  22045052.980          47.650          43.600
 126299628.587 7  98233083.256 5                  23668496.000    23668501.860
  23668501.820          43.450          34.950
 106707802.509 7  82994903.877 6                  19982908.240    19982910.700
  19982908.160          47.650          37.200
 114538105.255 8  89085207.080 7                  21396679.180    21396681.080
  21396679.980          48.350          45.150
 113101635.432 8  87967936.566 7                  21143105.460    21143106.540
  21143104.860          49.250          45.050
 119747899.178 7  93137297.727 6                  22464390.340    22464398.120
  22464397.280          45.200          37.900
 133804584.162 8                  99919044.292 7  25462153.280
                        48.750
 129100200.983 7                                  24566951.240
                        45.900
 15  1 27 20  8 15.0000000  0 24G22G14G18G13G17G15G06G24G12G25G29G02
                                R18R20R16R17R08R06R09R07R19R10E19E20
 127487336.448 7  99340793.00946                  24260027.340
  24260022.300          43.900          39.450
 124588879.175 7  97082243.13246                  23708468.760
  23708464.080          46.100          36.300
 126472934.195 7  98550349.00345                  24066989.500
  24066986.620          44.300          35.000
 134078067.654 6 104476460.76244                  25514199.240
  25514199.920          41.750          29.900
 130794612.803 7 101917946.365 6                  24889355.420    24889351.360
  24889351.100          45.600          39.450
 118593596.183 8  92410623.960 7                  22567592.240    22567589.460
  22567589.060          49.300          45.450
 132381817.895 6 103154666.206 6  98856551.243 7  25191422.440    25191422.180
  25191421.460          41.150          37.600
 107602440.078 8  83846145.175 8  80352573.473 8  20476029.620    20476027.740
  20476027.140          50.150          49.850
 105721027.652 8  82380132.814 8                  20117976.200    20117971.380
  20117970.560          50.450          49.200
 115375025.400 8  89902722.254 7  86156803.471 8  21955095.360    21955094.940
  21955094.300          48.500          47.150
 130752535.626 7 101885213.958 6                  24881339.120    24881347.780
  24881346.260          42.600          38.550
 133668029.312 7 104156891.14045                  25436175.500
  25436169.620          45.100          33.700
 113957460.392 8  88633658.158 7                  21348052.660    21348056.160
  21348055.160          48.800          45.200
 129624842.444 6 100819317.773 6                  24240475.100    24240489.520
  24240487.080          39.200          36.750
 113954919.342 7  88631663.935 7                  21332582.900    21332585.480
  21332584.580          46.650          43.900
 131885775.525 6 102577835.112 5                  24646007.960    24646009.200
  24646008.120          36.350          32.400
 118045124.407 7  91812883.577 7                  22044092.760    22044094.020
  22044093.080          47.550          43.600
 126320953.828 7  98249669.457 5                  23672492.340    23672498.300
  23672498.180          43.050          35.700
 106705667.177 7  82993243.070 6                  19982508.420    19982510.860
  19982508.280          47.700          37.700
 114550883.299 8  89095145.559 7                  21399066.240    21399068.140
  21399067.060          48.300          45.050
 113086170.742 8  87955908.482 7                  21140214.500    21140215.600
  21140213.900          49.300          45.100
 119735369.898 7  93127552.755 6                  22462039.920    22462047.600
  22462046.740          45.600          37.650
 133810648.455 8                  99923572.816 7  25463307.280
                        48.800
 129114198.174 7                                  24569614.820
                        46.000
