     2.11           OBSERVATION DATA    M (MIXED)           RINEX VERSION / TYPE
teqc  2011Oct11     IGN-E (SPG)         20150127 08:00:46UTCPGM / RUN BY / DATE
Linux 2.4.21-27.ELsmp|Opteron|gcc -static|Linux x86_64|=+   COMMENT
BIT 2 OF LLI FLAGS DATA COLLECTED UNDER A/S CONDITION       COMMENT
VALE                                                        MARKER NAME
13439M001                                                   MARKER NUMBER
Programas GeodesicosInstituto Geografico Nacional           OBSERVER / AGENCY
1700071             LEICA GR10          3.03/6.214          REC # / TYPE / VERS
10190012            LEIAR25.R3      LEIT                    ANT # / TYPE
  4929534.0457   -29050.6755  4033709.9250                  APPROX POSITION XYZ
        3.0390        0.0000        0.0000                  ANTENNA: DELTA H/E/N
     1     1                                                WAVELENGTH FACT L1/2
     8    L1    L2    L5    C1    C2    P2    S1    S2      # / TYPES OF OBSERV
     5.0000                                                 INTERVAL
Forced Modulo Decimation to 5 seconds                       COMMENT
DefaultJobName                                              COMMENT
DefaultUserDiscription                                      COMMENT
Project creator:                                            COMMENT
 SNR is mapped to RINEX snr flag value [0-9]                COMMENT
  L1 & L2: min(max(int(snr_dBHz/6), 0), 9)                  COMMENT
  2015     1    27     7     0    0.0000000     GPS         TIME OF FIRST OBS
    15                                                      LEAP SECONDS
                                                            END OF HEADER
 15  1 27  7  0  0.0000000  0 17G11G14G28G04G03G22G27G19G32G01R24R08
                                R07R22R15R23R01
 105954122.108 8  82561644.67447                  20162393.020
  20162387.360          49.200          47.900
 121011937.940 7  94295004.15546                  23027805.740
  23027801.540          47.900          39.750
 123295571.327 7  96074442.59846                  23462364.340
  23462358.640          47.250          39.950
 106403071.194 8  82911497.23047                  20247820.540
  20247816.280          50.350          47.150
 115213762.970 8  89776960.251 8  86036257.451 8  21924446.420    21924445.360
  21924444.740          49.700          48.350
 127517138.968 7  99364009.27046                  24265693.800
  24265687.840          46.150          38.550
 122215853.433 8  95233137.566 7  91265083.588 8  23256902.620    23256901.500
  23256900.880          48.800          45.700
 112548990.484 8  87700490.65047                  21417356.220
  21417349.640          50.100          47.900
 105449127.679 8  82168175.28747                  20066285.220
  20066281.220          49.750          47.700
 110269830.872 8  85924564.529 8  82344364.598 8  20983644.000    20983642.840
  20983642.700          49.550          49.550
 110973121.104 8  86312447.581 6                  20752529.700    20752530.800
  20752529.040          48.300          41.700
 104605393.433 8  81359771.322 7                  19534306.340    19534307.140
  19534306.260          49.400          47.600
 123640552.302 7  96164902.102 6                  23097089.020    23097090.440
  23097089.680          45.000          41.200
 120547696.305 8  93759343.251 7                  22582642.440    22582646.700
  22582645.640          48.300          43.050
 129549505.153 7 100760742.811 6                  24243425.000    24243429.780
  24243427.720          42.400          37.500
 104983143.657 8  81653578.867 8                  19625486.480    19625489.660
  19625488.840          49.550          48.000
 107964516.085 8  83972412.976 7                  20196989.680    20196993.680
  20196993.380          48.950          42.900
 15  1 27  7  0  5.0000000  0 17G11G14G28G04G03G22G27G19G32G01R24R08
                                R07R22R15R23R01
 105950905.169 8  82559137.96548                  20161780.840
  20161775.200          49.100          48.000
 121014305.743 8  94296849.19246                  23028256.300
  23028252.120          48.050          39.700
 123291254.102 7  96071078.52746                  23461542.800
  23461537.080          47.400          40.350
 106404946.188 8  82912958.26147                  20248177.340
  20248173.060          50.450          47.350
 115200709.769 8  89766788.920 8  86026509.927 8  21921962.500    21921961.420
  21921960.800          49.700          48.400
 127532909.093 7  99376297.64446                  24268694.760
  24268688.840          46.550          37.700
 122232596.360 8  95246183.979 7  91277586.407 8  23260088.760    23260087.620
  23260087.000          49.050          45.850
 112560111.545 8  87709156.41147                  21419472.460
  21419465.920          50.150          47.850
 105448279.010 8  82167513.98647                  20066123.720
  20066119.720          49.850          47.550
 110263301.512 8  85919476.707 8  82339488.783 8  20982401.460    20982400.340
  20982400.220          49.550          49.450
 110958663.526 7  86301202.794 6                  20749826.080    20749827.100
  20749825.400          47.950          41.650
 104612746.155 8  81365490.102 7                  19535679.440    19535680.160
  19535679.340          49.250          47.450
 123660868.136 7  96180703.287 6                  23100884.160    23100885.680
  23100884.860          45.100          41.350
 120563882.066 7  93771932.166 7                  22585674.620    22585678.880
  22585677.780          47.850          42.200
 129554792.610 7 100764855.290 6                  24244414.480    24244419.240
  24244417.280          42.250          37.200
 104984795.994 8  81654864.006 8                  19625795.380    19625798.560
  19625797.740          49.550          48.000
 107950912.133 8  83961832.121 7                  20194444.820    20194448.740
  20194448.460          49.000          42.650
 15  1 27  7  0 10.0000000  0 17G11G14G28G04G03G22G27G19G32G01R24R08
                                R07R22R15R23R01
 105947698.137 8  82556638.97447                  20161170.560
  20161164.940          48.850          47.750
 121016687.990 7  94298705.48046                  23028709.620
  23028705.400          47.850          40.350
 123286950.320 7  96067724.92646                  23460723.800
  23460718.080          47.250          40.100
 106406828.831 8  82914425.24747                  20248535.620
  20248531.320          50.350          47.200
 115187665.035 8  89756624.189 8  86016768.719 8  21919480.180    21919479.120
  21919478.480          49.700          48.350
 127548680.067 7  99388586.71046                  24271695.900
  24271689.960          46.350          37.200
 122249344.694 8  95259234.617 7  91290093.262 8  23263275.960    23263274.820
  23263274.180          49.100          45.900
 112571242.761 8  87717830.08248                  21421590.620
  21421584.140          49.900          48.100
 105447444.875 8  82166864.00947                  20065965.000
  20065961.000          49.850          47.500
 110256777.522 8  85914393.081 8  82334616.955 8  20981159.960    20981158.880
  20981158.740          49.600          49.450
 110944212.215 7  86289962.881 6                  20747123.620    20747124.620
  20747122.900          47.300          41.300
 104620116.781 8  81371222.803 7                  19537055.880    19537056.600
  19537055.780          49.250          47.350
 123681187.364 7  96196507.117 6                  23104680.020    23104681.500
  23104680.680          45.450          41.350
 120580075.269 7  93784526.860 7                  22588708.180    22588712.440
  22588711.320          47.400          42.750
 129560097.712 6 100768981.472 6                  24245407.220    24245412.060
  24245410.080          41.750          37.050
 104986462.793 8  81656160.407 7                  19626106.980    19626110.160
  19626109.340          49.550          47.950
 107937323.729 8  83951263.370 7                  20191902.820    20191906.780
  20191906.480          49.100          42.800
 15  1 27  7  0 15.0000000  0 17G11G14G28G04G03G22G27G19G32G01R24R08
                                R07R22R15R23R01
 105944501.444 8  82554148.03848                  20160562.240
  20160556.640          48.850          48.200
 121019085.082 8  94300573.34246                  23029165.760
  23029161.520          48.100          40.050
 123282660.377 7  96064382.10446                  23459907.480
  23459901.740          47.550          39.950
 106408719.521 8  82915898.50647                  20248895.420
  20248891.100          50.350          47.200
 115174629.181 8  89746466.375 8  86007034.145 8  21916999.560    21916998.480
  21916997.860          49.650          48.400
 127564452.286 7  99400876.73746                  24274697.260
  24274691.300          46.400          37.150
 122266098.864 8  95272289.796 7  91302604.468 8  23266464.260    23266463.060
  23266462.460          49.050          45.700
 112582384.529 8  87726511.96548                  21423710.800
  21423704.360          49.900          48.100
 105446625.752 8  82166225.72147                  20065809.120
  20065805.120          49.900          47.300
 110250259.312 8  85909313.948 8  82329749.459 8  20979919.580    20979918.520
  20979918.380          49.700          49.450
 110929767.744 7  86278728.290 6                  20744422.440    20744423.420
  20744421.680          47.700          41.500
 104627505.837 8  81376969.844 7                  19538435.740    19538436.480
  19538435.660          49.350          47.550
 123701510.567 7  96212314.033 6                  23108476.600    23108478.080
  23108477.260          45.700          41.400
 120596276.425 7  93797127.720 7                  22591743.200    22591747.540
  22591746.360          47.650          42.650
 129565420.822 6 100773121.673 6                  24246403.400    24246408.140
  24246406.220          41.650          36.950
 104988144.755 8  81657468.594 7                  19626421.400    19626424.560
  19626423.780          49.550          47.950
 107923751.405 8  83940707.116 7                  20189363.820    20189367.780
  20189367.520          48.950          42.750
 15  1 27  7  0 20.0000000  0 17G11G14G28G04G03G22G27G19G32G01R24R08
                                R07R22R15R23R01
 105941316.490 8  82551666.25248                  20159956.160
  20159950.580          48.800          48.050
 121021498.415 7  94302453.85746                  23029625.000
  23029620.700          47.800          40.750
 123278385.758 7  96061051.23346                  23459094.040
  23459088.300          47.600          39.950
 106410619.803 8  82917379.23547                  20249257.060
  20249252.680          50.350          47.000
 115161603.679 8  89736316.627 8  85997307.306 8  21914520.900    21914519.840
  21914519.180          49.250          48.350
 127580227.214 7  99413168.87046                  24277699.140
  24277693.260          46.150          36.750
 122282860.296 8  95285350.640 7  91315121.106 8  23269653.920    23269652.700
  23269652.060          48.850          45.400
 112593538.271 8  87735203.18047                  21425833.260
  21425826.860          49.950          47.850
 105445823.000 8  82165600.20047                  20065656.360
  20065652.360          49.800          47.150
 110243748.329 8  85904240.451 8  82324887.359 8  20978680.580    20978679.540
  20978679.380          49.650          49.600
 110915331.494 7  86267500.092 6                  20741722.760    20741723.740
  20741722.000          47.700          41.650
 104634914.612 8  81382732.227 7                  19539819.280    19539820.040
  19539819.200          49.200          47.550
 123721839.063 7  96228125.066 6                  23112274.180    23112275.640
  23112274.840          45.450          41.500
 120612486.998 7  93809735.930 7                  22594780.000    22594784.420
  22594783.180          47.550          42.900
 129570763.156 6 100777276.828 6                  24247403.140    24247407.880
  24247406.000          41.150          36.100
 104989843.174 8  81658789.574 7                  19626738.900    19626742.080
  19626741.280          49.200          47.900
 107910196.715 8  83930164.582 7                  20186828.140    20186832.080
  20186831.840          48.700          42.750
 15  1 27  7  0 25.0000000  0 18G11G14G28G04G03G22G27G19G32G01R24R02
                                R08R07R22R15R23R01
 105938141.600 8  82549192.31248                  20159351.980
  20159346.420          48.750          48.300
 121023926.360 7  94304345.76246                  23030087.020
  23030082.680          47.700          40.600
 123274124.775 7  96057730.98546                  23458283.200
  23458277.460          47.600          39.300
 106412527.932 8  82918866.08947                  20249620.180
  20249615.760          50.250          47.150
 115148586.807 8  89726173.616 8  85987586.914 8  21912043.860    21912042.820
  21912042.160          49.200          48.400
 127596003.133 7  99425461.78446                  24280701.220
  24280695.400          45.350          37.750
 122299627.275 8  95298415.802 7  91327641.872 8  23272844.600    23272843.360
  23272842.720          48.850          45.650
 112604702.302 8  87743902.42347                  21427957.680
  21427951.300          49.900          47.800
 105445034.963 8  82164986.14947                  20065506.400
  20065502.420          49.750          47.550
 110237242.881 8  85899171.275 8  82320029.393 8  20977442.640    20977441.600
  20977441.460          49.550          49.600
 110900901.966 7  86256277.127 6                  20739024.380    20739025.340
  20739023.600          47.750          41.800
 130491201.864 5 101493170.06215                  24453994.580    24453999.900
                        33.900          30.950
 104642341.460 8  81388508.664 7                  19541206.180    19541206.940
  19541206.120          49.100          47.650
 123742171.149 7  96243938.898 6                  23116072.420    23116073.880
  23116073.100          45.800          40.800
 120628705.094 7  93822349.979 7                  22597818.180    22597822.720
  22597821.440          47.850          43.000
 129576123.063 6 100781445.645 5                  24248406.180    24248410.760
  24248409.020          41.600          35.600
 104991556.557 8  81660122.209 7                  19627059.220    19627062.400
  19627061.580          49.400          47.900
 107896657.870 8  83919634.367 7                  20184295.440    20184299.360
  20184299.100          48.650          42.400
 15  1 27  7  0 30.0000000  0 18G11G14G28G04G03G22G27G19G32G01R24R02
                                R08R07R22R15R23R01
 105934976.779 8  82546726.20948                  20158749.740
  20158744.180          48.600          48.150
 121026368.871 7  94306249.01446                  23030551.800
  23030547.360          47.550          39.950
 123269877.359 7  96054421.30846                  23457474.960
  23457469.200          47.300          39.750
 106414443.881 8  82920359.03447                  20249984.760
  20249980.360          50.250          47.200
 115135578.552 8  89716037.308 8  85977872.960 8  21909568.440    21909567.460
  21909566.740          49.050          48.300
 127611779.989 7  99437755.39146                  24283703.460
  24283697.700          45.100          38.150
 122316399.761 8  95311485.255 7  91340166.773 8  23276036.340    23276035.080
  23276034.420          48.650          45.600
 112615876.599 8  87752609.66248                  21430084.060
  21430077.720          49.750          48.000
 105444261.611 8  82164383.53747                  20065359.240
  20065355.240          49.750          47.250
 110230742.954 8  85894106.396 8  82315175.553 8  20976205.740    20976204.720
  20976204.580          49.600          49.550
 110886479.026 7  86245059.281 6                  20736327.240    20736328.220
  20736326.480          47.900          41.650
 130469723.266 5                                  24449968.920
                        34.500
 104649786.373 8  81394299.150 7                  19542596.440    19542597.220
  19542596.420          48.900          47.600
 123762506.621 7  96259755.365 6                  23119871.280    23119872.780
  23119871.980          45.850          41.000
 120644930.835 8  93834969.985 7                  22600857.840    22600862.340
  22600861.100          48.100          42.950
 129581500.599 7 100785628.170 5                  24249412.540    24249417.060
  24249415.320          42.400          35.300
 104993284.646 8  81661466.262 7                  19627382.280    19627385.460
  19627384.620          49.350          47.900
 107883134.826 8  83909116.446 7                  20181765.700    20181769.600
  20181769.300          48.700          42.300
 15  1 27  7  0 35.0000000  0 18G11G14G28G04G03G22G27G19G32G01R24R02
                                R08R07R22R15R23R01
 105931823.944 8  82544269.44948                  20158149.780
  20158144.220          48.700          48.050
 121028827.855 7  94308165.09946                  23031019.700
  23031015.260          47.700          40.700
 123265645.473 7  96051123.73546                  23456669.640
  23456663.880          47.250          40.200
 106416369.539 8  82921859.53747                  20250351.220
  20250346.780          50.200          47.250
 115122580.869 8  89705909.238 8  85968166.895 8  21907095.040    21907094.080
  21907093.360          49.100          48.350
 127627559.710 7  99450051.25746                  24286706.260
  24286700.460          44.950          38.500
 122333179.678 8  95324560.495 7  91352697.221 8  23279229.500    23279228.200
  23279227.560          48.650          45.500
 112627063.077 8  87761326.38348                  21432212.740
  21432206.440          49.600          48.250
 105443504.873 8  82163793.86947                  20065215.240
  20065211.240          49.700          47.650
 110224250.455 8  85889047.302 8  82310327.260 8  20974970.260    20974969.240
  20974969.120          49.650          49.450
 110872064.548 8  86233848.014 7                  20733631.660    20733632.640
  20733630.960          48.400          42.100
 130448248.429 5                                  24445944.700
                        33.500
 104657251.206 8  81400105.121 7                  19543990.440    19543991.240
  19543990.420          49.050          47.600
 123782847.607 7  96275576.117 6                  23123671.200    23123672.640
  23123671.880          46.250          40.950
 120661166.085 8  93847597.379 7                  22603899.280    22603903.720
  22603902.500          48.150          42.650
 129586897.644 7 100789825.862 5                  24250422.580    24250427.000
  24250425.280          42.300          35.750
 104995029.476 8  81662823.343 7                  19627708.480    19627711.660
  19627710.820          49.450          47.850
 107869629.602 8  83898612.374 7                  20179239.280    20179243.100
  20179242.820          48.950          42.250
 15  1 27  7  0 40.0000000  0 18G11G14G28G04G03G22G27G19G32G01R24R02
                                R08R07R22R15R23R01
 105928680.363 8  82541819.89947                  20157551.560
  20157546.020          48.600          47.950
 121031300.622 7  94310091.92946                  23031490.220
  23031485.760          47.250          40.700
 123261426.418 7  96047836.15146                  23455866.760
  23455861.000          47.300          39.100
 106418302.257 8  82923365.54747                  20250719.000
  20250714.540          50.150          47.400
 115109591.038 8  89695787.284 8  85958466.691 8  21904623.140    21904622.200
  21904621.480          49.100          48.450
 127643339.636 7  99462347.26846                  24289709.080
  24289703.300          45.750          36.550
 122349964.332 8  95337639.430 7  91365231.186 8  23282423.560    23282422.220
  23282421.620          48.600          45.550
 112638259.025 8  87770050.48248                  21434343.240
  21434336.960          49.600          48.400
 105442762.039 8  82163215.02947                  20065073.880
  20065069.880          49.650          47.900
 110217762.688 8  85883991.893 8  82305482.497 8  20973735.700    20973734.640
  20973734.560          49.700          49.600
 110857655.972 8  86222641.344 7                  20730937.220    20730938.240
  20730936.520          48.450          42.250
 130426774.386 5                                  24441920.700
                        31.500
 104664733.189 8  81405924.437 7                  19545387.640    19545388.460
  19545387.660          48.950          47.650
 123803191.272 7  96291398.951 6                  23127471.580    23127473.080
  23127472.260          46.100          41.150
 120677408.115 7  93860230.062 7                  22606942.020    22606946.400
  22606945.160          47.800          42.600
 129592311.490 6 100794036.611 6                  24251435.740    24251440.100
  24251438.420          41.650          36.200
 104996788.353 8  81664191.349 7                  19628037.280    19628040.460
  19628039.660          49.250          47.950
 107856139.374 8  83888119.979 7                  20176715.680    20176719.380
  20176719.160          48.850          42.200
 15  1 27  7  0 45.0000000  0 18G11G14G28G04G03G22G27G19G32G01R24R02
                                R08R07R22R15R23R01
 105925547.077 8  82539378.37747                  20156955.320
  20156949.780          49.250          47.350
 121033788.238 7  94312030.32246                  23031963.560
  23031959.140          47.950          39.300
 123257221.208 8  96044559.36046                  23455066.520
  23455060.740          48.000          40.000
 106420242.973 8  82924877.78747                  20251088.300
  20251083.860          50.750          46.900
 115096610.089 8  89685672.259 8  85948773.119 8  21902152.940    21902152.000
  21902151.300          49.900          48.650
 127659120.723 7  99474644.20246                  24292712.120
  24292706.340          46.700          36.050
 122366754.730 8  95350722.848 7  91377769.445 8  23285618.680    23285617.320
  23285616.760          49.000          45.750
 112649465.449 8  87778782.75647                  21436475.740
  21436469.480          50.350          47.600
 105442034.130 8  82162647.82847                  20064935.360
  20064931.380          50.150          47.200
 110211280.712 8  85878941.003 8  82300642.049 8  20972502.220    20972501.180
  20972501.100          50.250          49.700
 110843254.213 8  86211439.980 7                  20728244.040    20728245.060
  20728243.380          48.950          42.200
 130405302.506 5 101426354.37315                  24437897.500    24437900.080
                        31.100          30.100
 104672233.454 8  81411757.976 7                  19546788.260    19546789.120
  19546788.300          49.850          47.700
 123823538.793 7  96307224.789 6                  23131272.700    23131274.140
  23131273.340          47.300          41.250
 120693657.931 8  93872868.793 7                  22609986.180    22609990.520
  22609989.300          48.400          42.550
 129597743.193 7 100798261.278 6                  24252452.240    24252456.660
  24252454.840          43.950          36.450
 104998562.251 8  81665571.051 8                  19628368.900    19628372.080
  19628371.300          50.050          48.000
 107842665.146 8  83877640.031 7                  20174195.040    20174198.700
  20174198.500          49.650          42.450
 15  1 27  7  0 50.0000000  0 17G11G14G28G04G03G22G27G19G32G01R24R08
                                R07R22R15R23R01
 105922426.377 8  82536946.66347                  20156361.440
  20156355.940          49.150          47.400
 121036292.930 7  94313982.03046                  23032440.140
  23032435.720          47.900          40.350
 123253032.106 7  96041295.11546                  23454269.340
  23454263.560          47.900          38.250
 106422193.968 8  82926398.04347                  20251459.560
  20251455.100          50.650          46.900
 115083640.317 8  89675565.941 8  85939087.896 8  21899684.880    21899683.940
  21899683.240          49.900          48.600
 127674905.202 7  99486943.78246                  24295715.820
  24295710.120          46.650          36.850
 122383553.105 8  95363812.463 7  91390313.674 8  23288815.300    23288813.960
  23288813.400          48.700          45.450
 112660684.576 8  87787524.93147                  21438610.660
  21438604.420          50.300          47.700
 105441323.366 8  82162093.98147                  20064800.100
  20064796.140          50.050          47.250
 110204806.750 8  85873896.353 8  82295807.597 8  20971270.260    20971269.260
  20971269.160          50.100          49.700
 110828861.708 8  86200245.795 7                  20725552.620    20725553.660
  20725551.980          49.100          42.050
 104679754.257 8  81417607.482 7                  19548192.700    19548193.600
  19548192.780          49.600          47.700
 123843892.262 7  96323055.250 6                  23135074.940    23135076.300
  23135075.540          47.000          41.350
 120709917.910 7  93885515.423 7                  22613032.200    22613036.480
  22613035.320          47.850          42.150
 129603195.137 7 100802501.681 6                  24253472.460    24253476.980
  24253475.160          43.200          37.000
 105000353.679 8  81666964.382 8                  19628703.780    19628707.000
  19628706.220          50.000          48.000
 107829209.473 8  83867174.505 7                  20171677.880    20171681.500
  20171681.300          49.300          42.200
 15  1 27  7  0 55.0000000  0 17G11G14G28G04G03G22G27G19G32G01R24R08
                                R07R22R15R23R01
 105919315.280 8  82534522.42647                  20155769.420
  20155763.940          49.150          47.750
 121038811.752 8  94315944.74346                  23032919.420
  23032915.040          48.050          39.450
 123248856.184 7  96038041.15246                  23453474.660
  23453468.880          47.950          39.200
 106424152.347 8  82927924.04847                  20251832.220
  20251827.760          50.400          47.000
 115070678.743 8  89665466.007 8  85929408.801 8  21897218.380    21897217.400
  21897216.760          49.800          48.650
 127690690.225 7  99499243.78246                  24298719.640
  24298713.920          46.600          37.150
 122400356.533 8  95376906.031 7  91402861.671 8  23292012.860    23292011.520
  23292010.940          48.600          45.300
 112671913.547 8  87796274.77047                  21440747.440
  21440741.220          50.150          47.750
 105440626.869 8  82161551.25647                  20064667.560
  20064663.580          49.950          47.150
 110198337.875 8  85868855.665 8  82290976.939 8  20970039.280    20970038.280
  20970038.200          50.000          49.650
 110814475.414 8  86189056.461 7                  20722862.340    20722863.420
  20722861.740          48.700          42.250
 104687292.593 8  81423470.623 7                  19549600.460    19549601.320
  19549600.520          49.250          47.650
 123864248.758 7  96338888.062 6                  23138877.760    23138879.080
  23138878.320          46.750          40.850
 120726185.010 7  93898167.578 7                  22616079.540    22616083.840
  22616082.700          47.750          42.000
 129608664.295 7 100806755.442 6                  24254495.920    24254500.440
  24254498.680          42.800          37.650
 105002159.504 8  81668368.900 7                  19629041.360    19629044.580
  19629043.800          49.550          47.850
 107815769.013 8  83856720.816 7                  20169163.560    20169167.180
  20169166.960          49.100          42.450
 15  1 27  7  1  0.0000000  0 17G11G14G28G04G03G22G27G19G32G01R24R08
                                R07R22R15R23R01
 105916215.049 8  82532106.65747                  20155179.460
  20155174.000          48.950          47.350
 121041346.006 7  94317919.47846                  23033401.660
  23033397.260          47.850          39.650
 123244694.680 7  96034798.41946                  23452682.780
  23452676.960          47.850          39.400
 106426119.388 8  82929456.79747                  20252206.540
  20252202.080          50.350          46.750
 115057726.613 8  89655373.436 8  85919736.746 8  21894753.700    21894752.700
  21894752.060          49.650          48.450
 127706476.913 7  99511545.08346                  24301723.780
  24301718.080          46.000          37.950
 122417166.196 8  95390004.459 7  91415414.326 8  23295211.640    23295210.300
  23295209.720          48.350          45.600
 112683153.495 8  87805033.16147                  21442886.320
  21442880.140          50.050          47.550
 105439945.756 8  82161020.51647                  20064537.940
  20064534.000          49.850          47.050
 110191875.306 8  85863819.899 8  82286150.983 8  20968809.500    20968808.500
  20968808.440          49.800          49.450
 110800096.590 8  86177872.934 7                  20720173.440    20720174.520
  20720172.880          48.350          42.100
 104694849.719 8  81429348.382 7                  19551011.720    19551012.580
  19551011.740          49.450          47.350
 123884609.422 7  96354724.127 6                  23142681.300    23142682.620
  23142681.880          46.350          41.150
 120742460.501 7  93910826.273 7                  22619128.500    22619132.740
  22619131.680          47.850          42.100
 129614151.871 7 100811023.563 6                  24255522.780    24255527.380
  24255525.640          42.650          36.800
 105003980.872 8  81669785.509 7                  19629381.840    19629385.060
  19629384.260          49.550          47.650
 107802345.434 8  83846280.248 7                  20166652.440    20166656.040
  20166655.800          49.100          42.400
 15  1 27  7  1  5.0000000  0 17G11G14G28G04G03G22G27G19G32G01R24R08
                                R07R22R15R23R01
 105913125.442 8  82529699.16347                  20154591.520
  20154586.080          48.800          47.650
 121043895.366 7  94319905.98846                  23033886.780
  23033882.400          47.800          40.300
 123240547.308 7  96031566.69546                  23451893.580
  23451887.740          47.850          38.150
 106428094.800 8  82930996.07547                  20252582.440
  20252578.000          50.250          47.150
 115044783.826 8  89645288.152 8  85910071.689 8  21892290.760    21892289.760
  21892289.140          49.450          48.350
 127722265.011 7  99523847.47446                  24304728.200
  24304722.460          45.900          36.950
 122433981.889 8  95403107.576 7  91427971.472 8  23298411.540    23298410.260
  23298409.660          48.050          45.100
 112694404.229 8  87813799.96147                  21445027.260
  21445021.080          49.900          47.900
 105439279.885 8  82160501.65247                  20064411.220
  20064407.280          49.700          47.200
 110185418.822 8  85858788.865 8  82281329.589 8  20967580.880    20967579.880
  20967579.820          49.650          49.350
 110785724.970 8  86166694.994 6                  20717485.900    20717486.960
  20717485.340          48.000          41.800
 104702425.352 8  81435240.543 7                  19552426.420    19552427.280
  19552426.440          49.150          47.350
 123904974.076 7  96370563.280 6                  23146485.620    23146486.900
  23146486.200          45.900          41.000
 120758743.997 7  93923491.188 7                  22622178.960    22622183.160
  22622182.220          47.600          42.500
 129619657.383 6 100815305.645 6                  24256553.080    24256557.680
  24256555.940          40.750          36.650
 105005817.587 8  81671214.055 7                  19629725.200    19629728.420
  19629727.580          49.250          47.550
 107788938.208 8  83835852.393 7                  20164144.360    20164147.900
  20164147.680          49.050          42.400
 15  1 27  7  1 10.0000000  0 17G11G14G28G04G03G22G27G19G32G01R24R08
                                R07R22R15R23R01
 105910046.896 8  82527300.29147                  20154005.700
  20154000.260          48.750          47.850
 121046460.294 8  94321904.63346                  23034374.860
  23034370.440          48.200          39.450
 123236414.599 7  96028346.39346                  23451107.160
  23451101.340          47.600          39.300
 106430078.976 8  82932542.18247                  20252960.020
  20252955.600          50.150          47.250
 115031850.598 8  89635210.311 8  85900413.739 8  21889829.660    21889828.620
  21889828.040          49.300          48.350
 127738055.021 7  99536151.35146                  24307732.940
  24307727.240          45.800          38.550
 122450804.030 7  95416215.730 7  91440533.442 8  23301612.640    23301611.400
  23301610.820          47.800          45.300
 112705666.180 8  87822575.49747                  21447170.360
  21447164.180          49.950          47.450
 105438629.671 8  82159994.98247                  20064287.480
  20064283.580          49.450          47.500
 110178968.899 8  85853762.947 8  82276513.072 8  20966353.500    20966352.520
  20966352.460          49.350          49.400
 110771361.207 8  86155523.169 6                  20714799.840    20714800.860
  20714799.260          48.000          41.800
 104710019.797 8  81441147.327 7                  19553844.640    19553845.500
  19553844.620          49.400          47.500
 123925343.286 7  96386405.986 6                  23150290.780    23150292.060
  23150291.380          45.300          41.450
 120775036.090 7  93936162.784 7                  22625231.060    22625235.260
  22625234.360          47.550          42.600
 129625181.376 6 100819602.059 6                  24257586.840    24257591.480
  24257589.720          41.200          37.650
 105007670.291 8  81672655.041 7                  19630071.540    19630074.780
  19630073.900          49.100          47.850
 107775547.961 8  83825437.757 7                  20161639.440    20161642.960
  20161642.760          49.100          42.500
 15  1 27  7  1 15.0000000  0 17G11G14G28G04G03G22G27G19G32G01R24R08
                                R07R22R15R23R01
 105906978.199 8  82524909.09548                  20153421.740
  20153416.300          48.600          48.250
 121049039.528 8  94323914.42846                  23034865.720
  23034861.260          48.150          39.800
 123232295.276 7  96025136.52546                  23450323.300
  23450317.480          47.750          39.550
 106432070.739 8  82934094.19947                  20253339.040
  20253334.600          50.150          47.050
 115018925.772 8  89625139.019 8  85890762.094 8  21887370.160    21887369.100
  21887368.500          49.450          48.250
 127753845.648 7  99548455.70846                  24310737.840
  24310732.060          45.900          37.500
 122467631.384 7  95429327.927 7  91453099.310 8  23304814.740    23304813.520
  23304812.960          47.750          45.000
 112716938.097 8  87831358.79447                  21449315.360
  21449309.160          50.100          47.700
 105437993.862 8  82159499.54847                  20064166.500
  20064162.600          49.450          47.400
 110172524.237 8  85848741.123 8  82271700.501 8  20965127.120    20965126.140
  20965126.080          49.300          49.450
 110757003.774 8  86144356.270 6                  20712114.940    20712116.000
  20712114.340          48.050          41.850
 104717631.964 8  81447067.901 7                  19555266.180    19555267.000
  19555266.160          49.250          47.700
 123945715.429 7  96402250.963 6                  23154096.500    23154097.740
  23154097.100          45.400          41.950
 120791335.528 7  93948840.119 7                  22628284.500    22628288.620
  22628287.800          47.000          42.350
 129630722.758 6 100823911.995 6                  24258623.800    24258628.560
  24258626.800          40.750          38.150
 105009537.489 8  81674107.300 8                  19630420.580    19630423.840
  19630422.960          49.200          48.000
 107762173.404 8  83815035.328 7                  20159137.460    20159140.940
  20159140.760          49.050          42.450
 15  1 27  7  1 20.0000000  0 17G11G14G28G04G03G22G27G19G32G01R24R08
                                R07R22R15R23R01
 105903920.068 8  82522526.13448                  20152839.800
  20152834.380          48.450          48.000
 121051633.808 8  94325935.93846                  23035359.440
  23035354.960          48.150          40.200
 123228190.001 7  96021937.61346                  23449542.120
  23449536.300          47.950          39.600
 106434070.782 8  82935652.67047                  20253719.640
  20253715.200          50.100          47.300
 115006010.069 8  89615074.833 8  85881117.247 8  21884912.400    21884911.300
  21884910.720          49.450          48.200
 127769637.621 7  99560761.13146                  24313743.000
  24313737.280          46.000          37.600
 122484464.616 7  95442444.725 7  91465669.557 8  23308017.960    23308016.780
  23308016.220          47.900          45.000
 112728220.689 8  87840150.41747                  21451462.380
  21451456.200          50.250          47.800
 105437373.166 8  82159015.88947                  20064048.360
  20064044.500          49.550          47.750
 110166085.549 8  85843723.968 8  82266892.383 8  20963901.880    20963900.900
  20963900.860          49.300          49.450
 110742653.473 8  86133194.931 6                  20709431.400    20709432.460
  20709430.780          48.200          41.950
 104725262.469 8  81453002.732 7                  19556691.140    19556691.920
  19556691.120          49.100          47.700
 123966091.343 7  96418098.878 6                  23157902.900    23157904.140
  23157903.480          45.050          41.800
 120807642.909 7  93961523.621 6                  22631339.380    22631343.520
  22631342.720          47.000          41.950
 129636282.003 6 100828235.851 6                  24259664.180    24259668.940
  24259667.180          41.900          37.250
 105011420.171 8  81675571.612 7                  19630772.520    19630775.820
  19630774.920          49.350          47.950
 107748815.119 8  83804645.557 7                  20156638.540    20156642.020
  20156641.820          49.000          42.300
 15  1 27  7  1 25.0000000  0 17G11G14G28G04G03G22G27G19G32G01R24R08
                                R07R22R15R23R01
 105900872.305 8  82520151.25648                  20152259.820
  20152254.420          48.450          48.250
 121054242.943 8  94327969.02946                  23035855.960
  23035851.460          48.050          39.650
 123224098.672 8  96018749.55946                  23448763.620
  23448757.740          48.100          39.250
 106436078.944 8  82937217.46547                  20254101.760
  20254097.340          50.000          47.700
 114993103.353 8  89605017.649 8  85871479.112 8  21882456.340    21882455.220
  21882454.640          49.650          48.250
 127785430.752 7  99573067.45346                  24316748.340
  24316742.620          46.050          37.100
 122501303.576 8  95455565.976 7  91478244.091 8  23311222.300    23311221.160
  23311220.580          48.150          45.100
 112739513.776 8  87848950.21947                  21453611.440
  21453605.220          50.250          47.900
 105436767.392 8  82158543.85347                  20063933.080
  20063929.220          49.700          47.250
 110159652.700 8  85838711.359 8  82262088.636 8  20962677.740    20962676.780
  20962676.740          49.400          49.550
 110728310.301 7  86122039.122 6                  20706749.160    20706750.260
  20706748.560          47.900          41.850
 104732911.172 8  81458951.722 7                  19558119.480    19558120.260
  19558119.480          49.200          47.500
 123986471.230 7  96433949.873 6                  23161710.000    23161711.280
  23161710.640          44.500          41.600
 120823958.153 7  93974213.236 6                  22634395.720    22634399.840
  22634399.080          47.000          41.800
 129641859.110 6 100832573.609 6                  24260707.880    24260712.680
  24260710.840          41.250          37.550
 105013317.847 8  81677047.576 7                  19631127.260    19631130.580
  19631129.700          49.150          47.750
 107735473.127 8  83794268.454 7                  20154142.660    20154146.140
  20154145.940          48.900          42.250
 15  1 27  7  1 30.0000000  0 18G11G14G28G04G03G22G27G19G32G01R24R02
                                R08R07R22R15R23R01
 105897836.529 8  82517785.71847                  20151682.120
  20151676.760          48.600          47.750
 121056868.519 8  94330014.93746                  23036355.620
  23036351.140          48.000          39.900
 123220022.832 7  96015573.59446                  23447988.040
  23447982.140          47.900          39.350
 106438096.804 8  82938789.82647                  20254485.760
  20254481.340          50.050          47.350
 114980207.207 8  89594968.698 8  85861848.866 8  21880002.320    21880001.140
  21880000.580          49.450          48.250
 127801226.666 7  99585375.93946                  24319754.200
  24319748.420          45.700          37.700
 122518149.829 7  95468692.912 7  91490824.062 8  23314428.020    23314426.880
  23314426.320          47.850          44.950
 112750818.976 8  87857759.46147                  21455762.800
  21455756.540          50.150          47.950
 105436178.113 8  82158084.67547                  20063820.940
  20063817.100          49.650          47.600
 110153227.266 8  85833704.531 8  82257290.416 8  20961455.020    20961454.060
  20961454.040          49.600          49.550
 110713975.792 8  86110890.062 6                  20704068.540    20704069.640
  20704067.940          48.000          41.750
 130212162.055 5                                  24401702.680    24401708.640
                        34.100          29.850
 104740579.625 8  81464916.079 7                  19559551.500    19559552.280
  19559551.500          49.350          47.600
 124006856.188 7  96449804.822 6                  23165518.060    23165519.420
  23165518.760          44.950          41.550
 120840282.787 7  93986910.172 6                  22637453.900    22637457.940
  22637457.220          47.300          41.800
 129647455.567 6 100836926.437 6                  24261755.200    24261759.960
  24261758.140          41.750          37.300
 105015232.387 8  81678536.656 7                  19631485.160    19631488.480
  19631487.620          49.200          47.850
 107722148.960 8  83783905.221 7                  20151650.120    20151653.600
  20151653.400          48.850          42.750
 15  1 27  7  1 35.0000000  0 18G11G14G28G04G03G22G27G19G32G01R24R02
                                R08R07R22R15R23R01
 105894809.833 8  82515427.25247                  20151106.120
  20151100.820          48.700          47.800
 121059507.677 8  94332071.42546                  23036857.860
  23036853.360          48.050          40.000
 123215959.615 7  96012407.44146                  23447214.840
  23447208.960          47.850          39.050
 106440121.496 8  82940367.50347                  20254871.040
  20254866.620          50.000          47.200
 114967318.749 8  89584925.744 8  85852224.364 8  21877549.740    21877548.560
  21877547.980          49.600          48.150
 127817022.420 7  99597684.29846                  24322760.060
  24322754.240          45.700          37.000
 122535000.482 7  95481823.276 7  91503407.331 8  23317634.560    23317633.440
  23317632.900          47.850          44.950
 112762133.341 8  87866575.83747                  21457915.900
  21457909.600          50.250          47.950
 105435602.458 8  82157636.11047                  20063711.380
  20063707.580          49.600          47.600
 110146806.382 8  85828701.235 8  82252495.594 8  20960233.180    20960232.220
  20960232.200          49.350          49.450
 110699647.010 7  86099745.447 6                  20701389.000    20701390.080
  20701388.380          47.950          41.700
 130190713.734 6                                  24397683.940    24397687.860
                        36.950          31.500
 104748264.847 8  81470893.469 7                  19560986.640    19560987.460
  19560986.660          49.250          47.500
 124027243.373 7  96465661.512 6                  23169326.520    23169327.960
  23169327.300          44.750          41.850
 120856613.968 7  93999612.189 6                  22640513.340    22640517.280
  22640516.560          47.650          41.850
 129653068.650 6 100841292.156 6                  24262805.620    24262810.280
  24262808.560          41.200          36.800
 105017160.875 8  81680036.583 7                  19631845.700    19631848.980
  19631848.160          49.100          47.800
 107708839.793 8  83773553.634 7                  20149160.400    20149163.820
  20149163.660          48.800          42.650
 15  1 27  7  1 40.0000000  0 18G11G14G28G04G03G22G27G19G32G01R24R02
                                R08R07R22R15R23R01
 105891794.557 8  82513077.68247                  20150532.320
  20150527.040          48.700          47.600
 121062162.671 7  94334140.24146                  23037363.120
  23037358.600          47.750          40.300
 123211911.335 7  96009252.93346                  23446444.480
  23446438.580          47.700          38.900
 106442155.215 8  82941952.21247                  20255258.060
  20255253.600          50.050          47.300
 114954440.273 8  89574890.559 8  85842607.320 8  21875099.060    21875097.840
  21875097.280          49.400          48.300
 127832820.326 7  99609994.33246                  24325766.340
  24325760.520          45.300          37.500
 122551857.824 8  95494958.841 7  91515995.587 8  23320842.400    23320841.280
  23320840.780          48.000          44.700
 112773459.167 8  87875401.16047                  21460071.180
  21460064.840          50.200          47.700
 105435042.752 8  82157199.97247                  20063604.880
  20063601.080          49.650          47.450
 110140392.325 8  85823703.266 8  82247705.870 8  20959012.620    20959011.660
  20959011.640          49.400          49.350
 110685326.297 7  86088607.127 6                  20698710.940    20698712.080
  20698710.340          47.800          41.700
 130169268.562 6 101242781.979 5                  24393665.880    24393671.400
  24393671.100          37.250          32.000
 104755969.251 8  81476885.783 7                  19562425.400    19562426.220
  19562425.380          48.900          47.400
 124047635.368 7  96481521.923 6                  23173135.860    23173137.340
  23173136.740          44.900          41.550
 120872953.975 7  94012321.071 6                  22643574.420    22643578.320
  22643577.560          47.800          41.700
 129658700.409 6 100845672.430 6                  24263859.480    24263864.100
  24263862.340          40.950          36.000
 105019105.537 8  81681549.104 7                  19632209.240    19632212.560
  19632211.720          49.150          47.800
 107695547.766 8  83763215.389 7                  20146673.860    20146677.280
  20146677.100          49.150          42.600
 15  1 27  7  1 45.0000000  0 18G11G14G28G04G03G22G27G19G32G01R24R02
                                R08R07R22R15R23R01
 105888788.624 8  82510735.39447                  20149960.300
  20149955.040          48.700          47.300
 121064831.451 7  94336219.80846                  23037871.000
  23037866.420          47.900          40.400
 123207875.915 7  96006108.44946                  23445676.580
  23445670.720          47.900          39.850
 106444195.958 8  82943542.39747                  20255646.400
  20255641.940          49.950          47.200
 114941569.737 8  89564861.571 8  85832996.200 8  21872649.900    21872648.680
  21872648.100          49.600          48.100
 127848618.310 7  99622304.42346                  24328772.600
  24328766.800          45.300          37.350
 122568719.816 8  95508098.039 7  91528587.313 8  23324051.140    23324050.020
  23324049.520          48.450          44.700
 112784794.420 8  87884233.81947                  21462228.280
  21462221.880          50.000          47.950
 105434496.912 8  82156774.64247                  20063501.000
  20063497.220          49.700          47.400
 110133983.050 8  85818709.024 8  82242919.725 8  20957793.000    20957792.020
  20957791.980          49.300          49.300
 110671011.622 7  86077473.483 6                  20696034.020    20696035.120
  20696033.400          47.950          41.750
 130147824.390 6 101226103.139 5                  24389647.340    24389651.400
  24389653.240          36.950          32.600
 104763690.726 8  81482891.364 7                  19563867.320    19563868.160
  19563867.300          48.900          47.250
 124068029.738 7  96497384.183 6                  23176945.640    23176947.240
  23176946.620          44.900          41.650
 120889300.679 7  94025035.149 7                  22646636.760    22646640.640
  22646639.880          47.700          42.250
 129664348.804 6 100850065.640 6                  24264916.420    24264921.100
  24264919.220          40.850          36.200
 105021064.246 8  81683072.538 7                  19632575.420    19632578.740
  19632577.900          49.250          47.900
 107682270.913 8  83752888.941 7                  20144190.160    20144193.540
  20144193.380          49.100          42.550
 15  1 27  7  1 50.0000000  0 18G11G14G28G04G03G22G27G19G32G01R24R02
                                R08R07R22R15R23R01
 105885794.980 8  82508402.67747                  20149390.600
  20149385.380          48.950          47.750
 121067516.963 8  94338312.40946                  23038382.060
  23038377.440          48.350          39.700
 123203856.291 8  96002976.26946                  23444911.680
  23444905.820          48.450          39.050
 106446246.728 8  82945140.39347                  20256036.660
  20256032.200          50.400          46.800
 114928710.072 8  89554841.042 8  85823393.203 8  21870202.800    21870201.580
  21870200.960          49.700          48.100
 127864419.288 7  99634616.84246                  24331779.440
  24331773.620          45.550          36.200
 122585589.323 8  95521243.098 7  91541184.658 8  23327261.320    23327260.180
  23327259.700          48.700          44.650
 112796141.997 8  87893076.07047                  21464387.720
  21464381.260          50.350          47.600
 105433967.830 8  82156362.36247                  20063400.320
  20063396.540          50.050          47.050
 110127581.471 8  85813720.776 8  82238139.324 8  20956574.840    20956573.840
  20956573.800          49.800          49.300
 110656705.855 7  86066346.767 6                  20693358.740    20693359.880
  20693358.140          47.900          41.700
 130126384.279 6 101209427.476 5                  24385629.860    24385634.920
  24385635.940          38.050          33.150
 104771432.215 8  81488912.516 7                  19565313.000    19565313.860
  19565312.980          49.150          47.350
 124088429.666 7  96513250.763 6                  23180756.480    23180758.120
  23180757.560          45.100          41.550
 120905657.082 7  94037756.765 7                  22649700.840    22649704.780
  22649704.000          47.600          42.050
 129670016.911 6 100854474.127 6                  24265977.100    24265981.840
  24265979.900          40.300          36.650
 105023040.033 8  81684609.242 7                  19632944.780    19632948.100
  19632947.280          49.450          47.900
 107669012.250 8  83742576.646 7                  20141709.860    20141713.220
  20141713.060          49.100          42.100
 15  1 27  7  1 55.0000000  0 18G11G14G28G04G03G22G27G19G32G01R24R02
                                R08R07R22R15R23R01
 105882811.889 8  82506078.18147                  20148822.920
  20148817.700          48.700          47.900
 121070217.500 8  94340416.70946                  23038896.000
  23038891.320          48.300          39.650
 123199850.774 8  95999855.07946                  23444149.500
  23444143.580          48.100          38.900
 106448305.743 8  82946744.81247                  20256428.480
  20256423.980          50.150          47.150
 114915859.576 8  89544827.666 8  85813797.054 8  21867757.440    21867756.180
  21867755.560          49.600          48.100
 127880221.539 7  99646930.25845                  24334786.500
  24334780.640          45.850          35.900
 122602464.701 8  95534392.726 7  91553786.376 8  23330472.600    23330471.460
  23330470.960          48.650          44.900
 112807500.217 8  87901926.62747                  21466549.200
  21466542.660          50.300          47.900
 105433453.840 8  82155961.84447                  20063302.520
  20063298.740          49.950          47.250
 110121185.932 8  85808737.234 8  82233363.429 8  20955357.840    20955356.800
  20955356.760          49.950          49.250
 110642407.484 7  86055225.814 6                  20690684.800    20690686.040
  20690684.200          47.600          41.150
 130104946.530 6 101192753.632 5                  24381612.340    24381616.500
  24381617.580          36.650          32.700
 104779192.040 8  81494947.929 7                  19566762.100    19566762.940
  19566762.100          49.200          47.550
 124108833.245 7  96529120.195 6                  23184568.040    23184569.740
  23184569.160          45.350          41.100
 120922021.389 7  94050484.532 6                  22652766.460    22652770.400
  22652769.620          47.600          41.950
 129675702.874 6 100858896.567 6                  24267041.140    24267045.820
  24267044.000          41.200          36.250
 105025031.263 8  81686157.969 7                  19633317.000    19633320.360
  19633319.520          49.350          47.750
 107655770.205 8  83732277.279 7                  20139232.640    20139235.980
  20139235.840          49.100          42.050
 15  1 27  7  2  0.0000000  0 18G11G14G28G04G03G22G27G19G32G01R24R02
                                R08R07R22R15R23R01
 105879838.889 8  82503761.55647                  20148257.200
  20148251.940          48.700          47.800
 121072932.527 8  94342532.31646                  23039412.680
  23039408.020          48.350          39.650
 123195858.852 8  95996744.49246                  23443389.880
  23443383.900          48.150          39.250
 106450372.525 8  82948355.28647                  20256821.800
  20256817.280          50.150          47.200
 114903017.749 8  89534821.042 8  85804207.369 8  21865313.740    21865312.480
  21865311.820          49.550          48.050
 127896024.566 7  99659244.27746                  24337793.740
  24337787.800          46.150          37.650
 122619345.388 8  95547546.496 7  91566392.066 8  23333684.880    23333683.780
  23333683.260          48.600          45.300
 112818868.551 8  87910785.06347                  21468712.560
  21468705.980          50.450          47.750
 105432954.422 8  82155572.68947                  20063207.480
  20063203.700          49.900          47.350
 110114795.867 8  85803757.954 8  82228591.613 8  20954141.880    20954140.820
  20954140.760          49.900          49.300
 110628115.949 7  86044110.165 6                  20688012.200    20688013.460
  20688011.560          47.900          41.200
 130083510.667 6 101176081.283 5                  24377595.300    24377600.280
  24377599.900          37.150          32.700
 104786969.487 8  81500997.047 7                  19568214.500    19568215.340
  19568214.520          49.150          47.600
 124129240.111 7  96544992.187 6                  23188380.180    23188381.920
  23188381.400          45.650          41.150
 120938393.214 7  94063218.157 7                  22655833.460    22655837.440
  22655836.620          47.350          42.250
 129681406.164 6 100863332.439 5                  24268108.420    24268113.120
  24268111.320          38.850          35.200
 105027037.429 8  81687718.316 7                  19633692.040    19633695.380
  19633694.540          49.300          47.600
 107642544.017 8  83721990.248 6                  20136758.380    20136761.760
  20136761.620          48.850          41.950
 15  1 27  7  2  5.0000000  0 18G11G14G28G04G03G22G27G19G32G01R24R02
                                R08R07R22R15R23R01
 105876876.539 8  82501453.23147                  20147693.460
  20147688.240          48.750          47.850
 121075662.673 8  94344659.70746                  23039932.260
  23039927.560          48.300          39.700
 123191881.137 8  95993644.96646                  23442632.960
  23442626.960          48.050          38.750
 106452447.688 8  82949972.30047                  20257216.700
  20257212.160          50.100          46.950
 114890185.209 8  89524821.660 7  85794624.619 8  21862871.780    21862870.500
  21862869.840          49.550          47.950
 127911828.957 7  99671559.39245                  24340801.240
  24340795.220          46.300          35.800
 122636232.016 8  95560704.881 7  91579002.187 8  23336898.300    23336897.220
  23336896.740          48.750          45.450
 112830247.597 8  87919651.85447                  21470877.980
  21470871.340          50.400          47.850
 105432470.210 8  82155195.38347                  20063115.360
  20063111.560          49.900          47.200
 110108411.927 8  85798783.459 8  82223824.386 8  20952927.100    20952926.000
  20952925.940          49.950          49.350
 110613831.813 8  86033000.282 6                  20685341.000    20685342.200
  20685340.300          48.000          41.350
 130062077.287 6 101159410.850 5                  24373578.660    24373583.040
  24373582.740          38.000          33.400
 104794765.246 8  81507060.419 7                  19569670.320    19569671.120
  19569670.340          49.050          47.550
 124149650.686 7  96560867.066 6                  23192193.040    23192194.860
  23192194.340          45.300          40.650
 120954773.123 7  94075958.074 7                  22658902.020    22658905.980
  22658905.120          47.650          42.200
 129687127.516 6 100867782.400 5                  24269179.100    24269183.780
  24269181.980          40.950          35.700
 105029059.067 8  81689290.707 7                  19634069.940    19634073.340
  19634072.460          49.300          47.750
 107629334.392 8  83711716.102 7                  20134287.240    20134290.640
  20134290.460          48.700          42.000
 15  1 27  7  2 10.0000000  0 18G11G14G28G04G03G22G27G19G32G01R24R02
                                R08R07R22R15R23R01
 105873926.099 8  82499154.18147                  20147132.000
  20147126.780          48.700          47.600
 121078409.115 8  94346799.79146                  23040454.960
  23040450.200          48.300          40.050
 123187918.840 8  95990557.45246                  23441878.940
  23441872.960          48.000          38.750
 106454532.387 8  82951596.73147                  20257613.400
  20257608.840          50.150          47.100
 114877363.125 8  89514830.414 7  85785049.684 8  21860431.840    21860430.560
  21860429.860          49.700          47.900
 127927635.927 7  99683876.48346                  24343809.220
  24343803.140          45.600          36.200
 122653125.725 8  95573868.788 7  91591617.590 8  23340113.120    23340112.080
  23340111.580          48.900          45.550
 112841638.556 8  87928527.91847                  21473045.640
  21473038.980          50.250          47.900
 105432002.315 8  82154830.78447                  20063026.320
  20063022.540          49.800          47.450
 110102035.285 8  85793814.641 8  82219062.603 8  20951713.680    20951712.580
  20951712.500          49.800          49.400
 110599556.332 8  86021897.123 6                  20682671.400    20682672.540
  20682670.700          48.100          41.550
 130040647.585 6 101142743.293 5                  24369562.940    24369567.080
  24369566.600          40.050          34.800
 104802580.634 8  81513139.043 7                  19571129.800    19571130.620
  19571129.800          49.100          47.450
 124170066.347 7  96576745.895 6                  23196006.860    23196008.640
  23196008.200          45.550          40.800
 120971162.217 7  94088705.134 7                  22661972.320    22661976.260
  22661975.380          47.600          42.650
 129692868.076 6 100872247.265 5                  24270253.340    24270257.900
  24270256.200          40.000          34.150
 105031097.441 8  81690876.097 7                  19634450.980    19634454.380
  19634453.500          49.300          47.800
 107616142.637 8  83701455.836 7                  20131819.440    20131822.760
  20131822.660          48.500          42.200
 15  1 27  7  2 15.0000000  0 18G11G14G28G04G03G22G27G19G32G01R24R02
                                R08R07R22R15R23R01
 105870985.681 8  82496862.94247                  20146572.460
  20146567.240          48.850          47.500
 121081169.981 8  94348951.10246                  23040980.380
  23040975.560          48.150          39.900
 123183970.041 7  95987480.46346                  23441127.500
  23441121.580          47.900          39.400
 106456624.745 8  82953227.13147                  20258011.560
  20258007.000          50.150          46.900
 114864549.636 8  89504845.868 8  85775481.164 8  21857993.520    21857992.220
  21857991.540          49.800          48.050
 127943443.549 7  99696194.08545                  24346817.340
  24346811.120          45.750          35.700
 122670024.616 8  95587036.734 7  91604236.880 8  23343328.920    23343327.880
  23343327.380          48.750          45.350
 112853039.516 8  87937411.76947                  21475215.200
  21475208.520          50.200          47.850
 105431548.861 8  82154477.43247                  20062940.040
  20062936.240          49.750          47.700
 110095664.043 8  85788850.037 8  82214304.853 8  20950501.300    20950500.160
  20950500.080          49.800          49.450
 110585287.540 7  86010799.159 6                  20680003.060    20680004.260
  20680002.340          47.950          41.700
 130019219.616 6 101126077.083 5                  24365547.480    24365551.560
  24365550.500          40.750          35.050
 104810413.553 8  81519231.314 7                  19572592.520    19572593.380
  19572592.520          49.200          47.550
 124190484.910 7  96592626.970 6                  23199821.260    23199823.100
  23199822.600          45.700          41.050
 120987558.549 7  94101457.818 7                  22665043.980    22665047.880
  22665046.980          47.500          42.400
 129698625.952 6 100876725.645 5                  24271330.920    24271335.380
  24271333.740          40.950          34.750
 105033150.488 8  81692472.901 7                  19634834.760    19634838.180
  19634837.300          49.150          47.850
 107602966.690 8  83691207.873 7                  20129354.600    20129357.960
  20129357.800          48.650          42.550
 15  1 27  7  2 20.0000000  0 18G11G14G28G04G03G22G27G19G32G01R24R02
                                R08R07R22R15R23R01
 105868055.707 8  82494579.84647                  20146014.920
  20146009.680          49.000          47.600
 121083945.699 8  94351113.99546                  23041508.600
  23041503.780          48.200          39.400
 123180035.162 7  95984414.33046                  23440378.720
  23440372.800          47.800          38.950
 106458725.207 8  82954863.85247                  20258411.280
  20258406.700          50.200          47.100
 114851745.187 8  89494868.380 8  85765919.392 8  21855556.920    21855555.620
  21855554.940          49.800          48.100
 127959252.304 7  99708512.58445                  24349825.680
  24349819.360          45.850          35.000
 122686929.148 8  95600209.097 7  91616860.374 8  23346545.760    23346544.780
  23346544.240          48.400          45.600
 112864450.931 8  87946303.77847                  21477386.720
  21477380.040          50.200          47.800
 105431110.328 8  82154135.72547                  20062856.620
  20062852.800          49.850          47.300
 110089298.674 8  85783890.015 8  82209551.501 8  20949290.040    20949288.860
  20949288.800          49.950          49.550
 110571025.951 7  85999706.808 6                  20677336.040    20677337.280
  20677335.360          47.600          41.650
 129997793.975 6 101109412.695 5                  24361532.560    24361536.320
  24361535.060          40.550          34.550
 104818264.538 8  81525337.638 7                  19574058.620    19574059.480
  19574058.620          49.350          47.550
 124210906.973 7  96608510.799 6                  23203636.320    23203638.180
  23203637.660          46.050          40.950
 121003962.720 7  94114216.607 7                  22668117.080    22668121.000
  22668120.020          47.250          42.600
 129704401.556 6 100881217.771 5                  24272411.760    24272416.240
  24272414.540          41.100          35.050
 105035218.759 8  81694081.565 7                  19635221.380    19635224.840
  19635223.940          49.450          47.800
 107589807.108 8  83680972.646 7                  20126892.820    20126896.200
  20126896.040          48.900          42.550
 15  1 27  7  2 25.0000000  0 18G11G14G28G04G03G22G27G19G32G01R24R02
                                R08R07R22R15R23R01
 105865136.138 8  82492304.85147                  20145459.360
  20145454.100          48.800          47.700
 121086736.223 8  94353288.42746                  23042039.640
  23042034.820          48.250          40.400
 123176114.247 7  95981359.06946                  23439632.580
  23439626.680          47.750          39.600
 106460833.826 8  82956506.93147                  20258812.520
  20258807.960          50.100          47.100
 114838949.751 8  89484897.906 8  85756364.355 8  21853122.040    21853120.720
  21853120.080          49.600          48.150
 127975062.099 7  99720831.87346                  24352834.180
  24352827.860          46.300          36.600
 122703839.306 8  95613385.823 7  91629488.056 8  23349763.660    23349762.680
  23349762.140          48.150          45.600
 112875872.750 8  87955203.88547                  21479560.220
  21479553.560          50.150          47.550
 105430686.659 8  82153805.59147                  20062776.000
  20062772.200          49.800          47.300
 110082939.127 8  85778934.520 8  82204802.479 8  20948079.880    20948078.700
  20948078.620          49.900          49.500
 110556771.563 7  85988620.052 6                  20674670.340    20674671.600
  20674669.700          47.400          41.300
 129976370.542 6 101092750.019 5                  24357517.820    24357521.480
  24357519.800          41.550          34.900
 104826133.585 8  81531458.005 7                  19575528.080    19575528.960
  19575528.120          49.100          47.600
 124231332.454 7  96624397.274 6                  23207451.980    23207453.840
  23207453.340          45.850          40.750
 121020374.652 7  94126981.427 7                  22671191.600    22671195.560
  22671194.520          47.050          43.200
 129710194.810 6 100885723.654 5                  24273495.880    24273500.340
  24273498.640          41.250          35.500
 105037302.314 8  81695702.103 7                  19635610.860    19635614.340
  19635613.460          49.400          47.850
 107576663.781 8  83670750.059 7                  20124434.060    20124437.460
  20124437.320          48.900          42.600
 15  1 27  7  2 30.0000000  0 18G11G14G28G04G03G22G27G19G32G01R24R02
                                R08R07R22R15R23R01
 105862228.380 8  82490039.06347                  20144906.040
  20144900.780          48.700          47.650
 121089543.003 8  94355475.52046                  23042573.780
  23042568.940          48.250          39.600
 123172208.720 7  95978315.79546                  23438889.380
  23438883.500          47.700          39.650
 106462951.882 8  82958157.35347                  20259215.560
  20259211.000          50.100          46.700
 114826164.765 8  89474935.575 8  85746817.117 8  21850689.120    21850687.840
  21850687.200          49.400          48.250
 127990874.378 7  99733153.11845                  24355843.180
  24355836.880          45.950          35.950
 122720756.476 8  95626568.003 7  91642120.988 8  23352982.880    23352981.920
  23352981.360          48.400          45.650
 112887306.423 8  87964113.23047                  21481735.960
  21481729.320          50.050          47.400
 105430279.307 8  82153488.17247                  20062698.500
  20062694.680          49.850          47.250
 110076586.862 8  85773984.692 8  82200058.898 8  20946871.100    20946869.920
  20946869.840          49.900          49.350
 110542525.829 7  85977540.039 6                  20672006.260    20672007.580
  20672005.700          47.150          41.550
 129954950.831 6 101076090.207 5                  24353503.840    24353507.360
  24353505.760          41.600          35.600
 104834021.979 8  81537593.415 7                  19577001.160    19577002.060
  19577001.220          48.850          47.750
 124251762.994 7  96640287.677 6                  23211268.600    23211270.380
  23211269.960          45.850          40.550
 121036795.785 7  94139753.388 7                  22674267.840    22674271.800
  22674270.800          47.150          43.050
 129716007.165 6 100890244.407 5                  24274583.560    24274587.900
  24274586.280          41.250          35.000
 105039402.537 8  81697335.597 8                  19636003.460    19636006.980
  19636006.080          49.200          48.000
 107563538.282 8  83660541.336 7                  20121978.640    20121982.060
  20121981.920          48.700          42.600
 15  1 27  7  2 35.0000000  0 18G11G14G28G04G03G22G27G19G32G01R24R02
                                R08R07R22R15R23R01
 105859330.136 8  82487780.69147                  20144354.520
  20144349.260          48.750          47.450
 121092363.693 8  94357673.46446                  23043110.540
  23043105.720          48.300          38.850
 123168316.168 7  95975282.64046                  23438148.640
  23438142.800          47.850          39.250
 106465077.070 8  82959813.34247                  20259619.980
  20259615.420          50.150          46.700
 114813387.882 8  89464979.567 8  85737275.942 8  21848257.760    21848256.500
  21848255.860          49.400          48.100
 128006686.790 7  99745474.45646                  24358852.200
  24358845.880          46.000          37.550
 122737678.290 8  95639753.821 7  91654757.392 8  23356203.040    23356202.060
  23356201.560          48.400          45.600
 112898749.528 8  87973029.92947                  21483913.480
  21483906.860          50.150          47.250
 105429885.886 8  82153181.61647                  20062623.640
  20062619.820          49.850          47.100
 110070239.499 8  85769038.693 8  82195318.978 8  20945663.260    20945662.060
  20945661.980          49.800          49.350
 110528286.465 7  85966464.992 7                  20669343.380    20669344.780
  20669342.900          47.500          42.050
 129933532.423 6 101059431.463 6                  24349489.980    24349493.500
  24349492.380          41.700          36.350
 104841927.413 8  81543742.084 7                  19578477.420    19578478.360
  19578477.520          49.000          47.650
 124272195.863 7  96656179.900 6                  23215085.660    23215087.460
  23215087.040          46.000          41.000
 121053223.593 7  94152530.547 7                  22677345.300    22677349.360
  22677348.260          47.500          42.650
 129721836.211 6 100894778.089 5                  24275674.460    24275678.800
  24275677.120          39.200          35.350
 105041517.002 8  81698980.177 8                  19636398.720    19636402.280
  19636401.380          49.200          48.000
 107550428.248 8  83650344.651 7                  20119526.120    20119529.580
  20119529.460          48.450          42.750
 15  1 27  7  2 40.0000000  0 18G11G14G28G04G03G22G27G19G32G01R24R02
                                R08R07R22R15R23R01
 105856442.846 8  82485530.84347                  20143805.080
  20143799.840          48.700          47.950
 121095199.746 8  94359883.35246                  23043650.220
  23043645.440          48.150          39.800
 123164438.152 8  95972260.79546                  23437410.660
  23437404.840          48.100          39.250
 106467210.925 8  82961476.07847                  20260026.040
  20260021.480          50.250          46.900
 114800620.589 8  89455031.017 8  85727741.923 8  21845828.200    21845826.960
  21845826.340          49.350          48.300
 128022500.781 7  99757797.02445                  24361861.560
  24361855.160          45.650          34.950
 122754606.254 8  95652944.420 7  91667398.386 8  23359424.340    23359423.400
  23359422.920          48.750          45.750
 112910203.621 8  87981955.18447                  21486093.100
  21486086.500          50.150          47.550
 105429507.878 8  82152887.05647                  20062551.720
  20062547.900          49.850          47.500
 110063898.552 8  85764097.688 8  82190583.852 8  20944456.640    20944455.420
  20944455.360          49.850          49.450
 110514054.827 7  85955395.934 6                  20666681.920    20666683.420
  20666681.560          47.400          41.900
 129912116.896 7 101042774.926 6                  24345476.820    24345480.380
  24345479.520          42.200          36.700
 104849851.453 8  81549905.221 7                  19579957.160    19579958.120
  19579957.260          48.950          47.350
 124292632.690 7  96672075.195 6                  23218903.440    23218905.220
  23218904.840          45.550          40.850
 121069659.728 7  94165314.177 7                  22680424.380    22680428.500
  22680427.320          47.200          42.800
 129727683.436 6 100899325.931 5                  24276768.780    24276773.100
  24276771.400          40.800          35.800
 105043647.331 8  81700637.085 7                  19636796.960    19636800.520
  19636799.620          49.050          47.850
 107537335.093 8  83640161.081 7                  20117076.740    20117080.300
  20117080.120          48.300          42.800
 15  1 27  7  2 45.0000000  0 18G11G14G28G04G03G22G27G19G32G01R24R02
                                R08R07R22R15R23R01
 105853565.622 8  82483288.85248                  20143257.600
  20143252.320          48.500          48.300
 121098050.227 8  94362104.50446                  23044192.620
  23044187.880          48.000          40.400
 123160573.717 8  95969249.54146                  23436675.300
  23436669.460          48.000          39.750
 106469352.536 8  82963144.86147                  20260433.560
  20260429.020          50.300          46.850
 114787861.986 8  89445089.250 8  85718214.385 8  21843400.300    21843399.100
  21843398.480          49.650          48.400
 128038315.443 7  99770120.11046                  24364871.020
  24364864.580          45.700          37.200
 122771539.418 8  95666139.079 7  91680043.262 8  23362646.640    23362645.720
  23362645.260          48.000          45.850
 112921667.752 8  87990888.26047                  21488274.620
  21488268.060          50.000          47.550
 105429144.353 8  82152603.79047                  20062482.560
  20062478.720          49.800          47.300
 110057563.066 8  85759160.949 8  82185852.807 8  20943251.060    20943249.860
  20943249.780          49.950          49.600
 110499830.058 7  85944332.210 6                  20664021.760    20664023.380
  20664021.500          47.500          41.850
 129890703.212 6 101026119.814 6                  24341463.980    24341467.460
  24341467.000          41.850          37.200
 104857792.963 8  81556081.947 7                  19581440.160    19581441.120
  19581440.260          49.050          47.500
 124313072.600 7  96687972.893 6                  23222721.800    23222723.600
  23222723.180          45.650          41.000
 121086103.214 7  94178103.528 7                  22683504.840    22683508.960
  22683507.740          47.150          42.650
 129733547.903 6 100903887.129 5                  24277866.260    24277870.520
  24277868.860          40.050          35.700
 105045792.483 8  81702305.532 8                  19637197.940    19637201.540
  19637200.660          49.200          48.000
 107524257.940 8  83629989.958 7                  20114630.320    20114633.980
  20114633.800          48.250          42.900
 15  1 27  7  2 50.0000000  0 18G11G14G28G04G03G22G27G19G32G01R24R02
                                R08R07R22R15R23R01
 105850699.570 8  82481055.56347                  20142712.220
  20142706.920          48.650          47.800
 121100916.253 7  94364337.76246                  23044738.000
  23044733.280          47.800          39.800
 123156723.901 7  95966249.68446                  23435942.720
  23435936.920          47.850          39.850
 106471502.957 8  82964820.51247                  20260842.760
  20260838.240          50.350          46.600
 114775113.097 8  89435155.048 8  85708694.116 8  21840974.280    21840973.080
  21840972.460          49.650          48.300
 128054131.828 7  99782444.54646                  24367880.800
  24367874.320          45.650          36.400
 122788478.888 7  95679338.631 7  91692692.841 8  23365870.080    23365869.240
  23365868.780          47.800          45.350
 112933142.991 8  87999829.99547                  21490458.240
  21490451.700          49.800          47.550
 105428796.386 8  82152332.64347                  20062416.360
  20062412.500          49.750          47.700
 110051234.156 8  85754229.327 8  82181126.673 8  20942046.720    20942045.500
  20942045.460          49.850          49.400
 110485613.326 7  85933274.767 6                  20661363.140    20661364.860
  20661362.920          47.650          41.600
 129869292.560 7 101009467.082 6                  24337451.620    24337455.320
  24337454.960          42.800          37.750
 104865753.191 8  81562273.230 7                  19582926.660    19582927.640
  19582926.740          48.850          47.450
 124333516.531 7  96703873.705 6                  23226540.900    23226542.720
  23226542.280          45.100          40.700
 121102555.123 7  94190899.455 7                  22686586.880    22686590.960
  22686589.740          46.600          42.650
 129739430.688 6 100908462.662 5                  24278967.140    24278971.460
  24278969.760          40.100          34.800
 105047953.629 8  81703986.420 8                  19637601.940    19637605.560
  19637604.680          49.300          48.050
 107511197.838 8  83619832.099 7                  20112187.140    20112190.800
  20112190.660          48.300          42.700
 15  1 27  7  2 55.0000000  0 18G11G14G28G04G03G22G27G19G32G01R24R02
                                R08R07R22R15R23R01
 105847845.915 8  82478831.93448                  20142169.200
  20142163.900          48.700          48.100
 121103799.063 7  94366584.10746                  23045286.580
  23045281.880          47.650          39.950
 123152889.988 7  95963262.22346                  23435213.160
  23435207.380          47.850          39.750
 106473663.368 8  82966503.94547                  20261253.880
  20261249.380          50.350          46.950
 114762375.198 8  89425229.413 8  85699182.043 8  21838550.360    21838549.160
  21838548.540          49.850          48.350
 128069951.163 7  99794771.28646                  24370891.160
  24370884.640          46.000          36.650
 122805425.826 8  95692544.023 7  91705347.994 8  23369094.960    23369094.140
  23369093.640          48.000          45.350
 112944630.578 8  88008781.35947                  21492644.220
  21492637.700          49.850          47.600
 105428465.216 8  82152074.58847                  20062353.360
  20062349.480          49.850          47.550
 110044913.034 8  85749303.780 8  82176406.351 8  20940843.880    20940842.640
  20940842.620          49.900          49.350
 110471405.846 7  85922224.492 6                  20658706.260    20658707.940
  20658706.020          47.400          41.550
 129847886.187 7 100992817.658 6                  24333440.140    24333443.820
  24333443.540          42.700          37.250
 104873733.359 8  81568480.023 7                  19584416.920    19584417.860
  19584416.960          48.850          47.450
 124353965.900 7  96719778.762 6                  23230361.020    23230362.900
  23230362.400          45.000          40.750
 121119016.772 7  94203702.937 7                  22689670.660    22689674.800
  22689673.620          46.850          43.100
 129745333.087 6 100913053.394 5                  24280071.640    24280076.020
  24280074.260          40.550          33.900
 105050131.925 8  81705680.650 7                  19638009.160    19638012.740
  19638011.920          49.350          47.900
 107498156.081 8  83609688.514 7                  20109747.400    20109751.120
  20109750.940          48.250          43.100
 15  1 27  7  3  0.0000000  0 18G11G14G28G04G03G22G27G19G32G01R24R02
                                R08R07R22R15R23R01
 105844999.323 8  82476613.81048                  20141627.500
  20141622.220          48.550          48.000
 121106693.268 7  94368839.33446                  23045837.300
  23045832.620          47.650          39.600
 123149066.629 7  95960282.97946                  23434485.620
  23434479.860          47.750          39.950
 106475828.442 8  82968191.01847                  20261665.860
  20261661.380          50.300          46.750
 114749642.946 8  89415308.174 8  85689674.181 8  21836127.500    21836126.300
  21836125.680          49.700          48.400
 128085768.066 7  99807096.12346                  24373901.060
  24373894.540          45.950          37.250
 122822374.908 7  95705751.093 7  91718004.748 8  23372320.280    23372319.460
  23372318.940          47.850          45.300
 112956125.169 8  88017738.18047                  21494831.520
  21494825.040          49.650          47.650
 105428145.468 8  82151825.43847                  20062292.520
  20062288.640          49.850          47.600
 110038594.358 8  85744380.138 8  82171687.849 8  20939641.500    20939640.240
  20939640.200          49.800          49.400
 110457202.167 7  85911177.180 6                  20656050.080    20656051.780
  20656049.800          47.250          41.400
 129826478.785 7 100976167.442 6                  24329428.340    24329432.020
  24329431.740          42.550          37.400
 104881727.987 8  81574698.061 7                  19585909.860    19585910.800
  19585909.900          49.150          47.550
 124374415.053 7  96735683.652 6                  23234181.060    23234182.940
  23234182.460          44.650          40.950
 121135482.538 7  94216509.615 7                  22692755.260    22692759.380
  22692758.240          47.100          43.250
 129751249.500 6 100917655.098 5                  24281178.840    24281183.240
  24281181.440          41.150          34.750
 105052322.036 8  81707384.063 7                  19638418.560    19638422.160
  19638421.340          49.400          47.900
 107485127.235 8  83599554.968 7                  20107310.060    20107313.840
  20107313.640          48.150          43.300
 15  1 27  7  3  5.0000000  0 18G11G14G28G04G03G22G27G19G32G01R24R02
                                R08R07R22R15R23R01
 105842166.315 8  82474406.26947                  20141088.400
  20141083.120          48.700          47.850
 121109605.462 7  94371108.56246                  23046391.460
  23046386.760          47.650          39.850
 123145260.352 7  95957317.03846                  23433761.320
  23433755.560          47.550          39.900
 106478004.757 8  82969886.84047                  20262079.980
  20262075.540          50.250          46.950
 114736922.899 8  89405396.444 8  85680175.448 8  21833706.940    21833705.760
  21833705.140          49.750          48.400
 128101589.123 7  99819424.19946                  24376911.740
  24376905.240          45.900          37.000
 122839332.663 7  95718964.910 7  91730668.005 8  23375547.240    23375546.440
  23375545.900          47.900          45.300
 112967633.258 8  88026705.50947                  21497021.380
  21497014.980          49.700          47.750
 105427843.687 8  82151590.27647                  20062235.100
  20062231.220          49.850          47.400
 110032284.658 8  85739463.485 8  82166976.076 8  20938440.840    20938439.540
  20938439.500          49.800          49.400
 110443009.002 7  85900138.058 6                  20653395.820    20653397.520
  20653395.540          47.050          41.500
 129805076.822 6 100959521.452 6                  24325417.620    24325421.320
  24325421.100          41.550          36.400
 104889743.591 8  81580932.409 7                  19587406.740    19587407.660
  19587406.760          49.350          47.600
 124394870.650 7  96751593.536 6                  23238002.300    23238004.200
  23238003.740          44.250          41.250
 121151959.286 7  94229324.844 7                  22695841.920    22695846.100
  22695844.960          46.700          43.300
 129757186.716 6 100922272.930 5                  24282290.000    24282294.340
  24282292.460          39.800          34.600
 105054530.687 8  81709101.894 7                  19638831.440    19638835.000
  19638834.220          49.350          47.950
 107472118.059 7  83589436.717 7                  20104876.420    20104880.240
  20104880.040          47.950          43.300
 15  1 27  7  3 10.0000000  0 18G11G14G28G04G03G22G27G19G32G01R24R02
                                R08R07R22R15R23R01
 105839343.864 8  82472206.94948                  20140551.320
  20140546.020          48.450          48.100
 121112532.588 7  94373389.43346                  23046948.460
  23046943.760          47.550          41.000
 123141468.166 7  95954362.08446                  23433039.680
  23433033.960          47.300          39.950
 106480189.315 8  82971589.08247                  20262495.700
  20262491.240          50.200          47.050
 114724212.019 8  89395491.859 8  85670683.553 8  21831288.140    21831286.940
  21831286.360          49.450          48.600
 128117411.270 7  99831753.12246                  24379922.600
  24379916.160          45.800          37.850
 122856296.080 7  95732183.141 7  91743335.449 8  23378775.280    23378774.500
  23378773.980          47.300          45.400
 112979151.831 8  88035681.00647                  21499213.260
  21499206.880          49.650          47.950
 105427556.899 8  82151366.79947                  20062180.560
  20062176.640          49.800          47.750
 110025980.951 8  85734551.510 8  82162268.749 8  20937241.320    20937239.980
  20937239.940          49.900          49.400
 110428823.232 7  85889104.677 6                  20650742.940    20650744.640
  20650742.660          47.000          41.250
 129783677.336 6 100942877.399 5                  24321407.420    24321411.040
  24321410.620          41.350          35.750
 104897777.188 8  81587180.756 7                  19588906.980    19588907.860
  19588906.980          49.200          47.650
 124415329.695 7  96767506.096 6                  23241824.220    23241826.060
  23241825.660          44.500          40.800
 121168443.763 7  94242146.077 7                  22698930.020    22698934.260
  22698933.140          46.600          43.200
 129763141.641 6 100926904.534 5                  24283404.380    24283408.740
  24283406.740          39.800          33.100
 105056754.666 8  81710831.650 7                  19639247.200    19639250.720
  19639249.960          49.300          47.850
 107459125.405 8  83579331.318 7                  20102445.820    20102449.660
  20102449.540          48.050          43.300
 15  1 27  7  3 15.0000000  0 18G11G14G28G04G03G22G27G19G32G01R24R02
                                R08R07R22R15R23R01
 105836531.829 8  82470015.74648                  20140016.220
  20140010.900          48.600          48.350
 121115474.496 7  94375681.83146                  23047508.280
  23047503.560          47.650          40.200
 123137689.874 7  95951417.95646                  23432320.700
  23432314.980          47.450          40.350
 106482381.957 8  82973297.63147                  20262912.920
  20262908.500          50.200          46.900
 114711510.181 8  89385594.318 8  85661198.416 8  21828871.060    21828869.880
  21828869.280          49.700          48.450
 128133234.395 7  99844082.80346                  24382933.680
  24382927.220          46.000          38.000
 122873264.973 7  95745405.625 7  91756007.009 8  23382004.320    23382003.620
  23382003.060          47.400          45.350
 112990680.737 8  88044664.56047                  21501407.080
  21501400.780          49.700          47.900
 105427284.906 8  82151154.85647                  20062128.820
  20062124.880          49.750          47.850
 110019683.070 8  85729644.059 8  82157565.787 8  20936042.920    20936041.540
  20936041.480          50.100          49.400
 110414644.678 7  85878076.903 6                  20648091.420    20648093.120
  20648091.120          47.050          41.000
 129762280.168 6 100926235.153 5                  24317397.580    24317401.340
  24317400.520          41.650          35.900
 104905828.635 8  81593442.997 7                  19590410.560    19590411.400
  19590410.520          49.250          47.550
 124435791.971 7  96783421.189 6                  23245646.700    23245648.600
  23245648.160          44.550          40.850
 121184935.937 7  94254973.303 7                  22702019.600    22702023.820
  22702022.720          46.650          43.000
 129769114.200 6 100931549.862 5                  24284522.020    24284526.340
  24284524.380          40.500          33.400
 105058993.891 8  81712573.267 7                  19639665.800    19639669.300
  19639668.560          49.300          47.950
 107446149.166 8  83569238.689 7                  20100018.320    20100022.200
  20100022.100          48.000          43.300
 15  1 27  7  3 20.0000000  0 18G11G14G28G04G03G22G27G19G32G01R24R02
                                R08R07R22R15R23R01
 105833730.070 8  82467832.55347                  20139483.080
  20139477.720          48.850          47.950
 121118431.078 7  94377985.66446                  23048070.900
  23048066.180          47.650          39.900
 123133925.419 7  95948484.61346                  23431604.340
  23431598.600          47.800          39.050
 106484582.430 8  82975012.28747                  20263331.640
  20263327.260          50.250          47.050
 114698817.236 8  89375703.712 8  85651719.915 8  21826455.640    21826454.500
  21826453.900          49.750          48.400
 128149058.308 7  99856413.11246                  24385944.860
  24385938.440          46.300          36.650
 122890239.211 7  95758632.289 7  91768682.562 8  23385234.400    23385233.720
  23385233.200          47.600          44.950
 113002219.828 8  88053656.05947                  21503602.860
  21503596.620          49.800          47.900
 105427027.567 8  82150954.33247                  20062079.860
  20062075.940          49.900          47.650
 110013390.888 8  85724741.052 8  82152867.070 8  20934845.620    20934844.180
  20934844.080          50.050          49.350
 110400473.296 7  85867054.718 6                  20645441.200    20645442.880
  20645440.920          46.850          40.800
 129740885.108 6 100909594.543 6                  24313388.120    24313391.780
  24313390.880          41.800          36.200
 104913897.815 8  81599719.034 7                  19591917.440    19591918.260
  19591917.380          49.100          47.350
 124456257.362 7  96799338.707 6                  23249469.760    23249471.720
  23249471.240          44.150          41.100
 121201435.654 7  94267806.400 7                  22705110.580    22705114.800
  22705113.700          46.450          42.950
 129775104.158 6 100936208.692 5                  24285643.020    24285647.200
  24285645.280          39.750          33.700
 105061248.346 8  81714326.730 7                  19640087.260    19640090.760
  19640090.000          49.350          47.850
 107433189.104 8  83559158.648 7                  20097593.820    20097597.760
  20097597.680          48.050          42.850
 15  1 27  7  3 25.0000000  0 18G11G14G28G04G03G22G27G19G32G01R24R02
                                R08R07R22R15R23R01
 105830939.121 8  82465657.77948                  20138952.000
  20138946.640          48.700          48.250
 121121402.796 7  94380301.28146                  23048636.400
  23048631.660          47.850          40.500
 123130175.244 7  95945562.38646                  23430890.720
  23430884.940          47.650          39.450
 106486791.266 8  82976733.45247                  20263751.960
  20263747.580          50.300          46.650
 114686133.688 8  89365820.415 8  85642248.422 8  21824042.060    21824040.900
  21824040.300          49.750          48.400
 128164883.521 7  99868744.41746                  24388956.320
  24388949.840          46.200          37.750
 122907219.274 7  95771863.482 7  91781362.444 8  23388465.600    23388464.900
  23388464.400          47.800          44.800
 113013769.598 8  88062655.86948                  21505800.680
  21505794.480          49.700          48.100
 105426785.342 8  82150765.57947                  20062033.780
  20062029.840          50.000          47.400
 110007104.867 8  85719842.845 8  82148172.956 8  20933649.480    20933647.980
  20933647.880          50.250          49.300
 110386309.750 7  85856038.619 6                  20642792.520    20642794.260
  20642792.240          47.150          41.500
 129719492.911 6 100892956.163 6                  24309379.320    24309382.960
  24309381.800          41.750          36.300
 104921985.085 8  81606009.124 7                  19593427.660    19593428.500
  19593427.620          49.200          47.500
 124476726.359 7  96815259.010 6                  23253293.480    23253295.560
  23253295.000          43.800          41.200
 121217943.317 7  94280645.660 7                  22708203.020    22708207.260
  22708206.120          46.450          42.400
 129781111.935 6 100940881.421 5                  24286767.380    24286771.540
  24286769.540          40.900          32.700
 105063518.257 8  81716092.200 7                  19640511.640    19640515.080
  19640514.340          49.350          47.800
 107420245.815 8  83549091.639 7                  20095172.440    20095176.480
  20095176.360          48.250          42.850
 15  1 27  7  3 30.0000000  0 18G11G14G28G04G03G22G27G19G32G01R24R02
                                R08R07R22R15R23R01
 105828159.585 8  82463491.91247                  20138423.060
  20138417.700          48.900          47.900
 121124390.268 7  94382629.18246                  23049204.900
  23049200.180          47.800          40.100
 123126439.981 7  95942651.80246                  23430179.900
  23430174.180          47.350          39.000
 106489009.196 8  82978461.71147                  20264174.000
  20264169.640          50.400          46.600
 114673460.174 8  89355944.948 8  85632784.433 8  21821630.380    21821629.200
  21821628.600          49.750          48.300
 128180710.624 7  99881077.21246                  24391968.140
  24391961.700          46.150          38.200
 122924205.753 7  95785099.691 7  91794047.153 8  23391698.060    23391697.340
  23391696.800          47.850          44.550
 113025330.673 8  88071664.49347                  21508000.640
  21507994.500          49.750          47.800
 105426558.886 8  82150589.12047                  20061990.720
  20061986.760          49.950          47.600
 110000825.664 8  85714949.960 8  82143483.945 8  20932454.660    20932453.080
  20932452.980          50.300          49.300
 110372154.533 7  85845029.009 6                  20640145.420    20640147.220
  20640145.180          47.300          41.650
 129698104.019 6 100876320.354 6                  24305371.100    24305374.420
  24305373.420          41.200          37.000
 104930091.153 8  81612313.837 7                  19594941.440    19594942.240
  19594941.360          49.050          47.600
 124497199.415 7  96831182.467 6                  23257117.960    23257120.020
  23257119.540          43.850          41.550
 121234459.624 7  94293491.662 7                  22711297.060    22711301.320
  22711300.160          46.250          42.400
 129787138.083 6 100945568.409 5                  24287895.140    24287899.080
  24287897.280          40.550          33.450
 105065804.439 8  81717870.337 7                  19640939.040    19640942.460
  19640941.720          49.100          47.750
 107407319.944 8  83539038.189 7                  20092754.320    20092758.440
  20092758.300          48.050          42.900
 15  1 27  7  3 35.0000000  0 18G11G14G28G04G03G22G27G19G32G01R24R02
                                R08R07R22R15R23R01
 105825390.166 8  82461333.92147                  20137896.060
  20137890.720          48.850          47.800
 121127392.178 8  94384968.33446                  23049776.160
  23049771.440          48.000          39.900
 123122718.301 7  95939751.79246                  23429471.660
  23429466.000          47.150          39.200
 106491234.861 8  82980195.99147                  20264597.520
  20264593.200          50.350          46.700
 114660795.368 8  89346076.260 8  85623326.936 8  21819220.360    21819219.160
  21819218.560          49.750          48.250
 128196538.344 7  99893410.47846                  24394980.080
  24394973.720          45.950          38.250
 122941197.374 7  95798339.918 7  91806735.673 8  23394931.480    23394930.720
  23394930.160          47.500          44.700
 113036901.725 8  88080680.88947                  21510202.540
  21510196.420          49.850          47.700
 105426346.890 8  82150423.92947                  20061950.400
  20061946.420          49.950          47.550
 109994551.956 8  85710061.359 8  82138799.025 8  20931260.880    20931259.200
  20931259.140          50.400          49.350
 110358006.406 7  85834024.919 6                  20637499.660    20637501.420
  20637499.440          47.400          41.200
 129676717.214 6 100859686.191 6                  24301363.220    24301366.520
  24301365.520          41.650          37.400
 104938214.710 8  81618632.155 7                  19596458.480    19596459.240
  19596458.400          48.950          47.600
 124517675.582 7  96847108.358 6                  23260943.040    23260945.140
  23260944.700          44.350          41.550
 121250983.147 7  94306343.272 7                  22714392.460    22714396.700
  22714395.620          46.750          42.550
 129793181.363 6 100950268.742 5                  24289026.020    24289030.080
  24289028.300          39.150          34.650
 105068105.652 8  81719660.171 7                  19641369.220    19641372.660
  19641371.900          49.050          47.800
 107394410.101 7  83528997.211 7                  20090339.260    20090343.420
  20090343.260          47.900          43.000
 15  1 27  7  3 40.0000000  0 18G11G14G28G04G03G22G27G19G32G01R24R02
                                R08R07R22R15R23R01
 105822630.713 8  82459183.69147                  20137370.960
  20137365.600          48.700          47.700
 121130408.408 8  94387318.63546                  23050350.160
  23050345.460          48.150          39.650
 123119010.078 7  95936862.24946                  23428765.980
  23428760.360          47.250          39.200
 106493468.072 8  82981936.15047                  20265022.480
  20265018.180          50.300          46.700
 114648139.159 8  89336214.266 8  85613875.851 8  21816811.960    21816810.780
  21816810.180          49.800          48.250
 128212366.498 7  99905744.08246                  24397992.060
  24397985.800          45.300          38.950
 122958193.972 7  95811583.989 7  91819427.912 8  23398165.780    23398165.060
  23398164.480          47.200          44.850
 113048482.638 8  88089704.96547                  21512406.300
  21512400.220          50.050          47.650
 105426149.222 8  82150269.89747                  20061912.780
  20061908.820          49.900          47.550
 109988283.602 8  85705176.921 8  82134118.108 8  20930068.120    20930066.360
  20930066.300          50.550          49.350
 110343865.017 7  85823026.040 6                  20634855.180    20634856.920
  20634854.920          46.850          40.850
 129655332.333 7 100843053.485 6                  24297355.740    24297359.160
  24297358.100          42.050          37.800
 104946355.521 8  81624963.885 7                  19597978.760    19597979.480
  19597978.640          48.700          47.550
 124538154.380 7  96863036.300 6                  23264768.640    23264770.800
  23264770.340          43.750          41.700
 121267513.913 7  94319200.503 7                  22717489.260    22717493.460
  22717492.380          47.000          42.050
 129799241.674 6 100954982.296 5                  24290160.140    24290164.200
  24290162.440          39.300          32.900
 105070421.562 8  81721461.424 7                  19641802.160    19641805.580
  19641804.840          48.950          47.850
 107381516.368 7  83518968.740 7                  20087927.160    20087931.400
  20087931.240          47.900          43.000
 15  1 27  7  3 45.0000000  0 18G11G14G28G04G03G22G27G19G32G01R24R02
                                R08R07R22R15R23R01
 105819884.184 8  82457043.53348                  20136848.300
  20136842.960          48.650          48.050
 121133441.924 8  94389682.40446                  23050927.420
  23050922.700          48.400          39.900
 123115318.355 7  95933985.56546                  23428063.420
  23428057.880          47.350          40.150
 106495711.901 8  82983684.58047                  20265449.460
  20265445.160          50.350          47.050
 114635494.532 8  89326361.302 8  85604433.437 8  21814405.760    21814404.580
  21814403.960          49.800          48.450
 128228198.175 7  99918080.41046                  24401004.760
  24400998.500          45.900          37.150
 122975198.554 7  95824834.280 7  91832126.114 8  23401401.600    23401400.900
  23401400.360          47.800          45.200
 113060076.355 8  88098739.01847                  21514612.520
  21514606.420          50.250          47.950
 105425968.841 8  82150129.33047                  20061878.480
  20061874.480          50.000          47.650
 109982023.662 8  85700299.035 8  82129443.463 8  20928876.940    20928875.120
  20928875.060          50.600          49.550
 110329733.674 7  85812034.987 6                  20632212.600    20632214.260
  20632212.280          47.300          41.100
 129633952.420 6 100826424.651 6                  24293349.220    24293352.680
  24293351.720          41.350          39.050
 104954516.659 8  81631311.430 7                  19599502.820    19599503.540
  19599502.700          48.500          47.550
 124558638.919 7  96878968.684 6                  23268595.280    23268597.500
  23268597.060          43.750          41.950
 121284054.837 7  94332065.642 7                  22720587.960    22720592.040
  22720591.060          46.950          42.250
 129805322.015 6 100959711.445 5                  24291297.980    24291302.060
  24291300.300          39.350          33.400
 105072755.446 8  81723276.659 8                  19642238.480    19642241.900
  19642241.140          49.150          48.000
 107368641.574 8  83508955.007 7                  20085518.660    20085522.940
  20085522.740          48.050          42.900
 15  1 27  7  3 50.0000000  0 18G11G14G28G04G03G22G27G19G32G01R24R02
                                R08R07R22R15R23R01
 105817147.186 8  82454910.80548                  20136327.460
  20136322.120          48.700          48.050
 121136489.359 8  94392057.01846                  23051507.360
  23051502.640          48.350          39.400
 123111639.628 7  95931119.02246                  23427363.340
  23427357.820          47.550          39.200
 106497962.870 8  82985438.57547                  20265877.780
  20265873.520          50.100          46.900
 114622858.090 8  89316514.726 8  85594997.130 8  21812001.140    21811999.940
  21811999.320          49.800          48.300
 128244029.826 7  99930416.74546                  24404017.440
  24404011.180          45.600          38.250
 122992207.662 7  95838088.106 7  91844827.695 8  23404638.380    23404637.620
  23404637.120          47.950          44.850
 113071679.484 8  88107780.40947                  21516820.540
  21516814.440          50.200          47.750
 105425802.316 8  82149999.57347                  20061846.800
  20061842.800          50.000          47.350
 109975768.646 8  85695424.995 8  82124772.506 8  20927686.720    20927684.840
  20927684.760          50.350          49.350
 110315608.833 7  85801049.006 6                  20629571.220    20629572.840
  20629570.820          47.550          41.050
 129612574.027 6 100809797.019 6                  24289342.920    24289346.340
  24289345.560          41.700          38.800
 104962694.644 8  81637672.075 7                  19601030.020    19601030.720
  19601029.880          48.650          47.300
 124579125.583 7  96894902.731 6                  23272422.280    23272424.620
  23272424.160          43.500          41.950
 121300602.396 7  94344935.939 6                  22723687.940    22723692.000
  22723690.980          47.250          41.750
 129811418.946 6 100964453.550 5                  24292438.880    24292443.060
  24292441.300          38.750          34.050
 105075103.591 8  81725102.995 7                  19642677.460    19642680.860
  19642680.120          49.250          47.850
 107355782.303 8  83498953.354 7                  20083113.080    20083117.360
  20083117.160          48.100          42.900
 15  1 27  7  3 55.0000000  0 18G11G14G28G04G03G22G27G19G32G01R24R02
                                R08R07R22R15R23R01
 105814420.721 8  82452786.28748                  20135808.640
  20135803.300          48.450          48.050
 121139551.578 8  94394443.15946                  23052090.080
  23052085.360          48.350          40.850
 123107974.897 7  95928263.39046                  23426665.940
  23426660.460          47.350          39.550
 106500221.904 8  82987198.86647                  20266307.660
  20266303.400          50.050          46.900
 114610230.736 8  89306675.235 8  85585567.619 8  21809598.240    21809597.040
  21809596.420          49.850          48.400
 128259862.391 7  99942753.78546                  24407030.320
  24407024.040          45.600          37.200
 123009222.205 8  95851346.194 7  91857533.361 8  23407876.200    23407875.420
  23407874.900          48.100          45.000
 113083292.934 8  88116829.84448                  21519030.560
  21519024.400          50.200          48.000
 105425650.630 8  82149881.38047                  20061817.940
  20061813.940          49.950          47.700
 109969519.502 8  85690555.532 8  82120105.937 8  20926497.600    20926495.660
  20926495.580          50.350          49.350
 110301491.454 7  85790068.814 6                  20626931.200    20626932.760
  20626930.740          47.150          41.300
 129591198.087 6 100793171.275 6                  24285337.140    24285340.480
  24285339.780          40.900          38.750
 104970890.332 8  81644046.501 7                  19602560.560    19602561.220
  19602560.360          49.000          47.400
 124599615.449 7  96910839.259 7                  23276249.920    23276252.280
  23276251.860          43.950          42.050
 121317157.667 7  94357812.247 6                  22726789.360    22726793.400
  22726792.360          47.000          41.750
 129817533.399 6 100969209.217 5                  24293583.080    24293587.300
  24293585.540          38.050          31.850
 105077467.095 8  81726941.275 7                  19643119.320    19643122.680
  19643121.960          49.300          47.900
 107342939.588 7  83488964.579 7                  20080710.600    20080714.860
  20080714.640          47.950          42.700
 15  1 27  7  4  0.0000000  0 18G11G14G28G04G03G22G27G19G32G01R24R02
                                R08R07R22R15R23R01
 105811705.355 8  82450670.41348                  20135291.940
  20135286.580          48.400          48.250
 121142629.187 8  94396841.30046                  23052675.740
  23052671.000          48.150          39.750
 123104324.718 7  95925419.09746                  23425971.340
  23425965.900          46.800          40.350
 106502489.589 8  82988965.89047                  20266739.180
  20266734.940          50.100          47.050
 114597613.075 8  89296843.294 8  85576145.338 8  21807197.180    21807195.980
  21807195.340          49.900          48.300
 128275696.465 7  99955092.00546                  24410043.500
  24410037.220          45.700          37.050
 123026242.745 7  95864608.946 7  91870243.502 8  23411115.140    23411114.300
  23411113.800          47.650          45.250
 113094917.280 8  88125887.76647                  21521242.640
  21521236.440          50.300          47.800
 105425514.291 8  82149775.13947                  20061792.000
  20061788.000          49.850          47.650
 109963276.799 8  85685691.086 8  82115444.172 8  20925309.700    20925307.700
  20925307.600          50.250          49.300
 110287382.062 7  85779094.836 6                  20624292.700    20624294.220
  20624292.180          47.150          41.200
 129569825.129 6 100776547.874 6                  24281331.840    24281335.280
  24281334.600          39.850          38.700
 104979104.340 8  81650435.184 7                  19604094.480    19604095.120
  19604094.260          49.300          47.650
 124620109.115 7  96926778.761 6                  23280078.220    23280080.680
  23280080.260          43.850          41.600
 121333721.083 7  94370694.884 6                  22729892.280    22729896.320
  22729895.280          46.950          41.950
 129823665.834 6 100973978.894 5                  24294730.660    24294734.860
  24294733.060          39.100          32.250
 105079846.464 8  81728791.889 7                  19643564.140    19643567.480
  19643566.740          49.650          47.850
 107330113.863 8  83478989.020 7                  20078311.320    20078315.560
  20078315.320          48.250          42.750
 15  1 27  7  4  5.0000000  0 18G11G14G28G04G03G22G27G19G32G01R24R02
                                R08R07R22R15R23R01
 105809000.627 8  82448562.82348                  20134777.280
  20134771.880          48.600          48.200
 121145721.755 7  94399251.07646                  23053264.240
  23053259.480          47.850          39.350
 123100688.701 7  95922585.82946                  23425279.400
  23425273.980          46.650          40.350
 106504765.500 8  82990739.31547                  20267172.260
  20267168.020          50.200          46.900
 114585004.682 8  89287018.556 8  85566729.971 8  21804797.880    21804796.660
  21804796.040          49.950          48.150
 128291531.628 7  99967431.06146                  24413056.860
  24413050.600          45.600          37.650
 123043268.942 7  95877876.081 7  91882957.822 8  23414355.100    23414354.320
  23414353.760          47.400          44.750
 113106552.107 8  88134953.85347                  21523456.740
  21523450.500          50.350          47.800
 105425392.910 8  82149680.54647                  20061768.920
  20061764.880          49.700          47.600
 109957040.141 8  85680831.340 8  82110786.924 8  20924122.920    20924120.900
  20924120.760          50.200          49.150
 110273280.383 7  85768126.864 6                  20621655.580    20621657.060
  20621655.040          46.850          41.400
 129548454.874 6 100759926.569 6                  24277327.060    24277330.560
  24277329.800          40.000          38.700
 104987336.225 8  81656837.749 7                  19605631.740    19605632.400
  19605631.540          49.350          47.750
 124640605.920 7  96942720.698 6                  23283907.180    23283909.680
  23283909.260          43.950          41.800
 121350292.362 7  94383583.629 6                  22732996.640    22733000.720
  22732999.620          47.150          41.700
 129829815.969 6 100978762.337 5                  24295881.400    24295885.800
  24295883.840          37.300          32.750
 105082241.346 8  81730654.563 7                  19644011.880    19644015.220
  19644014.440          49.650          47.800
 107317304.897 8  83469026.483 7                  20075915.140    20075919.360
  20075919.140          48.350          42.700
 15  1 27  7  4 10.0000000  0 18G11G14G28G04G03G22G27G19G32G01R24R02
                                R08R07R22R15R23R01
 105806306.426 8  82446463.44747                  20134264.600
  20134259.200          48.600          47.950
 121148829.120 7  94401672.39246                  23053855.560
  23053850.780          47.600          40.150
 123097066.652 7  95919763.44146                  23424590.140
  23424584.760          46.800          39.500
 106507049.535 8  82992519.07947                  20267606.920
  20267602.660          50.150          46.800
 114572405.421 8  89277200.948 8  85557321.425 8  21802400.340    21802399.140
  21802398.480          49.800          48.100
 128307367.704 7  99979770.84246                  24416070.380
  24416064.180          45.750          37.200
 123060300.561 7  95891147.455 7  91895676.226 8  23417596.100    23417595.360
  23417594.760          47.600          44.950
 113118197.268 8  88144028.00247                  21525672.800
  21525666.500          50.300          47.650
 105425286.327 8  82149597.49147                  20061748.640
  20061744.600          49.700          47.800
 109950809.382 8  85675976.203 8  82106134.079 8  20922937.260    20922935.220
  20922935.080          50.100          49.150
 110259186.095 7  85757164.637 6                  20619019.860    20619021.320
  20619019.300          46.800          41.600
 129527087.138 6 100743307.210 6                  24273322.740    24273326.320
  24273325.400          39.450          38.000
 104995585.832 8  81663254.110 7                  19607172.280    19607172.960
  19607172.140          49.100          47.600
 124661105.981 7  96958665.171 6                  23287736.760    23287739.320
  23287738.840          43.950          41.700
 121366871.205 7  94396478.277 6                  22736102.420    22736106.480
  22736105.320          47.300          41.800
 129835983.557 6 100983559.383 5                  24297035.780    24297040.100
  24297037.960          37.400          32.500
 105084651.643 8  81732529.240 7                  19644462.500    19644465.820
  19644465.000          49.550          47.800
 107304512.551 8  83459076.873 7                  20073522.100    20073526.280
  20073526.040          48.700          42.850
 15  1 27  7  4 15.0000000  0 18G11G14G28G04G03G22G27G19G32G01R24R02
                                R08R07R22R15R23R01
 105803623.147 8  82444372.57847                  20133753.980
  20133748.580          48.700          47.950
 121151951.662 7  94404105.53646                  23054449.760
  23054444.960          47.750          39.600
 123093458.963 7  95916952.25246                  23423903.580
  23423898.260          46.900          39.750
 106509342.092 8  82994305.48147                  20268043.160
  20268038.920          50.350          46.700
 114559815.678 8  89267390.759 8  85547919.999 8  21800004.580    21800003.400
  21800002.740          49.900          48.350
 128323205.062 7  99992111.62246                  24419084.160
  24419078.000          46.200          37.150
 123077338.009 8  95904423.366 7  91908398.974 8  23420838.300    23420837.520
  23420836.920          48.500          45.300
 113129853.110 8  88153110.47047                  21527890.900
  21527884.540          50.200          47.850
 105425194.908 8  82149526.25547                  20061731.260
  20061727.200          49.950          47.450
 109944584.911 8  85671125.964 8  82101485.931 8  20921752.780    20921750.720
  20921750.600          50.250          49.250
 110245099.873 7  85746208.675 6                  20616385.660    20616387.140
  20616385.060          47.300          41.250
 129505722.358 6 100726690.151 6                  24269318.980    24269322.540
  24269321.560          38.850          37.950
 105003853.580 8  81669684.576 7                  19608716.220    19608716.900
  19608716.120          49.050          47.650
 124681609.531 7  96974612.352 6                  23291566.980    23291569.520
  23291569.120          44.150          41.300
 121383458.098 7  94409379.173 7                  22739209.760    22739213.760
  22739212.580          47.350          42.050
 129842168.897 6 100988370.153 5                  24298193.320    24298197.580
  24298195.480          38.600          33.250
 105087077.699 8  81734416.168 7                  19644916.040    19644919.380
  19644918.500          49.550          47.750
 107291737.029 8  83449140.359 7                  20071132.220    20071136.360
  20071136.100          48.800          42.900
 15  1 27  7  4 20.0000000  0 18G11G14G28G04G03G22G27G19G32G01R24R02
                                R08R07R22R15R23R01
 105800951.277 8  82442290.60147                  20133245.540
  20133240.160          48.650          47.650
 121155089.888 7  94406550.91246                  23055046.940
  23055042.100          47.600          38.750
 123089866.145 7  95914152.65046                  23423219.840
  23423214.580          47.200          39.350
 106511643.579 8  82996098.85247                  20268481.120
  20268476.880          50.300          47.000
 114547235.972 8  89257588.394 8  85538526.053 8  21797610.740    21797609.580
  21797608.920          49.800          48.400
 128339044.233 7 100004453.80246                  24422098.280
  24422092.140          46.050          36.950
 123094381.734 8  95917704.188 7  91921126.413 8  23424081.700    23424080.860
  23424080.280          48.300          45.400
 113141520.146 8  88162201.65847                  21530111.120
  21530104.700          50.050          47.950
 105425119.164 8  82149467.23647                  20061716.880
  20061712.800          49.950          47.150
 109938367.213 8  85666281.003 8  82096842.835 8  20920569.600    20920567.520
  20920567.400          50.150          49.250
 110231021.950 7  85735259.198 6                  20613753.020    20613754.500
  20613752.460          47.300          41.300
 129484360.994 6 100710075.793 6                  24265315.820    24265319.480
  24265318.460          39.850          37.450
 105012139.946 8  81676129.526 7                  19610263.600    19610264.340
  19610263.560          49.050          47.700
 124702117.032 7  96990562.626 6                  23295397.920    23295400.520
  23295400.140          43.550          41.400
 121400053.423 7  94422286.643 7                  22742318.700    22742322.540
  22742321.420          47.400          42.450
 129848372.424 5 100993195.148 5                  24299354.160    24299358.520
  24299356.500          35.600          34.350
 105089520.003 8  81736315.732 7                  19645372.640    19645375.920
  19645375.040          49.350          47.800
 107278978.953 8  83439217.415 7                  20068745.580    20068749.700
  20068749.440          48.650          43.050
 15  1 27  7  4 25.0000000  0 18G11G14G28G04G03G22G27G19G32G01R24R02
                                R08R07R22R15R23R01
 105798290.744 8  82440217.44947                  20132739.260
  20132733.880          48.700          47.900
 121158243.745 7  94409008.44746                  23055647.080
  23055642.240          47.600          39.950
 123086288.139 7  95911364.58246                  23422538.960
  23422533.660          47.250          39.550
 106513953.943 8  82997899.11847                  20268920.760
  20268916.540          50.250          47.000
 114534666.190 8  89247793.753 8  85529139.523 8  21795218.780    21795217.640
  21795217.000          49.800          48.500
 128354885.088 7 100016797.29546                  24425112.740
  24425106.540          46.450          36.800
 123111431.691 7  95930989.841 7  91933858.504 8  23427326.240    23427325.400
  23427324.860          47.850          45.750
 113153198.303 8  88171301.50747                  21532333.460
  21532326.980          50.150          47.650
 105425059.023 8  82149420.36147                  20061705.420
  20061701.360          49.950          47.200
 109932156.221 8  85661441.261 8  82092204.754 8  20919387.700    20919385.600
  20919385.480          50.150          49.350
 110216952.485 7  85724316.268 6                  20611121.980    20611123.420
  20611121.420          47.400          41.650
 129463002.948 6 100693463.949 6                  24261313.380    24261316.980
  24261315.920          40.300          37.250
 105020444.758 8  81682588.812 7                  19611814.440    19611815.240
  19611814.420          48.900          47.600
 124722628.414 7  97006515.879 6                  23299229.620    23299232.300
  23299231.860          43.650          41.050
 121416657.248 7  94435200.707 7                  22745429.180    22745433.040
  22745431.880          47.000          42.600
 129854594.293 6 100998034.348 5                  24300518.500    24300522.760
  24300520.860          36.650          33.300
 105091978.432 8  81738227.825 7                  19645832.240    19645835.460
  19645834.580          49.650          47.800
 107266238.282 8  83429307.996 7                  20066362.220    20066366.300
  20066366.020          48.800          43.350
 15  1 27  7  4 30.0000000  0 18G11G14G28G04G03G22G27G19G32G01R24R02
                                R08R07R22R15R23R01
 105795639.384 8  82438151.45647                  20132234.720
  20132229.360          48.650          47.800
 121161411.010 7  94411476.44646                  23056249.780
  23056244.920          47.400          39.950
 123082722.799 7  95908586.40046                  23421860.520
  23421855.220          46.950          39.950
 106516271.061 8  82999704.67147                  20269361.700
  20269357.480          50.050          47.250
 114522104.214 8  89238005.202 8  85519758.831 8  21792828.300    21792827.200
  21792826.540          49.600          48.550
 128370725.499 7 100029140.46246                  24428127.100
  24428120.920          46.550          37.200
 123128485.698 7  95944278.654 7  91946593.608 8  23430571.500    23430570.700
  23430570.160          47.450          45.350
 113164885.415 8  88180408.35447                  21534557.480
  21534550.980          50.050          47.700
 105425012.282 8  82149383.94547                  20061696.520
  20061692.460          49.850          47.400
 109925949.762 8  85656605.064 8  82087570.062 8  20918206.660    20918204.540
  20918204.440          50.150          49.400
 110202889.174 7  85713378.127 6                  20608492.120    20608493.500
  20608491.520          47.750          41.750
 129441646.125 6 100676853.115 6                  24257311.100    24257314.780
  24257313.720          41.300          37.250
 105028765.886 8  81689060.808 7                  19613368.340    19613369.140
  19613368.340          48.800          47.650
 124743141.349 7  97022470.376 6                  23303061.600    23303064.300
  23303063.860          43.450          41.250
 121433267.241 7  94448119.570 7                  22748540.820    22748544.700
  22748543.560          46.550          42.050
 129860832.103 6 101002885.953 5                  24301685.800    24301690.120
  24301688.180          37.100          33.300
 105094450.872 8  81740150.838 7                  19646294.460    19646297.680
  19646296.760          49.550          47.950
 107253512.918 8  83419410.497 7                  20063981.680    20063985.780
  20063985.480          48.700          43.200
 15  1 27  7  4 35.0000000  0 18G11G14G28G04G03G22G27G19G32G01R24R02
                                R08R07R22R15R23R01
 105792998.411 8  82436093.55747                  20131732.160
  20131726.800          48.550          47.550
 121164592.881 7  94413955.83046                  23056855.260
  23056850.460          47.550          39.950
 123079171.283 7  95905818.98746                  23421184.720
  23421179.380          47.000          40.200
 106518596.075 8  83001516.36947                  20269804.140
  20269799.920          50.100          46.650
 114509551.193 8  89228223.631 8  85510384.824 8  21790439.540    21790438.440
  21790437.800          49.650          48.350
 128386566.601 7 100041484.16645                  24431141.600
  24431135.400          46.950          34.800
 123145544.917 7  95957571.540 7  91959332.621 8  23433817.780    23433816.980
  23433816.420          47.350          45.100
 113176582.654 8  88189523.08347                  21536783.420
  21536776.900          50.000          47.700
 105424980.153 8  82149358.91447                  20061690.420
  20061686.340          49.900          47.300
 109919749.035 8  85651773.327 8  82082939.644 8  20917026.680    20917024.580
  20917024.480          50.150          49.200
 110188833.219 8  85702445.722 6                  20605863.640    20605865.040
  20605863.000          48.000          41.550
 129420291.689 7 100660244.102 6                  24253309.300    24253313.000
  24253311.920          42.450          36.900
 105037104.447 8  81695546.360 7                  19614925.480    19614926.300
  19614925.520          48.800          47.850
 124763657.313 7  97038427.214 6                  23306894.180    23306896.820
  23306896.440          43.450          41.100
 121449884.633 7  94461044.196 7                  22751653.820    22751657.740
  22751656.580          46.850          42.000
 129867087.113 6 101007750.997 5                  24302856.400    24302860.860
  24302858.780          36.850          34.500
 105096938.509 8  81742085.667 8                  19646759.500    19646762.740
  19646761.820          49.400          48.050
 107240803.874 8  83409525.691 7                  20061604.220    20061608.280
  20061608.020          48.650          43.450
 15  1 27  7  4 40.0000000  0 18G11G14G28G04G03G22G27G19G32G01R24R02
                                R08R07R22R15R23R01
 105790370.100 8  82434045.51847                  20131232.000
  20131226.660          48.700          47.700
 121167791.716 7  94416448.42046                  23057463.980
  23057459.240          47.650          40.800
 123075635.945 7  95903064.17046                  23420511.980
  23420506.640          47.150          39.300
 106520931.405 8  83003336.09647                  20270248.540
  20270244.300          50.100          46.750
 114497009.507 8  89218450.877 8  85501019.267 8  21788052.920    21788051.860
  21788051.220          49.650          48.400
 128402410.751 7 100053830.24546                  24434156.660
  24434150.500          46.900          37.050
 123162611.706 7  95970870.310 7  91972077.266 8  23437065.500    23437064.700
  23437064.100          47.700          45.250
 113188292.337 8  88198647.50147                  21539011.720
  21539005.180          50.000          47.400
 105424964.953 8  82149347.05947                  20061687.560
  20061683.440          50.000          47.200
 109913556.394 8  85646947.882 8  82078315.263 8  20915848.260    20915846.180
  20915846.080          50.050          49.150
 110174787.156 7  85691521.000 7                  20603237.020    20603238.360
  20603236.320          47.700          42.050
 129398942.053 7 100643638.792 6                  24249308.320    24249312.120
  24249311.080          42.950          37.300
 105045462.892 8  81702047.358 7                  19616486.340    19616487.160
  19616486.440          48.750          47.950
 124784178.448 7  97054388.082 6                  23310727.740    23310730.380
  23310729.980          43.250          41.350
 121466511.893 7  94473976.484 7                  22754768.640    22754772.620
  22754771.480          46.900          42.600
 129873361.901 5 101012631.329 5                  24304030.640    24304035.040
  24304032.980          35.250          33.450
 105099443.620 8  81744034.067 8                  19647227.840    19647231.060
  19647230.120          49.200          48.300
 107228113.639 8  83399655.508 7                  20059230.280    20059234.260
  20059234.060          48.850          43.350
 15  1 27  7  4 45.0000000  0 18G11G14G28G04G03G22G27G19G32G01R24R02
                                R08R07R22R15R23R01
 105787751.644 8  82432005.15747                  20130733.700
  20130728.400          48.700          47.600
 121171004.632 7  94418951.98746                  23058075.400
  23058070.660          47.650          39.700
 123072113.886 7  95900319.69846                  23419841.760
  23419836.420          46.900          39.750
 106523274.084 8  83005161.54847                  20270694.340
  20270690.100          50.150          46.350
 114484476.242 8  89208684.696 8  85491660.007 8  21785667.900    21785666.880
  21785666.220          49.650          48.450
 128418255.033 7 100066176.42246                  24437171.760
  24437165.560          46.550          36.850
 123179683.122 7  95984172.698 7  91984825.378 8  23440314.120    23440313.320
  23440312.720          47.750          45.300
 113200011.583 8  88207779.36547                  21541241.840
  21541235.280          49.950          47.600
 105424963.794 8  82149346.15047                  20061687.360
  20061683.240          49.950          47.250
 109907368.900 8  85642126.448 8  82073694.720 8  20914670.840    20914668.720
  20914668.620          50.100          49.150
 110160747.805 7  85680601.486 7                  20600611.620    20600612.920
  20600610.900          47.750          42.050
 129377594.184 7 100627034.850 6                  24245307.700    24245311.460
  24245310.540          42.600          36.050
 105053838.198 8  81708561.475 8                  19618050.400    19618051.220
  19618050.480          48.850          48.000
 124804701.947 7  97070350.781 6                  23314561.700    23314564.340
  23314563.960          43.650          41.150
 121483145.921 7  94486914.032 7                  22757884.760    22757888.800
  22757887.660          47.000          42.800
 129879653.289 5 101017524.602 5                  24305207.780    24305212.260
  24305210.220          35.700          32.200
 105101963.486 8  81745993.955 8                  19647698.920    19647702.100
  19647701.200          49.300          48.250
 107215439.167 8  83389797.583 7                  20056859.300    20056863.200
  20056863.080          48.800          43.050
 15  1 27  7  4 50.0000000  0 18G11G14G28G04G03G22G27G19G32G01R24R02
                                R08R07R22R15R23R01
 105785143.794 8  82429973.06647                  20130237.440
  20130232.180          48.600          47.900
 121174232.427 8  94421467.15246                  23058689.660
  23058684.960          48.100          40.250
 123068605.877 7  95897586.17446                  23419174.240
  23419168.860          46.900          40.500
 106525624.922 8  83006993.36547                  20271141.700
  20271137.440          50.200          46.850
 114471952.247 8  89198925.737 8  85482307.675 8  21783284.620    21783283.680
  21783283.000          49.550          48.600
 128434100.289 7 100078523.35246                  24440187.040
  24440180.760          46.300          37.050
 123196760.012 7  95997479.345 7  91997577.587 8  23443563.780    23443562.960
  23443562.400          47.350          45.300
 113211741.203 8  88216919.32147                  21543473.920
  21543467.360          49.950          47.900
 105424977.489 8  82149356.82147                  20061689.980
  20061685.840          49.950          47.450
 109901187.430 8  85637309.713 8  82069078.688 8  20913494.560    20913492.440
  20913492.320          50.150          49.300
 110146716.336 8  85669688.115 6                  20597987.740    20597988.960
  20597986.960          48.150          41.750
 129356249.127 7 100610433.072 6                  24241307.620    24241311.480
  24241310.520          42.700          36.350
 105062231.198 8  81715089.353 7                  19619617.760    19619618.580
  19619617.840          49.050          47.750
 124825228.425 7  97086315.804 6                  23318396.180    23318398.900
  23318398.480          43.650          40.750
 121499787.671 7  94499857.590 7                  22761002.320    22761006.440
  22761005.280          46.600          42.550
 129885962.226 5 101022431.631 5                  24306388.360    24306392.900
  24306390.780          35.550          33.200
 105104498.848 8  81747965.899 8                  19648172.880    19648176.060
  19648175.180          49.300          48.000
 107202781.577 8  83379952.795 7                  20054491.460    20054495.360
  20054495.260          48.850          43.100
 15  1 27  7  4 55.0000000  0 18G11G14G28G04G03G22G27G19G32G01R24R02
                                R08R07R22R15R23R01
 105782546.563 8  82427949.24848                  20129743.200
  20129737.940          48.650          48.100
 121177475.120 7  94423993.91846                  23059306.740
  23059302.040          47.950          40.600
 123065111.969 7  95894863.64546                  23418509.360
  23418504.020          47.100          39.850
 106527983.986 8  83008831.59347                  20271590.600
  20271586.340          50.200          46.900
 114459437.501 8  89189173.985 8  85472962.248 8  21780903.140    21780902.220
  21780901.580          49.400          48.750
 128449946.512 7 100090871.03446                  24443202.500
  24443196.220          46.050          38.000
 123213842.369 7  96010790.256 7  92010333.865 8  23446814.460    23446813.660
  23446813.120          47.300          45.350
 113223481.163 8  88226067.33347                  21545707.980
  21545701.420          50.100          47.600
 105425006.018 8  82149379.05047                  20061695.420
  20061691.260          49.900          47.700
 109895011.957 8  85632497.649 8  82064467.125 8  20912319.400    20912317.280
  20912317.180          50.250          49.550
 110132692.422 7  85658780.637 6                  20595365.220    20595366.480
  20595364.420          47.700          41.400
 129334906.665 7 100593833.382 6                  24237307.980    24237311.920
  24237310.980          42.300          36.000
 105070641.963 8  81721631.055 7                  19621188.440    19621189.260
  19621188.500          49.350          47.650
 124845757.879 7  97102283.129 6                  23322231.260    23322234.000
  23322233.560          43.750          40.700
 121516437.035 7  94512807.069 7                  22764121.340    22764125.480
  22764124.300          46.900          42.800
 129892288.562 5 101027352.140 5                  24307572.200    24307576.800
  24307574.700          32.050          33.800
 105107049.609 8  81749949.822 8                  19648649.740    19648652.940
  19648652.040          49.250          48.050
 107190140.612 8  83370120.923 7                  20052126.720    20052130.640
  20052130.500          48.850          43.150
 15  1 27  7  5  0.0000000  0 18G11G14G28G04G03G22G27G19G32G01R24R02
                                R08R07R22R15R23R01
 105779961.451 8  82425934.86947                  20129251.280
  20129246.020          48.650          47.900
 121180734.117 7  94426533.39446                  23059926.900
  23059922.280          47.950          39.800
 123061633.601 7  95892153.22446                  23417847.440
  23417842.140          47.100          39.850
 106530352.628 8  83010677.27847                  20272041.340
  20272037.080          50.200          46.650
 114446933.433 8  89179430.551 8  85463624.783 8  21778523.700    21778522.760
  21778522.160          49.650          48.750
 128465795.084 7 100103220.53846                  24446218.380
  24446212.100          46.000          36.550
 123230931.558 7  96024106.485 7  92023095.245 8  23450066.380    23450065.660
  23450065.100          47.150          45.400
 113235232.907 8  88235224.52247                  21547944.260
  21547937.700          50.250          47.600
 105425050.817 8  82149413.95447                  20061703.940
  20061699.800          49.950          47.600
 109888843.904 8  85627691.368 8  82059861.101 8  20911145.680    20911143.520
  20911143.420          50.350          49.350
 110118677.867 7  85647880.413 6                  20592744.460    20592745.700
  20592743.580          47.400          41.250
 129313568.566 7 100577237.052 5                  24233309.240    24233313.240
  24233312.180          42.350          35.650
 105079071.690 8  81728187.509 7                  19622762.640    19622763.500
  19622762.680          49.150          47.650
 124866292.009 7  97118254.108 6                  23326067.240    23326069.980
  23326069.520          43.100          40.600
 121533095.466 7  94525763.598 7                  22767242.060    22767246.180
  22767245.020          46.700          42.800
 129898633.601 6 101032287.145 5                  24308759.740    24308764.320
  24308762.160          37.200          33.700
 105109617.478 8  81751947.046 8                  19649129.760    19649132.980
  19649132.080          49.350          48.000
 107177517.696 8  83360303.093 7                  20049765.380    20049769.260
  20049769.120          48.900          43.150
 15  1 27  7  5  5.0000000  0 18G11G14G28G04G03G22G27G19G32G01R24R02
                                R08R07R22R15R23R01
 105777386.050 8  82423928.05948                  20128761.180
  20128755.940          48.450          48.000
 121184007.061 7  94429083.72546                  23060549.740
  23060545.160          47.550          40.550
 123058168.402 7  95889453.06446                  23417188.000
  23417182.740          47.050          39.650
 106532728.526 8  83012528.62347                  20272493.460
  20272489.200          50.150          46.850
 114434437.731 8  89169693.641 8  85454293.577 8  21776145.860    21776144.940
  21776144.360          49.600          48.800
 128481643.630 7 100115570.02546                  24449234.300
  24449227.980          46.250          37.800
 123248025.279 7  96037426.243 7  92035860.013 8  23453319.200    23453318.540
  23453317.960          47.100          45.400
 113246994.062 8  88244389.04847                  21550182.340
  21550175.800          50.250          47.650
 105425109.535 8  82149459.70447                  20061715.100
  20061710.980          49.950          47.450
 109882680.932 8  85622889.050 8  82055258.874 8  20909972.900    20909970.760
  20909970.660          50.350          49.350
 110104670.076 7  85636985.439 6                  20590124.960    20590126.060
  20590124.020          47.650          41.100
 129292232.116 7 100560642.004 5                  24229310.780    24229314.740
  24229313.700          42.400          35.550
 105087518.295 8  81734757.087 7                  19624340.000    19624340.860
  19624340.000          49.000          47.650
 124886828.138 7  97134226.624 6                  23329903.560    23329906.300
  23329905.860          43.850          40.450
 121549760.570 7  94538725.316 7                  22770364.020    22770368.100
  22770366.980          46.650          42.250
 129904995.240 6 101037235.086 5                  24309950.220    24309954.720
  24309952.660          36.350          33.700
 105112199.822 8  81753955.527 7                  19649612.520    19649615.720
  19649614.840          49.600          47.950
 107164910.648 8  83350497.610 7                  20047407.020    20047410.860
  20047410.700          48.850          42.900
 15  1 27  7  5 10.0000000  0 18G11G14G28G04G03G22G27G19G32G01R24R02
                                R08R07R22R15R23R01
 105774821.483 8  82421929.69047                  20128273.180
  20128267.920          48.750          47.800
 121187295.157 7  94431645.87446                  23061175.460
  23061170.920          47.750          40.350
 123054717.633 7  95886764.15346                  23416531.320
  23416526.080          47.150          40.400
 106535112.849 8  83014386.53147                  20272947.180
  20272942.940          50.150          46.950
 114421951.544 8  89159964.142 8  85444969.480 8  21773769.820    21773768.920
  21773768.340          49.650          48.900
 128497493.374 7 100127920.46146                  24452250.420
  24452244.140          46.250          37.650
 123265124.686 7  96050750.438 7  92048629.034 8  23456573.140    23456572.440
  23456571.860          47.350          45.250
 113258765.828 8  88253561.84448                  21552422.440
  21552415.900          50.200          48.000
 105425183.347 8  82149517.22447                  20061729.160
  20061725.040          50.000          47.750
 109876524.240 8  85618091.622 8  82050661.345 8  20908801.320    20908799.160
  20908799.080          50.300          49.450
 110090670.229 7  85626096.682 6                  20587506.920    20587507.960
  20587505.980          47.650          41.450
 129270898.804 7 100544049.422 6                  24225312.960    24225316.820
  24225315.860          43.250          36.300
 105095982.776 8  81741340.566 7                  19625920.700    19625921.580
  19625920.680          49.150          47.800
 124907367.621 7  97150201.763 6                  23333740.560    23333743.260
  23333742.800          43.950          40.650
 121566433.526 7  94551693.177 7                  22773487.400    22773491.540
  22773490.400          46.600          42.800
 129911374.772 6 101042196.972 5                  24311144.080    24311148.480
  24311146.460          37.900          32.750
 105114797.883 8  81755976.226 8                  19650098.240    19650101.380
  19650100.520          49.650          48.000
 107152320.634 8  83340705.374 7                  20045051.840    20045055.700
  20045055.480          49.050          42.950
 15  1 27  7  5 15.0000000  0 18G11G14G28G04G03G22G27G19G32G01R24R02
                                R08R07R22R15R23R01
 105772267.173 8  82419939.31547                  20127787.120
  20127781.840          48.800          47.700
 121190597.742 7  94434219.31346                  23061803.920
  23061799.420          47.850          40.200
 123051280.561 7  95884085.90846                  23415877.280
  23415872.080          47.350          39.200
 106537504.915 8  83016250.47647                  20273402.380
  20273398.140          50.100          47.200
 114409474.211 8  89150241.543 8  85435651.983 8  21771395.460    21771394.560
  21771394.000          49.650          48.900
 128513343.593 7 100140271.27146                  24455266.640
  24455260.360          46.000          37.850
 123282229.099 7  96064078.543 7  92061401.782 8  23459828.020    23459827.320
  23459826.760          47.100          45.550
 113270547.546 8  88262742.39247                  21554664.440
  21554657.900          50.200          47.900
 105425271.545 8  82149585.94847                  20061745.940
  20061741.820          49.950          47.450
 109870373.108 8  85613298.528 8  82046067.961 8  20907630.780    20907628.640
  20907628.560          50.300          49.450
 110076677.834 7  85615213.708 6                  20584890.300    20584891.320
  20584889.300          47.400          41.800
 129249567.741 7 100527458.578 6                  24221315.560    24221319.400
  24221318.400          42.750          36.250
 105104464.440 8  81747937.414 7                  19627504.620    19627505.480
  19627504.580          49.200          47.900
 124927909.615 7  97166178.855 6                  23337578.040    23337580.620
  23337580.220          44.350          40.550
 121583113.761 7  94564666.672 7                  22776612.160    22776616.340
  22776615.240          46.550          43.050
 129917771.279 6 101047172.024 5                  24312341.120    24312345.560
  24312343.500          37.850          33.600
 105117410.946 8  81758008.602 8                  19650586.760    19650589.860
  19650589.000          49.600          48.000
 107139746.919 8  83330925.820 7                  20042699.720    20042703.500
  20042703.280          48.950          42.650
 15  1 27  7  5 20.0000000  0 18G11G14G28G04G03G22G27G19G32G01R24R02
                                R08R07R22R15R23R01
 105769724.098 8  82417957.69848                  20127303.180
  20127297.920          48.700          48.000
 121193915.748 7  94436804.77446                  23062435.320
  23062430.820          47.750          40.050
 123047858.111 7  95881419.06046                  23415225.980
  23415220.820          47.350          40.250
 106539905.751 8  83018121.25247                  20273859.240
  20273855.020          50.000          47.150
 114397006.718 8  89140526.613 8  85426341.844 8  21769022.980    21769022.080
  21769021.540          49.550          48.900
 128529195.237 7 100152623.16446                  24458283.140
  24458276.860          46.150          37.700
 123299339.471 7  96077411.270 7  92074178.984 8  23463084.020    23463083.340
  23463082.800          47.150          45.600
 113282340.167 8  88271931.44547                  21556908.520
  21556901.980          50.150          47.900
 105425375.142 8  82149666.67347                  20061765.680
  20061761.540          49.850          47.700
 109864228.558 8  85608510.567 8  82041479.500 8  20906461.500    20906459.380
  20906459.280          50.100          49.400
 110062693.719 7  85604337.161 6                  20582275.220    20582276.240
  20582274.200          47.250          41.900
 129228239.997 7 100510870.312 6                  24217318.740    24217322.560
  24217321.580          42.350          36.750
 105112964.258 8  81754548.385 7                  19629091.900    19629092.760
  19629091.900          49.050          47.850
 124948455.246 7  97182158.786 6                  23341416.180    23341418.720
  23341418.320          43.750          40.250
 121599802.218 7  94577646.550 7                  22779738.460    22779742.700
  22779741.600          46.550          42.700
 129924185.692 6 101052161.023 5                  24313541.580    24313545.980
  24313543.920          37.350          33.900
 105120040.153 8  81760053.541 7                  19651078.280    19651081.380
  19651080.520          49.300          47.950
 107127190.461 8  83321159.693 7                  20040350.820    20040354.620
  20040354.320          48.950          42.550
 15  1 27  7  5 25.0000000  0 18G11G14G28G04G03G22G27G19G32G01R24R02
                                R08R07R22R15R23R01
 105767193.362 8  82415985.68247                  20126821.600
  20126816.320          48.700          47.950
 121197250.299 7  94439403.12246                  23063069.840
  23063065.360          47.750          40.850
 123044451.409 7  95878764.47446                  23414577.720
  23414572.540          47.200          39.550
 106542316.383 8  83019999.65847                  20274317.980
  20274313.740          49.950          47.250
 114384550.166 8  89130820.205 8  85417039.870 8  21766652.580    21766651.700
  21766651.140          49.550          48.900
 128545049.456 7 100164977.06846                  24461300.160
  24461293.800          45.750          37.950
 123316456.903 7  96090749.500 7  92086961.450 8  23466341.360    23466340.720
  23466340.180          46.900          45.200
 113294144.763 8  88281129.81948                  21559154.860
  21559148.340          49.850          48.350
 105425495.170 8  82149760.19547                  20061788.500
  20061784.380          49.750          47.750
 109858091.675 8  85603728.570 8  82036896.757 8  20905293.660    20905291.560
  20905291.440          49.900          49.350
 110048719.154 7  85593468.049 6                  20579661.940    20579662.980
  20579660.880          47.400          41.550
 129206916.866 7 100494285.653 5                  24213322.780    24213326.640
  24213325.620          42.550          35.900
 105121483.433 8  81761174.396 7                  19630682.800    19630683.680
  19630682.860          48.800          47.750
 124969005.334 7  97198142.160 6                  23345255.160    23345257.680
  23345257.240          43.950          40.050
 121616499.986 7  94590633.671 7                  22782866.540    22782870.860
  22782869.680          46.850          42.550
 129930619.108 6 101057164.788 5                  24314745.440    24314749.960
  24314747.800          37.850          30.900
 105122686.547 8  81762111.831 7                  19651573.020    19651576.120
  19651575.260          49.200          47.950
 107114652.561 8  83311407.989 7                  20038005.380    20038009.100
  20038008.820          48.850          42.700
 15  1 27  7  5 30.0000000  0 18G11G14G28G04G03G22G27G19G32G01R24R02
                                R08R07R22R15R23R01
 105764672.249 8  82414021.17248                  20126341.840
  20126336.580          48.600          48.100
 121200598.608 7  94442012.18146                  23063706.960
  23063702.520          47.450          40.850
 123041057.754 7  95876120.06546                  23413931.940
  23413926.740          47.150          39.200
 106544734.144 8  83021883.61947                  20274778.060
  20274773.840          49.900          47.050
 114372101.812 8  89121120.187 8  85407744.015 8  21764283.740    21764282.860
  21764282.300          49.550          48.700
 128560903.501 7 100177330.85546                  24464317.100
  24464310.800          45.650          37.350
 123333578.628 7  96104091.071 7  92099747.121 8  23469599.520    23469598.900
  23469598.340          47.150          45.250
 113305958.619 8  88290335.41147                  21561402.960
  21561396.460          49.650          47.850
 105425628.926 8  82149864.41747                  20061813.980
  20061809.840          49.800          47.400
 109851959.714 8  85598950.412 8  82032317.687 8  20904126.760    20904124.680
  20904124.540          49.900          49.300
 110034751.360 7  85582604.203 6                  20577049.960    20577050.960
  20577048.860          47.900          41.750
 129185595.384 6 100477702.245 6                  24209327.140    24209331.020
  24209329.960          41.700          36.200
 105130019.084 8  81767813.227 7                  19632276.780    19632277.660
  19632276.860          48.650          47.550
 124989557.453 7  97214127.119 6                  23349094.520    23349096.940
  23349096.520          43.950          40.350
 121633204.212 7  94603625.829 7                  22785995.820    22786000.180
  22785999.020          46.850          42.850
 129937068.749 5 101062181.131 5                  24315952.460    24315956.960
  24315954.580          34.700          30.150
 105125347.430 8  81764181.405 8                  19652070.500    19652073.520
  19652072.700          49.250          48.050
 107102130.206 8  83301668.367 7                  20035662.840    20035666.500
  20035666.240          49.000          42.700
 15  1 27  7  5 35.0000000  0 18G11G14G28G04G03G22G27G19G32G01R24R02
                                R08R07R22R15R23R01
 105762161.753 8  82412064.94547                  20125864.120
  20125858.840          48.500          47.950
 121203961.778 7  94444632.82146                  23064346.940
  23064342.520          47.250          41.000
 123037678.149 7  95873486.60346                  23413288.820
  23413283.640          47.000          38.950
 106547160.070 8  83023773.95147                  20275239.700
  20275235.480          49.900          47.150
 114359662.723 8  89111427.388 8  85398455.075 8  21761916.680    21761915.800
  21761915.200          49.650          48.650
 128576758.392 7 100189685.30046                  24467334.220
  24467327.960          45.400          37.600
 123350705.708 7  96117436.826 7  92112536.806 8  23472858.740    23472858.080
  23472857.500          47.150          44.850
 113317782.661 8  88299548.94248                  21563652.980
  21563646.520          49.600          48.350
 105425777.507 8  82149980.19447                  20061842.260
  20061838.100          49.750          47.700
 109845833.737 8  85594176.922 8  82027743.093 8  20902961.000    20902958.920
  20902958.800          49.750          49.300
 110020791.279 8  85571746.366 7                  20574439.400    20574440.380
  20574438.300          48.100          42.000
 129164276.685 6 100461121.032 5                  24205332.020    24205335.960
  24205334.780          41.050          35.550
 105138572.304 8  81774465.731 7                  19633874.100    19633874.960
  19633874.120          48.850          47.650
 125010112.403 7  97230114.284 6                  23352934.400    23352936.800
  23352936.340          44.450          40.900
 121649916.115 7  94616623.936 7                  22789126.520    22789130.940
  22789129.800          47.300          42.550
 129943535.721 5 101067211.060 5                  24317162.700    24317167.140
  24317164.760          35.050          31.700
 105128023.676 8  81766262.925 8                  19652570.840    19652573.820
  19652573.000          49.350          48.000
 107089624.751 8  83291941.899 7                  20033323.460    20033327.140
  20033326.860          49.050          43.100
 15  1 27  7  5 40.0000000  0 18G11G14G28G04G03G22G27G19G32G01R24R02
                                R08R07R22R15R23R01
 105759661.935 8  82410117.03948                  20125388.420
  20125383.140          48.500          48.300
 121207339.815 7  94447265.05546                  23064989.740
  23064985.340          47.300          41.050
 123034312.664 7  95870864.14946                  23412648.380
  23412643.180          47.100          39.300
 106549594.171 8  83025670.65147                  20275702.900
  20275698.680          49.900          47.200
 114347232.940 8  89101741.843 8  85389173.094 8  21759551.380    21759550.480
  21759549.900          49.650          48.700
 128592614.135 7 100202040.41446                  24470351.480
  24470345.160          44.950          38.400
 123367838.167 7  96130786.798 7  92125330.502 8  23476119.000    23476118.280
  23476117.660          47.600          44.750
 113329617.033 8  88308770.52448                  21565904.980
  21565898.560          49.600          48.450
 105425940.858 8  82150107.48648                  20061873.360
  20061869.180          49.750          48.050
 109839713.797 8  85589408.145 8  82023173.001 8  20901796.380    20901794.320
  20901794.180          49.800          49.300
 110006839.102 7  85560894.681 7                  20571830.340    20571831.300
  20571829.220          47.850          42.100
 129142960.715 7 100444541.951 5                  24201337.360    24201341.240
  24201340.120          42.050          35.900
 105147143.018 8  81781131.849 7                  19635474.660    19635475.480
  19635474.640          49.000          47.750
 125030670.261 7  97246103.708 6                  23356774.860    23356777.280
  23356776.700          44.050          41.100
 121666635.565 7  94629627.945 7                  22792258.660    22792263.120
  22792261.980          47.000          42.650
 129950020.043 5 101072254.413 5                  24318376.100    24318380.680
  24318378.240          35.300          31.250
 105130715.556 8  81768356.616 7                  19653074.060    19653077.060
  19653076.220          49.550          47.950
 107077135.953 8  83282228.392 7                  20030987.200    20030990.880
  20030990.580          49.050          43.150
 15  1 27  7  5 45.0000000  0 18G11G14G28G04G03G22G27G19G32G01R24R02
                                R08R07R22R15R23R01
 105757173.831 8  82408178.25548                  20124914.940
  20124909.660          48.400          48.250
 121210733.761 7  94449909.68746                  23065635.560
  23065631.180          47.200          41.200
 123030962.350 7  95868253.50746                  23412010.820
  23412005.600          47.400          39.450
 106552037.468 8  83027574.52147                  20276167.860
  20276163.620          49.950          47.550
 114334813.515 8  89092064.371 8  85379898.854 8  21757188.060    21757187.160
  21757186.560          49.650          48.800
 128608471.812 7 100214397.01246                  24473369.100
  24473362.800          44.750          38.650
 123384977.034 7  96144141.753 7  92138128.995 8  23479380.480    23479379.680
  23479379.040          47.150          44.900
 113341462.760 8  88318000.95548                  21568159.120
  21568152.740          49.650          48.300
 105426120.081 8  82150247.13647                  20061907.460
  20061903.300          49.800          47.850
 109833600.914 8  85584644.859 8  82018608.197 8  20900633.100    20900631.080
  20900630.920          50.000          49.300
 109992895.820 8  85550049.886 7                  20569222.940    20569223.820
  20569221.780          48.250          42.250
 129121648.793 7 100427965.999 5                  24197343.500    24197347.500
  24197346.300          43.300          35.850
 105155732.296 8  81787812.402 7                  19637078.700    19637079.480
  19637078.660          49.300          47.950
 125051232.390 7  97262096.454 6                  23360616.080    23360618.420
  23360617.880          44.700          41.250
 121683363.679 7  94642638.661 7                  22795392.420    22795396.940
  22795395.780          47.200          42.850
 129956522.814 5 101077312.066 4                  24319592.920    24319597.260
  24319595.240          35.100          29.950
 105133423.927 8  81770463.123 7                  19653580.380    19653583.380
  19653582.520          49.700          47.950
 107064665.057 8  83272528.808 7                  20028654.320    20028657.940
  20028657.680          49.200          43.350
 15  1 27  7  5 50.0000000  0 18G11G14G28G04G03G22G27G19G32G01R24R02
                                R08R07R22R15R23R01
 105754696.470 8  82406247.84047                  20124443.520
  20124438.240          48.450          47.850
 121214142.661 7  94452565.96446                  23066284.220
  23066279.880          47.350          40.450
 123027626.262 7  95865653.95146                  23411376.000
  23411370.760          47.300          40.000
 106554489.021 8  83029484.81447                  20276634.380
  20276630.120          49.900          47.400
 114322403.481 8  89082394.217 8  85370631.617 8  21754826.500    21754825.580
  21754825.020          49.650          48.850
 128624330.463 7 100226754.37046                  24476386.880
  24476380.660          44.000          38.100
 123402121.375 7  96157500.959 7  92150931.565 8  23482642.960    23482642.140
  23482641.480          47.200          45.200
 113353318.888 8  88327239.49248                  21570415.260
  21570408.920          49.650          48.250
 105426314.178 8  82150398.37548                  20061944.400
  20061940.220          49.800          48.100
 109827494.158 8  85579886.344 8  82014047.952 8  20899471.000    20899469.000
  20899468.840          50.100          49.300
 109978960.575 8  85539211.360 7                  20566617.020    20566617.900
  20566615.840          48.700          42.250
 129100339.771 7 100411392.305 5                  24193350.260    24193354.260
  24193353.000          44.000          35.900
 105164339.296 8  81794506.729 8                  19638686.020    19638686.780
  19638686.000          49.200          48.000
 125071797.199 7  97278091.280 6                  23364457.780    23364460.060
  23364459.560          45.050          41.150
 121700099.502 7  94655655.403 7                  22798527.600    22798532.100
  22798530.980          47.200          42.850
 129963043.132 5 101082383.447 4                  24320813.060    24320817.340
  24320815.460          34.600          29.600
 105136148.203 8  81772581.993 7                  19654089.700    19654092.680
  19654091.800          49.750          47.850
 107052211.088 8  83262842.383 7                  20026324.560    20026328.200
  20026327.940          49.050          43.200
 15  1 27  7  5 55.0000000  0 18G11G14G28G04G03G22G27G19G32G01R24R02
                                R08R07R22R15R23R01
 105752230.419 8  82404326.23947                  20123974.240
  20123968.980          48.600          47.950
 121217567.078 7  94455234.34146                  23066935.840
  23066931.520          47.400          40.750
 123024304.885 7  95863065.86746                  23410744.000
  23410738.700          47.350          39.550
 106556949.439 8  83031402.02147                  20277102.580
  20277098.340          49.800          47.250
 114310003.389 8  89072731.812 8  85361371.808 8  21752466.840    21752465.920
  21752465.360          49.650          48.700
 128640190.593 7 100239112.87446                  24479404.900
  24479398.780          44.050          39.600
 123419271.685 7  96170864.820 7  92163738.595 8  23485906.580    23485905.740
  23485905.080          47.200          45.400
 113365185.961 8  88336486.55848                  21572673.440
  21572667.160          49.350          48.500
 105426523.728 8  82150561.66447                  20061984.260
  20061980.080          49.750          47.800
 109821394.055 8  85575133.013 8  82009492.676 8  20898310.180    20898308.180
  20898308.020          50.250          49.300
 109965033.820 8  85528379.454 7                  20564012.720    20564013.580
  20564011.540          48.100          42.400
 129079034.303 7 100394821.371 6                  24189357.620    24189361.660
  24189360.380          44.500          36.350
 105172964.414 8  81801215.148 7                  19640296.720    19640297.460
  19640296.720          49.200          47.850
 125092365.786 7  97294089.052 6                  23368300.200    23368302.440
  23368301.980          45.250          41.350
 121716843.529 7  94668678.535 7                  22801664.340    22801668.840
  22801667.720          46.850          43.050
 129969581.356 5 101087468.757 4                  24322036.680    24322040.980
  24322039.020          33.100          29.050
 105138888.432 8  81774713.281 8                  19654601.980    19654604.940
  19654604.060          49.650          48.050
 107039774.598 8  83253169.561 7                  20023998.060    20024001.720
  20024001.480          48.900          43.050
 15  1 27  7  6  0.0000000  0 18G11G14G28G04G03G22G27G19G32G01R24R02
                                R08R07R22R15R23R01
 105749773.860 8  82402412.02648                  20123506.800
  20123501.540          48.400          48.100
 121221005.164 7  94457913.34946                  23067590.040
  23067585.720          47.250          40.550
 123020996.441 7  95860487.84246                  23410114.420
  23410109.140          47.200          40.050
 106559416.876 8  83033324.69247                  20277572.120
  20277567.860          49.800          47.350
 114297611.435 8  89063075.729 8  85352118.060 8  21750108.740    21750107.800
  21750107.240          49.550          48.650
 128656050.367 7 100251471.10246                  24482422.920
  24482416.840          44.300          38.900
 123436426.141 7  96184231.892 7  92176548.710 8  23489171.020    23489170.120
  23489169.520          47.650          45.050
 113377062.155 8  88345740.71448                  21574933.400
  21574927.140          49.350          48.500
 105426746.841 8  82150735.50247                  20062026.720
  20062022.540          49.850          47.950
 109815298.792 8  85570383.447 8  82004940.999 8  20897150.280    20897148.300
  20897148.140          50.150          49.300
 109951113.799 8  85517552.755 7                  20561409.660    20561410.500
  20561408.480          48.600          42.400
 129057730.439 7 100378251.663 5                  24185365.300    24185369.320
  24185368.100          44.650          35.600
 105181605.814 8  81807936.225 7                  19641910.460    19641911.200
  19641910.460          49.150          47.750
 125112935.822 7  97310087.952 6                  23372142.880    23372145.120
  23372144.620          45.350          41.000
 121733593.884 7  94681706.550 7                  22804802.240    22804806.760
  22804805.680          47.350          43.200
 129976135.496 5 101092566.420 5                  24323263.200    24323267.540
  24323265.540          34.700          30.600
 105141643.062 8  81776855.756 8                  19655116.940    19655119.880
  19655119.020          49.700          48.050
 107027353.667 8  83243508.832 7                  20021674.500    20021678.140
  20021677.900          49.050          43.150
 15  1 27  7  6  5.0000000  0 18G11G14G28G04G03G22G27G19G32G01R24R02
                                R08R07R22R15R23R01
 105747327.229 8  82400505.56248                  20123041.200
  20123035.980          48.450          48.150
 121224457.320 7  94460603.33446                  23068246.940
  23068242.640          47.350          40.500
 123017701.334 7  95857920.22746                  23409487.420
  23409482.120          47.350          40.050
 106561891.682 8  83035253.10947                  20278043.060
  20278038.800          49.850          47.000
 114285227.994 8  89053426.294 8  85342870.691 8  21747752.260    21747751.320
  21747750.720          49.650          48.700
 128671910.213 7 100263829.39846                  24485440.940
  24485434.920          44.600          38.600
 123453585.112 7  96197602.510 7  92189362.223 8  23492436.340    23492435.340
  23492434.780          47.600          44.800
 113388947.855 8  88355002.28648                  21577195.140
  21577188.940          49.650          48.000
 105426983.903 8  82150920.22847                  20062071.840
  20062067.660          49.950          47.450
 109809208.757 8  85565637.964 8  82000393.250 8  20895991.380    20895989.420
  20895989.260          50.100          49.300
 109937200.867 8  85506731.589 7                  20558807.900    20558808.760
  20558806.720          48.600          42.350
 129036428.717 7 100361683.642 5                  24181373.400    24181377.340
  24181376.220          43.950          35.600
 105190263.854 8  81814670.258 7                  19643527.300    19643528.040
  19643527.280          49.200          47.800
 125133508.018 7  97326088.528 6                  23375985.960    23375988.200
  23375987.680          45.400          40.850
 121750351.043 7  94694739.871 7                  22807941.420    22807945.980
  22807944.920          47.150          43.100
 129982706.183 5 101097676.929 5                  24324492.800    24324497.040
  24324495.160          32.950          30.650
 105144412.341 8  81779009.629 8                  19655634.640    19655637.580
  19655636.720          49.700          48.100
 107014948.853 8  83233860.642 7                  20019353.960    20019357.540
  20019357.340          49.000          43.050
 15  1 27  7  6 10.0000000  0 18G11G14G28G04G03G22G27G19G32G01R24R02
                                R08R07R22R15R23R01
 105744894.132 8  82398609.63847                  20122578.200
  20122572.980          48.600          47.750
 121227927.157 7  94463307.09746                  23068907.200
  23068902.900          47.500          40.100
 123014423.180 7  95855365.82546                  23408863.620
  23408858.340          47.600          39.950
 106564377.469 8  83037190.08047                  20278516.080
  20278511.820          49.950          47.000
 114272856.720 8  89043786.333 8  85333632.395 8  21745398.100    21745397.140
  21745396.560          49.650          48.700
 128687773.720 7 100276190.54346                  24488459.660
  24488453.740          44.350          38.900
 123470752.275 8  96210979.504 7  92202181.828 8  23495703.200    23495702.140
  23495701.540          48.000          44.350
 113400846.645 8  88364274.06547                  21579459.380
  21579453.220          49.850          47.600
 105427238.625 8  82151118.71147                  20062120.320
  20062116.120          50.000          47.300
 109803127.580 8  85560899.380 8  81995852.104 8  20894834.200    20894832.200
  20894832.040          50.300          49.300
 109923298.806 8  85495918.871 7                  20556208.180    20556209.040
  20556207.000          48.650          42.200
 129015132.784 7 100345120.127 5                  24177382.560    24177386.480
  24177385.440          44.050          35.900
 105198942.263 8  81821420.129 7                  19645147.920    19645148.700
  19645147.880          49.400          47.700
 125154085.955 7  97342093.573 6                  23379830.100    23379832.380
  23379831.800          45.300          41.100
 121767118.590 7  94707781.275 7                  22811082.540    22811087.200
  22811086.100          47.100          43.050
 129989297.059 5 101102803.174 4                  24325726.260    24325730.460
  24325728.400          34.100          26.400
 105147200.182 8  81781177.944 8                  19656155.800    19656158.740
  19656157.900          49.600          48.050
 107002563.853 8  83224227.853 7                  20017037.100    20017040.640
  20017040.480          49.150          43.050
 15  1 27  7  6 15.0000000  0 18G11G14G28G04G03G22G27G19G32G01R24R02
                                R08R07R22R15R23R01
 105742470.890 8  82396721.38948                  20122117.100
  20122111.860          48.400          48.300
 121231410.936 7  94466021.73046                  23069570.120
  23069565.800          47.550          40.650
 123011158.257 7  95852821.71346                  23408242.340
  23408237.080          47.850          38.550
 106566870.497 8  83039132.69147                  20278990.460
  20278986.220          49.850          47.000
 114260493.869 8  89034152.932 8  85324400.391 8  21743045.560    21743044.560
  21743043.980          49.550          48.800
 128703637.128 7 100288551.60546                  24491478.360
  24491472.440          44.350          38.800
 123487923.836 7  96224359.933 7  92215004.726 8  23498970.880    23498969.740
  23498969.120          47.750          44.500
 113412754.826 8  88373553.15947                  21581725.440
  21581719.280          49.850          47.750
 105427507.213 8  82151327.99247                  20062171.420
  20062167.220          49.900          47.400
 109797051.572 8  85556164.812 8  81991314.815 8  20893677.980    20893676.000
  20893675.820          50.300          49.300
 109909403.769 8  85485111.605 7                  20553609.780    20553610.600
  20553608.540          48.800          42.150
 128993838.773 7 100328558.087 6                  24173392.120    24173396.060
  24173395.000          43.350          36.250
 105207637.266 8  81828182.909 7                  19646771.640    19646772.480
  19646771.600          49.250          47.750
 125174665.749 7  97358100.051 6                  23383674.580    23383676.900
  23383676.260          45.050          41.000
 121783892.825 7  94720827.873 7                  22814224.900    22814229.640
  22814228.560          47.150          42.600
 129995904.192 5 101107962.05314                  24326962.560    24326969.400
                        35.350          28.350
 105150002.608 8  81783357.600 7                  19656679.720    19656682.640
  19656681.800          49.450          47.950
 106990194.683 8  83214607.386 7                  20014723.200    20014726.700
  20014726.580          49.000          43.150
 15  1 27  7  6 20.0000000  0 18G11G14G28G04G03G22G27G19G32G01R24R02
                                R08R07R22R15R23R01
 105740057.791 8  82394841.04448                  20121657.900
  20121652.680          48.450          48.150
 121234908.987 7  94468747.48246                  23070235.780
  23070231.480          47.650          40.000
 123007906.917 7  95850288.19546                  23407623.660
  23407618.380          47.600          39.550
 106569371.156 8  83041081.25047                  20279466.320
  20279462.080          49.950          46.400
 114248139.785 8  89024526.375 8  85315174.939 8  21740694.640    21740693.640
  21740693.080          49.300          48.700
 128719500.805 7 100300912.87546                  24494497.140
  24494491.260          44.750          38.850
 123505100.140 7  96237744.050 7  92227831.167 8  23502239.440    23502238.260
  23502237.680          47.800          44.850
 113424672.734 8  88382839.82647                  21583993.340
  21583987.200          49.900          47.750
 105427789.994 8  82151548.33747                  20062225.220
  20062221.040          49.850          47.650
 109790980.991 8  85551434.481 8  81986781.581 8  20892522.800    20892520.820
  20892520.640          50.250          49.300
 109895516.135 8  85474310.102 7                  20551012.740    20551013.580
  20551011.520          48.400          42.100
 128972547.128 7 100311997.923 6                  24169402.060    24169405.900
  24169404.980          43.800          36.850
 105216349.182 8  81834958.845 7                  19648398.500    19648399.400
  19648398.500          49.000          47.850
 125195247.800 7  97374108.287 6                  23387519.540    23387521.860
  23387521.160          45.350          41.300
 121800674.055 7  94733879.915 7                  22817368.580    22817373.360
  22817372.300          47.200          42.550
 130002528.116 5 101113114.044 5                  24328202.040    24328206.680
                        34.950          31.750
 105152820.063 8  81785548.950 7                  19657206.400    19657209.320
  19657208.500          49.650          47.750
 106977841.756 8  83204999.553 7                  20012412.340    20012415.820
  20012415.720          48.850          43.200
 15  1 27  7  6 25.0000000  0 18G11G14G28G04G03G22G27G19G32G01R24R02
                                R08R07R22R15R23R01
 105737655.820 8  82392969.38648                  20121200.840
  20121195.620          48.700          48.000
 121238422.317 7  94471485.14446                  23070904.360
  23070900.060          47.850          39.900
 123004670.104 7  95847766.00246                  23407007.780
  23407002.500          47.800          38.600
 106571880.427 8  83043036.53047                  20279943.800
  20279939.580          49.950          46.300
 114235795.459 8  89014907.426 8  85305956.766 8  21738345.600    21738344.620
  21738344.020          49.350          48.750
 128735365.684 7 100313275.10246                  24497516.180
  24497510.300          45.050          38.550
 123522282.128 7  96251132.602 7  92240661.868 8  23505509.080    23505507.920
  23505507.340          47.300          44.850
 113436601.318 8  88392134.82247                  21586263.300
  21586257.160          49.950          47.700
 105428087.970 8  82151780.53047                  20062281.920
  20062277.740          49.900          47.450
 109784916.870 8  85546709.198 8  81982253.171 8  20891368.860    20891366.880
  20891366.700          50.250          49.300
 109881636.884 8  85463515.131 6                  20548417.260    20548418.120
  20548416.060          48.700          41.700
 128951258.883 7 100295440.407 6                  24165412.660    24165416.600
  24165415.540          43.650          37.150
 105225078.947 8  81841748.653 7                  19650028.680    19650029.620
  19650028.740          48.850          47.850
 125215832.937 7  97390118.937 6                  23391365.020    23391367.420
  23391366.680          45.550          41.550
 121817463.192 7  94746938.113 7                  22820513.780    22820518.620
  22820517.500          47.300          42.300
 130009169.733 5 101118279.771 4                  24329444.720    24329449.200
                        35.000          29.750
 105155653.395 8  81787752.663 7                  19657736.100    19657739.000
  19657738.180          49.650          47.800
 106965506.100 8  83195405.163 7                  20010104.640    20010108.200
  20010108.060          49.300          42.850
 15  1 27  7  6 30.0000000  0 18G11G14G28G04G03G22G27G19G32G01R24R02
                                R08R07R22R15R23R01
 105735265.832 8  82391107.04847                  20120746.060
  20120740.820          48.750          47.950
 121241951.762 7  94474235.35046                  23071576.040
  23071571.720          47.950          39.950
 123001448.699 7  95845255.81046                  23406394.800
  23406389.460          47.800          38.100
 106574399.145 8  83044999.15947                  20280423.080
  20280418.880          49.850          46.750
 114223461.739 8  89005296.727 8  85296746.528 8  21735998.580    21735997.580
  21735997.000          49.550          48.700
 128751232.625 7 100325638.92646                  24500535.580
  24500529.680          45.250          37.850
 123539470.710 7  96264526.267 7  92253497.482 8  23508780.000    23508778.840
  23508778.280          47.600          44.900
 113448541.444 8  88401438.80347                  21588535.480
  21588529.300          50.150          47.600
 105428401.951 8  82152025.18047                  20062341.660
  20062337.480          49.850          47.350
 109778860.081 8  85541989.616 8  81977730.248 8  20890216.300    20890214.340
  20890214.140          50.150          49.250
 109867766.894 8  85452727.353 6                  20545823.500    20545824.400
  20545822.320          48.450          41.850
 128929974.818 7 100278886.120 6                  24161424.020    24161428.000
  24161426.900          42.900          37.300
 105233827.342 8  81848552.939 7                  19651662.400    19651663.320
  19651662.480          48.950          47.900
 125236422.262 7  97406132.828 6                  23395211.300    23395213.760
  23395212.980          45.300          41.100
 121834261.208 7  94760003.212 7                  22823660.680    22823665.400
  22823664.360          47.250          42.100
 130015829.830 5 101123451.813 4                  24330690.900    24330696.520
  24330695.900          34.300          28.600
 105158503.749 8  81789969.588 8                  19658268.960    19658271.860
  19658271.040          49.600          48.000
 106953188.612 8  83185824.892 7                  20007800.380    20007803.920
  20007803.780          49.050          42.700
 15  1 27  7  6 35.0000000  0 18G11G14G28G04G03G22G27G19G32G01R24R02
                                R08R07R22R15R23R01
 105732885.653 8  82389252.36147                  20120293.160
  20120287.900          48.650          47.800
 121245495.235 7  94476996.49246                  23072250.380
  23072246.040          47.900          39.600
 122998240.645 7  95842756.01946                  23405784.380
  23405778.980          47.700          38.900
 106576925.259 8  83046967.55347                  20280903.740
  20280899.580          49.850          46.550
 114211136.579 8  88995692.695 8  85287542.657 8  21733653.200    21733652.200
  21733651.580          49.250          48.600
 128767099.569 7 100338002.75546                  24503555.000
  24503549.160          45.600          38.650
 123556663.759 7  96277923.424 7  92266336.420 8  23512051.740    23512050.600
  23512050.060          47.550          44.850
 113460491.008 8  88410750.13947                  21590809.480
  21590803.240          50.350          47.650
 105428729.870 8  82152280.69447                  20062404.060
  20062399.900          49.950          47.150
 109772808.530 8  85537274.118 8  81973211.227 8  20889064.720    20889062.780
  20889062.580          50.050          49.200
 109853904.086 7  85441945.162 7                  20543231.080    20543232.000
  20543229.920          47.850          42.000
 128908692.861 7 100262333.489 6                  24157435.760    24157439.780
  24157438.680          42.100          37.250
 105242592.361 8  81855370.174 7                  19653299.220    19653300.140
  19653299.300          49.350          47.650
 125257013.488 7  97422148.211 6                  23399057.960    23399060.500
  23399059.600          45.250          40.950
 121851065.886 7  94773073.503 7                  22826808.800    22826813.540
  22826812.480          47.050          42.300
 130022506.245 5 101128644.636 4                  24331940.140    24331947.000
  24331943.840          33.300          27.050
 105161368.832 8  81792197.982 7                  19658804.580    19658807.480
  19658806.660          49.650          47.850
 106940887.237 8  83176257.152 7                  20005499.120    20005502.700
  20005502.500          48.750          42.250
 15  1 27  7  6 40.0000000  0 18G11G14G28G04G03G22G27G19G32G01R24R02
                                R08R07R22R15R23R01
 105730516.158 8  82387405.99548                  20119842.260
  20119837.020          48.700          48.150
 121249053.482 7  94479769.14446                  23072927.540
  23072923.160          47.900          39.250
 122995046.671 7  95840267.20646                  23405176.600
  23405171.180          47.850          39.250
 106579459.444 8  83048942.23747                  20281385.940
  20281381.840          49.950          46.600
 114198820.722 8  88986095.918 8  85278345.748 8  21731309.600    21731308.580
  21731307.960          49.200          48.700
 128782967.280 7 100350367.17346                  24506574.560
  24506568.720          46.100          38.650
 123573862.040 7  96291324.661 7  92279179.272 8  23515324.480    23515323.320
  23515322.740          47.750          44.250
 113472450.773 8  88420069.43047                  21593085.420
  21593079.120          50.450          47.550
 105429072.509 8  82152547.68747                  20062469.260
  20062465.100          49.950          47.150
 109766762.966 8  85532563.281 8  81968696.673 8  20887914.280    20887912.340
  20887912.180          50.000          49.250
 109840049.361 7  85431169.250 7                  20540640.200    20540641.140
  20540639.060          47.750          42.300
 128887413.944 7 100245783.222 6                  24153448.000    24153452.120
  24153451.000          42.450          36.800
 105251374.671 8  81862200.864 7                  19654939.260    19654940.220
  19654939.340          49.200          47.600
 125277607.476 7  97438165.739 6                  23402905.080    23402907.620
  23402906.720          44.600          40.750
 121867878.027 7  94786149.583 7                  22829958.320    22829963.000
  22829962.000          47.300          42.000
 130029199.829 5 101133847.484 4                  24333192.640
  24333195.680          33.250          26.250
 105164249.500 8  81794438.493 7                  19659343.120    19659346.000
  19659345.200          49.450          47.900
 106928602.693 8  83166702.517 7                  20003201.000    20003204.580
  20003204.360          48.650          42.200
 15  1 27  7  6 45.0000000  0 18G11G14G28G04G03G22G27G19G32G01R24R02
                                R08R07R22R15R23R01
 105728158.993 8  82385569.24748                  20119393.740
  20119388.480          48.650          48.050
 121252628.205 7  94482554.64846                  23073607.820
  23073603.380          47.650          40.700
 122991868.457 7  95837790.67846                  23404571.820
  23404566.380          47.750          38.750
 106582003.378 8  83050924.53047                  20281870.000
  20281865.940          49.750          46.850
 114186515.820 8  88976507.689 8  85269157.026 8  21728968.060    21728967.060
  21728966.420          49.250          48.700
 128798837.376 7 100362733.47046                  24509594.580
  24509588.720          46.100          37.550
 123591067.176 7  96304731.261 7  92292027.246 8  23518598.500    23518597.360
  23518596.720          47.250          44.650
 113484422.372 8  88429397.95347                  21595363.580
  21595357.240          50.300          47.500
 105429431.494 8  82152827.42147                  20062537.580
  20062533.420          49.950          47.400
 109760725.054 8  85527858.416 8  81964187.838 8  20886765.280    20886763.380
  20886763.220          49.950          49.300
 109826204.231 7  85420400.829 7                  20538051.080    20538052.060
  20538049.980          47.900          42.350
 128866139.577 7 100229236.503 6                  24149461.180    24149465.400
  24149464.200          43.200          36.200
 105260176.053 8  81869046.388 7                  19656582.860    19656583.820
  19656582.940          49.150          47.750
 125298205.851 7  97454186.684 6                  23406753.060    23406755.560
  23406754.660          44.500          40.950
 121884699.419 7  94799232.884 6                  22833109.560    22833114.240
  22833113.200          47.300          41.700
 130035912.090 5 101139068.102 4                  24334448.860
  24334452.940          33.300          25.650
 105167147.227 8  81796692.287 7                  19659884.820    19659887.740
  19659886.920          49.400          47.850
 106916336.773 8  83157162.371 7                  20000906.360    20000910.020
  20000909.720          48.350          42.200
 15  1 27  7  6 50.0000000  0 18G11G14G28G04G03G22G27G19G32G01R24R02
                                R08R07R22R15R23R01
 105725811.048 8  82383739.67447                  20118946.960
  20118941.680          48.650          47.850
 121256216.246 7  94485350.51646                  23074290.640
  23074286.180          47.600          40.100
 122988702.818 7  95835323.92446                  23403969.440
  23403963.960          47.800          38.500
 106584554.022 8  83052912.02647                  20282355.360
  20282351.320          49.850          46.450
 114174218.754 8  88966925.547 8  85259974.146 8  21726628.000    21726627.000
  21726626.400          49.550          48.600
 128814706.701 7 100375099.15446                  24512614.460
  24512608.540          46.250          37.000
 123608276.048 7  96318140.741 7  92304877.998 8  23521873.260    23521872.140
  23521871.440          47.550          44.550
 113496402.662 8  88438733.23247                  21597643.420
  21597637.020          50.150          47.750
 105429803.666 8  82153117.41547                  20062608.420
  20062604.240          49.900          47.050
 109754691.653 8  85523157.054 8  81959682.374 8  20885617.140    20885615.280
  20885615.120          49.850          49.250
 109812365.650 7  85409637.490 7                  20535463.180    20535464.200
  20535462.120          47.800          42.400
 128844866.700 7 100212690.895 6                  24145474.680    24145478.880
  24145477.620          42.950          36.550
 105268993.184 8  81875904.140 7                  19658229.400    19658230.340
  19658229.480          49.500          47.850
 125318805.262 7  97470208.409 6                  23410601.220    23410603.740
  23410602.780          44.150          40.750
 121901526.645 7  94812320.697 6                  22836261.900    22836266.520
  22836265.460          47.750          41.400
 130042640.141 5 101144301.059 4                  24335708.000
  24335711.200          33.650          25.900
 105170059.057 8  81798957.027 7                  19660429.160    19660432.060
  19660431.260          49.550          47.900
 106904086.056 8  83147634.034 7                  19998614.540    19998618.200
  19998617.920          48.650          42.550
 15  1 27  7  6 55.0000000  0 17G11G14G28G04G03G22G27G19G32G01R24R02
                                R08R07R22R23R01
 105723475.075 8  82381919.42747                  20118502.480
  20118497.160          48.650          47.850
 121259820.299 7  94488158.85546                  23074976.480
  23074972.020          47.750          39.750
 122985552.527 7  95832869.15146                  23403369.960
  23403364.500          47.950          38.000
 106587114.021 8  83054906.82447                  20282842.480
  20282838.480          49.800          46.650
 114161932.239 8  88957351.633 8  85250799.153 8  21724289.960    21724288.960
  21724288.360          49.650          48.550
 128830578.019 7 100387466.38145                  24515634.720
  24515628.840          46.600          35.650
 123625491.350 7  96331555.245 7  92317733.570 8  23525149.240    23525148.160
  23525147.460          47.250          44.600
 113508394.380 8  88448077.41747                  21599925.420
  21599918.960          50.200          47.600
 105430191.782 8  82153419.83747                  20062682.260
  20062678.120          49.900          47.050
 109748665.502 8  85518461.344 8  81955182.318 8  20884470.360    20884468.560
  20884468.400          49.850          49.250
 109798536.269 7  85398881.298 7                  20532877.000    20532878.080
  20532876.020          47.750          42.350
 128823598.140 7 100196148.654 6                  24141488.960    24141493.140
  24141491.880          42.300          37.150
 105277828.939 8  81882776.388 7                  19659879.440    19659880.360
  19659879.520          49.600          47.800
 125339408.690 7  97486233.272 6                  23414450.140    23414452.640
  23414451.680          44.300          40.650
 121918362.711 7  94825415.386 6                  22839415.900    22839420.400
  22839419.380          47.650          41.250
 105172987.746 8  81801234.884 7                  19660976.660    19660979.520
  19660978.740          49.600          47.900
 106891853.693 8  83138119.974 7                  19996326.200    19996329.840
  19996329.580          48.700          42.650
 15  1 27  7  7  0.0000000  0 17G11G14G28G04G03G22G27G19G32G01R24R02
                                R08R07R22R23R01
 105721149.774 8  82380107.50047                  20118060.000
  20118054.680          48.850          47.950
 121263439.113 7  94490978.70246                  23075665.120
  23075660.640          47.900          39.400
 122982416.343 8  95830425.36546                  23402773.180
  23402767.700          48.050          38.850
 106589682.157 8  83056907.95947                  20283331.160
  20283327.200          49.900          46.400
 114149655.047 8  88947784.994 8  85241631.106 8  21721953.700    21721952.700
  21721952.100          49.800          48.600
 128846450.042 7 100399834.18346                  24518655.140
  24518649.180          46.400          36.950
 123642711.846 7  96344973.796 7  92330593.002 8  23528426.180    23528425.140
  23528424.460          47.200          44.550
 113520396.277 8  88457429.54047                  21602209.360
  21602202.840          50.300          47.350
 105430594.578 8  82153733.70247                  20062758.900
  20062754.780          50.050          46.800
 109742645.357 8  85513770.320 8  81950686.746 8  20883324.720    20883323.000
  20883322.840          49.750          49.200
 109784715.045 7  85388131.452 7                  20530292.320    20530293.460
  20530291.420          47.550          42.650
 128802332.461 7 100179608.688 6                  24137503.820    24137508.000
  24137506.760          42.700          37.900
 105286681.994 8  81889662.090 7                  19661532.700    19661533.600
  19661532.780          49.450          47.700
 125360014.750 7  97502260.189 6                  23418299.540    23418301.980
  23418301.060          43.550          40.250
 121935206.101 7  94838515.790 6                  22842571.280    22842575.720
  22842574.640          47.700          41.200
 105175931.900 8  81803524.767 7                  19661527.040    19661529.900
  19661529.120          49.750          47.950
 106879638.093 8  83128618.952 7                  19994040.960    19994044.620
  19994044.360          48.550          42.750
 15  1 27  7  7  5.0000000  0 17G11G14G28G04G03G22G27G19G32G01R24R02
                                R08R07R22R23R01
 105718835.501 8  82378304.16847                  20117619.640
  20117614.300          49.000          47.200
 121267072.994 7  94493810.29346                  23076356.620
  23076352.160          47.750          39.600
 122979294.565 8  95827992.80746                  23402179.140
  23402173.680          48.000          38.750
 106592258.693 8  83058915.64347                  20283821.440
  20283817.520          49.900          46.400
 114137387.490 8  88938225.858 8  85232470.266 8  21719619.280    21719618.260
  21719617.700          50.050          48.700
 128862323.113 7 100412202.78146                  24521675.740
  24521669.700          46.750          36.500
 123659937.840 7  96358396.629 7  92343456.551 8  23531704.140    23531703.180
  23531702.520          46.850          44.850
 113532408.694 8  88466789.85947                  21604495.280
  21604488.740          50.400          47.200
 105431012.369 8  82154059.24947                  20062838.400
  20062834.280          50.100          46.700
 109736631.525 8  85509084.220 8  81946195.900 8  20882180.280    20882178.620
  20882178.460          49.750          49.200
 109770902.116 8  85377388.058 7                  20527709.220    20527710.400
  20527708.380          48.000          42.650
 128781070.035 6 100163071.243 6                  24133519.300    24133523.380
  24133522.180          41.800          37.600
 105295552.543 8  81896561.402 7                  19663189.220    19663190.120
  19663189.320          49.200          47.600
 125380623.675 7  97518289.322 6                  23422149.420    23422151.900
  23422150.980          43.350          40.150
 121952057.404 7  94851622.335 6                  22845728.120    22845732.520
  22845731.460          47.550          41.300
 105178892.019 8  81805827.082 7                  19662080.420    19662083.300
  19662082.500          49.600          47.950
 106867439.691 8  83119131.303 7                  19991758.920    19991762.640
  19991762.400          48.150          42.700
 15  1 27  7  7 10.0000000  0 17G11G14G28G04G03G22G27G19G32G01R24R02
                                R08R07R22R23R01
 105716531.373 8  82376508.73847                  20117181.180
  20117175.840          48.950          47.400
 121270721.108 7  94496652.97546                  23077050.840
  23077046.420          47.500          39.950
 122976186.296 7  95825570.77546                  23401587.680
  23401582.180          47.800          39.450
 106594842.864 8  83060929.28147                  20284313.180
  20284309.300          49.900          46.900
 114125128.703 8  88928673.557 8  85223315.981 8  21717286.520    21717285.500
  21717284.960          49.950          48.850
 128878196.305 7 100424571.48346                  24524696.360
  24524690.260          46.400          37.600
 123677168.449 7  96371823.043 7  92356323.535 8  23534983.020    23534982.100
  23534981.520          47.050          44.900
 113544430.694 8  88476157.64747                  21606783.020
  21606776.460          50.300          47.350
 105431444.264 8  82154395.79447                  20062920.580
  20062916.480          50.050          47.150
 109730623.149 8  85504402.376 8  81941709.125 8  20881036.860    20881035.300
  20881035.140          49.950          49.350
 109757096.782 7  85366650.578 7                  20525127.540    20525128.740
  20525126.760          47.800          42.700
 128759810.039 6 100146535.693 6                  24129535.180    24129539.320
  24129538.100          41.250          37.750
 105304439.862 8  81903473.761 7                  19664848.860    19664849.740
  19664848.940          49.150          47.600
 125401234.694 7  97534320.089 6                  23425999.720    23426002.200
  23426001.320          43.300          40.350
 121968915.410 7  94864734.104 6                  22848886.240    22848890.640
  22848889.500          47.400          41.600
 105181867.033 8  81808140.973 7                  19662636.560    19662639.440
  19662638.620          49.450          47.800
 106855257.704 7  83109656.423 7                  19989480.000    19989483.780
  19989483.480          47.950          42.850
 15  1 27  7  7 15.0000000  0 17G11G14G28G04G03G22G27G19G32G01R24R02
                                R08R07R22R23R01
 105714238.838 8  82374722.34647                  20116744.940
  20116739.580          48.950          47.400
 121274384.853 7  94499507.84646                  23077748.000
  23077743.620          47.250          40.050
 122973092.982 7  95823160.40146                  23400999.040
  23400993.580          47.900          38.300
 106597436.022 8  83062949.92447                  20284806.620
  20284802.780          49.850          46.650
 114112880.098 8  88919129.184 8  85214169.282 8  21714955.680    21714954.660
  21714954.140          49.850          48.800
 128894071.050 7 100436941.39845                  24527717.260
  24527711.180          46.300          35.650
 123694405.057 7  96385254.150 7  92369195.001 8  23538263.020    23538262.120
  23538261.560          47.200          44.850
 113556463.687 8  88485533.99747                  21609072.820
  21609066.280          50.300          47.400
 105431891.681 8  82154744.43047                  20063005.680
  20063001.640          49.950          46.950
 109724621.636 8  85499725.870 8  81937227.472 8  20879894.760    20879893.260
  20879893.100          50.000          49.300
 109743300.312 7  85355919.988 7                  20522547.520    20522548.700
  20522546.780          47.750          42.600
 128738553.973 7 100130003.216 6                  24125551.740    24125555.880
  24125554.720          42.200          37.700
 105313345.301 8  81910400.218 7                  19666511.900    19666512.780
  19666511.960          49.100          47.750
 125421849.040 7  97550353.447 6                  23429850.640    23429853.200
  23429852.280          42.900          39.850
 121985781.785 7  94877852.353 6                  22852045.880    22852050.280
  22852049.180          47.450          41.600
 105184858.558 8  81810467.702 7                  19663195.820    19663198.680
  19663197.860          49.550          47.800
 106843093.396 8  83100195.290 7                  19987204.380    19987208.160
  19987207.880          48.000          42.900
 15  1 27  7  7 20.0000000  0 17G11G14G28G04G03G22G27G19G32G01R24R02
                                R08R07R22R23R01
 105711958.851 8  82372945.72147                  20116311.120
  20116305.700          48.850          47.600
 121278065.262 7  94502375.68846                  23078448.340
  23078444.040          47.150          40.100
 122970015.636 7  95820762.45446                  23400413.440
  23400407.960          47.850          38.800
 106600039.172 8  83064978.34247                  20285301.980
  20285298.160          49.800          46.650
 114100642.708 8  88909593.538 8  85205030.961 8  21712627.000    21712625.980
  21712625.440          49.750          48.750
 128909948.335 7 100449313.27645                  24530738.620
  24530732.600          46.050          35.600
 123711648.694 7  96398690.726 7  92382071.717 8  23541544.420    23541543.520
  23541542.940          47.000          44.700
 113568508.741 8  88494919.73347                  21611364.920
  21611358.360          50.100          47.350
 105432355.629 8  82155105.93647                  20063093.960
  20063089.920          49.750          47.050
 109718628.000 8  85495055.490 8  81932751.699 8  20878754.180    20878752.720
  20878752.560          49.850          49.200
 109729513.884 7  85345197.202 7                  20519969.340    20519970.540
  20519968.660          47.450          42.550
 128717302.828 7 100113474.531 6                  24121569.260    24121573.480
  24121572.300          42.450          38.650
 105322269.815 8  81917341.496 7                  19668178.480    19668179.400
  19668178.540          48.950          47.900
 125442467.942 7  97566390.339 6                  23433702.420    23433704.980
  23433704.060          42.850          39.800
 122002657.561 7  94890977.921 6                  22855207.260    22855211.720
  22855210.620          47.450          41.100
 105187867.578 8  81812808.047 8                  19663758.320    19663761.200
  19663760.360          49.200          48.050
 106830947.930 8  83090748.806 7                  19984932.320    19984936.100
  19984935.800          48.200          42.850
 15  1 27  7  7 25.0000000  0 17G11G14G28G04G03G22G27G19G32G01R24R02
                                R08R07R22R23R01
 105709688.311 8  82371176.46147                  20115879.040
  20115873.640          48.900          47.750
 121281759.304 7  94505254.15146                  23079151.260
  23079147.040          47.250          39.950
 122966951.212 8  95818374.58546                  23399830.300
  23399824.820          48.000          38.850
 106602649.198 8  83067012.11847                  20285798.640
  20285794.840          49.950          46.750
 114088413.481 8  88900064.258 8  85195898.733 8  21710299.860    21710298.860
  21710298.280          49.950          48.750
 128925825.106 7 100461684.76746                  24533759.880
  24533753.820          45.750          36.900
 123728896.317 7  96412130.418 7  92394951.402 8  23544826.560    23544825.660
  23544825.060          47.250          44.950
 113580562.744 8  88504312.45247                  21613658.720
  21613652.160          50.200          47.600
 105432833.055 8  82155477.94947                  20063184.800
  20063180.760          49.850          47.600
 109712639.233 8  85490388.916 8  81928279.558 8  20877614.540    20877613.100
  20877612.940          49.850          49.350
 109715734.277 7  85334479.726 7                  20517392.460    20517393.760
  20517391.820          47.350          42.500
 128696053.627 7 100096947.362 6                  24117587.160    24117591.380
  24117590.220          42.000          38.000
 105331210.361 8  81924295.242 7                  19669848.100    19669848.960
  19669848.120          49.050          47.850
 125463088.264 7  97582428.342 6                  23437554.480    23437557.000
  23437556.080          43.000          39.750
 122019539.481 7  94904108.287 6                  22858369.820    22858374.280
  22858373.180          47.000          41.200
 105190890.928 8  81815159.535 7                  19664323.480    19664326.380
  19664325.560          49.150          47.950
 106818818.141 8  83081314.517 7                  19982663.180    19982666.960
  19982666.640          48.400          42.850
 15  1 27  7  7 30.0000000  0 17G11G14G28G04G03G22G27G19G32G01R24R02
                                R08R07R22R23R01
 105707427.184 8  82369414.55247                  20115448.780
  20115443.380          48.850          47.650
 121285466.842 7  94508143.14846                  23079856.760
  23079852.580          47.450          40.400
 122963899.566 8  95815996.68546                  23399249.600
  23399244.080          48.100          39.050
 106605266.114 8  83069051.27847                  20286296.620
  20286292.860          50.000          46.400
 114076192.273 8  88890541.250 8  85186772.520 8  21707974.240    21707973.220
  21707972.640          49.900          48.650
 128941701.259 7 100474055.77346                  24536781.060
  24536775.020          45.800          36.300
 123746147.718 7  96425573.064 7  92407833.936 8  23548109.400    23548108.520
  23548107.900          47.100          45.250
 113592625.588 8  88513712.07447                  21615954.200
  21615947.660          50.250          47.200
 105433323.804 8  82155860.35847                  20063278.180
  20063274.160          49.950          47.100
 109706655.108 8  85485725.970 8  81923810.905 8  20876475.780    20876474.360
  20876474.200          49.850          49.300
 109701961.480 7  85323767.559 7                  20514816.840    20514818.240
  20514816.240          47.800          42.400
 128674806.137 6 100080421.541 6                  24113605.340    24113609.640
  24113608.500          41.550          38.050
 105340166.710 8  81931261.295 7                  19671520.660    19671521.480
  19671520.680          49.100          47.850
 125483709.767 7  97598467.270 6                  23441406.800    23441409.260
  23441408.340          43.400          39.700
 122036427.516 7  94917243.437 6                  22861533.560    22861537.960
  22861536.900          46.850          41.550
 105193928.650 8  81817522.210 7                  19664891.360    19664894.240
  19664893.420          49.350          47.950
 106806704.008 8  83071892.427 7                  19980396.960    19980400.780
  19980400.440          48.350          42.850
 15  1 27  7  7 35.0000000  0 18G11G14G28G04G17G03G22G27G19G32G01R24
                                R02R08R07R22R23R01
 105705179.096 8  82367662.78547                  20115021.000
  20115015.600          49.300          47.400
 121289191.462 7  94511045.44046                  23080565.520
  23080561.380          47.750          39.950
 122960864.320 8  95813631.54946                  23398672.000
  23398666.480          48.250          38.350
 106607893.430 8  83071098.52647                  20286796.600
  20286792.820          50.350          46.550
                                                  25718285.620
                        37.900
 114063982.726 8  88881027.313 8  85177655.001 8  21705650.860    21705649.820
  21705649.220          50.250          48.650
 128957580.403 7 100486429.10146                  24539802.780
  24539796.660          46.200          36.750
 123763406.595 7  96439021.502 7  92420722.021 8  23551393.660    23551392.820
  23551392.240          47.950          45.100
 113604700.877 8  88523121.37947                  21618252.040
  21618245.500          50.350          47.250
 105433831.506 8  82156255.96347                  20063374.780
  20063370.780          50.300          47.000
 109700679.345 8  85481069.523 8  81919348.477 8  20875338.620    20875337.240
  20875337.040          50.300          49.350
 109688199.169 8  85313063.527 7                  20512243.160    20512244.600
  20512242.620          48.050          42.550
 128653563.924 6 100063899.788 6                  24109624.560    24109628.900
  24109627.720          41.150          38.200
 105349142.624 8  81938242.555 7                  19673196.840    19673197.660
  19673196.880          49.500          47.950
 125504335.933 7  97614509.831 6                  23445259.960    23445262.460
  23445261.500          44.350          39.750
 122053325.258 7  94930386.103 6                  22864699.100    22864703.460
  22864702.440          47.300          41.650
 105196984.203 8  81819898.741 7                  19665462.560    19665465.420
  19665464.620          49.900          47.900
 106794609.064 8  83062485.247 7                  19978134.320    19978138.180
  19978137.820          48.650          42.950
 15  1 27  7  7 40.0000000  0 18G11G14G28G04G17G03G22G27G19G32G01R24
                                R02R08R07R22R23R01
 105702941.158 8  82365918.93147                  20114595.140
  20114589.740          49.200          47.600
 121292930.291 7  94513958.80846                  23081276.960
  23081272.900          47.800          40.300
 122957842.604 8  95811276.96946                  23398096.960
  23398091.420          48.050          38.750
 106610528.325 8  83073151.69047                  20287298.000
  20287294.220          50.200          46.450
 135133141.850 6 105298515.77854                  25714981.940
  25714973.220          37.100          26.750
 114051781.974 8  88871520.229 8  85168544.042 8  21703329.140    21703328.100
  21703327.500          50.100          48.700
 128973459.617 7 100498802.49646                  24542824.500
  24542818.460          45.450          37.100
 123780669.988 8  96452473.476 7  92433613.500 8  23554678.800    23554677.980
  23554677.440          48.100          45.050
 113616785.711 8  88532538.12147                  21620551.700
  21620545.140          50.250          47.600
 105434353.286 8  82156662.54447                  20063474.060
  20063470.080          50.200          47.050
 109694709.036 8  85476417.326 8  81914890.121 8  20874202.500    20874201.120
  20874200.940          50.200          49.400
 109674444.452 7  85302365.411 7                  20509670.920    20509672.460
  20509670.420          47.600          42.550
 128632324.321 6 100047380.089 6                  24105644.240    24105648.740
  24105647.480          40.650          38.200
 105358135.191 8  81945236.766 7                  19674876.160    19674876.960
  19674876.180          49.600          47.800
 125524964.105 7  97630553.938 6                  23449113.560    23449115.940
  23449115.020          44.250          39.950
 122070229.819 7  94943534.074 6                  22867865.900    22867870.280
  22867869.260          46.800          41.850
 105200054.799 8  81822286.980 7                  19666036.560    19666039.440
  19666038.620          49.650          47.800
 106782530.624 8  83053090.905 7                  19975874.760    19975878.660
  19975878.280          48.450          42.750
 15  1 27  7  7 45.0000000  0 19G11G14G28G04G17G03G22G27G19G32G01R24
                                R02R08R07R22R15R23R01
 105700713.585 8  82364183.15447                  20114171.260
  20114165.860          49.300          47.400
 121296683.521 7  94516883.39746                  23081991.160
  23081987.140          47.850          39.400
 122954834.661 8  95808933.09946                  23397524.540
  23397519.000          48.150          38.250
 106613170.962 8  83075210.88347                  20287800.900
  20287797.100          50.150          46.650
 135115784.250 6 105284990.32245                  25711678.620
  25711669.900          36.850          30.650
 114039590.221 8  88862020.162 8  85159439.799 8  21701009.140    21701008.080
  21701007.500          50.000          48.650
 128989339.115 7 100511176.10046                  24545846.280
  24545840.300          45.300          36.400
 123797938.145 8  96465929.163 7  92446508.525 8  23557964.900    23557964.080
  23557963.560          48.400          44.950
 113628880.335 8  88541962.49547                  21622853.220
  21622846.660          50.200          47.300
 105434889.329 8  82157080.23347                  20063576.060
  20063572.100          50.150          47.000
 109688744.389 8  85471769.541 8  81910435.994 8  20873067.480    20873066.100
  20873065.900          50.100          49.350
 109660697.512 7  85291673.345 7                  20507100.120    20507101.700
  20507099.700          47.800          42.300
 128611087.316 6 100030862.399 6                  24101664.420    24101668.940
  24101667.700          40.900          38.150
 105367144.449 8  81952243.967 7                  19676558.600    19676559.360
  19676558.580          49.650          47.650
 125545594.532 7  97646599.803 6                  23452967.540    23452969.860
  23452969.000          44.700          39.450
 122087141.371 7  94956687.480 6                  22871033.980    22871038.360
  22871037.360          46.750          41.700
 130117808.751 5                                  24349773.640
                        35.150
 105203140.694 8  81824687.115 7                  19666613.440    19666616.320
  19666615.460          49.450          47.900
 106770468.750 8  83043709.446 7                  19973618.280    19973622.300
  19973621.840          48.550          42.750
 15  1 27  7  7 50.0000000  0 19G11G14G28G04G17G03G22G27G19G32G01R24
                                R02R08R07R22R15R23R01
 105698497.739 8  82362456.52047                  20113749.620
  20113744.200          49.150          47.750
 121300452.504 7  94519820.25246                  23082708.380
  23082704.320          47.900          39.350
 122951841.842 8  95806601.03846                  23396955.040
  23396949.440          48.100          38.200
 106615822.737 8  83077277.20347                  20288305.540
  20288301.720          50.050          46.850
 135098427.110 6 105271465.36244                  25708376.040
  25708368.400          37.350          29.900
 114027408.857 8  88852528.190 8  85150343.324 8  21698691.100    21698690.040
  21698689.460          49.550          48.600
 129005220.271 7 100523550.98646                  24548868.340
  24548862.380          45.000          36.400
 123815212.427 8  96479389.617 7  92459408.122 8  23561252.120    23561251.300
  23561250.780          48.150          44.600
 113640986.101 8  88551395.55547                  21625156.860
  21625150.320          50.100          47.350
 105435441.034 8  82157510.13147                  20063681.040
  20063677.080          50.050          47.050
 109682786.790 8  85467127.258 8  81905987.128 8  20871933.760    20871932.420
  20871932.220          49.900          49.300
 109646959.805 8  85280988.462 7                  20504531.080    20504532.660
  20504530.680          48.050          42.400
 128589854.548 7 100014348.035 6                  24097685.340    24097689.940
  24097688.700          42.200          38.350
 105376171.869 8  81959265.291 7                  19678244.420    19678245.160
  19678244.380          49.700          47.700
 125566228.406 7  97662648.355 6                  23456822.180    23456824.440
  23456823.620          44.750          39.350
 122104061.429 7  94969847.515 6                  22874203.640    22874208.080
  22874207.060          46.600          41.750
 130124745.248 5                                  24351071.760
                        33.050
 105206243.183 8  81827100.153 8                  19667193.420    19667196.300
  19667195.420          49.250          48.000
 106758424.858 8  83034341.970 7                  19971365.200    19971369.300
  19971368.780          48.450          42.950
 15  1 27  7  7 55.0000000  0 18G11G14G28G04G17G03G22G27G19G32G01R24
                                R02R08R07R22R23R01
 105696292.610 8  82360738.23247                  20113330.040
  20113324.580          49.100          47.750
 121304236.371 7  94522768.71846                  23083428.420
  23083424.380          47.650          39.950
 122948863.249 8  95804280.04846                  23396388.240
  23396382.600          48.050          38.900
 106618482.815 8  83079349.98347                  20288811.760
  20288807.920          49.950          46.850
 135081069.617 6 105257940.00845                  25705073.160
  25705070.160          36.600          33.050
 114015236.975 8  88843043.611 8  85141253.939 8  21696374.840    21696373.780
  21696373.220          49.650          48.600
 129021102.136 7 100535926.44546                  24551890.580
  24551884.640          45.450          36.200
 123832491.929 8  96492854.148 7  92472311.631 8  23564540.300    23564539.460
  23564538.960          48.250          44.350
 113653102.121 8  88560836.60147                  21627462.440
  21627455.940          50.050          47.300
 105436007.498 8  82157951.53347                  20063788.820
  20063784.880          50.000          47.450
 109676835.333 8  85462489.760 8  81901542.868 8  20870801.260    20870799.880
  20870799.700          49.900          49.400
 109633230.496 8  85270310.104 7                  20501963.600    20501965.160
  20501963.240          48.000          42.450
 128568625.054 7  99997836.200 6                  24093706.940    24093711.560
  24093710.340          42.700          38.800
 105385216.532 8  81966300.035 7                  19679933.440    19679934.180
  19679933.420          49.600          47.800
 125586864.889 7  97678698.945 6                  23460677.340    23460679.520
  23460678.720          45.200          39.300
 122120988.968 7  94983013.352 6                  22877374.740    22877379.160
  22877378.180          47.050          41.900
 105209361.356 8  81829525.396 7                  19667776.320    19667779.200
  19667778.320          49.400          47.950
 106746398.184 8  83024987.895 7                  19969115.300    19969119.380
  19969118.940          48.350          43.000
 15  1 27  7  8  0.0000000  0 18G11G14G28G04G17G03G22G27G19G32G01R24
                                R02R08R07R22R23R01
 105694098.076 8  82359028.20347                  20112912.460
  20112906.980          48.950          47.950
 121308034.808 7  94525728.52446                  23084151.220
  23084147.140          47.400          40.000
 122945898.565 7  95801969.90346                  23395824.100
  23395818.440          47.900          38.650
 106621150.822 8  83081428.94447                  20289319.480
  20289315.620          49.850          46.950
 135063711.526 6 105244414.24745                  25701770.240
  25701766.420          37.950          31.500
 114003074.253 8  88833566.159 8  85132171.391 8  21694060.340    21694059.280
  21694058.720          49.650          48.650
 129036984.454 7 100548302.24846                  24554912.880
  24554907.040          45.000          37.850
 123849776.303 8  96506322.483 7  92485218.762 8  23567829.420    23567828.580
  23567828.020          48.300          44.350
 113665228.031 8  88570285.35547                  21629769.900
  21629763.420          49.850          47.400
 105436588.398 8  82158404.17647                  20063899.360
  20063895.420          50.050          47.250
 109670889.715 8  85457856.808 8  81897102.947 8  20869669.840    20869668.460
  20869668.320          49.900          49.550
 109619509.096 7  85259637.900 7                  20499397.620    20499399.220
  20499397.280          47.900          42.550
 128547398.425 7  99981326.586 6                  24089729.180    24089733.760
  24089732.460          42.050          38.250
 105394278.114 8  81973347.926 7                  19681625.620    19681626.360
  19681625.620          49.000          47.900
 125607503.514 7  97694751.196 6                  23464532.920    23464534.980
  23464534.200          44.950          39.400
 122137923.634 7  94996184.748 7                  22880547.140    22880551.660
  22880550.640          46.650          42.050
 105212495.052 8  81831962.710 7                  19668362.100    19668365.000
  19668364.120          49.400          47.850
 106734388.061 7  83015646.692 7                  19966868.500    19966872.600
  19966872.220          47.800          43.100
 15  1 27  7  8  5.0000000  0 18G11G14G28G04G17G03G22G27G19G32G01R24
                                R02R08R07R22R23R01
 105691914.435 8  82357326.65948                  20112496.940
  20112491.440          49.000          48.300
 121311848.122 7  94528699.93346                  23084876.860
  23084872.780          47.550          40.150
 122942948.120 7  95799670.85346                  23395262.640
  23395257.000          47.750          39.600
 106623827.073 8  83083514.32347                  20289828.780
  20289824.880          49.950          46.800
 135046352.956 6 105230888.06644                  25698467.340
  25698462.580          38.100          29.800
 113990921.056 8  88824096.133 8  85123095.940 8  21691747.660    21691746.580
  21691746.020          49.800          48.700
 129052867.536 7 100560678.64946                  24557935.280
  24557929.440          45.200          36.200
 123867065.890 8  96519794.879 7  92498129.787 8  23571119.540    23571118.660
  23571118.100          48.400          44.750
 113677364.091 8  88579742.01347                  21632079.260
  21632072.840          49.700          47.550
 105437183.998 8  82158868.28047                  20064012.680
  20064008.780          50.000          47.500
 109664950.261 8  85453228.654 8  81892667.636 8  20868539.600    20868538.220
  20868538.120          49.800          49.600
 109605796.075 7  85248972.217 7                  20496833.200    20496834.760
  20496832.860          47.750          42.050
 128526175.097 6  99964819.517 6                  24085751.940    24085756.440
  24085755.160          41.750          37.650
 105403356.899 8  81980409.180 7                  19683321.020    19683321.740
  19683321.060          49.300          47.650
 125628144.823 7  97710805.529 6                  23468388.940    23468390.960
  23468390.200          45.300          39.250
 122154865.794 7  95009361.954 7                  22883721.000    22883725.560
  22883724.520          47.000          42.150
 105215644.406 8  81834412.201 7                  19668950.840    19668953.740
  19668952.860          49.550          47.750
 106722395.209 7  83006318.920 7                  19964624.920    19964629.120
  19964628.740          47.950          42.800
 15  1 27  7  8 10.0000000  0 18G11G14G28G04G17G03G22G27G19G32G01R24
                                R02R08R07R22R23R01
 105689742.871 8  82355634.52748                  20112083.720
  20112078.220          49.100          48.250
 121315677.495 7  94531683.85946                  23085605.560
  23085601.480          47.650          39.750
 122940013.057 7  95797383.78046                  23394704.080
  23394698.460          47.600          38.900
 106626512.711 8  83085607.02547                  20290339.860
  20290335.940          50.100          46.650
 135028995.324 6 105217362.69445                  25695164.420
  25695159.960          37.900          30.850
 113978778.519 8  88814634.410 8  85114028.455 8  21689437.020    21689435.920
  21689435.340          49.900          48.600
 129068752.528 7 100573056.53246                  24560958.060
  24560952.140          45.250          36.600
 123884361.838 8  96533272.216 7  92511045.573 8  23574410.880    23574410.000
  23574409.420          48.400          45.050
 113689511.529 8  88589207.53647                  21634390.800
  21634384.420          49.850          47.450
 105437795.505 8  82159344.78047                  20064129.040
  20064125.140          49.900          47.550
 109659018.123 8  85448606.204 8  81888237.786 8  20867410.740    20867409.380
  20867409.280          49.850          49.450
 109592092.616 7  85238313.967 6                  20494270.580    20494272.140
  20494270.220          47.650          41.950
 128504956.238 6  99948315.925 6                  24081775.580    24081780.060
  24081778.680          41.500          37.850
 105412454.086 8  81987484.774 7                  19685019.880    19685020.580
  19685019.900          49.400          47.650
 125648789.743 7  97726862.674 6                  23472245.620    23472247.600
  23472246.880          45.000          39.450
 122171816.625 7  95022545.901 7                  22886896.500    22886901.040
  22886900.060          47.200          42.450
 105218810.814 8  81836874.952 7                  19669542.760    19669545.680
  19669544.800          49.750          47.950
 106710420.641 8  82997005.361 7                  19962384.780    19962389.040
  19962388.660          48.100          42.950
 15  1 27  7  8 15.0000000  0 18G11G14G28G04G17G03G22G27G19G32G01R24
                                R02R08R07R22R23R01
 105687581.958 8  82353950.69747                  20111672.520
  20111667.020          49.000          47.800
 121319521.551 7  94534679.21046                  23086337.020
  23086333.000          47.600          39.300
 122937091.988 7  95795107.61646                  23394148.240
  23394142.620          47.400          38.550
 106629206.382 8  83087705.98547                  20290852.480
  20290848.540          50.050          46.550
 135011637.117 6 105203836.80045                  25691861.440
  25691856.980          38.750          31.900
 113966645.265 8  88805179.920 8  85104967.902 8  21687128.120    21687127.020
  21687126.440          49.800          48.600
 129084638.011 7 100585434.80946                  24563980.960
  24563975.020          44.950          36.550
 123901662.710 8  96546753.383 7  92523965.044 8  23577703.180    23577702.300
  23577701.760          48.250          44.900
 113701668.959 8  88598680.85247                  21636704.200
  21636697.920          49.700          47.650
 105438421.512 8  82159832.56747                  20064248.160
  20064244.280          49.900          47.600
 109653091.914 8  85443988.371 8  81883812.361 8  20866283.000    20866281.680
  20866281.560          49.700          49.550
 109578397.341 7  85227662.086 7                  20491709.500    20491711.000
  20491709.080          47.750          42.000
 128483740.389 7  99931814.696 6                  24077799.660    24077804.080
  24077802.780          42.450          37.950
 105421568.216 8  81994573.534 7                  19686721.900    19686722.580
  19686721.860          49.300          47.500
 125669436.954 7  97742921.589 6                  23476102.740    23476104.720
  23476103.960          44.700          39.800
 122188774.682 7  95035735.487 6                  22890073.320    22890077.860
  22890076.920          46.850          41.750
 105221992.571 8  81839349.631 8                  19670137.560    19670140.500
  19670139.620          49.700          48.000
 106698462.995 8  82987704.970 7                  19960147.820    19960152.100
  19960151.740          48.400          42.750
 15  1 27  7  8 20.0000000  0 19G11G14G28G04G17G03G22G27G19G32G01R24
                                R02R08R07R22R15R23R01
 105685431.968 8  82352275.38247                  20111263.420
  20111257.880          49.000          47.950
 121323380.478 7  94537686.16346                  23087071.360
  23087067.300          47.750          40.250
 122934185.170 7  95792842.57646                  23393595.080
  23393589.480          47.450          38.250
 106631908.322 8  83089811.39247                  20291366.660
  20291362.700          50.050          46.300
 134994278.589 6 105190307.884 5                  25688558.360    25688549.160
  25688552.320          39.100          32.850
 113954521.546 8  88795732.860 8  85095914.474 8  21684821.060    21684819.940
  21684819.360          49.650          48.600
 129100524.265 7 100597813.66846                  24567003.960
  24566998.000          45.400          38.000
 123918968.806 7  96560238.633 7  92536888.407 8  23580996.440    23580995.520
  23580995.020          47.900          44.600
 113713836.655 8  88608162.16947                  21639019.600
  21639013.360          49.550          47.800
 105439062.242 8  82160331.83947                  20064370.080
  20064366.200          49.900          47.300
 109647171.904 8  85439375.380 8  81879391.580 8  20865156.420    20865155.140
  20865155.040          49.600          49.450
 109564710.456 7  85217016.723 7                  20489150.000    20489151.500
  20489149.540          47.650          42.050
 128462528.003 7  99915316.161 6                  24073824.460    24073828.940
  24073827.580          43.650          38.700
 105430699.589 8  82001675.709 7                  19688427.140    19688427.800
  19688427.040          49.400          47.550
 125690086.853 7  97758982.611 6                  23479960.340    23479962.280
  23479961.580          45.000          39.700
 122205740.285 7  95048930.938 7                  22893251.540    22893256.120
  22893255.180          46.850          42.600
 130166733.635 5 101240800.959 5                  24358929.360    24358933.080
  24358933.280          35.600          32.350
 105225190.152 8  81841836.639 8                  19670735.320    19670738.280
  19670737.380          49.750          48.100
 106686522.498 8  82978417.920 7                  19957914.080    19957918.360
  19957918.040          48.550          42.700
 15  1 27  7  8 25.0000000  0 19G11G14G28G04G17G03G22G27G19G32G01R24
                                R02R08R07R22R15R23R01
 105683291.989 8  82350607.86448                  20110856.220
  20110850.680          49.050          48.000
 121327253.392 7  94540704.01846                  23087808.340
  23087804.280          47.700          40.000
 122931291.737 7  95790587.94946                  23393044.480
  23393038.880          47.450          39.750
 106634617.650 8  83091922.55747                  20291882.240
  20291878.260          50.050          46.700
 134976918.971 6 105176780.900 5                  25685254.840    25685250.200
  25685248.480          39.350          33.250
 113942406.477 8  88786292.553 8  85086867.501 8  21682515.600    21682514.520
  21682513.920          49.550          48.650
 129116410.334 7 100610192.41446                  24570026.980
  24570021.040          45.350          36.750
 123936279.198 7  96573727.240 7  92549814.969 8  23584290.460    23584289.580
  23584289.080          47.400          44.650
 113726013.707 8  88617650.77347                  21641336.780
  21641330.600          49.800          47.650
 105439716.857 8  82160841.92847                  20064494.660
  20064490.800          49.900          47.750
 109641257.164 8  85434766.495 8  81874974.725 8  20864030.860    20864029.600
  20864029.520          49.650          49.550
 109551031.092 7  85206377.218 6                  20486591.900    20486593.340
  20486591.420          47.200          41.850
 128441317.973 7  99898819.461 6                  24069849.680    24069854.240
  24069852.860          43.450          38.050
 105439847.134 8  82008790.457 7                  19690135.440    19690136.060
  19690135.260          49.250          47.550
 125710738.186 7  97775044.744 6                  23483818.260    23483820.180
  23483819.460          44.800          39.700
 122222712.421 7  95062131.468 7                  22896430.960    22896435.620
  22896434.680          46.550          42.400
 130173789.468 5 101246288.796 5                  24360249.900    24360253.060
  24360252.300          32.800          30.350
 105228402.647 8  81844335.246 8                  19671335.840    19671338.820
  19671337.940          49.600          48.000
 106674598.269 8  82969143.533 7                  19955683.400    19955687.640
  19955687.360          48.300          42.850
 15  1 27  7  8 30.0000000  0 19G11G14G28G04G17G03G22G27G19G32G01R24
                                R02R08R07R22R15R23R01
 105681163.600 8  82348949.36848                  20110451.240
  20110445.660          48.850          48.450
 121331141.834 7  94543733.96746                  23088548.300
  23088544.180          47.450          40.900
 122928413.228 7  95788344.94546                  23392496.720
  23392491.040          47.500          39.100
 106637335.890 8  83094040.66547                  20292399.500
  20292395.520          49.950          47.000
 134959559.629 6 105163254.136 5                  25681951.300    25681946.480
  25681944.920          38.900          33.050
 113930301.603 8  88776860.185 8  85077828.151 8  21680212.080    21680211.040
  21680210.440          49.450          48.700
 129132297.828 7 100622572.24246                  24573050.280
  24573044.420          45.650          38.300
 123953595.404 7  96587220.369 7  92562745.883 8  23587585.580    23587584.740
  23587584.220          47.150          44.450
 113738201.650 8  88627147.86047                  21643656.020
  21643649.900          49.950          47.600
 105440386.834 8  82161363.98547                  20064622.140
  20064618.300          49.850          47.650
 109635349.275 8  85430162.944 8  81870562.985 8  20862906.600    20862905.380
  20862905.280          49.550          49.600
 109537360.790 7  85195744.752 6                  20484035.520    20484036.880
  20484035.000          47.700          41.900
 128420111.934 7  99882325.850 6                  24065875.700    24065880.140
  24065878.900          44.000          37.900
 105449012.580 8  82015919.140 7                  19691847.060    19691847.640
  19691846.840          49.350          47.600
 125731392.768 7  97791109.415 6                  23487676.760    23487678.640
  23487677.960          44.550          39.850
 122239692.729 7  95075338.366 7                  22899611.960    22899616.600
  22899615.700          46.800          42.850
 130180863.053 5 101251790.490 4                  24361573.220    24361575.380
  24361574.000          33.850          29.700
 105231631.577 8  81846846.636 7                  19671939.460    19671942.460
  19671941.560          49.600          47.900
 106662691.930 8  82959883.053 7                  19953456.100    19953460.380
  19953460.040          48.150          42.950
 15  1 27  7  8 35.0000000  0 19G11G14G28G04G17G03G22G27G19G32G01R24
                                R02R08R07R22R15R23R01
 105679046.927 8  82347300.01048                  20110048.460
  20110042.860          48.900          48.300
 121335045.947 7  94546776.12946                  23089291.260
  23089287.120          47.350          40.800
 122925549.773 7  95786113.67846                  23391951.820
  23391946.180          47.350          38.600
 106640063.251 8  83096165.87347                  20292918.520
  20292914.500          49.900          46.950
 134942200.757 6 105149727.749 5                  25678647.860    25678644.000
  25678641.200          38.400          32.950
 113918207.083 8  88767435.889 8  85068796.533 8  21677910.540    21677909.520
  21677908.920          49.700          48.750
 129148186.853 7 100634953.27646                  24576073.880
  24576068.000          45.950          37.600
 123970917.609 7  96600718.173 7  92575681.262 8  23590881.860    23590880.980
  23590880.480          47.500          44.000
 113750400.600 8  88636653.52147                  21645977.400
  21645971.280          50.100          47.400
 105441072.372 8  82161898.17047                  20064752.580
  20064748.760          49.850          47.650
 109629448.382 8  85425564.842 8  81866156.469 8  20861783.640    20861782.460
  20861782.380          49.550          49.450
 109523699.759 7  85185119.511 7                  20481480.820    20481482.180
  20481480.340          47.750          42.000
 128398910.062 7  99865835.458 6                  24061902.460    24061906.940
  24061905.720          44.050          38.200
 105458196.052 8  82023061.842 7                  19693562.040    19693562.560
  19693561.820          49.650          47.750
 125752050.704 7  97807176.671 6                  23491535.820    23491537.760
  23491537.080          44.100          39.950
 122256681.304 7  95088551.677 7                  22902794.520    22902799.160
  22902798.300          46.800          43.150
 130187954.264 5 101257305.959 4                  24362899.560    24362902.520
  24362899.440          35.100          28.600
 105234877.203 8  81849370.999 8                  19672546.200    19672549.160
  19672548.320          49.700          48.050
 106650803.579 8  82950636.551 7                  19951232.140    19951236.420
  19951236.080          48.150          42.850
 15  1 27  7  8 40.0000000  0 19G11G14G28G04G17G03G22G27G19G32G01R24
                                R02R08R07R22R15R23R01
 105676940.228 8  82345658.42547                  20109647.580
  20109641.960          49.050          47.800
 121338964.002 7  94549829.14846                  23090036.880
  23090032.720          47.600          39.800
 122922699.631 7  95783892.77846                  23391409.420
  23391403.820          47.200          38.850
 106642797.911 8  83098296.77047                  20293438.920
  20293434.880          50.000          46.900
 134924840.671 6 105136200.401 5                  25675344.160    25675339.820
  25675337.400          38.650          33.400
 113906121.151 8  88758018.279 8  85059771.335 8  21675610.660    21675609.640
  21675609.060          50.000          48.750
 129164075.673 7 100647334.14646                  24579097.380
  24579091.520          46.250          38.050
 123988244.026 7  96614219.275 7  92588619.802 8  23594178.980    23594178.080
  23594177.520          47.700          44.350
 113762608.820 8  88646166.40947                  21648300.560
  21648294.440          50.300          47.450
 105441771.673 8  82162443.07647                  20064885.660
  20064881.840          49.900          47.650
 109623552.763 8  85420970.849 8  81861753.892 8  20860661.720    20860660.560
  20860660.460          49.700          49.400
 109510046.403 7  85174500.231 7                  20478927.580    20478928.980
  20478927.080          47.600          42.100
 128377710.593 7  99849346.977 6                  24057929.680    24057934.160
  24057933.000          44.150          38.050
 105467395.668 8  82030217.097 7                  19695280.000    19695280.540
  19695279.800          49.800          47.700
 125772710.123 7  97823245.083 6                  23495395.200    23495397.180
  23495396.480          43.950          39.650
 122273676.388 7  95101770.043 7                  22905978.320    22905983.000
  22905982.140          47.550          42.950
 130195061.707 5 101262833.947 4                  24364229.800    24364231.940
  24364231.080          31.800          29.750
 105238137.620 8  81851906.871 8                  19673155.720    19673158.680
  19673157.840          49.850          48.050
 106638931.416 8  82941402.643 7                  19949011.200    19949015.500
  19949015.160          48.150          42.950
 15  1 27  7  8 45.0000000  0 18G11G14G28G04G17G03G22G27G19G32G01R24
                                R02R08R07R22R23R01
 105674846.574 8  82344026.99447                  20109249.200
  20109243.540          49.100          47.600
 121342899.067 7  94552895.41846                  23090785.740
  23090781.540          47.750          40.200
 122919865.921 7  95781684.68146                  23390870.160
  23390864.620          47.100          39.250
 106645543.008 8  83100435.79447                  20293961.300
  20293957.240          49.900          46.650
 134907482.634 6 105122674.685 5                  25672040.940    25672037.160
  25672034.180          38.500          33.550
 113894046.945 8  88748609.805 8  85050754.879 8  21673313.000    21673311.960
  21673311.380          49.950          48.700
 129179967.308 7 100659717.21446                  24582121.480
  24582115.620          46.100          36.750
 124005577.724 7  96627726.030 7  92601563.774 8  23597477.480    23597476.560
  23597476.040          47.400          44.350
 113774829.342 8  88655688.88547                  21650626.060
  21650619.920          50.250          47.350
 105442487.853 8  82163001.12647                  20065021.940
  20065018.120          49.900          47.250
 109617665.458 8  85416383.330 8  81857357.522 8  20859541.360    20859540.240
  20859540.140          49.650          49.400
 109496403.506 7  85163889.068 7                  20476376.280    20476377.700
  20476375.820          47.800          42.100
 128356516.672 7  99832862.811 6                  24053957.960    24053962.580
  24053961.300          43.900          38.400
 105476614.557 8  82037387.332 7                  19697001.560    19697002.100
  19697001.360          49.600          47.650
 125793374.142 7  97839317.055 6                  23499255.400    23499257.400
  23499256.700          44.050          39.700
 122290681.100 7  95114995.911 7                  22909163.920    22909168.580
  22909167.760          47.000          42.850
 105241416.053 8  81854456.757 8                  19673768.580    19673771.540
  19673770.720          49.700          48.100
 106627078.642 8  82932183.809 7                  19946793.920    19946798.200
  19946797.880          48.400          42.950
 15  1 27  7  8 50.0000000  0 19G11G14G28G04G17G03G22G27G19G32G01R24
                                R02R08R07R22R15R23R01
 105672761.337 8  82342402.13047                  20108852.420
  20108846.740          49.050          47.700
 121346846.495 7  94555971.34046                  23091536.940
  23091532.760          47.800          40.250
 122917043.964 7  95779485.75346                  23390333.120
  23390327.620          46.900          38.550
 106648293.864 8  83102579.31247                  20294484.780
  20294480.720          49.900          46.850
 134890121.632 6 105109146.618 5                  25668737.280    25668733.660
  25668730.640          38.800          33.600
 113881979.783 8  88739206.828 8  85041743.683 8  21671016.680    21671015.660
  21671015.060          49.800          48.650
 129195857.135 7 100672098.87846                  24585145.200
  24585139.380          46.200          37.300
 124022914.059 7  96641234.842 7  92614509.708 8  23600776.420    23600775.600
  23600775.100          46.950          44.800
 113787057.568 8  88665217.36347                  21652953.020
  21652946.900          50.350          47.350
 105443216.245 8  82163568.70047                  20065160.560
  20065156.740          49.950          47.650
 109611781.849 8  85411798.700 8  81852963.908 8  20858421.680    20858420.640
  20858420.520          49.650          49.350
 109482766.679 7  85153282.643 7                  20473826.140    20473827.520
  20473825.680          47.700          42.000
 128335323.712 7  99816379.410 6                  24049986.460    24049990.980
  24049989.800          45.050          38.400
 105485847.993 8  82044568.889 7                  19698725.840    19698726.380
  19698725.620          49.150          47.600
 125814038.050 7  97855388.972 6                  23503115.540    23503117.640
  23503116.940          43.350          39.750
 122307690.821 7  95128225.661 7                  22912350.380    22912355.200
  22912354.320          46.850          42.750
 130209321.498 5 101273928.803 4                  24366899.380
  24366901.380          35.550          28.100
 105244707.731 8  81857016.939 7                  19674383.940    19674386.880
  19674386.060          49.650          47.950
 106615240.577 8  82922976.420 7                  19944579.420    19944583.680
  19944583.340          48.750          42.950
 15  1 27  7  8 55.0000000  0 19G11G14G28G04G17G03G22G27G19G32G01R24
                                R02R08R07R22R15R23R01
 105670687.897 8  82340786.46247                  20108457.880
  20108452.180          49.050          47.550
 121350809.674 7  94559059.51546                  23092291.100
  23092286.960          47.350          40.400
 122914237.132 7  95777298.60946                  23389798.960
  23389793.480          47.000          38.800
 106651053.821 8  83104729.92547                  20295009.980
  20295005.920          49.900          46.750
 134872761.359 6 105095619.133 5                  25665433.720    25665429.720
  25665427.460          37.800          32.700
 113869923.045 8  88729811.967 8  85032740.288 8  21668722.340    21668721.320
  21668720.720          49.600          48.600
 129211748.546 7 100684481.77446                  24588169.280
  24588163.500          45.850          37.550
 124040256.412 7  96654748.315 7  92627460.152 8  23604076.460    23604075.740
  23604075.300          47.000          44.650
 113799296.866 8  88674754.46847                  21655282.120
  21655275.980          50.200          47.350
 105443960.180 8  82164148.38947                  20065302.120
  20065298.300          49.950          47.100
 109605905.300 8  85407219.567 8  81848575.583 8  20857303.380    20857302.360
  20857302.240          49.600          49.300
 109469139.231 7  85142683.514 6                  20471277.740    20471279.040
  20471277.280          47.850          41.950
 128314134.974 7  99799899.251 6                  24046015.700    24046020.280
  24046019.000          45.000          37.250
 105495099.459 8  82051764.467 7                  19700453.460    19700454.000
  19700453.240          49.150          47.500
 125834705.405 7  97871463.553 6                  23506976.340    23506978.540
  23506977.780          43.100          39.800
 122324708.801 7  95141461.838 7                  22915538.420    22915543.360
  22915542.360          46.850          42.050
 130216480.505 5                                  24368239.280
                        35.550
 105248016.113 8  81859590.120 7                  19675002.400    19675005.360
  19675004.520          49.700          47.950
 106603420.590 8  82913783.105 7                  19942368.280    19942372.520
  19942372.180          48.850          43.050
 15  1 27  7  9  0.0000000  0 19G11G14G28G04G17G03G22G27G19G32G01R24
                                R02R08R07R22R15R23R01
 105668626.998 8  82339180.55947                  20108065.720
  20108059.980          48.950          47.950
 121354789.347 7  94562160.55146                  23093048.420
  23093044.300          47.050          41.000
 122911446.230 7  95775123.88046                  23389267.880
  23389262.380          47.050          39.400
 106653823.698 8  83106888.26047                  20295537.080
  20295533.000          49.850          46.950
 134855402.424 6 105082092.682 5                  25662130.480    25662126.260
  25662124.100          37.300          32.350
 113857877.492 8  88720425.820 8  85023745.221 8  21666430.140    21666429.120
  21666428.500          49.350          48.400
 129227642.277 7 100696866.46546                  24591193.800
  24591188.020          45.650          37.800
 124057605.525 7  96668267.078 7  92640415.625 8  23607377.840    23607377.200
  23607376.720          47.400          44.100
 113811547.985 8  88684300.78247                  21657613.460
  21657607.280          50.250          47.350
 105444720.468 8  82164740.81747                  20065446.800
  20065442.980          49.850          47.550
 109600036.592 8  85402646.540 8  81844193.094 8  20856186.560    20856185.580
  20856185.460          49.550          49.350
 109455521.953 7  85132092.293 6                  20468731.260    20468732.540
  20468730.760          47.900          41.950
 128292951.317 7  99783423.028 6                  24042045.940    24042050.420
  24042049.180          44.700          37.200
 105504369.640 8  82058974.604 7                  19702184.540    19702185.140
  19702184.360          49.150          47.500
 125855376.654 7  97887541.157 6                  23510837.900    23510840.100
  23510839.380          43.100          40.100
 122341735.892 7  95154705.107 6                  22918728.160    22918733.060
  22918732.100          46.600          41.800
 130223658.129 5 101285083.784 4                  24369582.880    24369586.180
                        33.750          29.500
 105251341.871 8  81862176.811 7                  19675624.120    19675627.060
  19675626.240          49.650          47.950
 106591619.446 8  82904604.440 7                  19940160.680    19940164.840
  19940164.560          48.750          43.150
 15  1 27  7  9  5.0000000  0 19G11G14G28G04G17G03G22G27G19G32G01R24
                                R02R08R07R22R15R23R01
 105666575.088 8  82337581.67048                  20107675.280
  20107669.500          49.150          48.050
 121358781.997 7  94565271.70946                  23093808.200
  23093804.080          47.350          40.300
 122908667.716 7  95772958.79446                  23388739.140
  23388733.620          47.050          39.550
 106656599.936 8  83109051.56447                  20296065.380
  20296061.300          50.050          46.900
 134838041.390 6 105068564.630 5                  25658826.780    25658822.200
  25658820.680          38.700          33.400
 113845839.617 8  88711045.657 8  85014755.910 8  21664139.400    21664138.400
  21664137.760          49.350          48.400
 129243534.776 7 100709250.21646                  24594218.000
  24594212.340          45.300          38.300
 124074957.826 8  96681788.343 7  92653373.502 8  23610679.900    23610679.180
  23610678.700          48.000          43.800
 113823807.368 8  88693853.54847                  21659946.380
  21659940.180          50.250          47.350
 105445493.568 8  82165343.23747                  20065593.920
  20065590.100          49.900          47.150
 109594172.194 8  85398076.878 8  81839813.843 8  20855070.580    20855069.640
  20855069.500          49.700          49.400
 109441911.248 8  85121506.180 7                  20466185.980    20466187.260
  20466185.480          48.000          42.000
 128271769.203 7  99766948.036 5                  24038076.480    24038080.900
  24038079.660          43.650          35.950
 105513654.955 8  82066196.518 7                  19703918.480    19703919.140
  19703918.320          49.050          47.550
 125876048.505 7  97903619.239 6                  23514699.600    23514701.780
  23514701.060          43.750          40.050
 122358768.423 7  95167952.606 6                  22921918.960    22921923.780
  22921922.820          47.100          41.650
 130230850.897 5 101290678.139 4                  24370928.680    24370933.260
                        32.650          28.800
 105254681.447 8  81864774.265 7                  19676248.420    19676251.360
  19676250.540          49.650          47.750
 106579833.668 8  82895437.732 7                  19937955.940    19937960.080
  19937959.800          48.600          42.900
 15  1 27  7  9 10.0000000  0 19G11G14G28G04G17G03G22G27G19G32G01R24
                                R02R08R07R22R15R23R01
 105664534.820 8  82335991.84347                  20107287.040
  20107281.260          49.150          47.550
 121362790.207 7  94568394.98146                  23094570.960
  23094566.800          47.300          40.100
 122905904.117 7  95770805.32646                  23388213.240
  23388207.700          46.850          39.250
 106659385.134 8  83111221.84247                  20296595.380
  20296591.320          50.050          46.400
 134820680.870 6 105055036.948 5                  25655523.260    25655518.760
  25655517.700          38.750          32.750
 113833812.026 8  88701673.502 8  85005774.250 8  21661850.620    21661849.620
  21661848.980          49.350          48.350
 129259428.652 7 100721635.01546                  24597242.500
  24597236.840          45.900          38.000
 124092315.928 7  96695314.139 7  92666335.708 8  23613983.080    23613982.320
  23613981.760          47.800          43.750
 113836077.640 8  88703414.79347                  21662281.380
  21662275.140          50.150          47.400
 105446282.067 8  82165957.64647                  20065743.960
  20065740.140          49.850          47.350
 109588314.671 8  85393512.571 8  81835439.717 8  20853955.900    20853954.980
  20853954.860          49.650          49.400
 109428309.880 7  85110927.328 6                  20463642.460    20463643.740
  20463641.920          47.750          41.750
 128250591.268 7  99750476.279 5                  24034107.720    24034112.080
  24034110.820          43.550          35.750
 105522958.040 8  82073432.236 7                  19705655.740    19705656.380
  19705655.620          49.000          47.550
 125896723.394 7  97919699.683 6                  23518561.880    23518564.040
  23518563.300          43.450          39.700
 122375809.124 7  95181206.474 7                  22925111.260    22925116.040
  22925115.060          47.300          42.000
 130238061.257 4 101296286.225 4                  24372277.420    24372282.420
  24372280.100          28.500          27.050
 105258037.673 8  81867384.659 7                  19676875.840    19676878.800
  19676877.940          49.650          47.900
 106568065.822 8  82886284.959 7                  19935754.580    19935758.700
  19935758.400          48.350          42.950
 15  1 27  7  9 15.0000000  0 18G11G14G28G04G17G03G22G27G19G32G01R24
                                R02R08R07R22R23R01
 105662505.126 8  82334410.25747                  20106900.820
  20106895.000          49.150          47.750
 121366812.921 7  94571529.55746                  23095336.440
  23095332.260          47.350          39.750
 122903154.446 7  95768662.71546                  23387690.000
  23387684.460          46.800          38.950
 106662178.206 8  83113398.25247                  20297126.880
  20297122.820          50.100          46.550
 134803319.726 6 105041508.763 5                  25652219.620    25652215.300
  25652214.460          38.600          34.000
 113821793.631 8  88692308.504 8  84996799.470 8  21659563.580    21659562.620
  21659561.940          49.400          48.450
 129275322.819 7 100734020.06646                  24600267.060
  24600261.460          45.100          38.550
 124109678.747 7  96708843.593 7  92679301.429 8  23617287.120    23617286.380
  23617285.800          47.200          44.350
 113848357.677 8  88712983.63947                  21664618.220
  21664611.940          50.050          47.300
 105447084.887 8  82166583.21447                  20065896.740
  20065892.920          49.900          47.300
 109582463.018 8  85388952.833 8  81831069.968 8  20852842.360    20852841.420
  20852841.320          49.600          49.350
 109414716.698 7  85100354.849 6                  20461100.460    20461101.660
  20461099.900          47.300          41.850
 128229416.432 7  99734006.936 5                  24030139.600    24030143.840
  24030142.660          43.650          35.550
 105532277.717 8  82080680.861 7                  19707396.100    19707396.740
  19707396.000          49.200          47.400
 125917400.280 7  97935781.674 6                  23522424.520    23522426.700
  23522425.920          43.250          39.600
 122392856.858 7  95194465.808 7                  22928304.920    22928309.640
  22928308.700          47.100          42.250
 105261409.297 8  81870007.020 7                  19677506.100    19677509.080
  19677508.240          49.750          47.900
 106556314.739 8  82877145.215 7                  19933556.360    19933560.380
  19933560.120          48.600          42.900
 15  1 27  7  9 20.0000000  0 18G11G14G28G04G17G03G22G27G19G32G01R24
                                R02R08R07R22R23R01
 105660487.539 8  82332838.10748                  20106516.920
  20106511.080          49.050          48.000
 121370851.676 7  94574676.63146                  23096105.000
  23096100.780          47.250          39.850
 122900420.177 7  95766532.11446                  23387169.640
  23387164.100          46.700          38.900
 106664980.722 8  83115582.02847                  20297660.180
  20297656.120          50.000          46.550
 134785959.587 6 105027981.385 5                  25648916.080    25648911.720
  25648910.880          37.950          33.750
 113809785.964 8  88682951.877 8  84987832.700 8  21657278.600    21657277.640
  21657276.960          49.550          48.300
 129291218.818 7 100746406.52646                  24603291.940
  24603286.360          45.600          36.650
 124127047.855 7  96722377.933 7  92692271.828 8  23620592.300    23620591.640
  23620591.100          46.800          44.150
 113860649.027 8  88722561.30347                  21666957.220
  21666950.920          50.000          47.450
 105447903.535 8  82167221.11947                  20066052.520
  20066048.700          49.950          47.250
 109576618.707 8  85384398.828 8  81826705.708 8  20851730.200    20851729.280
  20851729.180          49.650          49.300
 109401133.246 7  85089789.942 6                  20458560.240    20458561.460
  20458559.680          47.250          41.750
 128208246.215 7  99717541.189 5                  24026172.300    24026176.680
  24026175.400          42.850          35.650
 105541615.647 8  82087943.697 7                  19709139.880    19709140.540
  19709139.780          49.200          47.300
 125938080.677 7  97951866.409 6                  23526287.860    23526290.060
  23526289.220          43.200          40.100
 122409913.242 7  95207731.866 6                  22931500.200    22931504.860
  22931503.940          47.400          41.950
 105264797.892 8  81872642.594 7                  19678139.560    19678142.560
  19678141.740          49.750          47.850
 106544582.185 8  82868019.891 7                  19931361.600    19931365.600
  19931365.300          48.850          42.900
 15  1 27  7  9 25.0000000  0 18G11G14G28G04G17G03G22G27G19G32G01R24
                                R02R08R07R22R23R01
 105658480.145 8  82331273.89947                  20106134.940
  20106129.060          49.100          47.950
 121374904.532 7  94577834.69746                  23096876.240
  23096871.980          47.000          40.400
 122897699.401 7  95764412.03146                  23386651.880
  23386646.360          46.600          39.750
 106667790.765 8  83117771.67447                  20298194.920
  20298190.840          49.900          46.900
 134768598.513 6 105014453.287 5                  25645612.440    25645608.120
  25645607.100          38.050          33.750
 113797787.155 8  88673602.151 8  84978872.539 8  21654995.280    21654994.340
  21654993.660          49.300          48.450
 129307114.699 7 100758792.90446                  24606316.800
  24606311.160          45.400          36.050
 124144421.276 7  96735915.649 7  92705245.473 8  23623898.280    23623897.760
  23623897.200          46.550          44.900
 113872949.793 8  88732146.30847                  21669298.000
  21669291.700          49.950          47.650
 105448736.106 8  82167869.87247                  20066210.980
  20066207.120          49.900          47.200
 109570779.868 8  85379849.080 8  81822345.526 8  20850619.100    20850618.160
  20850618.080          49.600          49.300
 109387557.706 7  85079231.184 7                  20456021.500    20456022.740
  20456020.940          47.000          42.050
 128187078.714 7  99701077.571 6                  24022205.460    24022209.800
  24022208.640          42.750          36.600
 105550969.783 8  82095219.133 7                  19710886.680    19710887.340
  19710886.560          49.000          47.350
 125958762.758 7  97967952.435 6                  23530151.580    23530153.620
  23530152.820          43.350          39.850
 122426976.272 7  95221003.103 7                  22934696.720    22934701.340
  22934700.400          47.050          42.050
 105268201.539 8  81875289.867 7                  19678775.800    19678778.880
  19678778.040          49.850          47.900
 106532866.164 8  82858907.434 7                  19929169.940    19929173.880
  19929173.580          48.800          43.000
 15  1 27  7  9 30.0000000  0 18G11G14G28G04G17G03G22G27G19G32G01R24
                                R02R08R07R22R23R01
 105656484.624 8  82329718.93847                  20105755.240
  20105749.320          49.050          47.750
 121378973.222 7  94581005.09046                  23097650.480
  23097646.240          47.100          40.050
 122894993.846 7  95762303.80046                  23386137.000
  23386131.560          46.900          38.000
 106670610.018 8  83119968.48147                  20298731.400
  20298727.340          49.900          46.650
 134751238.246 6 105000925.817 5                  25642308.940    25642305.040
  25642304.000          38.350          33.800
 113785798.850 8  88664260.609 8  84969920.220 8  21652713.980    21652713.040
  21652712.380          49.450          48.450
 129323012.193 7 100771180.56045                  24609341.940
  24609336.420          45.200          35.850
 124161800.721 7  96749458.025 7  92718223.593 8  23627205.500    23627205.000
  23627204.500          47.100          44.750
 113885261.645 8  88741739.94247                  21671640.900
  21671634.560          50.100          47.600
 105449584.266 8  82168530.77247                  20066372.360
  20066368.520          49.750          47.750
 109564948.179 8  85375304.899 8  81817990.676 8  20849509.340    20849508.420
  20849508.340          49.350          49.150
 109373991.841 7  85068679.958 7                  20453484.600    20453485.860
  20453484.080          47.100          42.100
 128165915.677 7  99684617.414 6                  24018239.540    24018243.760
  24018242.780          43.600          36.750
 105560341.816 8  82102508.477 7                  19712636.820    19712637.540
  19712636.700          48.900          47.350
 125979447.928 7  97984040.871 6                  23534015.820    23534017.760
  23534017.000          43.900          39.700
 122444047.624 7  95234280.782 6                  22937894.780    22937899.420
  22937898.460          47.100          41.900
 105271622.077 8  81877950.269 7                  19679415.240    19679418.300
  19679417.500          49.850          47.950
 106521168.355 8  82849809.143 7                  19926981.640    19926985.600
  19926985.260          48.850          42.950
 15  1 27  7  9 35.0000000  0 18G11G14G28G04G17G03G22G27G19G32G01R24
                                R02R08R07R22R23R01
 105654498.081 8  82328170.97647                  20105377.240
  20105371.300          49.150          47.650
 121383054.798 7  94584185.52446                  23098427.160
  23098422.900          46.900          40.100
 122892300.664 7  95760205.21046                  23385624.520
  23385619.080          46.950          37.850
 106673435.672 8  83122170.28947                  20299269.100
  20299265.060          49.850          46.550
 134733875.882 6 104987396.700 5                  25639004.980    25639000.860
  25639000.200          39.200          34.300
 113773818.226 8  88654925.058 8  84960973.655 8  21650434.140    21650433.220
  21650432.560          49.750          48.450
 129338908.389 7 100783567.16545                  24612366.860
  24612361.400          45.150          35.300
 124179183.257 7  96763002.843 7  92731204.058 8  23630513.400    23630512.860
  23630512.380          47.650          44.350
 113897581.713 8  88751339.98947                  21673985.360
  21673979.000          50.050          47.600
 105450445.164 8  82169201.60147                  20066536.200
  20066532.320          49.800          47.250
 109559120.763 8  85370764.048 8  81813639.036 8  20848400.400    20848399.500
  20848399.400          49.250          49.150
 109360432.437 7  85058133.763 7                  20450948.900    20450950.200
  20450948.420          47.000          42.050
 128144754.228 7  99668158.500 6                  24014273.940    24014278.220
  24014277.220          44.600          36.700
 105569728.872 8  82109809.525 7                  19714389.760    19714390.480
  19714389.620          48.850          47.350
 126000133.542 7  98000129.663 6                  23537880.120    23537881.980
  23537881.260          44.100          39.700
 122461124.308 7  95247562.631 7                  22941093.820    22941098.460
  22941097.520          47.050          42.150
 105275056.523 8  81880621.499 8                  19680057.280    19680060.320
  19680059.540          49.650          48.000
 106509485.808 8  82840722.722 7                  19924796.200    19924800.140
  19924799.800          48.850          43.200
 15  1 27  7  9 40.0000000  0 18G11G14G28G04G17G03G22G27G19G32G01R24
                                R02R08R07R22R23R01
 105652524.374 8  82326633.01947                  20105001.680
  20104995.720          49.100          47.700
 121387153.074 7  94587378.99446                  23099207.040
  23099202.740          47.050          39.800
 122889623.591 7  95758119.17646                  23385115.100
  23385109.660          47.100          38.700
 106676271.334 8  83124379.89547                  20299808.720
  20299804.680          49.800          46.800
 134716515.197 6 104973868.902 5                  25635701.220    25635696.960
  25635696.760          39.000          33.950
 113761849.047 8  88645598.417 8  84952035.623 8  21648156.500    21648155.560
  21648154.900          49.700          48.500
 129354807.070 7 100795955.71746                  24615392.240
  24615386.820          44.550          36.500
 124196572.708 7  96776553.073 7  92744189.685 8  23633822.580    23633821.980
  23633821.500          47.300          44.700
 113909913.778 8  88760949.38547                  21676332.080
  21676325.720          49.900          47.550
 105451322.621 8  82169885.33447                  20066703.160
  20066699.300          49.750          47.400
 109553301.434 8  85366229.502 8  81809293.427 8  20847293.020    20847292.100
  20847292.020          49.200          49.200
 109346883.626 7  85047595.803 7                  20448415.180    20448416.520
  20448414.740          47.050          42.100
 128123598.194 7  99651703.775 6                  24010309.380    24010313.700
  24010312.660          44.100          37.100
 105579134.815 8  82117125.264 7                  19716146.220    19716146.980
  19716146.120          48.600          47.550
 126020823.278 7  98016221.678 6                  23541745.200    23541747.060
  23541746.280          44.050          39.900
 122478210.402 7  95260851.802 7                  22944294.640    22944299.400
  22944298.340          47.050          42.300
 105278508.588 8  81883306.433 8                  19680702.600    19680705.680
  19680704.900          49.200          48.100
 106497822.543 8  82831651.293 7                  19922614.400    19922618.360
  19922617.960          48.650          43.450
 15  1 27  7  9 45.0000000  0 18G11G14G28G04G17G03G22G27G19G32G01R24
                                R02R08R07R22R23R01
 105650561.255 8  82325103.30247                  20104628.140
  20104622.160          49.050          47.750
 121391265.804 7  94590583.70946                  23099989.660
  23099985.360          47.150          40.150
 122886960.442 7  95756043.96846                  23384608.340
  23384602.880          46.950          38.950
 106679114.909 8  83126595.65447                  20300349.820
  20300345.800          49.850          46.550
 134699153.971 6 104960340.674 5                  25632397.420    25632393.060
  25632392.740          39.600          34.950
 113749889.088 8  88636278.956 8  84943104.471 8  21645880.600    21645879.640
  21645879.020          49.650          48.600
 129370705.964 7 100808344.43745                  24618417.660
  24618412.340          44.000          35.550
 124213966.851 7  96790106.919 7  92757178.769 8  23637132.560    23637132.000
  23637131.480          46.850          44.300
 113922255.607 8  88770566.37847                  21678680.680
  21678674.300          49.900          47.600
 105452214.316 8  82170580.15147                  20066872.840
  20066869.000          49.700          47.350
 109547487.943 8  85361699.495 8  81804952.172 8  20846186.740    20846185.820
  20846185.720          49.300          49.200
 109333343.264 7  85037064.385 6                  20445883.040    20445884.400
  20445882.580          47.950          41.750
 128102445.272 7  99635251.475 5                  24006345.320    24006349.540
  24006348.660          44.900          35.950
 105588557.208 8  82124453.778 7                  19717905.740    19717906.540
  19717905.700          49.350          47.450
 126041514.947 7  98032315.165 6                  23545610.620    23545612.420
  23545611.680          44.750          39.850
 122495303.314 7  95274146.259 6                  22947496.740    22947501.480
  22947500.420          47.850          41.600
 105281976.093 8  81886003.373 8                  19681350.800    19681353.920
  19681353.120          49.750          48.000
 106486176.180 8  82822593.003 7                  19920435.740    19920439.640
  19920439.260          49.100          43.350
 15  1 27  7  9 50.0000000  0 18G11G14G28G04G17G03G22G27G19G32G01R24
                                R02R08R07R22R23R01
 105648609.301 8  82323582.30148                  20104256.700
  20104250.700          49.000          48.100
 121395393.655 7  94593800.20046                  23100775.160
  23100770.840          46.950          40.200
 122884311.844 7  95753980.12546                  23384104.340
  23384098.900          46.650          39.450
 106681967.027 8  83128818.07847                  20300892.580
  20300888.540          50.000          46.700
 134681792.855 6 104946812.533 5                  25629093.580    25629089.480
  25629089.060          40.000          35.150
 113737938.998 8  88626967.189 8  84934180.696 8  21643606.580    21643605.640
  21643605.000          49.450          48.750
 129386605.776 7 100820733.85645                  24621443.220
  24621437.960          44.550          34.200
 124231366.290 7  96803664.906 7  92770171.844 8  23640443.480    23640443.060
  23640442.480          46.950          44.700
 113934607.841 8  88780191.48747                  21681031.240
  21681024.880          49.950          47.450
 105453120.915 8  82171286.58847                  20067045.380
  20067041.500          49.800          47.400
 109541680.953 8  85357174.564 8  81800615.780 8  20845081.700    20845080.800
  20845080.680          49.350          49.400
 109319811.679 7  85026539.816 6                  20443352.580    20443353.960
  20443352.100          47.550          41.600
 128081296.192 7  99618802.161 5                  24002382.000    24002386.240
  24002385.340          44.100          35.900
 105597996.927 8  82131795.769 7                  19719668.500    19719669.340
  19719668.520          49.400          47.350
 126062209.118 7  98048410.606 6                  23549476.460    23549478.360
  23549477.520          44.700          39.350
 122512404.028 7  95287446.783 6                  22950700.320    22950704.980
  22950703.940          47.250          41.650
 105285459.705 8  81888712.854 7                  19682002.000    19682005.160
  19682004.360          49.450          47.900
 106474547.415 8  82813548.412 7                  19918260.360    19918264.220
  19918263.880          48.850          43.150
 15  1 27  7  9 55.0000000  0 18G11G14G28G04G17G03G22G27G19G32G01R24
                                R02R08R07R22R23R01
 105646668.740 8  82322070.17347                  20103887.460
  20103881.420          49.300          47.750
 121399536.788 7  94597028.62246                  23101563.580
  23101559.280          47.200          39.900
 122881677.933 7  95751927.72546                  23383603.100
  23383597.720          46.750          39.400
 106684827.835 8  83131047.27647                  20301436.960
  20301432.920          50.050          46.850
 134664432.089 6 104933284.663 5                  25625789.840    25625785.600
  25625785.480          40.400          34.650
 113725998.980 8  88617663.275 8  84925264.433 8  21641334.460    21641333.540
  21641332.900          49.750          48.700
 129402506.604 7 100833124.09145                  24624469.000
  24624463.840          44.750          35.500
 124248771.227 7  96817227.171 7  92783168.989 8  23643755.520    23643755.140
  23643754.580          47.550          45.200
 113946970.644 8  88789824.82947                  21683383.800
  21683377.420          50.050          47.550
 105454042.638 8  82172004.81747                  20067220.760
  20067216.900          49.800          47.450
 109535880.631 8  85352654.830 8  81796284.367 8  20843977.940    20843977.040
  20843976.900          49.450          49.400
 109306289.343 7  85016022.450 6                  20440823.820    20440825.200
  20440823.340          47.800          41.850
 128060151.087 7  99602355.968 6                  23998419.420    23998423.620
  23998422.760          44.000          36.050
 105607454.002 8  82139151.261 7                  19721434.560    19721435.380
  19721434.560          49.400          47.350
 126082905.954 7  98064508.131 6                  23553342.820    23553344.800
  23553343.880          44.650          39.550
 122529512.514 7  95300753.369 6                  22953905.360    22953910.000
  22953908.920          47.000          41.650
 105288959.771 8  81891435.115 7                  19682656.260    19682659.440
  19682658.660          49.550          47.950
 106462936.376 8  82804517.612 7                  19916088.280    19916092.120
  19916091.820          49.100          43.050
 15  1 27  7 10  0.0000000  0 18G11G14G28G04G17G03G22G27G19G32G01R24
                                R02R08R07R22R23R01
 105644738.894 8  82320566.38947                  20103520.220
  20103514.180          49.200          47.950
 121403694.499 7  94600268.38246                  23102354.780
  23102350.520          47.350          39.850
 122879057.985 7  95749886.20746                  23383104.540
  23383099.160          47.150          39.350
 106687696.608 8  83133282.68047                  20301982.880
  20301978.840          50.200          46.400
 134647070.826 6 104919756.394 5                  25622486.040    25622481.940
  25622481.860          40.450          35.000
 113714068.278 8  88608366.614 8  84916355.137 8  21639064.100    21639063.220
  21639062.580          49.650          48.550
 129418407.769 7 100845514.59045                  24627494.880
  24627489.840          44.800          33.250
 124266180.850 8  96830793.096 7  92796169.675 8  23647068.540    23647068.160
  23647067.640          48.250          45.600
 113959343.270 8  88799465.83147                  21685738.260
  21685731.880          50.100          47.200
 105454978.702 8  82172734.21647                  20067398.880
  20067395.020          49.850          47.650
 109530086.248 8  85348139.727 8  81791957.392 8  20842875.300    20842874.420
  20842874.260          49.650          49.300
 109292775.325 8  85005511.540 6                  20438296.640    20438298.040
  20438296.080          48.400          41.400
 128039009.293 7  99585912.339 5                  23994457.460    23994461.780
  23994460.760          44.350          35.200
 105616927.648 8  82146519.646 7                  19723203.700    19723204.520
  19723203.700          49.350          47.250
 126103604.860 7  98080607.259 6                  23557209.560    23557211.540
  23557210.620          44.850          39.700
 122546628.103 7  95314065.479 6                  22957111.720    22957116.360
  22957115.240          46.750          41.600
 105292475.268 8  81894169.380 7                  19683313.420    19683316.620
  19683315.860          49.750          47.950
 106451342.266 8  82795499.977 7                  19913919.380    19913923.180
  19913922.900          49.100          43.100
 15  1 27  7 10  5.0000000  0 18G11G14G28G04G17G03G22G27G19G32G01R24
                                R02R08R07R22R23R01
 105642820.730 8  82319071.71147                  20103155.220
  20103149.180          49.250          47.700
 121407867.725 7  94603520.23846                  23103148.940
  23103144.680          47.550          40.050
 122876453.022 7  95747856.34946                  23382608.840
  23382603.460          47.100          39.100
 106690574.379 8  83135525.08847                  20302530.500
  20302526.460          50.150          46.350
 134629710.154 6 104906228.608 5                  25619182.360    25619178.380
  25619178.280          41.150          35.700
 113702147.892 8  88599077.998 8  84907453.548 8  21636795.740    21636794.860
  21636794.220          49.800          48.650
 129434310.228 7 100857906.09545                  24630520.980
  24630516.020          43.700          35.000
 124283596.171 8  96844363.452 7  92809174.609 8  23650382.640    23650382.240
  23650381.780          48.050          45.450
 113971726.669 8  88809115.22047                  21688094.740
  21688088.360          50.050          47.250
 105455930.086 8  82173475.55047                  20067579.920
  20067576.060          49.650          47.350
 109524298.767 8  85343629.993 8  81787635.562 8  20841773.980    20841773.080
  20841772.940          49.600          49.300
 109279270.901 8  84995008.078 6                  20435771.280    20435772.580
  20435770.600          48.250          41.300
 128017871.907 7  99569472.131 5                  23990496.280    23990500.680
  23990499.600          43.850          34.850
 105626418.831 8  82153901.675 7                  19724976.120    19724976.940
  19724976.100          49.250          47.100
 126124306.678 7  98096708.652 6                  23561076.840    23561078.820
  23561077.900          45.050          39.750
 122563751.688 7  95327383.802 7                  22960319.540    22960324.200
  22960323.080          46.850          42.300
 105296007.505 8  81896916.661 7                  19683973.700    19683976.980
  19683976.160          49.650          47.950
 106439766.382 8  82786496.506 7                  19911753.920    19911757.700
  19911757.400          49.050          43.050
 15  1 27  7 10 10.0000000  0 18G11G14G28G04G17G03G22G27G19G32G01R24
                                R02R08R07R22R23R01
 105640912.356 8  82317584.66447                  20102792.100
  20102786.040          49.150          47.800
 121412054.577 7  94606782.71846                  23103945.660
  23103941.480          47.250          40.000
 122873861.107 7  95745836.67946                  23382115.580
  23382110.240          46.850          39.200
 106693459.238 8  83137773.03147                  20303079.480
  20303075.460          50.050          46.350
 134612348.061 6 104892699.696 5                  25615878.440    25615874.320
  25615874.080          41.050          35.600
 113690235.941 8  88589795.959 8  84898558.256 8  21634529.000    21634528.080
  21634527.440          49.650          48.650
 129450212.087 7 100870297.12146                  24633546.960
  24633542.000          43.700          36.050
 124301015.310 7  96857936.795 7  92822182.404 8  23653697.440    23653697.080
  23653696.620          47.500          45.100
 113984118.954 8  88818771.53447                  21690452.900
  21690446.520          50.000          47.250
 105456894.911 8  82174227.35847                  20067763.500
  20067759.640          49.600          47.050
 109518516.354 8  85339124.215 8  81783317.525 8  20840673.600    20840672.740
  20840672.580          49.400          49.300
 109265773.797 8  84984510.324 6                  20433247.280    20433248.500
  20433246.520          48.150          41.400
 127996736.808 7  99553033.697 5                  23986535.620    23986539.940
  23986538.880          43.850          34.400
 105635925.715 8  82161295.923 7                  19726751.460    19726752.260
  19726751.440          49.400          47.150
 126145009.395 7  98112810.749 6                  23564944.280    23564946.320
  23564945.360          45.200          39.550
 122580881.353 7  95340706.862 7                  22963528.560    22963533.180
  22963532.120          47.050          42.700
 105299554.336 8  81899675.296 7                  19684636.740    19684640.020
  19684639.200          49.450          47.900
 106428206.500 8  82777505.488 7                  19909591.420    19909595.180
  19909594.880          48.900          43.000
 15  1 27  7 10 15.0000000  0 18G11G14G28G04G17G03G22G27G19G32G01R24
                                R02R08R07R22R23R01
 105639014.983 8  82316106.18848                  20102431.040
  20102424.980          49.100          48.250
 121416256.270 7  94610056.75646                  23104745.200
  23104741.080          47.050          41.050
 122871283.504 7  95743828.15246                  23381625.100
  23381619.760          46.900          39.850
 106696352.335 8  83140027.39047                  20303630.000
  20303626.000          50.000          46.800
 134594985.868 6 104879170.710 5                  25612574.520    25612570.440
  25612570.040          40.250          35.150
 113678333.606 8  88580521.419 8  84889670.151 8  21632264.060    21632263.160
  21632262.520          49.850          48.650
 129466114.557 7 100882688.63745                  24636573.080
  24636568.120          43.150          35.550
 124318439.442 7  96871514.014 7  92835193.903 8  23657013.100    23657012.800
  23657012.340          47.100          45.050
 113996521.329 8  88828435.71447                  21692813.000
  21692806.600          50.100          47.300
 105457874.352 8  82174990.55147                  20067949.880
  20067946.000          49.750          47.450
 109512740.143 8  85334623.271 8  81779004.112 8  20839574.440    20839573.580
  20839573.420          49.250          49.300
 109252285.503 8  84974019.427 6                  20430724.920    20430726.080
  20430724.100          48.550          41.350
 127975605.257 7  99536598.007 6                  23982575.600    23982579.820
  23982578.820          45.100          36.300
 105645449.413 8  82168703.241 7                  19728529.940    19728530.760
  19728529.920          49.600          47.300
 126165714.280 7  98128914.538 6                  23568812.180    23568814.180
  23568813.200          44.700          39.650
 122598018.433 7  95354035.671 7                  22966738.940    22966743.620
  22966742.620          47.050          42.900
 105303117.019 8  81902446.262 8                  19685302.720    19685306.020
  19685305.220          49.550          48.000
 106416663.997 8  82768527.984 7                  19907432.200    19907435.920
  19907435.620          48.600          43.200
 15  1 27  7 10 20.0000000  0 18G11G14G28G04G17G03G22G27G19G32G01R24
                                R02R08R07R22R23R01
 105637129.929 8  82314637.31448                  20102072.320
  20102066.280          49.050          48.100
 121420474.179 7  94613343.42946                  23105547.840
  23105543.680          47.100          40.250
 122868721.499 7  95741831.77746                  23381137.580
  23381132.260          47.000          40.000
 106699255.096 8  83142289.27747                  20304182.380
  20304178.400          50.000          46.550
 134577624.959 6 104865642.742 5                  25609270.780    25609266.720
  25609266.360          40.400          35.350
 113666442.304 8  88571255.470 8  84880790.282 8  21630001.220    21630000.320
  21629999.700          49.750          48.750
 129482018.998 7 100895081.66146                  24639599.540
  24639594.540          43.050          38.050
 124335869.977 7  96885096.212 7  92848210.165 8  23660329.940    23660329.720
  23660329.220          47.150          44.650
 114008935.118 8  88838108.78947                  21695175.260
  21695168.860          50.150          47.350
 105458869.769 8  82175766.20247                  20068139.280
  20068135.420          49.800          47.250
 109506971.570 8  85330128.277 8  81774696.410 8  20838476.720    20838475.860
  20838475.700          49.150          49.350
 109238807.326 8  84963536.399 6                  20428204.460    20428205.580
  20428203.580          48.350          41.550
 127954478.890 7  99520166.353 6                  23978616.640    23978620.840
  23978619.800          44.650          36.900
 105654991.401 8  82176124.782 7                  19730311.820    19730312.640
  19730311.820          49.200          47.350
 126186422.757 7  98145021.100 6                  23572680.740    23572682.700
  23572681.740          45.100          39.900
 122615164.216 7  95367371.249 7                  22969950.960    22969955.700
  22969954.720          47.300          42.700
 105306696.972 8  81905230.659 8                  19685971.900    19685975.280
  19685974.460          49.300          48.000
 106405140.240 8  82759565.058 7                  19905276.460    19905280.120
  19905279.860          48.950          43.050
 15  1 27  7 10 25.0000000  0 18G11G14G28G04G17G03G22G27G19G32G01R24
                                R02R08R07R22R23R01
 105635255.980 8  82313177.08947                  20101715.760
  20101709.680          48.950          47.750
 121424707.024 7  94616641.73746                  23106353.320
  23106349.200          47.300          39.750
 122866173.884 7  95739846.61746                  23380652.780
  23380647.440          47.100          39.450
 106702166.191 8  83144557.65147                  20304736.340
  20304732.380          49.900          46.800
 134560264.080 6 104852114.774 6                  25605967.080    25605963.160
  25605962.680          40.050          36.100
 113654560.729 8  88561997.100 8  84871917.682 8  21627740.240    21627739.340
  21627738.700          49.750          48.750
 129497924.088 7 100907475.22046                  24642626.180
  24642621.120          43.850          36.350
 124353305.586 7  96898682.378 7  92861230.225 8  23663647.820    23663647.600
  23663647.100          47.900          44.450
 114021359.110 8  88847789.81147                  21697539.480
  21697533.060          50.200          47.300
 105459879.934 8  82176553.34347                  20068331.500
  20068327.640          49.800          47.350
 109501209.331 8  85325638.213 8  81770393.435 8  20837380.220    20837379.360
  20837379.180          49.400          49.350
 109225338.128 7  84953060.341 6                  20425685.660    20425686.760
  20425684.740          47.950          41.800
 127933356.200 7  99503737.590 6                  23974658.320    23974662.500
  23974661.500          43.400          37.600
 105664550.346 8  82183559.500 7                  19732096.900    19732097.680
  19732096.900          49.250          47.600
 126207133.485 7  98161129.428 6                  23576549.740    23576551.640
  23576550.660          44.850          40.050
 122632317.505 7  95380712.656 7                  22973164.360    22973169.140
  22973168.200          46.900          42.650
 105310292.845 8  81908027.445 7                  19686644.060    19686647.500
  19686646.680          49.150          47.950
 106393634.081 8  82750615.821 7                  19903124.020    19903127.640
  19903127.400          49.200          43.250
 15  1 27  7 10 30.0000000  0 18G11G14G28G04G17G03G22G27G19G32G01R24
                                R02R08R07R22R23R01
 105633391.801 8  82311724.47848                  20101361.040
  20101354.940          49.100          48.000
 121428953.476 7  94619950.66046                  23107161.400
  23107157.320          47.150          40.600
 122863639.320 7  95737871.63246                  23380170.460
  23380165.120          47.400          39.100
 106705084.346 8  83146831.54247                  20305291.640
  20305287.700          49.850          47.150
 134542901.855 6 104838585.790 5                  25602663.180    25602659.060
  25602658.660          39.950          35.800
 113642687.571 8  88552745.288 8  84863051.354 8  21625480.860    21625479.940
  21625479.300          49.750          48.700
 129513828.511 7 100919868.24545                  24645652.700
  24645647.660          43.950          35.600
 124370744.896 8  96912271.449 7  92874253.057 8  23666966.480    23666966.220
  23666965.700          48.350          44.700
 114033791.967 8  88857477.74947                  21699905.380
  21699898.940          50.150          47.300
 105460903.460 8  82177350.89647                  20068526.240
  20068522.420          49.750          47.300
 109495452.111 8  85321152.065 8  81766094.209 8  20836284.660    20836283.800
  20836283.640          49.450          49.450
 109211876.485 7  84942590.183 6                  20423168.280    20423169.360
  20423167.320          47.850          41.750
 127912235.911 7  99487310.721 6                  23970700.320    23970704.620
  23970703.620          43.100          37.500
 105674124.866 8  82191006.344 7                  19733884.900    19733885.660
  19733884.880          49.350          47.400
 126227844.995 7  98177238.359 6                  23580418.840    23580420.640
  23580419.720          44.850          39.800
 122649476.807 7  95394058.768 7                  22976378.880    22976383.660
  22976382.800          46.700          42.050
 105313903.450 8  81910835.691 7                  19687319.000    19687322.480
  19687321.660          49.050          47.900
 106382143.964 8  82741679.065 7                  19900974.580    19900978.200
  19900977.940          49.150          42.750
 15  1 27  7 10 35.0000000  0 18G11G14G28G04G17G03G22G27G19G32G01R24
                                R02R08R07R22R23R01
 105631539.293 8  82310280.95748                  20101008.520
  20101002.420          49.050          48.050
 121433215.404 7  94623271.63346                  23107972.440
  23107968.360          47.250          40.200
 122861119.711 7  95735908.28846                  23379691.000
  23379685.640          47.150          39.600
 106708011.488 8  83149112.41947                  20305848.660
  20305844.740          49.850          46.950
 134525540.261 6 104825057.288 5                  25599359.380    25599355.260
  25599354.860          40.400          35.100
 113630824.730 8  88543501.507 8  84854192.732 8  21623223.460    21623222.520
  21623221.880          49.750          48.700
 129529734.203 7 100932262.25845                  24648679.460
  24648674.460          44.500          35.650
 124388189.833 7  96925864.891 7  92887280.102 8  23670286.220    23670285.920
  23670285.380          47.700          45.000
 114046235.541 8  88867174.02747                  21702273.320
  21702266.880          49.900          47.300
 105461942.273 8  82178160.35047                  20068723.940
  20068720.080          49.650          47.650
 109489701.802 8  85316671.299 8  81761800.141 8  20835190.440    20835189.560
  20835189.400          49.550          49.450
 109198424.276 8  84932127.343 6                  20420652.660    20420653.740
  20420651.700          48.000          41.950
 127891120.024 7  99470887.238 6                  23966743.260    23966747.540
  23966746.580          43.000          38.000
 105683716.759 8  82198466.708 7                  19735676.140    19735676.880
  19735676.100          49.050          47.350
 126248559.355 7  98193349.513 6                  23584288.480    23584290.300
  23584289.340          44.600          40.200
 122666644.143 7  95407411.121 7                  22979594.900    22979599.720
  22979598.860          46.750          42.450
 105317530.659 8  81913656.844 8                  19687997.020    19688000.560
  19687999.740          48.950          48.000
 106370671.830 8  82732756.286 7                  19898828.520    19898832.080
  19898831.820          48.950          43.000
 15  1 27  7 10 40.0000000  0 18G11G14G28G04G17G03G22G27G19G32G01R24
                                R02R08R07R22R23R01
 105629697.640 8  82308845.90647                  20100658.060
  20100651.960          49.050          47.900
 121437491.976 7  94626604.02546                  23108786.260
  23108782.200          47.650          40.400
 122858614.200 7  95733955.94446                  23379214.220
  23379208.860          47.000          39.750
 106710946.675 8  83151399.57247                  20306407.220
  20306403.320          49.950          46.750
 134508178.441 6 104811528.611 5                  25596055.520    25596051.580
  25596050.980          40.700          35.150
 113618971.367 8  88534265.117 8  84845341.202 8  21620967.860    21620966.900
  21620966.260          49.700          48.700
 129545640.246 7 100944656.56246                  24651706.300
  24651701.280          44.550          37.600
 124405639.580 7  96939462.071 7  92900310.746 8  23673606.800    23673606.540
  23673606.000          47.350          44.900
 114058688.998 8  88876878.01347                  21704643.140
  21704636.680          50.000          47.550
 105462995.537 8  82178981.07047                  20068924.340
  20068920.500          49.850          47.550
 109483957.586 8  85312195.282 8  81757510.633 8  20834097.380    20834096.480
  20834096.320          49.650          49.450
 109184980.753 8  84921671.259 6                  20418138.680    20418139.820
  20418137.720          48.350          41.750
 127870007.582 7  99454466.429 6                  23962786.820    23962791.200
  23962790.200          42.600          37.800
 105693325.339 8  82205940.046 7                  19737470.480    19737471.200
  19737470.420          49.000          47.100
 126269275.717 7  98209462.218 6                  23588158.480    23588160.240
  23588159.320          44.550          40.100
 122683818.535 7  95420768.955 7                  22982812.240    22982817.080
  22982816.280          46.850          42.250
 105321173.494 8  81916490.153 7                  19688677.960    19688681.540
  19688680.740          49.200          47.900
 106359216.951 8  82723846.948 7                  19896685.680    19896689.240
  19896688.940          48.800          42.900
 15  1 27  7 10 45.0000000  0 19G11G14G28G04G17G03G22G27G19G32G01R24
                                R02R08R07R22R15R23R01
 105627867.269 8  82307419.63948                  20100309.740
  20100303.660          49.050          48.100
 121441783.645 7  94629948.18246                  23109602.960
  23109598.960          47.400          39.900
 122856123.271 7  95732014.95646                  23378740.240
  23378734.900          47.250          39.650
 106713890.438 8  83153693.41147                  20306967.420
  20306963.520          50.000          46.650
 134490816.897 6 104798000.125 5                  25592751.760    25592747.620
  25592746.940          40.250          34.650
 113607127.944 8  88525036.473 8  84836497.081 8  21618714.160    21618713.180
  21618712.540          49.800          48.750
 129561547.155 7 100957051.52445                  24654733.280
  24654728.280          44.550          35.950
 124423094.574 7  96953063.330 7  92913345.281 8  23676928.300    23676928.120
  23676927.620          47.300          44.750
 114071152.820 8  88886590.07647                  21707014.960
  21707008.480          50.100          47.600
 105464063.649 8  82179813.36747                  20069127.600
  20069123.760          49.950          47.000
 109478219.912 8  85307724.365 8  81753225.994 8  20833005.560    20833004.640
  20833004.480          49.800          49.400
 109171546.364 8  84911222.307 6                  20415626.420    20415627.580
  20415625.500          48.100          41.950
 127848899.161 7  99438048.764 6                  23958831.140    23958835.540
  23958834.520          43.650          38.100
 105702950.982 8  82213426.655 7                  19739267.980    19739268.720
  19739267.920          49.250          47.200
 126289994.534 7  98225576.830 6                  23592028.880    23592030.760
  23592029.780          44.350          40.300
 122701000.572 7  95434132.733 7                  22986031.040    22986035.840
  22986035.060          47.100          42.150
 130378271.434 5                                  24398516.080
                        34.950
 105324832.531 8  81919336.069 7                  19689361.960    19689365.560
  19689364.760          49.300          47.950
 106347779.832 8  82714951.407 7                  19894546.180    19894549.680
  19894549.380          49.050          43.200
 15  1 27  7 10 50.0000000  0 19G11G14G28G04G17G03G22G27G19G32G01R24
                                R02R08R07R22R15R23R01
 105626048.162 8  82306002.14147                  20099963.580
  20099957.500          49.200          47.350
 121446090.409 7  94633304.08646                  23110422.540
  23110418.560          47.300          40.500
 122853646.935 7  95730085.33246                  23378269.020
  23378263.680          47.500          39.550
 106716842.738 8  83155993.90147                  20307529.260
  20307525.340          50.200          46.750
 134473455.547 6 104784471.786 5                  25589448.080    25589443.740
  25589443.180          40.400          34.250
 113595294.484 8  88515815.595 8  84827660.401 8  21616462.320    21616461.340
  21616460.700          49.950          48.750
 129577454.891 7 100969447.11845                  24657760.460
  24657755.440          45.150          35.550
 124440554.766 7  96966668.631 7  92926383.712 8  23680250.820    23680250.740
  23680250.200          47.350          44.350
 114083626.971 8  88896310.18347                  21709388.700
  21709382.240          50.050          47.400
 105465146.636 8  82180657.25547                  20069333.680
  20069329.840          49.950          47.150
 109472488.784 8  85303258.543 8  81748946.250 8  20831915.000    20831914.040
  20831913.880          49.750          49.400
 109158121.229 8  84900780.526 6                  20413115.880    20413117.040
  20413114.980          48.050          41.900
 127827794.745 7  99421634.195 6                  23954876.240    23954880.600
  23954879.560          43.700          37.750
 105712593.630 8  82220926.486 7                  19741068.640    19741069.400
  19741068.620          49.300          47.350
 126310715.580 7  98241693.173 6                  23595899.720    23595901.640
  23595900.640          44.100          40.400
 122718190.195 7  95447502.426 7                  22989251.260    22989256.080
  22989255.240          47.000          42.550
 130385819.943 5                                  24399928.980
                        32.550
 105328507.783 8  81922194.588 8                  19690049.000    19690052.620
  19690051.840          49.250          48.000
 106336360.419 8  82706069.635 7                  19892409.980    19892413.440
  19892413.160          49.150          43.300
