     2.11           OBSERVATION DATA    M (MIXED)           RINEX VERSION / TYPE
teqc  2011Oct11     IGN-E (SPG)         20150127 15:00:48UTCPGM / RUN BY / DATE
Linux 2.4.21-27.ELsmp|Opteron|gcc -static|Linux x86_64|=+   COMMENT
BIT 2 OF LLI FLAGS DATA COLLECTED UNDER A/S CONDITION       COMMENT
VALE                                                        MARKER NAME
13439M001                                                   MARKER NUMBER
Programas GeodesicosInstituto Geografico Nacional           OBSERVER / AGENCY
1700071             LEICA GR10          3.03/6.214          REC # / TYPE / VERS
10190012            LEIAR25.R3      LEIT                    ANT # / TYPE
  4929534.0457   -29050.6755  4033709.9250                  APPROX POSITION XYZ
        3.0390        0.0000        0.0000                  ANTENNA: DELTA H/E/N
     1     1                                                WAVELENGTH FACT L1/2
     8    L1    L2    L5    C1    C2    P2    S1    S2      # / TYPES OF OBSERV
     5.0000                                                 INTERVAL
Forced Modulo Decimation to 5 seconds                       COMMENT
DefaultJobName                                              COMMENT
DefaultUserDiscription                                      COMMENT
Project creator:                                            COMMENT
 SNR is mapped to RINEX snr flag value [0-9]                COMMENT
  L1 & L2: min(max(int(snr_dBHz/6), 0), 9)                  COMMENT
  2015     1    27    14     0    0.0000000     GPS         TIME OF FIRST OBS
    15                                                      LEAP SECONDS
                                                            END OF HEADER
 15  1 27 14  0  0.0000000  0 20G30G06G07G13G02G28G23G09G10G20G05R14
                                R05R21R13R19R03R20R04R15
 107080285.854 8  83439274.825 8  79962652.191 8  20376666.720    20376666.900
  20376666.100          50.550          49.550
 122832010.194 7  95713242.934 7  91725185.740 8  23374165.040    23374169.220
  23374168.300          46.650          44.650
 111112928.809 8  86581574.706 7                  21144061.760    21144059.220
  21144058.720          50.000          46.800
 121902619.895 7  94989110.03246                  23197280.520
  23197279.660          47.550          37.650
 113446072.352 8  88399536.43147                  21588064.840
  21588060.340          49.650          45.550
 127298381.997 7  99193649.18045                  24224029.660
  24224033.800          44.300          34.100
 134236079.641 7 104599492.08645                  25544285.880
  25544283.480          43.700          31.100
 120699720.683 8  94051750.608 7  90132935.836 8  22968384.800    22968384.940
  22968384.560          48.000          45.950
 108049113.652 8  84194131.88847                  20561056.760
  20561054.180          49.550          46.650
 123230432.571 7  96023662.74846                  23449984.340
  23449983.000          47.250          37.050
 113666714.757 8  88571480.016 7                  21630044.160    21630042.320
  21630041.580          49.750          46.850
 104153736.968 7  81008554.065 7                  19538936.160    19538944.040
  19538943.380          43.100          42.050
 123339768.547 7  95930966.505 6                  23073248.000    23073254.280
  23073253.520          46.200          41.500
 131483119.207 7 102264686.831 5                  24570765.040    24570770.640
  24570769.220          42.150          34.850
 111054774.272 7  86376035.728 7                  20796962.380    20796967.700
  20796966.080          43.050          45.000
 126804679.034 7  98625851.921 6                  23704802.380    23704809.080
  23704807.140          43.400          38.150
 110495031.721 7  85940605.004 7                  20641395.600    20641398.100
  20641396.800          47.950          45.650
 124779279.981 6  97050582.756 6                  23334354.280    23334362.340
  23334359.940          41.700          41.000
 106053947.621 8  82486445.232 7                  19804815.880    19804817.460
  19804816.200          49.000          46.250
 119852095.898 7  93218430.222 6                  22428643.280    22428653.900
  22428652.120          45.600          40.600
 15  1 27 14  0  5.0000000  0 20G30G06G07G13G02G28G23G09G10G20G05R14
                                R05R21R13R19R03R20R04R15
 107078413.049 8  83437815.494 8  79961253.670 8  20376310.340    20376310.500
  20376309.720          50.600          49.600
 122849442.529 7  95726826.531 7  91738203.363 8  23377482.320    23377486.520
  23377485.640          46.850          44.650
 111121288.517 8  86588088.762 7                  21145652.560    21145650.020
  21145649.520          49.950          46.900
 121889868.207 7  94979173.66046                  23194853.940
  23194853.060          47.800          37.300
 113453084.041 8  88405000.07047                  21589399.120
  21589394.640          49.650          45.250
 127283658.215 7  99182176.18345                  24221227.740
  24221231.880          44.550          31.100
 134250016.534 7 104610352.00144                  25546938.020
  25546935.620          43.700          29.700
 120712172.237 8  94061453.098 7  90142234.081 8  22970754.240    22970754.400
  22970754.060          48.050          45.700
 108056505.821 8  84199892.01247                  20562463.420
  20562460.860          49.700          46.450
 123246869.923 7  96036471.05146                  23453112.280
  23453110.940          47.150          37.700
 113655125.160 8  88562449.169 7                  21627838.720    21627836.860
  21627836.140          49.950          46.800
 104144944.794 7  81001715.704 7                  19537286.780    19537294.680
  19537294.000          43.100          42.400
 123322888.130 7  95917837.296 6                  23070090.180    23070096.500
  23070095.760          45.350          41.250
 131474438.390 6 102257935.118 5                  24569142.840    24569148.640
  24569147.040          41.600          35.300
 111067682.714 7  86386075.621 7                  20799379.720    20799385.000
  20799383.400          43.050          45.150
 126820985.282 7  98638534.500 6                  23707850.700    23707857.440
  23707855.520          43.800          38.400
 110503852.007 7  85947465.220 7                  20643043.320    20643045.840
  20643044.520          47.750          45.900
 124783689.964 6  97054012.738 6                  23335178.980    23335187.060
  23335184.720          41.500          41.300
 106046468.840 8  82480628.394 7                  19803419.240    19803420.840
  19803419.580          48.750          46.400
 119830058.893 7  93201290.354 6                  22424519.360    22424529.980
  22424528.160          45.350          40.500
 15  1 27 14  0 10.0000000  0 20G30G06G07G13G02G28G23G09G10G20G05R14
                                R05R21R13R19R03R20R04R15
 107076556.894 8  83436369.144 8  79959867.584 8  20375957.120    20375957.280
  20375956.500          50.600          49.650
 122866879.430 7  95740413.690 7  91751224.386 8  23380800.500    23380804.660
  23380803.860          46.750          44.350
 111129661.281 8  86594612.995 7                  21147245.840    21147243.320
  21147242.800          49.900          46.750
 121877121.582 7  94969241.23846                  23192428.320
  23192427.400          47.800          38.100
 113460111.004 8  88410475.61347                  21590736.300
  21590731.840          49.450          45.600
 127268936.094 7  99170704.46445                  24218426.140
  24218430.200          44.750          32.250
 134263954.512 7 104621212.72045                  25549590.400
  25549587.820          43.150          30.900
 120724627.328 7  94071158.357 7  90151534.917 8  22973124.320    22973124.560
  22973124.200          47.400          45.750
 108063911.083 8  84205662.34047                  20563872.580
  20563870.040          49.650          46.400
 123263313.570 7  96049284.25446                  23456241.400
  23456240.140          47.200          38.050
 113643544.536 8  88553425.304 7                  21625634.980    21625633.160
  21625632.400          49.850          46.650
 104136174.670 7  80994894.494 7                  19535641.520    19535649.460
  19535648.720          43.200          42.350
 123306008.061 7  95904708.377 6                  23066932.420    23066938.760
  23066938.020          45.400          41.350
 131465776.204 6 102251197.881 6                  24567524.060    24567529.960
  24567528.400          41.350          36.050
 111080609.507 7  86396129.791 7                  20801800.440    20801805.780
  20801804.160          43.100          45.450
 126837299.297 7  98651223.157 6                  23710900.400    23710907.200
  23710905.320          43.550          37.550
 110512684.024 7  85954334.557 7                  20644693.220    20644695.740
  20644694.420          47.950          46.050
 124788120.155 6  97057458.450 6                  23336007.460    23336015.580
  23336013.300          41.150          41.200
 106039000.044 8  82474819.326 7                  19802024.500    19802026.060
  19802024.820          48.900          46.400
 119808029.666 7  93184156.527 6                  22420396.840    22420407.420
  22420405.620          45.150          40.650
 15  1 27 14  0 15.0000000  0 20G30G06G07G13G02G28G23G09G10G20G05R14
                                R05R21R13R19R03R20R04R15
 107074715.472 8  83434934.271 8  79958492.500 8  20375606.740    20375606.880
  20375606.100          50.700          49.650
 122884318.943 7  95754002.894 7  91764247.364 8  23384119.140    23384123.340
  23384122.540          46.700          44.300
 111138045.162 8  86601145.890 7                  21148841.240    21148838.700
  21148838.200          49.900          46.800
 121864378.056 7  94959311.22946                  23190003.320
  23190002.320          47.750          37.700
 113467151.251 8  88415961.51047                  21592076.020
  21592071.580          49.450          45.400
 127254213.718 7  99159232.54645                  24215624.560
  24215628.480          44.750          33.600
 134277891.586 7 104632072.77544                  25552242.500
  25552240.140          42.650          28.800
 120737083.885 7  94080864.741 7  90160836.874 8  22975494.640    22975494.960
  22975494.620          47.700          45.650
 108071327.496 8  84211441.36147                  20565283.860
  20565281.340          49.600          46.400
 123279761.565 7  96062100.85046                  23459371.360
  23459370.120          47.050          38.000
 113631970.924 8  88544406.908 7                  21623432.580    21623430.740
  21623430.020          49.600          46.650
 104127424.743 7  80988088.999 7                  19534000.080    19534008.000
  19534007.240          42.950          42.000
 123289126.520 7  95891578.324 6                  23063774.340    23063780.700
  23063780.060          45.700          41.300
 131457130.540 6 102244473.501 5                  24565908.380    24565914.200
  24565912.760          39.900          34.500
 111093552.789 7  86406196.789 7                  20804224.280    20804229.620
  20804227.980          42.800          45.350
 126853619.018 7  98663916.265 6                  23713951.180    23713958.020
  23713956.140          43.100          38.500
 110521525.783 7  85961211.468 7                  20646344.920    20646347.420
  20646346.160          47.250          46.000
 124792568.572 6  97060918.310 6                  23336839.280    23336847.480
  23336845.200          40.800          41.000
 106031539.305 8  82469016.525 7                  19800631.300    19800632.800
  19800631.580          48.600          46.800
 119786006.312 7  93167027.275 6                  22416275.460    22416285.940
  22416284.180          45.050          40.350
 15  1 27 14  0 20.0000000  0 20G30G06G07G13G02G28G23G09G10G20G05R14
                                R05R21R13R19R03R20R04R15
 107072889.253 8  83433511.247 8  79957128.757 8  20375259.240    20375259.380
  20375258.580          50.650          49.600
 122901761.517 7  95767594.486 7  91777272.627 8  23387438.400    23387442.580
  23387441.800          46.650          44.250
 111146440.596 8  86607687.784 7                  21150438.820    21150436.280
  21150435.800          49.900          46.850
 121851638.126 7  94949384.02646                  23187578.980
  23187577.880          47.950          37.500
 113474205.251 8  88421458.13547                  21593418.360
  21593413.900          49.650          45.150
 127239491.547 7  99147760.78645                  24212823.000
  24212826.840          44.500          32.050
 134291828.274 7 104642932.50745                  25554894.600
  25554892.480          44.700          31.150
 120749542.418 7  94090572.670 7  90170140.314 8  22977865.400    22977865.780
  22977865.420          47.900          45.800
 108078755.505 8  84217229.41947                  20566697.340
  20566694.820          49.550          47.100
 123296214.356 7  96074921.19246                  23462502.220
  23462501.040          46.900          38.700
 113620404.822 8  88535394.371 7                  21621231.640    21621229.800
  21621229.040          49.700          46.800
 104118695.472 7  80981299.572 7                  19532362.540    19532370.460
  19532369.620          42.800          42.750
 123272243.885 7  95878447.396 6                  23060616.100    23060622.480
  23060621.840          45.400          41.300
 131448502.000 6 102237762.383 5                  24564295.940    24564301.840
  24564300.380          41.900          35.750
 111106512.868 7  86416276.851 7                  20806651.240    20806656.640
  20806655.000          42.750          45.850
 126869944.999 7  98676614.192 6                  23717003.160    23717009.940
  23717008.160          42.700          39.300
 110530377.709 7  85968096.282 7                  20647998.500    20648001.040
  20647999.780          47.600          46.650
 124797035.681 6  97064392.722 6                  23337674.640    23337682.880
  23337680.600          41.150          41.500
 106024087.186 8  82463220.433 7                  19799239.700    19799241.160
  19799239.960          48.900          47.200
 119763989.279 7  93149902.941 6                  22412155.320    22412165.700
  22412163.980          44.900          41.000
 15  1 27 14  0 25.0000000  0 20G30G06G07G13G02G28G23G09G10G20G05R14
                                R05R21R13R19R03R20R04R15
 107071080.435 8  83432101.781 8  79955778.020 8  20374915.060    20374915.160
  20374914.380          50.550          49.850
 122919209.378 7  95781190.186 7  91790301.833 8  23390758.600    23390762.900
  23390762.100          46.250          44.650
 111154849.830 8  86614240.424 7                  21152039.040    21152036.500
  21152036.020          49.950          47.250
 121838903.987 8  94939461.33946                  23185155.780
  23185154.560          48.100          38.400
 113481275.249 8  88426967.22147                  21594763.760
  21594759.300          49.450          45.600
 127224771.833 7  99136290.93645                  24210021.920
  24210025.620          44.200          33.250
 134305766.719 7 104653793.63845                  25557547.080
  25557545.020          45.550          31.900
 120762005.155 7  94100283.881 7  90179446.880 8  22980236.980    22980237.360
  22980237.000          47.900          45.800
 108086197.366 8  84223028.26847                  20568113.480
  20568110.960          49.450          47.050
 123312674.176 7  96087746.99646                  23465634.400
  23465633.280          47.000          38.050
 113608848.477 8  88526389.432 7                  21619032.560    21619030.700
  21619029.920          49.850          47.300
 104109989.155 7  80974527.992 6                  19530729.240    19530737.100
  19530736.320          42.900          41.200
 123255362.407 7  95865317.366 6                  23057458.100    23057464.400
  23057463.760          45.750          39.650
 131439892.788 6 102231066.323 5                  24562687.140    24562693.160
  24562691.580          41.950          34.950
 111119492.019 7  86426371.738 7                  20809081.820    20809087.160
  20809085.580          42.500          44.300
 126886279.347 7  98689318.654 6                  23720056.740    23720063.560
  23720061.720          43.300          37.550
 110539242.072 7  85974990.781 7                  20649654.440    20649656.980
  20649655.720          47.600          44.900
 124801523.782 6  97067883.471 6                  23338513.900    23338522.220
  23338519.960          40.500          40.150
 106016645.909 8  82457432.781 7                  19797850.120    19797851.560
  19797850.380          48.650          46.000
 119741980.930 7  93132785.363 6                  22408036.720    22408047.120
  22408045.380          45.400          39.100
 15  1 27 14  0 30.0000000  0 20G30G06G07G13G02G28G23G09G10G20G05R14
                                R05R21R13R19R03R20R04R15
 107069287.533 8  83430704.712 8  79954439.171 8  20374573.880    20374573.960
  20374573.200          50.650          49.850
 122936660.993 7  95794788.811 7  91803333.860 8  23394079.520    23394083.880
  23394083.060          46.200          44.600
 111163271.342 8  86620802.629 7                  21153641.600    21153639.060
  21153638.580          50.050          47.250
 121826174.155 8  94929541.99546                  23182733.400
  23182732.120          48.250          38.200
 113488359.752 8  88432487.59047                  21596111.900
  21596107.460          49.650          45.400
 127210053.117 7  99124821.90145                  24207220.920
  24207224.520          44.200          34.500
 134319705.483 7 104664655.00645                  25560199.580
  25560197.560          45.500          30.050
 120774470.614 8  94109997.210 7  90188755.486 8  22982609.080    22982609.480
  22982609.080          48.250          45.800
 108093651.536 8  84228836.70447                  20569531.940
  20569529.440          49.550          46.600
 123329139.526 7  96100577.11146                  23468767.660
  23468766.580          47.050          38.300
 113597300.434 8  88517390.957 7                  21616835.040    21616833.200
  21616832.380          49.750          47.250
 104101304.319 7  80967773.116 6                  19529099.960    19529107.880
  19529107.080          42.900          41.850
 123238480.636 7  95852187.097 6                  23054300.040    23054306.280
  23054305.700          45.750          40.400
 131431301.492 6 102224384.173 5                  24561081.600    24561087.580
  24561086.060          41.650          35.900
 111132488.768 7  86436480.314 7                  20811515.680    20811521.060
  20811519.460          42.000          44.700
 126902620.695 7  98702028.566 6                  23723111.600    23723118.420
  23723116.520          43.000          37.350
 110548117.401 7  85981893.812 7                  20651312.420    20651314.960
  20651313.720          47.400          45.050
 124806031.308 6  97071389.297 6                  23339356.760    23339365.240
  23339362.960          39.800          40.600
 106009213.912 8  82451652.331 7                  19796462.300    19796463.700
  19796462.540          48.650          46.250
 119719979.768 7  93115673.358 6                  22403919.500    22403929.840
  22403928.100          45.450          39.750
 15  1 27 14  0 35.0000000  0 20G30G06G07G13G02G28G23G09G10G20G05R14
                                R05R21R13R19R03R20R04R15
 107067508.485 8  83429318.446 8  79953110.661 8  20374235.340    20374235.420
  20374234.640          50.650          49.900
 122954114.311 7  95808388.764 7  91816367.123 8  23397400.800    23397405.160
  23397404.320          45.950          44.550
 111171703.034 8  86627372.774 7                  21155246.100    21155243.560
  21155243.100          50.050          47.350
 121813446.580 8  94919624.41146                  23180311.440
  23180310.080          48.250          37.350
 113495456.659 8  88438017.63747                  21597462.380
  21597457.960          49.700          45.550
 127195333.271 7  99113351.92645                  24204419.720
  24204423.220          44.350          33.750
 134333642.444 7 104675514.96145                  25562851.740
  25562849.820          44.800          30.750
 120786936.683 8  94119711.011 7  90198064.550 8  22984981.360    22984981.660
  22984981.300          48.250          46.000
 108101115.993 8  84234653.15647                  20570952.360
  20570949.900          49.600          46.850
 123345608.324 7  96113409.91646                  23471901.580
  23471900.540          47.150          38.600
 113585758.589 8  88508397.318 7                  21614638.720    21614636.840
  21614636.020          49.800          47.150
 104092638.818 7  80961033.282 6                  19527474.400    19527482.260
  19527481.460          42.700          41.750
 123221596.411 7  95839054.956 6                  23051141.520    23051147.680
  23051147.220          44.950          40.400
 131422725.905 6 102217714.251 6                  24559479.000    24559485.160
  24559483.520          41.500          36.800
 111145500.786 7  86446600.762 7                  20813952.440    20813957.800
  20813956.220          42.050          44.800
 126918966.739 7  98714742.143 6                  23726167.360    23726174.120
  23726172.280          43.050          37.600
 110557001.549 7  85988803.689 7                  20652972.060    20652974.560
  20652973.360          47.650          45.350
 124810556.165 6  97074908.605 6                  23340202.900    23340211.360
  23340209.200          40.250          40.400
 106001789.105 8  82445877.491 7                  19795075.800    19795077.180
  19795076.060          48.500          46.400
 119697983.714 7  93098565.340 6                  22399803.200    22399813.460
  22399811.760          45.750          39.450
 15  1 27 14  0 40.0000000  0 20G30G06G07G13G02G28G23G09G10G20G05R14
                                R05R21R13R19R03R20R04R15
 107065744.115 8  83427943.614 8  79951793.114 8  20373899.600    20373899.640
  20373898.900          50.650          49.950
 122971570.123 7  95821990.661 7  91829402.272 8  23400722.540    23400726.920
  23400726.120          45.800          44.750
 111180145.745 8  86633951.512 7                  21156852.700    21156850.160
  21156849.720          49.850          47.500
 121800722.095 8  94909709.24046                  23177890.060
  23177888.660          48.000          37.800
 113502566.772 8  88443557.97947                  21598815.380
  21598810.980          49.300          46.000
 127180613.229 7  99101881.82445                  24201618.520
  24201622.040          44.000          35.800
 134347578.517 7 104686374.24944                  25565503.740
  25565501.880          43.150          29.300
 120799404.208 8  94129425.965 7  90207374.706 8  22987353.920    22987354.160
  22987353.800          48.450          45.850
 108108591.534 8  84240478.25047                  20572374.880
  20572372.440          49.350          46.850
 123362081.389 7  96126246.05246                  23475036.320
  23475035.280          47.100          38.850
 113574223.789 8  88499409.171 7                  21612443.720    21612441.820
  21612441.000          49.950          47.200
 104083993.530 7  80954309.173 6                  19525852.560    19525860.400
  19525859.640          42.750          41.850
 123204710.611 7  95825921.591 6                  23047982.700    23047988.840
  23047988.380          45.550          40.250
 131414166.903 7 102211057.291 6                  24557879.560    24557885.740
  24557884.100          42.050          36.000
 111158529.228 6  86456733.992 7                  20816392.280    20816397.580
  20816396.040          41.950          45.050
 126935318.528 7  98727460.156 6                  23729224.160    23729230.920
  23729229.100          43.650          37.650
 110565895.330 7  85995721.065 7                  20654633.480    20654635.980
  20654634.820          47.500          45.800
 124815099.173 6  97078442.061 6                  23341052.460    23341061.000
  23341058.780          40.300          40.100
 105994372.385 8  82440108.938 7                  19793690.760    19793692.160
  19793691.060          48.500          46.600
 119675993.566 7  93081461.913 6                  22395688.000    22395698.280
  22395696.580          45.700          39.400
 15  1 27 14  0 45.0000000  0 20G30G06G07G13G02G28G23G09G10G20G05R14
                                R05R21R13R19R03R20R04R15
 107063995.959 8  83426581.419 8  79950487.679 8  20373566.960    20373566.980
  20373566.220          50.600          49.900
 122989029.978 7  95835595.704 7  91842440.422 8  23404045.000    23404049.480
  23404048.660          46.050          44.700
 111188601.023 8  86640540.028 7                  21158461.660    21158459.140
  21158458.760          49.650          47.450
 121788002.248 8  94899797.68546                  23175469.560
  23175468.080          48.150          37.550
 113509691.659 8  88449109.82147                  21600171.200
  21600166.800          49.500          45.950
 127165894.507 7  99090412.77245                  24198817.600
  24198821.040          45.000          34.600
 134361515.141 7 104697233.98344                  25568155.780
  25568153.860          42.600          28.250
 120811874.748 8  94139143.268 7  90216687.106 8  22989727.060    22989727.220
  22989726.900          48.500          45.950
 108116079.707 8  84246313.18447                  20573799.840
  20573797.380          49.400          47.050
 123378560.271 7  96139086.70446                  23478172.140
  23478171.140          47.100          37.650
 113562697.575 8  88490427.699 7                  21610250.360    21610248.440
  21610247.620          50.000          47.350
 104075370.108 7  80947602.071 7                  19524234.840    19524242.700
  19524241.900          42.800          42.000
 123187824.870 7  95812788.215 6                  23044823.860    23044829.960
  23044829.420          45.800          40.500
 131405626.163 7 102204414.445 6                  24556283.500    24556289.580
  24556288.040          43.100          36.250
 111171575.336 7  86466880.955 7                  20818835.380    20818840.720
  20818839.180          42.450          45.450
 126951677.461 7  98740183.727 6                  23732282.320    23732289.120
  23732287.260          43.450          38.250
 110574800.422 7  86002647.236 7                  20656297.020    20656299.520
  20656298.400          47.800          45.900
 124819661.860 6  97081990.815 6                  23341905.660    23341914.220
  23341912.020          41.200          40.550
 105986965.286 8  82434347.861 7                  19792307.560    19792308.940
  19792307.860          48.850          46.800
 119654011.125 7  93064364.474 6                  22391574.240    22391584.540
  22391582.820          45.850          40.100
 15  1 27 14  0 50.0000000  0 20G30G06G07G13G02G28G23G09G10G20G05R14
                                R05R21R13R19R03R20R04R15
 107062264.850 8  83425232.505 8  79949194.968 8  20373237.540    20373237.560
  20373236.800          50.650          49.450
 123006494.632 7  95849204.492 7  91855482.183 8  23407368.380    23407372.920
  23407372.100          46.000          43.950
 111197069.668 8  86647138.970 7                  21160073.180    21160070.700
  21160070.300          49.650          46.950
 121775287.902 7  94889890.41546                  23173050.100
  23173048.600          47.900          36.700
 113516832.099 8  88454673.79847                  21601529.980
  21601525.600          49.650          44.900
 127151177.946 7  99078945.38445                  24196017.160
  24196020.700          45.400          33.700
 134375453.203 7 104708094.83745                  25570808.120
  25570806.160          42.850          30.900
 120824349.099 8  94148863.527 7  90226002.350 8  22992100.940    22992101.020
  22992100.680          48.350          45.150
 108123581.333 8  84252158.59947                  20575227.340
  20575224.880          49.400          46.250
 123395045.764 7  96151932.52746                  23481309.220
  23481308.280          46.950          37.400
 113551180.766 8  88481453.568 7                  21608058.800    21608056.820
  21608056.020          49.750          46.650
 104066769.293 7  80940912.553 7                  19522621.340    19522629.220
  19522628.400          42.750          43.350
 123170939.873 7  95799655.466 7                  23041665.160    23041671.280
  23041670.700          45.400          42.100
 131397104.408 7 102197786.439 6                  24554691.020    24554697.040
  24554695.620          42.200          37.150
 111184640.129 7  86477042.452 7                  20821282.020    20821287.320
  20821285.820          42.700          47.250
 126968044.349 7  98752913.493 6                  23735341.940    23735348.700
  23735346.880          42.950          40.150
 110583717.494 7  86009582.740 7                  20657962.780    20657965.340
  20657964.220          47.600          47.350
 124824245.146 6  97085555.576 6                  23342762.720    23342771.300
  23342769.120          40.950          41.900
 105979568.646 8  82428594.928 7                  19790926.260    19790927.700
  19790926.620          48.700          47.550
 119632037.155 7  93047273.631 7                  22387462.080    22387472.380
  22387470.640          45.200          42.350
 15  1 27 14  0 55.0000000  0 20G30G06G07G13G02G28G23G09G10G20G05R14
                                R05R21R13R19R03R20R04R15
 107060547.368 8  83423894.209 8  79947912.438 8  20372910.720    20372910.740
  20372909.980          50.800          49.150
 123023960.719 7  95862814.408 7  91868525.006 8  23410692.060    23410696.600
  23410695.820          45.850          43.750
 111205548.279 8  86653745.678 7                  21161686.600    21161684.100
  21161683.760          49.800          46.450
 121762575.569 7  94879984.72346                  23170631.020
  23170629.480          47.850          36.550
 113523984.704 8  88460247.25447                  21602891.080
  21602886.700          49.700          44.800
 127136460.155 7  99067477.02845                  24193216.500
  24193220.000          44.900          34.200
 134389389.289 7 104718954.08245                  25573460.100
  25573458.200          43.000          32.050
 120836823.862 8  94158584.109 7  90235317.914 8  22994474.860    22994474.900
  22994474.560          48.500          44.700
 108131092.991 8  84258011.83947                  20576656.740
  20576654.280          49.650          45.950
 123411534.462 7  96164780.84346                  23484446.920
  23484445.980          46.900          36.100
 113539669.978 8  88472484.142 7                  21605868.340    21605866.400
  21605865.580          49.750          46.100
 104058187.546 7  80934237.862 7                  19521011.420    19521019.320
  19521018.500          43.200          43.300
 123154052.264 7  95786520.694 7                  23038505.960    23038512.140
  23038511.520          45.600          42.400
 131388598.231 6 102191170.555 6                  24553101.440    24553107.560
  24553106.120          40.850          36.100
 111197719.986 7  86487215.674 7                  20823731.480    20823736.740
  20823735.240          43.150          46.550
 126984415.712 7  98765646.742 6                  23738402.440    23738409.280
  23738407.400          44.100          39.700
 110592643.294 7  86016525.025 7                  20659630.180    20659632.780
  20659631.660          47.650          47.050
 124828845.506 6  97089133.638 6                  23343623.020    23343631.520
  23343629.400          41.150          41.800
 105972179.124 8  82422847.535 7                  19789546.300    19789547.760
  19789546.700          48.700          47.800
 119610068.106 7  93030186.631 7                  22383350.840    22383361.060
  22383359.420          45.600          42.150
 15  1 27 14  1  0.0000000  0 20G30G06G07G13G02G28G23G09G10G20G05R14
                                R05R21R13R19R03R20R04R15
 107058845.675 8  83422568.216 8  79946641.699 8  20372586.920    20372586.920
  20372586.160          50.700          49.350
 123041430.391 7  95876427.096 7  91881570.493 8  23414016.420    23414021.000
  23414020.280          45.900          44.350
 111214039.042 8  86660361.845 7                  21163302.340    21163299.860
  21163299.500          49.850          46.650
 121749867.467 8  94870082.31246                  23168212.760
  23168211.160          48.000          37.550
 113531151.647 8  88465831.87147                  21604254.920
  21604250.540          49.700          44.400
 127121743.300 7  99056009.43745                  24190416.000
  24190419.380          44.550          35.500
 134403325.567 7 104729813.50144                  25576112.060
  25576110.240          42.150          24.150
 120849301.216 8  94168306.712 7  90244635.418 8  22996849.300    22996849.260
  22996848.940          48.600          45.000
 108138616.851 8  84263874.57947                  20578088.480
  20578086.040          49.750          46.250
 123428028.521 7  96177633.32546                  23487585.640
  23487584.700          47.250          37.200
 113528167.405 8  88463521.102 7                  21603679.440    21603677.540
  21603676.700          49.900          46.450
 104049627.115 7  80927579.754 7                  19519405.500    19519413.380
  19519412.580          43.200          43.350
 123137164.310 7  95773385.627 7                  23035346.720    23035352.820
  23035352.240          45.750          42.150
 131380109.836 6 102184568.480 6                  24551515.220    24551521.400
  24551519.860          40.950          36.600
 111210817.230 7  86497402.415 7                  20826184.180    20826189.440
  20826187.900          43.050          46.350
 127000793.761 7  98778385.202 6                  23741464.160    23741471.000
  23741469.100          44.050          38.750
 110601579.926 7  86023475.725 7                  20661299.600    20661302.260
  20661301.140          47.650          46.900
 124833465.058 6  97092726.615 6                  23344486.940    23344495.300
  23344493.200          41.550          41.400
 105964798.886 8  82417107.345 7                  19788168.040    19788169.560
  19788168.500          48.450          47.700
 119588106.153 7  93013105.145 6                  22379240.920    22379251.160
  22379249.540          45.750          41.900
 15  1 27 14  1  5.0000000  0 20G30G06G07G13G02G28G23G09G10G20G05R14
                                R05R21R13R19R03R20R04R15
 107057161.047 8  83421255.527 8  79945383.698 8  20372266.360    20372266.320
  20372265.580          50.600          49.450
 123058904.871 7  95890043.541 7  91894619.582 8  23417341.700    23417346.300
  23417345.640          45.750          44.200
 111222543.145 8  86666988.418 7                  21164920.620    21164918.160
  21164917.780          49.800          46.650
 121737164.817 7  94860184.15746                  23165795.560
  23165793.900          47.850          37.700
 113538334.159 8  88471428.62347                  21605621.720
  21605617.340          49.700          45.150
 127107028.627 7  99044543.49545                  24187615.860
  24187619.220          43.700          33.550
 134417263.316 7 104740674.04445                  25578764.300
  25578762.420          42.700          33.000
 120861782.385 8  94178032.294 7  90253955.754 8  22999224.460    22999224.360
  22999224.020          48.400          45.350
 108146154.133 8  84269747.78447                  20579522.760
  20579520.360          49.600          46.300
 123444529.204 7  96190490.99046                  23490725.640
  23490724.760          46.900          38.150
 113516674.319 8  88454565.452 7                  21601492.360    21601490.440
  21601489.640          49.850          46.650
 104041089.390 7  80920939.307 7                  19517803.800    19517811.680
  19517810.940          43.350          43.300
 123120277.177 7  95760251.201 7                  23032187.640    23032193.700
  23032193.100          45.850          42.300
 131371640.521 6 102177981.197 6                  24549932.560    24549938.680
  24549937.100          41.550          37.000
 111223933.137 7  86507603.680 7                  20828640.340    20828645.660
  20828644.080          42.950          46.050
 127017179.794 7  98791129.857 6                  23744527.360    23744534.260
  23744532.340          43.950          38.400
 110610528.659 7  86030435.840 7                  20662971.280    20662974.000
  20662972.860          47.750          46.750
 124838105.197 6  97096335.606 6                  23345354.640    23345363.000
  23345360.860          41.050          41.700
 105957429.108 8  82411375.294 7                  19786791.760    19786793.320
  19786792.240          48.600          47.800
 119566152.646 7  92996030.218 6                  22375132.580    22375142.860
  22375141.240          45.700          41.950
 15  1 27 14  1 10.0000000  0 20G30G06G07G13G02G28G23G09G10G20G05R14
                                R05R21R13R19R03R20R04R15
 107055492.295 8  83419955.203 8  79944137.559 8  20371948.820    20371948.780
  20371948.040          50.550          49.450
 123076382.962 7  95903662.804 7  91907671.375 8  23420667.700    23420672.340
  23420671.640          45.700          44.350
 111231059.442 8  86673624.492 7                  21166541.220    21166538.780
  21166538.380          49.950          46.700
 121724466.481 7  94850289.36046                  23163379.180
  23163377.460          47.900          38.350
 113545531.038 8  88477036.57047                  21606991.260
  21606986.880          49.600          44.950
 127092314.970 7  99033078.37345                  24184815.840
  24184819.160          43.400          33.350
 134431201.352 7 104751534.82445                  25581416.580
  25581414.820          43.850          31.750
 120874266.226 8  94187759.955 7  90263278.099 8  23001600.080    23001599.960
  23001599.640          48.000          45.300
 108153703.719 8  84275630.57847                  20580959.380
  20580956.980          49.550          46.000
 123461035.320 7  96203352.87246                  23493866.660
  23493865.780          47.050          37.800
 113505189.533 8  88445616.277 7                  21599306.860    21599304.920
  21599304.160          49.800          46.700
 104032573.230 7  80914315.627 7                  19516206.160    19516214.100
  19516213.320          42.850          43.000
 123103389.755 7  95747116.558 7                  23029028.520    23029034.500
  23029033.960          45.950          42.250
 131363189.122 6 102171407.887 6                  24548353.220    24548359.440
  24548357.680          41.250          36.000
 111237066.289 7  86517818.358 7                  20831099.720    20831105.080
  20831103.480          42.350          46.000
 127033572.482 7  98803879.685 6                  23747591.860    23747598.700
  23747596.780          43.800          38.050
 110619488.313 7  86037404.447 7                  20664645.040    20664647.760
  20664646.620          47.550          46.750
 124842764.625 6  97099959.599 6                  23346225.960    23346234.260
  23346232.180          40.850          41.100
 105950068.742 8  82405650.569 7                  19785417.240    19785418.820
  19785417.740          48.100          47.550
 119544206.369 7  92978960.931 6                  22371025.600    22371035.940
  22371034.280          45.700          41.700
 15  1 27 14  1 15.0000000  0 20G30G06G07G13G02G28G23G09G10G20G05R14
                                R05R21R13R19R03R20R04R15
 107053837.098 8  83418665.439 8  79942901.536 8  20371633.860    20371633.800
  20371633.060          51.150          49.450
 123093862.371 7  95917283.086 7  91920724.130 8  23423993.960    23423998.580
  23423997.920          47.000          44.650
 111239585.564 8  86680268.213 7                  21168163.720    21168161.260
  21168160.860          50.700          46.750
 121711770.113 8  94840396.08646                  23160963.160
  23160961.420          48.850          37.250
 113552739.969 8  88482653.90747                  21608363.100
  21608358.720          50.200          44.350
 127077600.071 7  99021612.27845                  24182015.620
  24182018.820          44.650          32.100
 134445137.296 7 104762394.01244                  25584068.460
  25584066.720          44.900          28.550
 120886750.391 8  94197487.852 7  90272600.666 8  23003975.740    23003975.620
  23003975.320          48.900          45.250
 108161263.251 8  84281521.11247                  20582397.920
  20582395.540          50.250          45.700
 123477544.542 7  96216217.17246                  23497008.240
  23497007.360          47.950          36.850
 113493710.776 8  88436671.801 7                  21597122.500    21597120.600
  21597119.820          50.700          46.600
 104024076.177 6  80907706.802 7                  19514612.180    19514620.060
  19514619.280          41.400          42.850
 123086499.663 7  95733979.837 6                  23025868.860    23025874.900
  23025874.260          44.550          41.700
 131354753.278 6 102164846.673 6                  24546776.760    24546782.980
  24546781.200          40.050          36.300
 111250214.401 6  86528044.659 7                  20833561.960    20833567.300
  20833565.700          41.000          45.900
 127049969.393 7  98816632.809 6                  23750657.120    23750663.980
  23750662.060          42.600          38.400
 110628456.643 7  86044379.798 7                  20666320.380    20666323.140
  20666321.980          46.700          46.700
 124847441.103 6  97103596.860 6                  23347100.460    23347108.740
  23347106.680          39.050          41.100
 105942715.438 7  82399931.339 7                  19784044.060    19784045.680
  19784044.580          47.100          47.650
 119522265.099 7  92961895.530 6                  22366919.540    22366929.960
  22366928.260          44.600          41.600
 15  1 27 14  1 20.0000000  0 20G30G06G07G13G02G28G23G09G10G20G05R14
                                R05R21R13R19R03R20R04R15
 107052198.932 8  83417388.951 8  79941678.234 8  20371322.140    20371322.060
  20371321.320          51.100          49.550
 123111346.520 7  95930907.068 7  91933780.434 8  23427321.120    23427325.760
  23427325.080          46.800          44.700
 111248124.975 8  86686922.298 7                  21169788.720    21169786.280
  21169785.860          50.400          46.950
 121699079.199 8  94830507.08846                  23158548.160
  23158546.420          48.450          37.050
 113559964.402 8  88488283.32847                  21609737.860
  21609733.520          50.100          44.650
 127062887.425 7  99010147.93145                  24179215.840
  24179219.060          45.000          31.850
 134459074.654 7 104773254.31944                  25586720.560
  25586718.920          43.400          28.150
 120899238.370 8  94207218.727 7  90281926.084 8  23006352.100    23006352.020
  23006351.720          48.550          45.000
 108168836.259 8  84287422.15147                  20583839.000
  20583836.640          50.050          46.000
 123494060.338 7  96229086.60346                  23500151.120
  23500150.220          47.700          36.950
 113482241.521 8  88427734.728 7                  21594940.000    21594938.040
  21594937.280          50.650          46.600
 104015601.747 6  80901115.572 7                  19513022.380    19513030.280
  19513029.460          41.550          42.900
 123069610.419 7  95720843.762 7                  23022709.400    23022715.440
  23022714.740          44.650          42.400
 131346336.517 6 102158300.291 6                  24545203.860    24545210.140
  24545208.360          40.250          37.300
 111263381.075 6  86538285.404 7                  20836027.660    20836033.060
  20836031.400          41.600          45.800
 127066374.306 7  98829392.136 6                  23753723.900    23753730.720
  23753728.860          42.400          38.200
 110637436.957 7  86051364.478 7                  20667997.980    20668000.740
  20667999.600          46.750          46.450
 124852137.993 6  97107249.992 6                  23347978.800    23347987.060
  23347985.020          38.400          41.400
 105935372.660 7  82394220.292 7                  19782672.820    19782674.480
  19782673.380          47.250          47.650
 119500332.310 7  92944836.725 6                  22362815.100    22362825.520
  22362823.820          44.650          41.400
 15  1 27 14  1 25.0000000  0 20G30G06G07G13G02G28G23G09G10G20G05R14
                                R05R21R13R19R03R20R04R15
 107050575.770 8  83416124.153 8  79940466.140 8  20371013.260    20371013.160
  20371012.440          51.100          49.600
 123128833.389 7  95944533.158 7  91946838.777 8  23430648.760    23430653.440
  23430652.760          46.550          44.650
 111256675.685 8  86693585.179 7                  21171415.900    21171413.420
  21171413.020          50.350          47.100
 121686391.728 8  94820620.76146                  23156133.800
  23156132.100          48.550          36.850
 113567202.315 8  88493923.24747                  21611115.200
  21611110.880          50.100          44.950
 127048175.005 7  98998683.75345                  24176416.120
  24176419.420          44.950          32.750
 134473011.442 7 104784114.19744                  25589372.560
  25589370.940          42.750          26.600
 120911728.121 8  94216950.988 7  90291252.832 8  23008728.780    23008728.740
  23008728.440          48.100          45.000
 108176420.646 8  84293332.05347                  20585282.260
  20585279.920          50.050          46.150
 123510580.638 7  96241959.54346                  23503294.840
  23503293.980          47.350          36.750
 113470779.729 8  88418803.455 7                  21592758.900    21592756.940
  21592756.140          50.550          46.700
 104007147.954 6  80894540.398 7                  19511436.460    19511444.360
  19511443.540          41.950          42.700
 123052720.134 7  95707706.897 7                  23019549.760    23019555.840
  23019555.120          45.400          42.750
 131337936.770 6 102151767.142 6                  24543634.120    24543640.400
  24543638.680          40.100          36.750
 111276564.142 6  86548538.892 7                  20838496.420    20838501.860
  20838500.160          41.950          45.700
 127082784.970 7  98842155.942 6                  23756791.700    23756798.560
  23756796.740          42.050          38.250
 110646427.312 7  86058356.973 7                  20669677.440    20669680.200
  20669679.080          46.800          46.350
 124856853.355 6  97110917.469 6                  23348860.600    23348868.920
  23348866.800          39.850          41.200
 105928038.308 7  82388515.790 7                  19781303.180    19781304.820
  19781303.740          47.700          47.300
 119478405.952 7  92927782.908 6                  22358711.920    22358722.280
  22358720.560          44.700          41.600
 15  1 27 14  1 30.0000000  0 20G30G06G07G13G02G28G23G09G10G20G05R14
                                R05R21R13R19R03R20R04R15
 107048969.847 8  83414872.789 8  79939266.910 8  20370707.680    20370707.560
  20370706.860          51.000          50.250
 123146325.200 7  95958163.114 7  91959900.799 8  23433977.320    23433982.080
  23433981.380          46.200          45.300
 111265240.016 8  86700258.683 7                  21173045.660    21173043.180
  21173042.760          50.300          47.800
 121673709.940 8  94810738.86846                  23153720.540
  23153718.840          48.300          37.350
 113574455.948 8  88499575.42347                  21612495.540
  21612491.220          50.100          45.950
 127033465.075 7  98987221.55245                  24173616.900
  24173620.180          45.300          33.000
 134486949.895 6 104794975.35044                  25592024.900
  25592023.160          41.250          26.100
 120924221.889 8  94226686.371 7  90300582.572 8  23011106.220    23011106.240
  23011105.900          48.350          46.000
 108184018.700 8  84299252.61047                  20586728.140
  20586725.780          50.050          46.550
 123527107.750 7  96254837.78246                  23506439.840
  23506439.000          47.350          38.600
 113459327.620 8  88409879.741 7                  21590579.660    21590577.640
  21590576.880          50.300          47.700
 103998716.995 7  80887983.000 7                  19509854.780    19509862.720
  19509861.900          42.000          43.600
 123035830.908 7  95694570.838 7                  23016390.320    23016396.320
  23016395.740          44.600          43.350
 131329556.384 6 102145249.055 6                  24542068.060    24542074.240
  24542072.560          40.800          36.400
 111289765.894 7  86558806.923 7                  20840968.680    20840974.080
  20840972.440          42.100          46.550
 127099203.586 6  98854925.971 6                  23759861.020    23759867.940
  23759866.120          41.750          38.700
 110655430.039 7  86065359.083 7                  20671359.200    20671362.000
  20671360.880          47.000          46.600
 124861589.396 6  97114601.058 7                  23349746.220    23349754.660
  23349752.500          40.150          42.350
 105920714.814 7  82382819.757 8                  19779935.540    19779937.200
  19779936.160          47.350          48.250
 119456488.531 7  92910736.062 6                  22354610.360    22354620.720
  22354619.000          44.200          41.900
 15  1 27 14  1 35.0000000  0 20G30G06G07G13G02G28G23G09G10G20G05R14
                                R05R21R13R19R03R20R04R15
 107047377.359 8  83413631.891 8  79938077.730 8  20370404.640    20370404.500
  20370403.800          51.000          49.450
 123163818.128 7  95971793.935 7  91972963.676 8  23437306.120    23437310.880
  23437310.140          46.450          44.100
 111273813.998 8  86706939.710 7                  21174677.260    21174674.760
  21174674.340          50.150          46.650
 121661029.989 8  94800858.39946                  23151307.600
  23151305.940          48.450          37.100
 113581721.505 8  88505236.88647                  21613878.160
  21613873.820          50.000          45.000
 127018753.816 7  98975758.28945                  24170817.460
  24170820.720          45.250          33.850
 134500886.212 6 104805834.75645                  25594676.880
  25594675.380          40.900          30.300
 120936715.862 8  94236421.928 7  90309912.489 8  23013483.740    23013483.760
  23013483.420          48.150          45.150
 108191626.578 8  84305180.82747                  20588175.880
  20588173.520          50.000          46.000
 123543637.859 7  96267718.36246                  23509585.420
  23509584.600          47.500          36.700
 113447881.396 8  88400960.616 7                  21588401.540    21588399.480
  21588398.720          50.450          46.700
 103990305.151 6  80881440.465 7                  19508276.720    19508284.720
  19508283.860          41.900          42.900
 123018938.929 7  95681432.647 7                  23013230.380    23013236.300
  23013235.740          44.850          42.100
 131321191.454 6 102138742.997 5                  24540504.820    24540510.960
  24540509.340          40.550          35.050
 111302982.424 7  86569086.449 7                  20843443.800    20843449.100
  20843447.480          42.300          45.950
 127115626.428 6  98867699.284 6                  23762931.060    23762938.060
  23762936.220          41.700          37.800
 110664441.122 7  86072367.693 7                  20673042.560    20673045.340
  20673044.240          47.300          46.600
 124866342.249 6  97118297.688 6                  23350635.120    23350643.520
  23350641.320          39.400          41.250
 105913398.237 7  82377129.093 7                  19778569.200    19778570.880
  19778569.820          47.850          47.550
 119434576.066 7  92893693.067 6                  22350509.720    22350520.100
  22350518.340          44.550          41.500
 15  1 27 14  1 40.0000000  0 20G30G06G07G13G02G28G23G09G10G20G05R14
                                R05R21R13R19R03R20R04R15
 107045800.950 8  83412403.523 8  79936900.534 8  20370104.680    20370104.500
  20370103.800          50.950          49.650
 123181314.803 7  95985427.668 7  91986029.318 8  23440635.640    23440640.420
  23440639.660          46.100          44.450
 111282400.251 8  86713630.290 7                  21176311.180    21176308.660
  21176308.240          49.950          46.600
 121648354.541 8  94790981.43346                  23148895.540
  23148893.840          48.450          37.600
 113589001.574 8  88510909.65647                  21615263.540
  21615259.180          49.750          44.850
 127004043.874 7  98964296.06345                  24168018.260
  24168021.580          45.350          34.900
 134514822.955 6 104816694.63844                  25597328.900
  25597327.560          40.300          26.650
 120949212.686 7  94246159.699 7  90319244.499 8  23015861.760    23015861.820
  23015861.440          47.850          45.050
 108199246.941 8  84311118.76447                  20589626.020
  20589623.640          49.900          46.050
 123560173.529 7  96280603.27546                  23512732.060
  23512731.260          47.300          36.800
 113436443.738 8  88392048.155 7                  21586225.040    21586222.960
  21586222.180          50.300          46.700
 103981915.040 6  80874914.819 7                  19506702.760    19506710.760
  19506709.880          41.900          42.700
 123002046.849 7  95668294.364 7                  23010070.360    23010076.300
  23010075.740          44.700          42.550
 131312844.676 6 102132251.091 5                  24538945.040    24538951.320
  24538949.540          40.600          35.050
 111316216.664 7  86579379.740 7                  20845922.180    20845927.440
  20845925.820          42.350          46.050
 127132056.007 7  98880477.796 6                  23766002.400    23766009.400
  23766007.560          42.350          37.900
 110673463.433 7  86079385.031 7                  20674728.020    20674730.820
  20674729.700          47.450          46.450
 124871114.505 6  97122009.441 6                  23351527.540    23351535.980
  23351533.780          40.100          41.250
 105906091.338 7  82371445.940 7                  19777204.680    19777206.320
  19777205.280          47.900          47.200
 119412671.243 7  92876655.999 6                  22346410.480    22346420.900
  22346419.100          44.400          41.100
 15  1 27 14  1 45.0000000  0 20G30G06G07G13G02G28G23G09G10G20G05R14
                                R05R21R13R19R03R20R04R15
 107044240.292 8  83411187.429 8  79935735.113 8  20369807.700    20369807.520
  20369806.820          50.900          49.700
 123198814.888 7  95999064.066 7  91999097.522 8  23443965.840    23443970.620
  23443969.860          46.150          44.550
 111290998.492 8  86720330.217 7                  21177947.360    21177944.840
  21177944.420          49.850          46.800
 121635683.287 8  94781107.75546                  23146484.300
  23146482.600          48.400          37.500
 113596295.852 8  88516593.50547                  21616651.600
  21616647.240          49.800          45.350
 126989334.998 7  98952834.65745                  24165219.300
  24165222.580          45.700          34.300
 134528759.830 7 104827554.52044                  25599980.960
  25599979.520          43.650          29.950
 120961712.019 7  94255899.429 7  90328578.399 8  23018240.300    23018240.360
  23018239.980          47.850          45.250
 108206879.465 8  84317066.17947                  20591078.460
  20591076.080          49.850          46.300
 123576714.473 7  96293492.30446                  23515879.720
  23515878.860          47.250          36.400
 113425014.351 8  88383142.144 7                  21584050.120    21584048.000
  21584047.220          50.150          46.850
 103973546.382 7  80868405.866 7                  19505132.820    19505140.840
  19505139.960          42.350          42.850
 122985154.415 7  95655155.842 7                  23006910.260    23006916.140
  23006915.740          44.250          42.350
 131304515.803 6 102125773.056 5                  24537388.580    24537394.880
  24537393.120          39.950          34.950
 111329467.901 7  86589686.254 7                  20848403.720    20848408.980
  20848407.380          42.250          45.950
 127148492.046 7  98893261.360 6                  23769074.960    23769082.040
  23769080.140          42.100          37.900
 110682496.541 7  86086410.774 7                  20676415.520    20676418.280
  20676417.180          47.400          46.550
 124875905.921 6  97125736.102 6                  23352423.680    23352432.060
  23352429.840          40.850          41.250
 105898793.715 8  82365770.007 7                  19775841.920    19775843.520
  19775842.480          48.050          47.150
 119390773.719 7  92859624.625 6                  22342312.640    22342323.000
  22342321.260          44.850          41.250
 15  1 27 14  1 50.0000000  0 20G30G06G07G13G02G28G23G09G10G20G05R14
                                R05R21R13R19R03R20R04R15
 107042694.618 8  83409983.014 8  79934580.882 8  20369513.580    20369513.400
  20369512.680          50.900          49.600
 123216317.593 7  96012702.498 7  92012167.682 8  23447296.500    23447301.280
  23447300.560          46.400          43.950
 111299607.951 8  86727038.878 7                  21179585.680    21179583.140
  21179582.720          49.850          46.750
 121623015.483 8  94771236.74546                  23144073.700
  23144071.980          48.250          37.000
 113603603.539 8  88522287.80047                  21618042.220
  21618037.860          49.800          45.150
 126974626.403 7  98941373.45545                  24162420.320
  24162423.660          44.700          33.850
 134542696.110 7 104838413.94745                  25602632.900
  25602631.580          44.650          31.000
 120974213.107 8  94265640.524 7  90337913.610 8  23020619.180    23020619.240
  23020618.840          48.250          45.050
 108214523.361 8  84323022.45447                  20592533.080
  20592530.660          49.900          46.250
 123593259.905 7  96306384.82246                  23519028.180
  23519027.340          47.100          36.050
 113413592.368 8  88374241.904 7                  21581876.600    21581874.460
  21581873.680          49.950          46.800
 103965198.283 7  80861912.914 7                  19503566.700    19503574.780
  19503573.900          42.050          42.900
 122968260.924 7  95642016.485 7                  23003750.000    23003755.880
  23003755.520          45.100          42.000
 131296203.974 6 102119308.283 5                  24535835.320    24535841.520
  24535839.860          40.850          35.800
 111342735.502 7  86600005.504 7                  20850888.260    20850893.600
  20850892.000          42.350          46.000
 127164933.749 7  98906049.314 6                  23772148.540    23772155.720
  23772153.820          42.750          38.200
 110691539.590 7  86093444.254 7                  20678104.820    20678107.600
  20678106.500          47.200          46.350
 124880715.639 6  97129476.994 6                  23353323.200    23353331.560
  23353329.300          40.600          40.400
 105891504.607 8  82360100.712 7                  19774480.720    19774482.360
  19774481.280          48.350          47.300
 119368882.648 7  92842598.272 6                  22338216.060    22338226.380
  22338224.600          45.300          40.700
 15  1 27 14  1 55.0000000  0 20G30G06G07G13G02G28G23G09G10G20G05R14
                                R05R21R13R19R03R20R04R15
 107041164.819 8  83408790.963 8  79933438.505 8  20369222.480    20369222.280
  20369221.560          50.900          49.700
 123233823.837 7  96026343.705 7  92025240.480 8  23450627.880    23450632.620
  23450631.880          45.750          44.100
 111308229.470 8  86733756.934 7                  21181226.280    21181223.780
  21181223.340          49.850          46.950
 121610351.987 8  94761369.09746                  23141663.900
  23141662.180          48.200          37.900
 113610925.542 8  88527993.24547                  21619435.540
  21619431.220          49.700          45.350
 126959918.928 7  98929913.14245                  24159621.520
  24159624.780          44.000          32.600
 134556632.590 7 104849273.55045                  25605284.920
  25605283.640          44.600          33.000
 120986716.844 7  94275383.685 7  90347250.816 8  23022998.560    23022998.640
  23022998.220          47.850          45.400
 108222179.546 8  84328988.30647                  20593990.060
  20593987.600          49.850          46.350
 123609810.710 7  96319281.52946                  23522177.700
  23522176.900          46.900          37.800
 113402178.867 8  88365348.275 7                  21579704.720    21579702.540
  21579701.760          50.100          47.000
 103956871.838 6  80855436.789 7                  19502004.700    19502012.800
  19502011.900          41.900          42.850
 122951367.135 7  95628876.865 7                  23000589.720    23000595.600
  23000595.180          44.600          42.050
 131287910.167 6 102112857.568 5                  24534285.520    24534291.480
  24534289.960          41.600          35.900
 111356020.336 6  86610338.142 7                  20853376.120    20853381.440
  20853379.840          41.900          45.900
 127181382.025 7  98918842.363 6                  23775223.380    23775230.580
  23775228.720          43.700          37.850
 110700593.581 7  86100486.239 7                  20679796.180    20679798.980
  20679797.860          47.200          46.400
 124885544.616 6  97133232.859 6                  23354226.320    23354234.560
  23354232.280          40.600          40.100
 105884225.047 8  82354438.823 7                  19773121.340    19773122.920
  19773121.880          48.250          47.300
 119346998.949 7  92825577.629 6                  22334120.860    22334131.100
  22334129.300          45.700          40.750
 15  1 27 14  2  0.0000000  0 20G30G06G07G13G02G28G23G09G10G20G05R14
                                R05R21R13R19R03R20R04R15
 107039652.136 8  83407612.249 8  79932308.903 8  20368934.620    20368934.440
  20368933.700          50.650          49.700
 123251334.793 7  96039988.562 7  92038316.799 8  23453960.120    23453964.860
  23453964.140          45.900          44.200
 111316864.363 8  86740485.406 7                  21182869.420    21182866.980
  21182866.500          49.650          47.000
 121597694.097 7  94751505.81546                  23139255.200
  23139253.440          47.650          36.800
 113618263.078 8  88533710.79547                  21620831.840
  21620827.520          49.750          45.350
 126945213.904 7  98918454.73745                  24156823.160
  24156826.320          43.800          34.300
 134570570.642 7 104860134.36345                  25607937.220
  25607936.000          43.200          32.300
 120999224.467 7  94285129.885 7  90356590.904 8  23025378.660    23025378.780
  23025378.320          47.550          45.350
 108229849.262 8  84334964.70647                  20595449.600
  20595447.120          49.750          47.050
 123626368.163 7  96332183.41146                  23525328.500
  23525327.680          46.750          37.950
 113390775.012 8  88356462.152 7                  21577534.640    21577532.460
  21577531.660          50.000          46.900
 103948568.212 7  80848978.414 7                  19500446.920    19500455.060
  19500454.160          42.000          42.800
 122934474.282 7  95615738.001 7                  22997429.540    22997435.440
  22997435.080          44.350          42.350
 131279635.628 6 102106421.821 5                  24532739.140    24532745.200
  24532743.620          40.700          35.200
 111369323.640 7  86620685.146 7                  20855867.420    20855872.740
  20855871.120          42.000          45.600
 127197838.043 7  98931641.455 6                  23778299.740    23778306.880
  23778304.940          43.300          37.000
 110709659.916 7  86107537.822 7                  20681489.820    20681492.660
  20681491.540          47.000          46.450
 124890394.143 6  97137004.701 6                  23355133.320    23355141.460
  23355139.060          40.700          39.650
 105876956.162 8  82348785.244 7                  19771763.940    19771765.540
  19771764.460          48.050          47.300
 119325123.906 7  92808563.742 6                  22330027.260    22330037.500
  22330035.660          46.150          40.800
 15  1 27 14  2  5.0000000  0 20G30G06G07G13G02G28G23G09G10G20G05R14
                                R05R21R13R19R03R20R04R15
 107038154.456 8  83406445.225 8  79931190.507 8  20368649.620    20368649.440
  20368648.700          50.550          49.750
 123268848.339 7  96053635.440 7  92051395.069 8  23457292.880    23457297.580
  23457296.900          46.150          44.200
 111325510.467 8  86747222.620 7                  21184514.720    21184512.280
  21184511.820          49.550          47.050
 121585039.617 7  94741645.19646                  23136847.080
  23136845.360          47.550          38.200
 113625614.029 8  88539438.80547                  21622230.720
  21622226.380          49.700          45.350
 126930509.154 7  98906996.55345                  24154024.860
  24154028.000          44.150          35.750
 134584508.123 6 104870994.75044                  25610589.480
  25610588.180          39.100          25.900
 121011733.829 7  94294877.430 7  90365932.295 8  23027759.120    23027759.260
  23027758.800          47.700          45.600
 108237530.327 8  84340949.94747                  20596911.300
  20596908.780          49.800          47.150
 123642930.088 7  96345088.78346                  23528480.140
  23528479.340          46.600          37.300
 113379378.685 8  88347581.897 7                  21575366.000    21575363.800
  21575362.980          49.700          46.900
 103940285.296 7  80842536.142 7                  19498893.060    19498901.180
  19498900.280          42.200          42.650
 122917580.339 7  95602598.315 6                  22994269.200    22994275.140
  22994274.760          44.550          41.750
 131271378.217 6 102099999.349 5                  24531196.060    24531202.080
  24531200.500          41.300          34.850
 111382643.148 6  86631044.763 7                  20858361.760    20858367.040
  20858365.440          41.950          45.600
 127214299.576 7  98944444.852 6                  23781377.080    23781384.220
  23781382.160          42.450          36.950
 110718736.231 7  86114597.170 7                  20683185.340    20683188.180
  20683187.100          47.050          46.450
 124895261.990 6  97140790.808 6                  23356043.700    23356051.720
  23356049.240          40.350          39.800
 105869695.920 7  82343138.383 7                  19770408.200    19770409.720
  19770408.660          47.950          47.350
 119303255.577 7  92791555.069 6                  22325934.980    22325945.060
  22325943.260          46.200          40.950
 15  1 27 14  2 10.0000000  0 20G30G06G07G13G02G28G23G09G10G20G05R14
                                R05R21R13R19R03R20R04R15
 107036670.931 8  83405289.236 8  79930082.686 8  20368367.320    20368367.140
  20368366.400          50.550          49.800
 123286363.695 7  96067283.735 7  92064474.656 8  23460625.980    23460630.680
  23460630.000          46.400          44.000
 111334166.935 8  86753967.913 7                  21186162.000    21186159.580
  21186159.120          49.700          47.150
 121572387.746 7  94731786.60546                  23134439.500
  23134437.740          47.700          39.000
 113632977.568 8  88545176.61447                  21623631.960
  21623627.640          49.650          45.800
 126915803.972 7  98895538.01145                  24151226.520
  24151229.620          44.750          35.000
 134598444.183 6 104881853.99744                  25613241.400
  25613240.120          38.500          28.300
 121024244.132 7  94304625.706 7  90375274.403 8  23030139.760    23030139.920
  23030139.500          47.650          45.850
 108245221.938 8  84346943.40947                  20598375.000
  20598372.480          49.850          46.750
 123659495.657 7  96357996.98346                  23531632.460
  23531631.720          46.750          37.900
 113367989.126 8  88338706.922 7                  21573198.660    21573196.440
  21573195.620          49.750          47.050
 103932022.154 7  80836109.247 7                  19497342.900    19497351.020
  19497350.120          42.200          43.300
 122900684.503 7  95589457.119 6                  22991108.480    22991114.420
  22991113.940          44.550          41.150
 131263137.101 6 102093589.567 5                  24529655.980    24529661.900
  24529660.460          41.150          35.800
 111395978.081 7  86641416.375 7                  20860858.940    20860864.240
  20860862.660          42.100          45.600
 127230766.007 7  98957252.048 6                  23784455.360    23784462.420
  23784460.340          42.000          36.850
 110727821.679 7  86121663.611 7                  20684882.540    20684885.460
  20684884.360          47.200          46.550
 124900147.409 6  97144590.570 6                  23356957.300    23356965.360
  23356962.820          40.200          40.550
 105862443.354 7  82337497.509 7                  19769053.840    19769055.360
  19769054.320          47.650          47.400
 119281392.980 7  92774550.854 6                  22321843.720    22321853.780
  22321851.960          46.000          41.500
 15  1 27 14  2 15.0000000  0 20G30G06G07G13G02G28G23G09G10G20G05R14
                                R05R21R13R19R03R20R04R15
 107035203.672 8  83404145.926 8  79928987.004 8  20368088.120    20368087.940
  20368087.200          50.600          49.900
 123303882.864 7  96080935.015 7  92077557.119 8  23463959.820    23463964.500
  23463963.740          46.300          44.100
 111342835.862 8  86760722.925 7                  21187811.660    21187809.220
  21187808.760          49.700          47.250
 121559740.570 7  94721931.67446                  23132032.820
  23132031.020          47.600          38.200
 113640355.756 8  88550925.84147                  21625035.980
  21625031.680          49.600          45.800
 126901100.427 7  98884080.77445                  24148428.560
  24148431.660          44.850          35.650
 134612380.907 6 104892713.74844                  25615893.440
  25615892.400          39.300          28.850
 121036757.467 7  94314376.354 7  90384618.757 8  23032520.920    23032521.160
  23032520.760          47.150          46.100
 108252926.217 8  84352946.74347                  20599841.120
  20599838.580          49.750          47.100
 123676067.028 7  96370909.72846                  23534785.920
  23534785.180          46.700          38.200
 113356608.419 8  88329838.847 7                  21571032.980    21571030.760
  21571029.940          49.900          47.250
 103923781.026 7  80829699.494 6                  19495796.960    19495804.980
  19495804.100          42.550          41.650
 122883788.764 7  95576315.989 6                  22987947.720    22987953.680
  22987953.160          43.950          40.150
 131254914.428 6 102087194.172 5                  24528119.260    24528125.260
  24528123.860          41.200          35.800
 111409330.430 7  86651801.538 7                  20863359.440    20863364.700
  20863363.160          42.200          44.650
 127247239.290 7  98970064.567 5                  23787534.820    23787541.820
  23787539.860          42.950          35.900
 110736918.462 7  86128738.876 7                  20686581.900    20686584.800
  20686583.760          47.300          45.400
 124905052.290 6  97148405.472 6                  23357874.620    23357882.620
  23357880.020          40.400          38.550
 105855200.762 7  82331864.388 7                  19767701.340    19767702.840
  19767701.800          47.300          46.400
 119259538.278 7  92757552.786 6                  22317753.920    22317764.020
  22317762.140          45.900          40.000
 15  1 27 14  2 20.0000000  0 20G30G06G07G13G02G28G23G09G10G20G05R14
                                R05R21R13R19R03R20R04R15
 107033752.917 8  83403015.469 8  79927903.656 8  20367812.040    20367811.860
  20367811.120          50.800          49.850
 123321406.121 7  96094589.470 7  92090642.635 8  23467294.460    23467299.120
  23467298.300          46.850          43.950
 111351517.472 8  86767487.812 7                  21189463.740    21189461.280
  21189460.840          50.000          47.200
 121547098.353 7  94712080.60346                  23129627.060
  23129625.260          47.950          38.800
 113647748.858 8  88556686.69347                  21626442.860
  21626438.540          49.650          45.650
 126886398.743 7  98872624.97745                  24145630.960
  24145634.100          44.700          34.500
 134626318.717 6 104903574.51044                  25618545.660
  25618544.320          40.700          27.050
 121049274.092 7  94324129.538 7  90393965.567 8  23034902.700    23034903.040
  23034902.660          47.200          45.650
 108260643.402 8  84358960.12547                  20601309.700
  20601307.140          49.850          46.700
 123692644.413 7  96383827.14446                  23537940.540
  23537939.760          46.700          38.700
 113345236.806 8  88320977.847 7                  21568869.040    21568866.800
  21568865.960          49.900          47.100
 103915562.125 7  80823307.019 6                  19494255.140    19494263.140
  19494262.260          43.000          41.600
 122866893.588 7  95563175.338 6                  22984787.080    22984792.980
  22984792.540          44.050          39.850
 131246710.420 6 102080813.268 6                  24526586.220    24526592.280
  24526590.820          41.400          36.750
 111422700.716 7  86662200.643 7                  20865863.260    20865868.520
  20865866.980          42.700          44.400
 127263719.496 7  98982882.467 5                  23790615.640    23790622.580
  23790620.700          43.850          35.750
 110746026.837 7  86135823.168 7                  20688283.480    20688286.360
  20688285.300          47.850          45.700
 124909977.144 6  97152235.903 6                  23358795.680    23358803.500
  23358800.960          40.850          38.750
 105847968.165 7  82326239.045 7                  19766350.640    19766352.200
  19766351.160          47.300          46.300
 119237691.643 7  92740560.983 6                  22313665.620    22313675.680
  22313673.820          45.800          40.000
 15  1 27 14  2 25.0000000  0 20G30G06G07G13G02G28G23G09G10G20G05R14
                                R05R21R13R19R03R20R04R15
 107032315.838 8  83401895.674 8  79926830.518 8  20367538.580    20367538.380
  20367537.660          50.700          49.850
 123338930.601 7  96108244.878 7  92103729.063 8  23470629.320    23470633.920
  23470633.140          46.650          43.850
 111360208.944 8  86774260.390 7                  21191117.700    21191115.220
  21191114.800          49.950          47.150
 121534458.248 7  94702231.18746                  23127221.740
  23127219.940          47.900          38.100
 113655154.015 8  88562456.93747                  21627852.000
  21627847.700          49.550          45.650
 126871696.139 7  98861168.43945                  24142833.220
  24142836.140          44.250          35.150
 134640254.517 7 104914433.55245                  25621197.500
  25621196.040          43.050          30.600
 121061791.129 7  94333883.071 7  90403312.698 8  23037284.600    23037284.980
  23037284.620          47.150          45.950
 108268370.645 8  84364981.35247                  20602780.180
  20602777.620          49.900          46.900
 123709224.928 7  96396747.00146                  23541095.720
  23541095.020          46.750          37.350
 113333871.488 8  88312121.768 7                  21566706.300    21566704.040
  21566703.200          49.750          46.950
 103907362.667 7  80816929.669 6                  19492716.940    19492724.960
  19492724.060          42.950          41.850
 122849995.935 7  95550032.738 6                  22981625.980    22981631.940
  22981631.440          44.100          39.850
 131238522.225 6 102074444.655 6                  24525056.080    24525062.300
  24525060.780          41.800          37.000
 111436085.815 7  86672611.273 7                  20868369.840    20868375.120
  20868373.580          42.900          44.650
 127280204.055 7  98995703.768 6                  23793697.320    23793704.120
  23793702.340          44.100          37.200
 110755143.868 7  86142914.188 7                  20689986.640    20689989.540
  20689988.460          47.800          45.700
 124914918.840 6  97156079.442 6                  23359719.800    23359727.660
  23359725.100          40.150          39.300
 105840743.046 7  82320619.514 7                  19765001.340    19765002.980
  19765001.920          47.400          46.450
 119215850.313 7  92723573.318 6                  22309578.280    22309588.360
  22309586.480          45.950          40.600
 15  1 27 14  2 30.0000000  0 20G30G06G07G13G02G28G23G09G10G20G05R14
                                R05R21R13R19R03R20R04R15
 107030896.317 8  83400789.553 8  79925770.484 8  20367268.460    20367268.260
  20367267.540          50.650          49.700
 123356460.190 7  96121904.266 7  92116819.296 8  23473965.140    23473969.680
  23473968.900          46.800          43.400
 111368914.146 8  86781043.662 7                  21192774.260    21192771.760
  21192771.340          50.000          46.950
 121521824.170 8  94692386.46246                  23124817.580
  23124815.740          48.150          37.900
 113662575.092 8  88568239.58647                  21629264.200
  21629259.900          49.800          45.200
 126856996.528 7  98849714.24046                  24140036.000
  24140038.800          44.200          36.200
 134654192.290 7 104925294.20145                  25623849.780
  25623848.320          44.950          31.800
 121074312.491 7  94343639.954 7  90412663.042 8  23039667.280    23039667.720
  23039667.420          47.200          45.650
 108276111.809 8  84371013.42347                  20604253.340
  20604250.740          50.050          46.550
 123725812.442 7  96409672.30846                  23544252.260
  23544251.540          46.800          38.250
 113322516.295 8  88303273.570 7                  21564545.500    21564543.180
  21564542.380          49.850          46.850
 103899186.410 7  80810570.358 7                  19491183.120    19491191.120
  19491190.200          42.850          42.000
 122833099.757 7  95536891.280 6                  22978465.100    22978471.180
  22978470.600          43.600          39.950
 131230353.843 7 102068091.463 6                  24523529.620    24523535.780
  24523534.400          42.000          37.050
 111449489.739 7  86683036.550 7                  20870879.900    20870885.240
  20870883.680          43.000          44.500
 127296696.604 7  99008531.250 6                  23796780.500    23796787.100
  23796785.500          44.050          36.400
 110764273.650 7  86150015.125 7                  20691692.220    20691695.040
  20691694.020          47.850          45.700
 124919881.484 6  97159939.277 6                  23360647.920    23360655.760
  23360653.140          40.500          39.350
 105833529.103 7  82315008.678 7                  19763654.100    19763655.820
  19763654.740          47.950          46.600
 119194018.383 7  92706592.976 6                  22305492.680    22305502.800
  22305500.940          46.100          40.450
 15  1 27 14  2 35.0000000  0 20G30G06G07G13G02G28G23G09G10G20G05R14
                                R05R21R13R19R03R20R04R15
 107029491.288 8  83399694.732 8  79924721.282 8  20367001.080    20367000.900
  20367000.160          50.650          49.750
 123373991.824 7  96135565.246 7  92129911.057 8  23477301.360    23477305.840
  23477305.000          46.550          43.350
 111377630.048 8  86787835.264 7                  21194432.860    21194430.360
  21194429.920          49.850          46.900
 121509193.067 7  94682544.05846                  23122413.940
  23122412.080          47.900          38.550
 113670009.068 8  88574032.28647                  21630678.880
  21630674.540          49.750          45.400
 126842296.812 7  98838259.99545                  24137238.680
  24137241.440          44.250          34.300
 134668128.980 7 104936153.96845                  25626501.780
  25626500.380          44.150          33.800
 121086835.117 7  94353397.828 7  90422014.336 8  23042050.220    23042050.740
  23042050.440          47.250          45.450
 108283863.880 8  84377053.99247                  20605728.540
  20605725.940          49.850          46.550
 123742403.934 7  96422600.72146                  23547409.540
  23547408.780          46.550          38.950
 113311168.235 8  88294430.927 7                  21562386.020    21562383.700
  21562382.920          49.850          46.950
 103891030.393 7  80804226.787 7                  19489653.120    19489661.040
  19489660.140          42.750          42.200
 122816202.064 7  95523748.665 6                  22975304.000    22975310.060
  22975309.560          43.750          40.550
 131222202.159 6 102061751.268 6                  24522006.280    24522012.400
  24522011.060          41.350          36.300
 111462909.406 7  86693474.073 7                  20873393.000    20873398.360
  20873396.740          42.450          45.000
 127313194.152 7  99021362.643 6                  23799864.600    23799871.200
  23799869.580          43.950          36.250
 110773413.033 7  86157123.522 7                  20693399.560    20693402.380
  20693401.360          47.700          45.850
 124924861.922 6  97163812.955 6                  23361579.260    23361587.200
  23361584.540          40.000          39.750
 105826323.372 7  82309404.224 7                  19762308.400    19762310.200
  19762309.120          47.800          46.750
 119172192.690 7  92689617.480 6                  22301408.240    22301418.440
  22301416.560          45.950          40.800
 15  1 27 14  2 40.0000000  0 20G30G06G07G13G02G28G23G09G10G20G05R14
                                R05R21R13R19R03R20R04R15
 107028100.880 8  83398611.305 8  79923682.990 8  20366736.480    20366736.300
  20366735.580          50.550          49.700
 123391525.578 7  96149227.889 7  92143004.416 8  23480637.980    23480642.440
  23480641.560          46.450          43.400
 111386356.681 8  86794635.234 7                  21196093.480    21196090.980
  21196090.540          49.650          46.800
 121496565.041 7  94672704.05246                  23120010.900
  23120009.020          47.850          37.200
 113677456.015 8  88579835.09447                  21632096.020
  21632091.640          49.700          45.050
 126827597.166 7  98826805.78645                  24134441.340
  24134444.120          44.600          34.800
 134682064.693 7 104947012.93445                  25629153.620
  25629152.160          42.250          35.000
 121099359.094 7  94363156.767 7  90431366.656 8  23044433.440    23044434.000
  23044433.680          47.400          45.250
 108291626.939 8  84383103.12147                  20607205.820
  20607203.220          49.900          46.600
 123758999.475 7  96435532.29546                  23550567.600
  23550566.860          46.650          38.550
 113299827.414 8  88285593.926 7                  21560227.920    21560225.600
  21560224.820          49.700          47.100
 103882894.835 7  80797899.133 7                  19488126.900    19488134.840
  19488133.940          42.750          42.200
 122799302.871 7  95510604.861 6                  22972142.640    22972148.640
  22972148.220          43.850          40.600
 131214067.275 6 102055424.144 6                  24520486.100    24520492.280
  24520490.820          40.750          37.550
 111476344.807 7  86703923.827 7                  20875909.000    20875914.340
  20875912.760          42.350          45.150
 127329696.792 7  99034197.998 6                  23802949.660    23802956.140
  23802954.540          44.250          36.400
 110782561.963 7  86164239.356 7                  20695108.640    20695111.520
  20695110.480          47.350          45.600
 124929860.242 6  97167700.524 6                  23362513.980    23362521.940
  23362519.260          40.300          39.350
 105819125.884 7  82303806.183 7                  19760964.240    19760966.100
  19760965.040          47.900          46.850
 119150373.387 7  92672646.955 6                  22297325.060    22297335.260
  22297333.360          45.850          40.800
 15  1 27 14  2 45.0000000  0 19G30G06G07G13G02G28G09G10G20G05R14R05
                                R21R13R19R03R20R04R15
 107026726.570 8  83397540.405 8  79922656.714 8  20366474.940    20366474.780
  20366474.060          50.600          49.850
 123409062.967 7  96162893.348 7  92156100.468 8  23483975.240    23483979.760
  23483978.840          46.300          43.850
 111395095.582 8  86801444.752 7                  21197756.460    21197753.960
  21197753.500          49.400          46.850
 121483941.552 7  94662867.58646                  23117608.720
  23117606.840          47.900          38.100
 113684917.414 8  88585649.16547                  21633515.900
  21633511.500          49.750          45.450
 126812899.085 7  98815352.77245                  24131644.340
  24131647.080          44.950          34.750
 121111885.958 7  94372917.939 7  90440721.103 8  23046817.220    23046817.800
  23046817.460          47.900          45.300
 108299402.489 8  84389161.98547                  20608685.460
  20608682.900          49.750          46.800
 123775600.621 7  96448468.21846                  23553726.740
  23553726.020          46.800          39.550
 113288495.340 8  88276763.747 7                  21558071.480    21558069.140
  21558068.400          49.600          47.250
 103874781.212 7  80791588.535 7                  19486604.800    19486612.780
  19486611.860          42.750          42.750
 122782403.761 7  95497461.113 6                  22968981.220    22968987.240
  22968986.820          42.750          40.050
 131205950.761 6 102049111.299 6                  24518969.380    24518975.500
  24518974.020          41.800          36.300
 111489797.478 7  86714387.009 7                  20878428.260    20878433.600
  20878432.020          42.300          45.350
 127346205.967 7  99047038.457 6                  23806035.960    23806042.260
  23806040.740          44.000          36.650
 110791722.263 7  86171364.017 7                  20696819.840    20696822.760
  20696821.700          47.450          45.950
 124934877.981 6  97171603.189 6                  23363452.320    23363460.300
  23363457.580          40.150          39.700
 105811938.207 8  82298215.763 7                  19759621.920    19759623.860
  19759622.780          48.000          46.850
 119128561.980 7  92655682.566 6                  22293243.320    22293253.560
  22293251.620          46.050          41.250
 15  1 27 14  2 50.0000000  0 19G30G06G07G13G02G28G09G10G20G05R14R05
                                R21R13R19R03R20R04R15
 107025369.662 8  83396483.075 8  79921643.448 8  20366216.720    20366216.580
  20366215.860          51.150          49.700
 123426605.237 7  96176562.614 7  92169200.190 8  23487313.440    23487317.960
  23487317.080          47.050          43.650
 111403848.017 8  86808264.823 7                  21199421.980    21199419.520
  21199419.020          50.100          46.700
 121471323.994 8  94653035.72646                  23115207.660
  23115205.780          48.700          37.200
 113692394.573 8  88591475.51047                  21634938.780
  21634934.380          50.400          44.500
 126798203.869 7  98803902.00645                  24128847.900
  24128850.620          46.300          33.800
 121124416.979 8  94382682.361 7  90450078.682 8  23049201.780    23049202.380
  23049202.040          48.350          44.950
 108307191.836 8  84395231.60247                  20610167.740
  20610165.160          50.350          46.000
 123792208.622 8  96461409.50345                  23556887.200
  23556886.500          48.000          35.850
 113277173.311 8  88267941.392 7                  21555916.920    21555914.620
  21555913.900          50.250          46.850
 103866690.769 7  80785295.966 7                  19485087.040    19485095.000
  19485094.120          43.800          42.300
 122765506.041 7  95484318.452 6                  22965820.000    22965826.120
  22965825.640          43.850          40.200
 131197853.858 7 102042813.686 5                  24517456.340    24517462.340
  24517460.860          42.450          35.950
 111503268.956 7  86724864.829 7                  20880951.080    20880956.380
  20880954.800          43.300          44.750
 127362723.016 7  99059885.030 6                  23809123.680    23809129.980
  23809128.440          44.400          36.600
 110800894.913 8  86178498.284 7                  20698533.360    20698536.300
  20698535.240          48.350          45.900
 124939916.399 6  97175521.938 6                  23364394.440    23364402.520
  23364399.760          41.300          39.600
 105804761.749 8  82292634.081 7                  19758281.680    19758283.680
  19758282.620          48.750          46.700
 119106759.873 7  92638725.416 6                  22289163.360    22289173.600
  22289171.660          46.850          40.950
 15  1 27 14  2 55.0000000  0 19G30G06G07G13G02G28G09G10G20G05R14R05
                                R21R13R19R03R20R04R15
 107024026.325 8  83395436.319 8  79920640.299 8  20365961.100    20365960.960
  20365960.220          51.100          49.750
 123444148.539 7  96190232.690 7  92182300.665 8  23490651.820    23490656.380
  23490655.460          46.850          44.000
 111412610.118 8  86815092.431 7                  21201089.360    21201086.900
  21201086.360          50.000          46.800
 121458708.438 8  94643205.43346                  23112806.980
  23112805.080          48.500          37.300
 113699883.618 8  88597311.12247                  21636363.900
  21636359.520          50.150          45.000
 126783507.661 7  98792450.46645                  24126051.340
  24126053.940          46.300          33.700
 121136948.294 8  94392447.010 7  90459436.474 8  23051586.420    23051587.000
  23051586.680          48.150          45.000
 108314991.116 8  84401308.96047                  20611651.880
  20611649.320          50.200          46.150
 123808819.621 7  96474353.11046                  23560048.220
  23560047.480          47.850          37.000
 113265857.464 8  88259123.850 7                  21553763.560    21553761.280
  21553760.560          50.100          46.850
 103858619.647 7  80779018.431 7                  19483572.920    19483580.900
  19483580.000          43.600          42.350
 122748605.835 7  95471173.877 6                  22962658.380    22962664.600
  22962664.140          42.750          41.100
 131189772.694 7 102036528.374 6                  24515946.200    24515952.240
  24515950.700          42.650          36.850
 111516754.883 7  86735353.886 7                  20883476.600    20883481.880
  20883480.240          43.150          44.900
 127379244.055 7  99072734.700 6                  23812212.200    23812218.400
  23812216.860          44.550          36.250
 110810076.277 8  86185639.339 7                  20700248.520    20700251.460
  20700250.380          48.300          46.000
 124944971.653 6  97179453.804 6                  23365339.740    23365347.840
  23365345.060          41.200          40.050
 105797592.453 8  82287057.960 7                  19756942.800    19756944.880
  19756943.800          49.100          46.800
 119084963.278 7  92621772.548 6                  22285084.440    22285094.620
  22285092.700          46.300          41.550
 15  1 27 14  3  0.0000000  0 19G30G06G07G13G02G28G09G10G20G05R14R05
                                R21R13R19R03R20R04R15
 107022698.038 8  83394401.286 8  79919648.409 8  20365708.320    20365708.200
  20365707.460          51.100          49.600
 123461694.422 7  96203904.761 7  92195403.063 8  23493990.680    23493995.300
  23493994.400          46.550          43.750
 111421383.469 8  86821928.795 7                  21202758.880    21202756.400
  21202755.860          50.150          46.550
 121446096.421 8  94633377.88846                  23110406.960
  23110405.060          48.350          37.250
 113707386.088 8  88603157.18647                  21637791.600
  21637787.200          49.950          44.900
 126768812.080 7  98780999.41745                  24123254.900
  24123257.400          46.100          33.900
 121149481.475 8  94402213.109 7  90468795.646 8  23053971.420    23053971.940
  23053971.640          48.350          44.850
 108322801.874 8  84407395.25647                  20613138.200
  20613135.660          50.050          45.950
 123825435.144 7  96487300.23646                  23563210.080
  23563209.300          47.750          37.150
 113254549.403 8  88250312.363 7                  21551611.660    21551609.440
  21551608.680          49.900          46.700
 103850569.292 7  80772757.036 7                  19482062.720    19482070.720
  19482069.760          43.600          42.050
 122731704.739 7  95458028.618 6                  22959496.620    22959502.820
  22959502.480          42.950          40.550
 131181708.896 7 102030256.531 6                  24514439.300    24514445.440
  24514443.860          42.800          37.250
 111530257.092 7  86745855.592 7                  20886005.060    20886010.380
  20886008.760          42.600          44.800
 127395770.556 7  99085588.616 6                  23815301.680    23815307.980
  23815306.320          45.250          36.600
 110819267.681 8  86192788.196 7                  20701965.580    20701968.500
  20701967.400          48.300          45.850
 124950045.208 6  97183399.882 6                  23366288.500    23366296.580
  23366293.840          41.100          39.900
 105790431.944 8  82281488.663 7                  19755605.580    19755607.700
  19755606.620          48.650          46.650
 119063173.572 7  92604825.024 6                  22281006.760    22281016.840
  22281015.000          46.150          41.400
 15  1 27 14  3  5.0000000  0 19G30G06G07G13G02G28G09G10G20G05R14R05
                                R21R13R19R03R20R04R15
 107021387.861 8  83393380.387 8  79918670.039 8  20365459.000    20365458.880
  20365458.160          51.000          49.650
 123479245.860 7  96217581.175 7  92208509.615 8  23497330.600    23497335.320
  23497334.400          46.450          44.100
 111430171.047 8  86828776.261 7                  21204431.100    21204428.620
  21204428.060          50.200          46.600
 121433490.957 8  94623555.48346                  23108008.200
  23108006.340          48.250          37.400
 113714904.967 8  88609016.05047                  21639222.400
  21639218.000          49.850          45.150
 126754120.112 7  98769551.19445                  24120459.100
  24120461.680          45.900          34.150
 121162019.511 8  94411983.007 7  90478158.450 8  23056357.360    23056357.880
  23056357.560          48.700          45.100
 108330627.137 8  84413492.86147                  20614627.280
  20614624.760          50.100          46.150
 123842058.209 7  96500253.25546                  23566373.380
  23566372.660          47.600          36.400
 113243252.080 8  88241509.273 7                  21549461.820    21549459.640
  21549458.900          49.850          47.000
 103842542.957 7  80766514.349 7                  19480556.980    19480564.940
  19480564.020          43.400          42.650
 122714805.669 7  95444884.918 6                  22956335.220    22956341.460
  22956341.180          43.800          40.900
 131173665.547 7 102024000.576 6                  24512936.200    24512942.400
  24512940.860          42.000          37.950
 111543778.568 7  86756372.299 7                  20888537.180    20888542.500
  20888540.900          42.450          45.150
 127412305.544 7  99098449.129 6                  23818392.760    23818399.000
  23818397.380          44.550          36.850
 110828472.487 8  86199947.495 7                  20703685.160    20703688.040
  20703686.920          48.050          46.150
 124955140.207 6  97187362.638 6                  23367241.240    23367249.400
  23367246.680          40.650          40.350
 105783283.302 8  82275928.614 7                  19754270.600    19754272.760
  19754271.660          48.600          47.000
 119041393.781 7  92587885.226 7                  22276931.000    22276941.100
  22276939.220          45.750          42.350
 15  1 27 14  3 10.0000000  0 19G30G06G07G13G02G28G09G10G20G05R14R05
                                R21R13R19R03R20R04R15
 107020090.750 8  83392369.645 8  79917701.407 8  20365212.160    20365212.060
  20365211.320          50.950          49.650
 123496797.802 7  96231257.968 7  92221616.539 8  23500670.620    23500675.380
  23500674.480          46.000          44.300
 111438967.789 8  86835630.859 7                  21206105.080    21206102.580
  21206102.000          50.200          46.400
 121420887.078 8  94613734.27446                  23105609.720
  23105607.980          48.050          37.550
 113722435.230 8  88614883.77647                  21640655.360
  21640650.960          49.800          45.300
 126739426.739 7  98758101.82745                  24117663.060
  24117665.520          46.100          34.200
 121174557.351 8  94421752.738 7  90487521.108 8  23058743.240    23058743.740
  23058743.400          48.100          45.050
 108338461.857 8  84419597.82947                  20616118.160
  20616115.660          50.100          46.050
 123858683.759 7  96513208.20946                  23569537.140
  23569536.440          47.400          36.100
 113231960.544 8  88232710.675 7                  21547313.060    21547310.940
  21547310.200          49.850          46.950
 103834535.546 7  80760286.363 7                  19479054.800    19479062.760
  19479061.860          43.000          42.200
 122697903.684 7  95431738.956 6                  22953173.320    22953179.540
  22953179.300          43.850          40.900
 131165637.492 7 102017756.492 6                  24511435.980    24511442.060
  24511440.660          42.600          37.250
 111557314.202 6  86766900.005 7                  20891071.880    20891077.280
  20891075.680          41.850          45.400
 127428843.963 7  99111312.311 6                  23821484.500    23821490.680
  23821489.080          44.550          36.300
 110837685.367 7  86207113.048 7                  20705406.240    20705409.060
  20705407.960          47.850          46.000
 124960251.350 6  97191337.964 6                  23368197.100    23368205.120
  23368202.520          40.050          40.050
 105776141.527 8  82270373.905 7                  19752936.880    19752939.040
  19752937.980          48.100          46.950
 119019618.908 7  92570949.249 7                  22272856.120    22272866.220
  22272864.320          45.600          42.100
 15  1 27 14  3 15.0000000  0 19G30G06G07G13G02G28G09G10G20G05R14R05
                                R21R13R19R03R20R04R15
 107018810.198 8  83391371.820 8  79916745.159 8  20364968.480    20364968.380
  20364967.640          50.850          49.350
 123514353.764 7  96244937.906 7  92234726.473 8  23504011.400    23504016.200
  23504015.320          46.100          43.950
 111447777.207 8  86842495.339 7                  21207781.460    21207778.940
  21207778.360          50.200          46.050
 121408288.186 8  94603916.98046                  23103212.200
  23103210.560          48.050          38.000
 113729980.334 8  88620763.08047                  21642091.160
  21642086.760          49.900          44.750
 126724735.488 7  98746654.16945                  24114867.400
  24114869.780          46.100          34.150
 121187098.530 7  94431525.081 7  90496886.257 8  23061129.760    23061130.240
  23061129.880          47.800          44.950
 108346309.535 8  84425712.90147                  20617611.520
  20617609.020          50.100          45.550
 123875315.303 7  96526167.82146                  23572702.040
  23572701.360          47.600          36.650
 113220678.269 8  88223919.298 7                  21545166.080    21545164.000
  21545163.280          49.750          46.600
 103826550.472 7  80754075.760 7                  19477556.860    19477564.740
  19477563.860          42.800          42.850
 122681002.267 7  95418593.430 6                  22950011.540    22950017.760
  22950017.520          43.450          40.950
 131157628.348 7 102011527.158 5                  24509939.320    24509945.360
  24509943.920          42.650          35.800
 111570867.539 7  86777441.482 7                  20893609.920    20893615.360
  20893613.800          42.200          45.700
 127445389.294 7  99124180.887 6                  23824577.480    23824583.720
  23824582.080          44.250          36.700
 110846909.770 7  86214287.586 7                  20707129.480    20707132.260
  20707131.140          47.600          46.350
 124965382.354 6  97195328.754 6                  23369156.540    23369164.660
  23369162.020          40.200          39.950
 105769010.048 8  82264827.205 7                  19751605.080    19751607.280
  19751606.240          48.000          47.350
 118997852.366 7  92554019.758 7                  22268782.820    22268792.900
  22268790.940          45.600          42.300
 15  1 27 14  3 20.0000000  0 19G30G06G07G13G02G28G09G10G20G05R14R05
                                R21R13R19R03R20R04R15
 107017545.978 8  83390386.710 8  79915801.087 8  20364727.900    20364727.820
  20364727.060          50.700          49.600
 123531913.444 7  96258620.736 7  92247839.180 8  23507352.900    23507357.740
  23507356.860          46.100          44.550
 111456598.990 8  86849369.451 7                  21209460.220    21209457.680
  21209457.080          50.250          46.450
 121395694.094 8  94594103.41846                  23100815.600
  23100814.020          48.150          38.300
 113737540.052 8  88626653.75947                  21643529.740
  21643525.320          49.950          44.900
 126710046.083 7  98735207.90945                  24112072.080
  24112074.460          44.550          34.150
 121199642.770 7  94441299.789 7  90506253.691 8  23063516.840    23063517.340
  23063516.940          47.700          45.150
 108354169.904 8  84431837.85547                  20619107.300
  20619104.800          50.000          46.000
 123891952.585 7  96539131.90846                  23575868.040
  23575867.340          47.200          37.400
 113209404.978 8  88215134.920 7                  21543020.800    21543018.760
  21543018.060          49.400          46.750
 103818587.472 7  80747882.316 7                  19476063.020    19476070.880
  19476070.020          42.250          42.550
 122664101.257 7  95405448.208 6                  22946849.860    22946856.120
  22946855.700          43.800          40.250
 131149637.794 7 102005312.303 5                  24508446.100    24508452.120
  24508450.620          42.700          35.650
 111584438.155 6  86787996.400 7                  20896151.260    20896156.720
  20896155.140          41.950          45.400
 127461941.204 7  99137054.570 6                  23827671.700    23827678.060
  23827676.320          42.950          37.400
 110856145.680 7  86221471.061 7                  20708854.820    20708857.620
  20708856.480          47.550          46.150
 124970532.867 6  97199334.693 6                  23370119.580    23370127.740
  23370125.140          39.550          39.600
 105761888.654 7  82259288.350 7                  19750275.160    19750277.400
  19750276.400          47.650          47.200
 118976093.953 7  92537096.579 7                  22264710.980    22264721.120
  22264719.100          45.150          42.350
 15  1 27 14  3 25.0000000  0 19G30G06G07G13G02G28G09G10G20G05R14R05
                                R21R13R19R03R20R04R15
 107016296.790 8  83389413.317 8  79914868.258 8  20364490.180    20364490.100
  20364489.360          50.700          49.700
 123549475.609 7  96272305.502 7  92260953.728 8  23510694.900    23510699.800
  23510698.940          45.950          44.550
 111465431.904 8  86856252.233 7                  21211141.100    21211138.520
  21211137.900          50.000          46.750
 121383103.573 7  94584292.62946                  23098419.680
  23098418.100          47.750          38.050
 113745113.136 8  88632554.85547                  21644970.860
  21644966.400          49.700          44.850
 126695357.268 7  98723762.15545                  24109276.780
  24109279.240          44.150          35.900
 121212188.802 7  94451075.903 7  90515622.479 8  23065904.240    23065904.780
  23065904.400          47.600          45.200
 108362041.724 8  84437971.73147                  20620605.260
  20620602.760          49.850          46.600
 123908594.349 7  96552099.49446                  23579034.900
  23579034.240          47.050          37.000
 113198139.503 8  88206356.638 7                  21540877.040    21540875.040
  21540874.340          49.450          47.050
 103810645.352 7  80741705.112 7                  19474573.080    19474580.960
  19474580.080          42.100          42.700
 122647199.340 7  95392302.282 6                  22943687.980    22943694.280
  22943693.780          43.850          41.050
 131141664.615 7 101999110.946 6                  24506956.140    24506962.120
  24506960.620          42.400          37.300
 111598024.680 7  86798563.701 7                  20898695.620    20898701.080
  20898699.460          42.200          45.450
 127478498.557 7  99149932.442 6                  23830766.920    23830773.340
  23830771.600          42.950          37.300
 110865391.774 7  86228662.459 7                  20710582.060    20710584.880
  20710583.740          47.300          46.300
 124975701.717 6  97203354.903 6                  23371086.120    23371094.260
  23371091.700          39.700          39.700
 105754776.188 7  82253756.435 7                  19748946.900    19748949.200
  19748948.240          47.700          47.400
 118954342.427 7  92520178.779 7                  22260640.440    22260650.620
  22260648.580          44.900          42.350
 15  1 27 14  3 30.0000000  0 19G30G06G07G13G02G28G09G10G20G05R14R05
                                R21R13R19R03R20R04R15
 107015062.640 8  83388451.641 8  79913946.656 8  20364255.320    20364255.260
  20364254.500          50.700          49.750
 123567040.216 7  96285992.163 7  92274070.104 8  23514037.380    23514042.260
  23514041.420          46.300          44.650
 111474275.958 8  86863143.699 7                  21212824.100    21212821.500
  21212820.920          50.100          46.700
 121370516.620 7  94574484.62446                  23096024.440
  23096022.880          47.750          38.850
 113752699.573 8  88638466.35047                  21646414.540
  21646410.060          49.650          44.850
 126680669.121 7  98712316.90745                  24106481.620
  24106484.300          44.800          34.900
 121224736.652 7  94460853.453 7  90524992.602 8  23068292.000    23068292.560
  23068292.180          46.900          45.300
 108369924.989 8  84444114.53347                  20622105.400
  20622102.900          49.800          46.650
 123925240.567 7  96565070.55146                  23582202.620
  23582201.960          46.650          36.400
 113186881.830 8  88197584.431 7                  21538734.760    21538732.760
  21538732.100          49.700          47.100
 103802724.245 7  80735544.251 7                  19473087.020    19473095.000
  19473094.100          42.700          42.450
 122630296.499 7  95379155.652 6                  22940525.980    22940532.260
  22940531.800          44.050          40.950
 131133708.796 7 101992923.039 6                  24505469.440    24505475.360
  24505473.900          42.200          37.300
 111611627.424 7  86809143.611 7                  20901242.960    20901248.440
  20901246.800          42.000          45.500
 127495061.241 7  99162814.507 6                  23833863.120    23833869.560
  23833867.840          42.750          36.950
 110874647.958 7  86235861.693 7                  20712311.180    20712314.060
  20712312.880          47.100          46.300
 124980888.853 6  97207389.342 6                  23372056.200    23372064.160
  23372061.640          40.100          39.900
 105747672.527 7  82248231.374 7                  19747620.300    19747622.660
  19747621.700          47.600          47.300
 118932597.890 7  92503266.399 7                  22256571.220    22256581.360
  22256579.340          44.850          42.000
 15  1 27 14  3 35.0000000  0 19G30G06G07G13G02G28G09G10G20G05R14R05
                                R21R13R19R03R20R04R15
 107013843.763 8  83387501.865 8  79913036.456 8  20364023.360    20364023.280
  20364022.560          50.850          50.550
 123584607.455 7  96299680.893 7  92287188.465 8  23517380.340    23517385.240
  23517384.380          46.150          46.000
 111483131.328 8  86870043.984 7                  21214509.260    21214506.640
  21214506.040          50.250          47.750
 121357933.377 7  94564679.50646                  23093629.920
  23093628.380          47.800          40.100
 113760299.545 8  88644388.39247                  21647860.760
  21647856.300          49.700          46.550
 126665981.832 7  98700872.30445                  24103686.660
  24103689.380          45.500          35.500
 121237286.486 7  94470632.524 7  90534364.233 8  23070680.120    23070680.700
  23070680.340          47.000          46.350
 108377819.862 8  84450266.37647                  20623607.760
  20623605.240          49.800          47.750
 123941891.436 7  96578045.22746                  23585371.160
  23585370.480          46.550          37.900
 113175632.170 8  88188818.463 8                  21536593.960    21536592.020
  21536591.380          49.550          48.050
 103794824.218 7  80729399.787 7                  19471605.020    19471612.920
  19471612.100          42.250          42.700
 122613392.904 7  95366008.437 6                  22937363.800    22937370.080
  22937369.680          44.200          40.600
 131125770.510 7 101986748.804 6                  24503985.940    24503991.920
  24503990.520          42.100          37.600
 111625246.460 6  86819736.186 7                  20903793.380    20903798.840
  20903797.200          41.700          45.550
 127511629.405 7  99175700.832 6                  23836960.380    23836966.880
  23836965.140          42.000          37.500
 110883914.592 7  86243069.068 7                  20714042.220    20714045.180
  20714043.980          46.800          46.400
 124986094.354 6  97211438.055 6                  23373029.620    23373037.580
  23373035.040          39.000          39.950
 105740577.908 7  82242713.335 7                  19746295.340    19746297.820
  19746296.860          47.400          47.300
 118910860.539 7  92486359.610 7                  22252503.400    22252513.460
  22252511.440          44.750          42.250
 15  1 27 14  3 40.0000000  0 19G30G06G07G13G02G28G09G10G20G05R14R05
                                R21R13R19R03R20R04R15
 107012642.373 8  83386565.727 8  79912139.316 8  20363794.740    20363794.680
  20363793.960          51.500          50.350
 123602179.569 7  96313373.410 7  92300310.459 8  23520724.260    23520729.160
  23520728.300          47.700          45.900
 111492000.273 8  86876954.856 7                  21216196.980    21216194.340
  21216193.760          51.050          47.550
 121345356.198 8  94554879.12946                  23091236.540
  23091235.080          49.200          38.250
 113767915.292 8  88650322.73447                  21649309.980
  21649305.540          50.600          45.300
 126651297.658 7  98689430.13145                  24100892.360
  24100895.000          47.250          33.650
 121249840.629 8  94480414.955 7  90543739.045 8  23073069.060    23073069.700
  23073069.340          48.700          46.250
 108385728.630 8  84456429.05147                  20625112.760
  20625110.240          50.750          46.150
 123958549.221 7  96591025.28846                  23588541.040
  23588540.400          47.800          37.250
 113164392.793 8  88180060.514 7                  21534455.140    21534453.220
  21534452.600          50.350          47.800
 103786947.531 7  80723273.479 7                  19470127.360    19470135.280
  19470134.460          42.150          42.500
 122596490.900 7  95352862.465 6                  22934201.980    22934208.180
  22934207.720          44.850          39.550
 131117852.103 6 101980590.093 6                  24502506.260    24502512.160
  24502510.920          41.900          38.100
 111638883.954 6  86830343.130 7                  20906347.240    20906352.720
  20906351.060          41.700          45.400
 127528205.302 6  99188593.163 6                  23840059.120    23840065.640
  23840063.900          41.700          36.100
 110893193.856 7  86250286.267 7                  20715775.660    20715778.640
  20715777.440          46.800          46.250
 124991320.547 6  97215502.868 6                  23374006.960    23374014.880
  23374012.340          39.050          39.900
 105733494.717 7  82237204.189 7                  19744972.520    19744975.100
  19744974.120          47.350          47.150
 118889132.864 7  92469460.341 7                  22248437.320    22248447.380
  22248445.380          44.300          42.150
 15  1 27 14  3 45.0000000  0 19G30G06G07G13G02G28G09G10G20G05R14R05
                                R21R13R19R03R20R04R15
 107011453.965 8  83385639.693 8  79911251.868 8  20363568.580    20363568.540
  20363567.800          51.100          50.200
 123619752.029 7  96327066.193 7  92313432.707 8  23524068.240    23524073.120
  23524072.300          47.450          45.700
 111500878.198 8  86883872.722 7                  21217886.420    21217883.760
  21217883.200          50.650          47.350
 121332780.483 8  94545079.88346                  23088843.440
  23088842.040          48.750          37.950
 113775542.201 8  88656265.77247                  21650761.340
  21650756.900          50.200          45.350
 126636612.101 7  98677986.89145                  24098097.860
  24098100.280          47.150          34.350
 121262394.452 8  94490197.142 7  90553113.645 8  23075457.960    23075458.620
  23075458.240          48.550          45.750
 108393646.729 8  84462598.99547                  20626619.540
  20626617.020          50.450          46.350
 123975209.378 7  96604007.20246                  23591711.360
  23591710.740          47.500          36.850
 113153159.164 8  88171307.045 7                  21532317.420    21532315.520
  21532314.900          50.250          47.400
 103779089.655 7  80717161.802 7                  19468653.240    19468661.200
  19468660.340          42.300          42.550
 122579585.894 7  95339714.118 6                  22931039.580    22931045.760
  22931045.120          44.550          39.550
 131109949.039 6 101974443.255 6                  24501029.320    24501035.280
  24501034.100          41.350          38.100
 111652535.396 6  86840960.912 7                  20908903.760    20908909.200
  20908907.540          41.950          45.350
 127544784.358 7  99201487.967 6                  23843158.380    23843164.980
  23843163.200          42.100          36.850
 110902481.157 7  86257509.720 7                  20717510.580    20717513.600
  20717512.380          46.800          46.050
 124996562.973 6  97219580.310 6                  23374987.260    23374995.280
  23374992.760          38.750          40.650
 105726418.303 7  82231700.309 7                  19743651.060    19743653.620
  19743652.640          47.400          47.250
 118867410.162 7  92452564.941 7                  22244372.140    22244382.220
  22244380.220          44.200          42.250
 15  1 27 14  3 50.0000000  0 19G30G06G07G13G02G28G09G10G20G05R14R05
                                R21R13R19R03R20R04R15
 107010282.528 8  83384726.879 8  79910377.090 8  20363345.660    20363345.620
  20363344.880          50.950          50.000
 123637328.793 7  96340762.323 7  92326558.166 8  23527413.040    23527417.900
  23527417.140          47.200          45.450
 111509769.153 8  86890800.722 7                  21219578.320    21219575.640
  21219575.120          49.950          47.200
 121320210.202 8  94535284.86146                  23086451.380
  23086449.980          48.350          38.700
 113783184.318 8  88662220.66247                  21652215.620
  21652211.160          50.000          44.900
 126621929.180 7  98666545.67245                  24095303.840
  24095306.100          46.550          34.750
 121274952.010 7  94499982.236 7  90562491.015 8  23077847.580    23077848.280
  23077847.860          47.700          45.400
 108401578.201 8  84468779.35147                  20628128.840
  20628126.340          50.200          46.650
 123991875.870 7  96616994.06146                  23594882.920
  23594882.300          46.850          37.150
 113141935.272 8  88162561.154 7                  21530181.560    21530179.700
  21530179.040          49.800          47.400
 103771254.797 7  80711068.019 7                  19467183.520    19467191.400
  19467190.540          43.000          42.450
 122562681.986 7  95326566.634 6                  22927877.340    22927883.480
  22927882.800          46.000          40.500
 131102065.367 7 101968311.467 6                  24499556.080    24499561.960
  24499560.780          43.300          37.100
 111666204.791 7  86851592.660 7                  20911463.600    20911469.040
  20911467.380          42.800          45.100
 127561370.627 7  99214388.334 5                  23846259.060    23846265.640
  23846263.820          42.650          35.650
 110911780.533 7  86264742.553 7                  20719247.760    20719250.800
  20719249.580          47.550          45.900
 125001825.497 6  97223673.363 6                  23375971.380    23375979.420
  23375976.980          39.900          40.850
 105719352.587 8  82226204.752 7                  19742331.560    19742334.180
  19742333.180          48.350          47.200
 118845696.465 7  92435676.547 7                  22240308.680    22240318.720
  22240316.740          45.550          42.100
 15  1 27 14  3 55.0000000  0 19G30G06G07G13G02G28G09G10G20G05R14R05
                                R21R13R19R03R20R04R15
 107009127.088 8  83383826.538 8  79909514.267 8  20363125.780    20363125.760
  20363125.020          50.900          49.050
 123654908.907 7  96354461.077 7  92339686.132 8  23530758.480    23530763.320
  23530762.580          47.150          43.900
 111518672.171 8  86897738.127 7                  21221272.520    21221269.840
  21221269.320          50.000          45.950
 121307644.408 8  94525493.34646                  23084060.180
  23084058.820          48.300          38.050
 113790840.731 8  88668186.69047                  21653672.600
  21653668.140          50.000          43.800
 126607247.883 7  98655105.73145                  24092510.100
  24092512.260          45.900          32.950
 121287512.315 7  94509769.474 7  90571870.452 8  23080237.720    23080238.460
  23080238.020          47.650          44.150
 108409522.065 8  84474969.37547                  20629640.500
  20629638.020          50.250          45.200
 124008547.715 7  96629985.07545                  23598055.460
  23598054.820          46.900          35.000
 113130720.181 8  88153822.132 7                  21528047.360    21528045.560
  21528044.860          49.550          46.150
 103763441.746 7  80704991.212 7                  19465717.820    19465725.720
  19465724.840          43.050          42.150
 122545778.079 7  95313419.184 6                  22924715.140    22924721.240
  22924720.560          46.550          39.850
 131094200.010 7 101962193.969 5                  24498086.220    24498092.100
  24498090.840          43.200          35.000
 111679891.076 7  86862237.548 7                  20914026.540    20914032.020
  20914030.400          42.600          44.650
 127577963.144 7  99227293.584 6                  23849360.920    23849367.520
  23849365.580          42.100          36.450
 110921090.998 7  86271984.021 7                  20720987.000    20720990.040
  20720988.860          47.400          45.650
 125007107.189 6  97227781.343 6                  23376959.100    23376967.200
  23376964.760          40.800          39.800
 105712296.942 7  82220717.028 7                  19741013.960    19741016.580
  19741015.580          47.700          46.700
 118823990.822 7  92418794.420 7                  22236246.740    22236256.800
  22236254.780          46.150          42.100
 15  1 27 14  4  0.0000000  0 19G30G06G07G13G02G28G09G10G20G05R14R05
                                R21R13R19R03R20R04R15
 107007986.390 8  83382937.683 8  79908662.446 8  20362908.700    20362908.700
  20362907.960          51.050          49.200
 123672491.095 7  96368161.442 7  92352815.644 8  23534104.320    23534109.160
  23534108.380          47.300          44.100
 111527585.925 8  86904683.899 7                  21222968.760    21222966.060
  21222965.580          50.050          46.150
 121295081.847 8  94515704.35946                  23081669.600
  23081668.260          48.250          38.150
 113798510.156 8  88674162.85147                  21655132.060
  21655127.580          50.100          44.000
 126592567.064 7  98643666.19745                  24089716.380
  24089718.520          44.750          33.550
 121300074.141 7  94519557.902 7  90581251.012 8  23082628.160    23082628.900
  23082628.460          47.750          44.250
 108417477.030 8  84481168.04447                  20631154.280
  20631151.780          50.150          45.700
 124025223.700 7  96642979.32545                  23601228.780
  23601228.180          46.900          35.100
 113119512.635 8  88145088.990 7                  21525914.580    21525912.840
  21525912.120          49.700          46.550
 103755649.406 7  80698930.510 7                  19464255.960    19464263.900
  19464263.020          43.050          42.200
 122528873.064 7  95300270.844 6                  22921552.720    22921558.780
  22921558.080          46.250          39.950
 131086351.771 7 101956089.775 5                  24496619.560    24496625.520
  24496624.060          42.100          35.050
 111693593.124 7  86872894.693 7                  20916592.500    20916598.020
  20916596.380          42.750          44.600
 127594560.577 7  99240202.667 6                  23852463.700    23852470.280
  23852468.420          42.450          37.150
 110930411.339 7  86279233.169 7                  20722728.100    20722731.180
  20722729.960          47.700          45.800
 125012406.685 6  97231903.165 6                  23377950.080    23377958.300
  23377955.860          39.900          39.850
 105705249.792 8  82215235.910 7                  19739697.980    19739700.580
  19739699.560          48.000          46.900
 118802291.919 7  92401917.539 7                  22232186.100    22232196.080
  22232194.080          46.150          42.000
 15  1 27 14  4  5.0000000  0 19G30G06G07G13G02G28G09G10G20G05R14R05
                                R21R13R19R03R20R04R15
 107006860.617 8  83382060.467 8  79907821.787 8  20362694.460    20362694.480
  20362693.740          50.900          48.850
 123690075.536 7  96381863.567 7  92365946.858 8  23537450.560    23537455.440
  23537454.640          47.300          43.800
 111536510.638 8  86911638.217 7                  21224667.080    21224664.380
  21224663.920          50.000          45.650
 121282522.714 8  94505918.02646                  23079279.660
  23079278.300          48.000          37.750
 113806192.723 8  88680149.25347                  21656594.020
  21656589.520          49.900          43.500
 126577886.870 7  98632227.14045                  24086922.720
  24086924.960          44.850          32.600
 121312637.607 7  94529347.601 7  90590632.827 8  23085018.920    23085019.680
  23085019.220          47.950          44.100
 108425443.309 8  84487375.52447                  20632670.180
  20632667.720          50.000          44.950
 124041903.968 7  96655976.91245                  23604402.960
  23604402.300          47.050          35.550
 113108312.851 8  88136361.881 7                  21523783.280    21523781.580
  21523780.860          49.450          46.000
 103747877.840 7  80692885.960 7                  19462798.020    19462805.980
  19462805.080          43.050          42.850
 122511967.035 7  95287121.724 6                  22918390.060    22918396.180
  22918395.500          46.100          41.200
 131078520.921 7 101949999.103 6                  24495156.240    24495162.120
  24495160.540          42.400          37.100
 111707311.054 7  86883564.189 7                  20919161.440    20919166.980
  20919165.300          42.700          45.350
 127611163.025 6  99253115.665 6                  23855567.400    23855574.060
  23855572.200          41.950          38.150
 110939741.706 7  86286490.105 7                  20724471.040    20724474.160
  20724472.960          47.400          46.450
 125017724.341 6  97236039.095 6                  23378944.340    23378952.700
  23378950.320          39.100          40.650
 105698211.481 7  82209761.676 7                  19738383.640    19738386.240
  19738385.220          47.550          47.600
 118780599.999 7  92385046.083 7                  22228126.760    22228136.700
  22228134.680          45.950          43.100
 15  1 27 14  4 10.0000000  0 19G30G06G07G13G02G28G09G10G20G05R14R05
                                R21R13R19R03R20R04R15
 107005751.808 8  83381196.462 8  79906993.764 8  20362483.480    20362483.480
  20362482.740          50.600          49.150
 123707664.221 7  96395569.005 7  92379081.195 8  23540797.620    23540802.540
  23540801.720          46.950          44.000
 111545448.311 8  86918602.635 7                  21226367.860    21226365.200
  21226364.700          49.850          46.000
 121269969.033 7  94496135.95846                  23076890.780
  23076889.420          47.950          37.800
 113813890.478 8  88686147.49747                  21658058.860
  21658054.340          49.700          43.950
 126563209.317 7  98620790.14345                  24084129.600
  24084131.940          45.450          35.000
 121325204.795 7  94539140.201 7  90600017.388 8  23087410.420    23087411.120
  23087410.720          47.700          44.250
 108433422.936 8  84493593.41547                  20634188.640
  20634186.220          49.750          45.600
 124058590.556 7  96668979.43645                  23607578.340
  23607577.680          47.000          35.200
 113097122.839 8  88127642.398 7                  21521653.840    21521652.200
  21521651.460          49.200          46.550
 103740129.129 7  80686859.187 7                  19461344.380    19461352.280
  19461351.440          43.150          42.750
 122495062.210 7  95273973.577 6                  22915227.660    22915233.780
  22915233.120          46.150          40.150
 131070709.368 7 101943923.471 6                  24493696.480    24493702.380
  24493700.700          42.100          36.600
 111721046.773 7  86894247.531 7                  20921733.680    20921739.260
  20921737.560          42.850          45.550
 127627772.676 7  99266034.245 6                  23858672.460    23858679.180
  23858677.360          42.600          37.950
 110949084.147 7  86293756.444 7                  20726216.280    20726219.400
  20726218.200          47.600          46.350
 125023062.050 6  97240190.624 6                  23379942.420    23379950.880
  23379948.520          40.000          40.250
 105691183.944 7  82204295.813 7                  19737071.340    19737073.900
  19737072.860          47.900          47.550
 118758917.092 7  92368181.650 7                  22224069.060    22224078.980
  22224076.980          45.400          43.000
 15  1 27 14  4 15.0000000  0 19G30G06G07G13G02G28G09G10G20G05R14R05
                                R21R13R19R03R20R04R15
 107004657.502 8  83380343.748 8  79906176.585 8  20362275.220    20362275.220
  20362274.500          50.600          49.300
 123725254.712 7  96409275.836 7  92392216.913 8  23544145.020    23544150.000
  23544149.100          47.050          44.000
 111554396.514 8  86925575.246 7                  21228070.660    21228068.000
  21228067.500          49.850          46.250
 121257418.419 7  94486356.25846                  23074502.460
  23074501.080          47.950          38.250
 113821600.986 8  88692155.67347                  21659526.120
  21659521.560          49.650          44.200
 126548531.984 7  98609353.30045                  24081336.600
  24081339.060          45.500          34.600
 121337773.261 7  94548933.790 7  90609402.913 8  23089802.140    23089802.800
  23089802.400          47.500          44.250
 108441413.477 8  84499819.79747                  20635709.160
  20635706.740          49.650          45.950
 124075281.066 7  96681984.99345                  23610754.500
  23610753.800          46.800          35.900
 113085940.179 8  88118928.642 7                  21519525.780    21519524.220
  21519523.480          49.200          46.700
 103732400.935 7  80680848.370 7                  19459894.580    19459902.480
  19459901.660          43.000          42.550
 122478155.929 7  95260824.233 6                  22912064.940    22912071.020
  22912070.320          46.200          39.250
 131062914.745 6 101937860.962 6                  24492239.800    24492245.740
  24492244.160          41.850          37.300
 111734797.974 7  86904942.907 7                  20924308.840    20924314.400
  20924312.700          43.200          45.250
 127644386.815 7  99278956.316 6                  23861778.260    23861785.080
  23861783.340          43.550          37.100
 110958436.277 7  86301030.312 7                  20727963.320    20727966.500
  20727965.280          47.600          46.250
 125028417.416 6  97244355.902 6                  23380943.840    23380952.380
  23380950.040          39.850          39.900
 105684164.910 7  82198836.576 7                  19735760.560    19735763.120
  19735762.080          47.600          47.250
 118737240.749 7  92351322.318 7                  22220012.560    22220022.560
  22220020.540          44.950          42.800
 15  1 27 14  4 20.0000000  0 19G30G06G07G13G02G28G09G10G20G05R14R05
                                R21R13R19R03R20R04R15
 107003579.063 8  83379503.408 8  79905371.267 8  20362070.000    20362070.020
  20362069.260          50.550          49.350
 123742848.358 7  96422985.134 7  92405354.992 8  23547492.980    23547497.980
  23547497.080          47.200          43.900
 111563356.584 8  86932557.119 7                  21229775.720    21229773.060
  21229772.540          50.000          46.350
 121244872.177 7  94476579.98046                  23072114.960
  23072113.640          47.850          37.850
 113829325.573 8  88698174.82347                  21660996.060
  21660991.480          49.800          43.800
 126533856.244 7  98597917.71545                  24078543.900
  24078546.500          45.900          35.050
 121350344.333 7  94558729.427 7  90618790.385 8  23092194.340    23092195.020
  23092194.560          47.800          44.350
 108449416.247 8  84506055.72047                  20637232.040
  20637229.600          49.600          46.000
 124091976.802 7  96694994.63346                  23613931.600
  23613930.900          46.600          36.550
 113074766.242 8  88110221.687 7                  21517399.380    21517397.880
  21517397.160          49.200          46.750
 103724694.554 7  80674854.526 7                  19458448.900    19458456.760
  19458455.960          43.000          42.400
 122461249.589 7  95247674.864 6                  22908902.280    22908908.220
  22908907.500          46.550          39.850
 131055138.472 6 101931812.766 6                  24490786.460    24490792.520
  24490791.120          41.850          37.300
 111748565.864 7  86915651.278 7                  20926887.120    20926892.700
  20926891.020          42.950          45.250
 127661006.953 7  99291883.051 6                  23864885.240    23864892.160
  23864890.380          43.350          37.100
 110967799.336 7  86308312.689 7                  20729712.420    20729715.580
  20729714.400          47.600          46.150
 125033791.809 6  97248536.006 6                  23381948.880    23381957.440
  23381955.100          39.350          39.950
 105677155.679 8  82193384.949 7                  19734451.640    19734454.200
  19734453.140          48.050          46.950
 118715572.464 7  92334469.255 7                  22215957.540    22215967.600
  22215965.600          44.750          42.700
 15  1 27 14  4 25.0000000  0 19G30G06G07G13G02G28G09G10G20G05R14R05
                                R21R13R19R03R20R04R15
 107002516.650 8  83378675.549 8  79904577.897 8  20361867.820    20361867.840
  20361867.100          50.750          49.450
 123760445.298 7  96436697.009 7  92418495.502 8  23550841.600    23550846.600
  23550845.640          47.000          43.900
 111572328.663 8  86939548.352 7                  21231483.060    21231480.380
  21231479.860          49.800          46.400
 121232330.459 8  94466807.22346                  23069728.360
  23069727.020          48.150          37.850
 113837064.357 8  88704205.03647                  21662468.720
  21662464.100          49.700          44.800
 126519182.238 7  98586483.47845                  24075751.560
  24075754.080          45.850          34.650
 121362918.156 7  94568527.209 7  90628179.924 8  23094587.080    23094587.740
  23094587.260          47.600          44.600
 108457431.424 8  84512301.31247                  20638757.260
  20638754.840          49.600          46.550
 124108677.925 7  96708008.47346                  23617109.720
  23617109.020          46.550          37.750
 113063601.252 8  88101521.705 7                  21515274.680    21515273.240
  21515272.540          49.050          46.850
 103717010.210 7  80668877.813 7                  19457007.320    19457015.140
  19457014.420          43.050          42.350
 122444343.482 7  95234525.690 6                  22905739.600    22905745.580
  22905744.920          45.850          41.100
 131047380.629 6 101925778.898 6                  24489336.640    24489342.800
  24489341.420          41.950          38.050
 111762350.719 7  86926372.834 7                  20929468.600    20929474.180
  20929472.500          42.850          45.250
 127677633.257 7  99304814.566 6                  23867993.360    23868000.380
  23867998.480          43.850          36.850
 110977173.639 7  86315603.809 7                  20731463.640    20731466.760
  20731465.600          47.800          46.050
 125039185.300 6  97252730.929 6                  23382957.400    23382966.000
  23382963.660          39.400          39.350
 105670156.419 8  82187941.086 7                  19733144.600    19733147.140
  19733146.060          48.000          46.850
 118693912.302 7  92317622.517 7                  22211904.020    22211914.140
  22211912.160          44.600          42.550
 15  1 27 14  4 30.0000000  0 19G30G06G07G13G02G28G09G10G20G05R14R05
                                R21R13R19R03R20R04R15
 107001469.001 8  83377859.208 8  79903795.579 8  20361668.460    20361668.480
  20361667.740          50.700          49.450
 123778044.276 7  96450410.453 7  92431637.556 8  23554190.620    23554195.600
  23554194.660          46.650          43.850
 111581311.534 8  86946547.983 7                  21233192.440    21233189.760
  21233189.240          49.850          46.250
 121219792.060 8  94457037.05246                  23067342.380
  23067341.040          48.350          38.600
 113844816.138 8  88710245.37147                  21663943.860
  21663939.220          49.750          44.350
 126504508.841 7  98575049.69845                  24072959.320
  24072961.700          45.000          32.400
 121375493.546 7  94578326.191 7  90637570.629 8  23096980.120    23096980.760
  23096980.300          47.650          44.650
 108465457.782 8  84518555.61147                  20640284.620
  20640282.200          49.700          46.150
 124125383.178 7  96721025.52046                  23620288.660
  23620287.940          46.650          37.000
 113052443.934 8  88092827.699 7                  21513151.440    21513150.100
  21513149.380          49.100          46.950
 103709346.510 7  80662917.160 7                  19455569.600    19455577.440
  19455576.720          43.150          42.350
 122427436.290 7  95221375.687 6                  22902576.800    22902582.740
  22902582.200          45.900          40.650
 131039640.064 7 101919758.422 6                  24487890.100    24487896.340
  24487894.960          42.900          37.250
 111776151.027 7  86937106.403 7                  20932052.960    20932058.580
  20932056.880          42.250          45.100
 127694264.259 7  99317749.768 6                  23871102.420    23871109.500
  23871107.500          43.500          37.500
 110986557.804 7  86322902.590 7                  20733216.660    20733219.820
  20733218.660          47.700          46.000
 125044596.688 6  97256939.783 6                  23383969.360    23383977.960
  23383975.560          39.200          38.700
 105663165.839 8  82182503.973 7                  19731839.160    19731841.720
  19731840.600          48.300          46.900
 118672259.028 7  92300781.117 7                  22207851.860    22207862.000
  22207860.020          45.250          42.700
 15  1 27 14  4 35.0000000  0 19G30G06G07G13G02G28G09G10G20G05R14R05
                                R21R13R19R03R20R04R15
 107000437.209 8  83377055.216 8  79903025.078 8  20361472.120    20361472.140
  20361471.400          50.600          49.650
 123795646.322 7  96464126.290 7  92444781.908 8  23557540.200    23557545.220
  23557544.200          46.750          44.000
 111590306.203 8  86953556.812 7                  21234904.100    21234901.400
  21234900.840          50.050          46.600
 121207258.023 8  94447270.27646                  23064957.240
  23064955.860          48.350          38.600
 113852581.940 8  88716296.63747                  21665421.660
  21665417.000          49.650          44.750
 126489837.050 7  98563617.17245                  24070167.260
  24070169.520          43.800          34.700
 121388071.507 8  94588127.182 7  90646963.235 8  23099373.660    23099374.260
  23099373.820          48.000          45.250
 108473496.357 8  84524819.43347                  20641814.280
  20641811.860          49.800          46.550
 124142093.613 7  96734046.62246                  23623468.600
  23623467.880          46.700          37.950
 113041295.316 8  88084140.472 7                  21511029.880    21511028.600
  21511027.900          49.400          47.250
 103701704.626 7  80656973.479 7                  19454135.960    19454143.880
  19454143.080          43.000          42.100
 122410529.017 7  95208225.617 6                  22899413.920    22899419.800
  22899419.340          46.150          39.700
 131031917.777 7 101913752.200 5                  24486447.040    24486453.260
  24486451.840          44.650          35.700
 111789968.162 7  86947853.053 7                  20934640.420    20934646.100
  20934644.400          42.000          44.950
 127710901.213 7  99330689.602 6                  23874212.600    23874219.580
  23874217.720          42.950          37.200
 110995952.981 7  86330209.942 7                  20734971.760    20734974.920
  20734973.760          47.550          45.850
 125050027.034 6  97261163.377 6                  23384984.920    23384993.480
  23384991.020          39.900          38.650
 105656185.093 8  82177074.504 7                  19730535.580    19730538.120
  19730537.000          48.400          46.650
 118650613.890 7  92283946.059 7                  22203801.200    22203811.380
  22203809.420          45.200          42.450
 15  1 27 14  4 40.0000000  0 19G30G06G07G13G02G28G09G10G20G05R14R05
                                R21R13R19R03R20R04R15
 106999420.105 8  83376262.665 8  79902265.554 8  20361278.560    20361278.580
  20361277.860          50.650          49.750
 123813250.325 7  96477843.664 7  92457927.696 8  23560890.160    23560895.140
  23560894.140          46.750          43.750
 111599311.539 8  86960573.959 7                  21236617.780    21236615.080
  21236614.480          50.000          46.650
 121194727.210 8  94437506.01846                  23062572.680
  23062571.280          48.050          38.950
 113860360.607 8  88722357.92547                  21666901.900
  21666897.220          49.400          45.400
 126475165.735 7  98552185.03645                  24067375.200
  24067377.460          44.300          32.850
 121400650.919 7  94597929.309 7  90656356.932 8  23101767.520    23101768.060
  23101767.620          47.950          45.350
 108481546.015 8  84531091.88847                  20643346.100
  20643343.660          49.800          46.700
 124158808.055 7  96747070.82346                  23626649.300
  23626648.540          46.550          37.850
 113030154.312 8  88075459.173 7                  21508909.780    21508908.540
  21508907.840          49.400          47.450
 103694083.403 7  80651045.863 7                  19452706.260    19452714.140
  19452713.340          42.950          42.050
 122393620.590 7  95195074.620 6                  22896250.840    22896256.600
  22896256.200          45.750          40.100
 131024212.659 7 101907759.352 5                  24485007.160    24485013.560
  24485011.980          43.900          35.300
 111803800.741 7  86958611.715 7                  20937230.820    20937236.520
  20937234.800          42.050          45.200
 127727542.877 7  99343633.085 6                  23877323.520    23877330.660
  23877328.760          42.050          37.400
 111005358.043 7  86337524.986 7                  20736728.720    20736731.900
  20736730.720          47.450          46.050
 125055475.128 6  97265400.768 6                  23386003.700    23386012.240
  23386009.800          39.700          39.200
 105649212.985 8  82171651.755 7                  19729233.600    19729236.120
  19729235.000          48.700          46.800
 118628975.787 7  92267116.469 7                  22199751.880    22199762.080
  22199760.120          45.550          42.600
 15  1 27 14  4 45.0000000  0 19G30G06G07G13G02G28G09G10G20G05R14R05
                                R21R13R19R03R20R04R15
 106998419.819 8  83375483.220 8  79901518.583 8  20361088.200    20361088.260
  20361087.520          50.550          49.850
 123830858.328 7  96491564.155 7  92471076.492 8  23564240.920    23564245.860
  23564244.820          46.450          43.350
 111608329.637 8  86967601.042 7                  21238333.880    21238331.200
  21238330.540          50.000          46.700
 121182201.722 8  94427745.91046                  23060189.160
  23060187.760          48.150          38.550
 113868154.268 8  88728430.89647                  21668384.960
  21668380.320          49.450          45.100
 126460497.089 7  98540754.94245                  24064583.760
  24064586.040          45.050          32.750
 121413233.881 7  94607734.198 7  90665753.286 8  23104162.020    23104162.500
  23104162.080          47.750          45.100
 108489608.866 8  84537374.62147                  20644880.440
  20644877.960          49.900          46.550
 124175528.692 7  96760099.85746                  23629831.140
  23629830.460          47.000          37.350
 113019023.020 8  88066785.442 7                  21506791.560    21506790.320
  21506789.640          49.400          47.250
 103686485.059 7  80645136.042 7                  19451280.780    19451288.700
  19451287.900          42.650          42.350
 122376713.205 7  95181924.440 6                  22893088.000    22893093.680
  22893093.280          46.350          40.300
 131016526.909 7 101901781.523 6                  24483570.880    24483577.180
  24483575.720          43.650          37.250
 111817650.863 7  86969384.035 7                  20939824.460    20939830.220
  20939828.500          42.450          45.550
 127744191.404 6  99356581.900 6                  23880435.760    23880442.960
  23880441.040          41.750          36.900
 111014774.983 7  86344849.254 7                  20738487.900    20738491.040
  20738489.880          47.550          46.100
 125060943.143 6  97269653.661 6                  23387026.200    23387034.920
  23387032.380          39.100          39.800
 105642251.648 8  82166237.385 7                  19727933.660    19727936.160
  19727935.040          48.800          47.000
 118607346.781 7  92250293.957 7                  22195704.260    22195714.460
  22195712.460          45.550          42.300
 15  1 27 14  4 50.0000000  0 19G30G06G07G13G02G28G09G10G20G05R14R05
                                R21R13R19R03R20R04R15
 106997434.095 8  83374715.115 8  79900782.491 8  20360900.620    20360900.680
  20360899.940          50.850          49.800
 123848468.117 7  96505286.034 7  92484226.620 8  23567591.980    23567596.920
  23567595.860          46.200          43.400
 111617358.274 8  86974636.340 7                  21240051.980    21240049.300
  21240048.620          49.800          46.700
 121169679.325 8  94417988.20646                  23057806.220
  23057804.800          48.050          39.400
 113875960.642 8  88734513.78347                  21669870.440
  21669865.840          49.450          45.000
 126445828.835 7  98529325.18145                  24061792.440
  24061794.660          45.000          33.900
 121425818.154 7  94617540.108 7  90675150.625 8  23106556.760    23106557.240
  23106556.800          47.900          45.350
 108497682.621 8  84543665.85447                  20646416.860
  20646414.340          50.000          46.200
 124192253.200 7  96773131.92046                  23633013.740
  23633013.040          46.900          37.350
 113007899.161 8  88058117.508 7                  21504674.740    21504673.520
  21504672.840          49.300          47.200
 103678907.187 7  80639242.140 7                  19449859.240    19449867.100
  19449866.340          42.450          42.650
 122359804.492 7  95168773.238 6                  22889924.900    22889930.580
  22889930.100          46.350          40.600
 131008858.155 7 101895816.875 6                  24482137.860    24482144.120
  24482142.660          44.550          37.000
 111831516.389 7  86980168.328 7                  20942421.020    20942426.800
  20942425.100          42.300          45.750
 127760844.355 6  99369534.168 6                  23883548.780    23883556.060
  23883554.180          41.350          37.750
 111024201.609 7  86352181.064 7                  20740248.860    20740252.040
  20740250.860          47.200          46.100
 125066428.744 6  97273920.237 6                  23388052.060    23388060.700
  23388058.300          39.550          39.900
 105635298.842 8  82160829.638 7                  19726635.320    19726637.780
  19726636.680          49.000          47.150
 118585724.557 7  92233476.721 7                  22191657.900    22191668.100
  22191666.120          45.400          42.300
 15  1 27 14  4 55.0000000  0 19G30G06G07G13G02G28G09G10G20G05R14R05
                                R21R13R19R03R20R04R15
 106996464.087 8  83373959.277 8  79900058.144 8  20360716.040    20360716.080
  20360715.340          50.800          49.850
 123866080.831 7  96519010.190 7  92497378.928 8  23570943.580    23570948.500
  23570947.460          45.950          43.600
 111626398.601 8  86981680.744 7                  21241772.300    21241769.620
  21241768.940          49.800          46.950
 121157161.215 8  94408233.84646                  23055424.100
  23055422.720          48.400          38.300
 113883780.931 8  88740607.49847                  21671358.580
  21671354.020          49.550          45.000
 126431162.144 7  98517896.65845                  24059001.400
  24059003.760          45.550          35.600
 121438404.925 7  94627347.968 7  90684549.818 8  23108951.980    23108952.420
  23108952.000          47.700          45.450
 108505768.483 8  84549966.52947                  20647955.580
  20647953.020          49.950          46.850
 124208982.776 7  96786167.93346                  23636197.300
  23636196.560          47.150          36.750
 112996783.970 8  88049456.329 7                  21502559.580    21502558.360
  21502557.700          49.400          47.200
 103671351.160 7  80633365.232 7                  19448441.760    19448449.600
  19448448.840          42.650          42.450
 122342895.698 7  95155621.954 6                  22886761.760    22886767.440
  22886766.940          45.700          41.100
 131001207.651 7 101889866.470 6                  24480708.200    24480714.380
  24480712.980          43.650          37.200
 111845398.393 7  86990965.435 7                  20945020.620    20945026.460
  20945024.800          42.200          45.950
 127777503.078 6  99382490.944 6                  23886662.820    23886670.160
  23886668.400          41.650          37.700
 111033639.196 7  86359521.398 7                  20742011.900    20742015.080
  20742013.860          47.650          45.950
 125071933.101 6  97278201.402 6                  23389081.440    23389090.140
  23389087.740          39.450          40.150
 105628355.780 8  82155429.484 7                  19725338.820    19725341.220
  19725340.140          48.600          47.400
 118564110.353 7  92216665.722 7                  22187613.080    22187623.280
  22187621.260          45.650          42.250
 15  1 27 14  5  0.0000000  0 19G30G06G07G13G02G28G09G10G20G05R14R05
                                R21R13R19R03R20R04R15
 106995509.255 8  83373215.256 8  79899345.116 8  20360534.340    20360534.400
  20360533.640          50.600          49.750
 123883695.894 7  96532736.178 7  92510532.982 8  23574295.640    23574300.520
  23574299.480          45.600          43.200
 111635450.000 8  86988733.782 7                  21243494.720    21243492.040
  21243491.400          49.450          46.950
 121144646.806 8  94398482.36246                  23053042.700
  23053041.340          48.100          39.200
 113891614.507 8  88746711.56947                  21672849.240
  21672844.700          49.250          45.050
 126416496.491 7  98506468.91345                  24056210.640
  24056212.920          45.400          34.850
 121450993.581 7  94637157.299 7  90693950.423 8  23111347.560    23111348.020
  23111347.560          47.200          45.050
 108513865.854 8  84556276.16647                  20649496.500
  20649493.900          49.850          46.700
 124225716.866 7  96799207.46646                  23639381.740
  23639381.000          46.400          37.700
 112985676.916 8  88040801.486 7                  21500445.960    21500444.740
  21500444.060          49.300          47.050
 103663816.138 7  80627504.663 7                  19447028.160    19447036.020
  19447035.280          43.200          42.350
 122325986.263 7  95142470.200 7                  22883598.500    22883604.200
  22883603.820          46.100          42.350
 130993574.812 7 101883929.842 6                  24479281.760    24479288.000
  24479286.600          43.100          36.250
 111859296.228 7  87001774.849 7                  20947623.240    20947629.060
  20947627.460          42.600          45.950
 127794166.857 7  99395451.642 6                  23889777.840    23889785.380
  23889783.580          42.550          37.750
 111043086.972 7  86366869.665 7                  20743776.860    20743779.980
  20743778.780          47.650          46.000
 125077455.741 6  97282496.768 6                  23390114.220    23390122.940
  23390120.560          38.900          39.650
 105621421.917 8  82150036.490 7                  19724044.000    19724046.380
  19724045.340          48.900          47.500
 118542503.391 7  92199860.352 6                  22183569.580    22183579.740
  22183577.720          45.250          41.900
 15  1 27 14  5  5.0000000  0 19G30G06G07G13G02G28G09G10G20G05R14R05
                                R21R13R19R03R20R04R15
 106994571.491 8  83372484.529 8  79898644.845 8  20360355.880    20360355.940
  20360355.200          50.750          49.400
 123901315.205 7  96546465.479 7  92523690.229 8  23577648.500    23577653.400
  23577652.340          45.700          43.000
 111644514.416 8  86995796.959 7                  21245219.620    21245216.960
  21245216.320          49.550          46.850
 121132138.000 8  94388735.25346                  23050662.380
  23050660.980          48.250          38.750
 113899463.286 8  88752827.49147                  21674342.820
  21674338.300          49.350          44.250
 126401833.780 7  98495043.46445                  24053420.420
  24053422.740          45.000          35.550
 121463586.070 7  94646969.623 7  90703353.898 8  23113743.860    23113744.300
  23113743.840          47.400          44.550
 108521976.647 8  84562596.26047                  20651039.960
  20651037.320          49.900          46.150
 124242457.341 7  96812251.95546                  23642567.360
  23642566.680          46.850          36.650
 112974579.839 8  88032154.422 7                  21498334.260    21498333.000
  21498332.340          49.400          46.750
 103656304.271 7  80621662.109 7                  19445618.940    19445626.780
  19445626.040          42.900          42.550
 122309078.181 7  95129319.507 7                  22880435.480    22880441.180
  22880440.940          45.950          42.100
 130985961.568 7 101878008.429 6                  24477859.000    24477865.340
  24477863.880          42.800          37.800
 111873211.888 6  87012598.130 7                  20950229.240    20950235.060
  20950233.480          41.900          46.050
 127810837.693 7  99408417.804 6                  23892894.260    23892901.820
  23892900.080          42.250          38.100
 111052547.034 7  86374227.480 7                  20745544.120    20745547.240
  20745545.980          47.550          46.000
 125082998.442 6  97286807.730 6                  23391150.820    23391159.540
  23391157.120          40.000          40.100
 105614499.200 8  82144652.157 7                  19722751.280    19722753.620
  19722752.600          48.350          47.550
 118520905.742 7  92183062.222 7                  22179527.760    22179537.940
  22179535.920          45.150          42.100
 15  1 27 14  5 10.0000000  0 19G30G06G07G13G02G28G09G10G20G05R14R05
                                R21R13R19R03R20R04R15
 106993647.997 8  83371764.923 8  79897955.214 8  20360180.140    20360180.220
  20360179.460          50.400          49.450
 123918935.928 7  96560195.875 7  92536848.518 8  23581001.600    23581006.520
  23581005.460          45.600          43.150
 111653589.016 8  87002868.064 7                  21246946.440    21246943.800
  21246943.220          49.700          46.850
 121119632.020 8  94378990.33946                  23048282.560
  23048281.200          48.300          38.250
 113907324.483 8  88758953.08647                  21675838.760
  21675834.240          49.200          44.600
 126387171.207 7  98483618.13345                  24050630.180
  24050632.500          45.350          34.150
 121476179.573 7  94656782.736 7  90712758.121 8  23116140.320    23116140.780
  23116140.300          47.400          44.600
 108530098.057 8  84568924.62847                  20652585.420
  20652582.760          49.950          46.350
 124259201.369 7  96825299.21446                  23645753.660
  23645753.040          46.750          37.350
 112963489.967 8  88023512.963 7                  21496223.920    21496222.680
  21496221.980          49.700          46.800
 103648812.810 7  80615835.421 7                  19444213.520    19444221.400
  19444220.660          42.950          42.550
 122292168.441 7  95116167.498 6                  22877272.160    22877277.820
  22877277.600          46.300          41.150
 130978365.149 6 101872100.082 6                  24476439.340    24476445.820
  24476444.340          41.950          38.850
 111887142.481 6  87023433.017 7                  20952837.960    20952843.840
  20952842.260          41.800          45.850
 127827512.622 7  99421387.146 6                  23896011.440    23896019.020
  23896017.380          43.550          38.200
 111062016.613 7  86381592.700 7                  20747313.140    20747316.220
  20747314.960          47.700          46.000
 125088558.407 6  97291132.143 6                  23392190.680    23392199.260
  23392196.940          40.050          40.150
 105607584.845 8  82139274.330 7                  19721460.100    19721462.420
  19721461.420          48.400          47.400
 118499314.730 7  92166269.263 7                  22175487.220    22175497.440
  22175495.380          44.950          42.250
 15  1 27 14  5 15.0000000  0 19G30G06G07G13G02G28G09G10G20G05R14R05
                                R21R13R19R03R20R04R15
 106992739.586 8  83371057.062 8  79897276.850 8  20360007.280    20360007.340
  20360006.580          50.700          49.600
 123936558.897 7  96573928.018 7  92550008.478 8  23584355.120    23584360.080
  23584358.980          45.750          43.300
 111662674.597 8  87009947.735 7                  21248675.380    21248672.740
  21248672.180          49.950          46.950
 121107129.654 8  94369248.24746                  23045903.420
  23045902.100          48.250          39.050
 113915198.857 8  88765088.96247                  21677337.180
  21677332.700          49.300          44.850
 126372509.645 7  98472193.59245                  24047840.180
  24047842.440          45.650          34.750
 121488774.897 7  94666597.256 7  90722163.705 8  23118537.100    23118537.580
  23118537.120          46.950          44.750
 108538230.926 8  84575261.92647                  20654133.080
  20654130.380          50.050          46.300
 124275949.785 7  96838349.89546                  23648940.780
  23648940.220          46.950          36.550
 112952408.162 8  88014877.794 7                  21494115.180    21494113.880
  21494113.180          49.700          47.100
 103641342.536 7  80610025.214 7                  19442812.080    19442819.940
  19442819.240          42.600          42.550
 122275258.194 7  95103015.095 6                  22874108.700    22874114.380
  22874114.120          45.650          41.600
 130970786.354 7 101866205.407 6                  24475022.980    24475029.620
  24475028.160          42.800          38.400
 111901088.872 6  87034280.207 7                  20955449.660    20955455.540
  20955454.020          41.800          45.700
 127844192.528 7  99434360.390 6                  23899129.620    23899137.220
  23899135.580          43.100          38.600
 111071496.232 7  86388965.735 7                  20749084.020    20749087.060
  20749085.820          47.650          45.950
 125094136.545 6  97295470.683 6                  23393233.880    23393242.440
  23393240.100          40.150          39.700
 105600679.516 8  82133903.523 7                  19720170.600    19720172.940
  19720171.900          48.350          47.100
 118477731.295 7  92149482.205 7                  22171448.100    22171458.300
  22171456.280          44.900          42.350
 15  1 27 14  5 20.0000000  0 19G30G06G07G13G02G28G09G10G20G05R14R05
                                R21R13R19R03R20R04R15
 106991847.719 8  83370362.109 8  79896610.844 8  20359837.560    20359837.600
  20359836.860          50.650          49.700
 123954185.560 7  96587663.045 7  92563171.195 8  23587709.360    23587714.380
  23587713.260          45.950          43.500
 111671772.640 8  87017037.115 7                  21250406.660    21250404.020
  21250403.520          49.900          47.000
 121094632.421 7  94359510.15546                  23043525.260
  23043523.980          47.950          40.100
 113923087.918 8  88771236.27447                  21678838.400
  21678833.940          49.100          44.650
 126357850.605 7  98460770.99945                  24045050.660
  24045052.820          45.250          35.100
 121501373.545 7  94676414.362 7  90731571.767 8  23120934.480    23120935.060
  23120934.540          46.750          44.800
 108546376.717 8  84581609.29247                  20655683.200
  20655680.460          50.050          46.400
 124292704.078 7  96851405.16846                  23652129.040
  23652128.420          46.850          37.700
 112941335.923 8  88006250.079 7                  21492008.260    21492006.900
  21492006.180          49.650          47.300
 103633894.818 7  80604232.550 7                  19441414.900    19441422.760
  19441422.080          42.700          42.450
 122258348.639 7  95089863.236 7                  22870945.400    22870951.120
  22870950.840          45.650          42.600
 130963226.644 7 101860325.645 6                  24473610.200    24473616.840
  24473615.520          43.450          37.600
 111915052.505 7  87045140.811 7                  20958064.580    20958070.520
  20958068.980          42.250          45.750
 127860878.894 7  99447338.649 6                  23902249.040    23902256.560
  23902255.000          43.350          38.950
 111080987.706 7  86396347.988 7                  20750857.100    20750860.100
  20750858.880          47.800          45.950
 125099734.226 6  97299824.439 6                  23394280.760    23394289.140
  23394286.900          39.000          39.900
 105593784.830 8  82128540.997 7                  19718883.060    19718885.400
  19718884.340          48.300          47.200
 118456156.806 7  92132702.093 7                  22167410.640    22167420.920
  22167418.860          44.650          42.650
 15  1 27 14  5 25.0000000  0 19G30G06G07G13G02G28G09G10G20G05R14R05
                                R21R13R19R03R20R04R15
 106990972.039 8  83369679.763 8  79895956.925 8  20359670.940    20359670.960
  20359670.220          50.750          49.700
 123971815.526 7  96601400.649 7  92576336.394 8  23591064.200    23591069.260
  23591068.140          46.000          43.400
 111680882.745 8  87024135.895 7                  21252140.260    21252137.640
  21252137.140          49.650          47.100
 121082139.922 8  94349775.75846                  23041148.000
  23041146.740          48.200          38.650
 113930991.250 8  88777394.70647                  21680342.320
  21680337.880          49.050          44.500
 126343193.649 7  98449350.04945                  24042261.520
  24042263.700          44.950          33.800
 121513975.118 7  94686233.758 7  90740982.006 8  23123332.440    23123333.060
  23123332.540          47.000          44.900
 108554535.039 8  84587966.42647                  20657235.680
  20657232.920          49.900          46.250
 124309463.870 7  96864464.71846                  23655318.320
  23655317.720          46.650          36.400
 112930272.864 8  87997629.524 7                  21489903.080    21489901.700
  21489900.960          49.650          47.300
 103626469.210 7  80598457.088 7                  19440021.880    19440029.740
  19440029.060          42.950          42.300
 122241439.525 7  95076711.719 7                  22867782.160    22867787.900
  22867787.700          46.250          42.250
 130955685.688 7 101854460.523 6                  24472200.960    24472207.540
  24472206.280          42.300          36.600
 111929032.997 7  87056014.525 7                  20960682.640    20960688.620
  20960687.100          42.800          45.700
 127877571.280 7  99460321.572 6                  23905369.500    23905377.080
  23905375.520          43.350          38.550
 111090490.590 7  86403739.110 7                  20752632.320    20752635.300
  20752634.080          47.650          45.750
 125105351.176 6  97304193.196 6                  23395331.080    23395339.480
  23395337.320          38.250          39.850
 105586900.487 8  82123186.512 7                  19717597.440    19717599.780
  19717598.720          48.700          46.900
 118434590.961 7  92115928.713 7                  22163374.820    22163385.120
  22163383.080          44.800          42.750
 15  1 27 14  5 30.0000000  0 19G30G06G07G13G02G28G09G10G20G05R14R05
                                R21R13R19R03R20R04R15
 106990109.937 8  83369007.995 8  79895313.156 8  20359506.880    20359506.880
  20359506.140          51.000          49.650
 123989446.186 7  96615138.776 7  92589502.105 8  23594419.200    23594424.320
  23594423.180          46.100          43.300
 111690002.334 8  87031242.049 7                  21253875.640    21253873.040
  21253872.540          49.650          46.900
 121069649.543 8  94340043.00246                  23038771.160
  23038769.920          48.300          38.300
 113938906.277 8  88783562.24547                  21681848.480
  21681844.080          49.350          44.350
 126328536.270 7  98437928.75245                  24039472.240
  24039474.440          45.100          34.300
 121526577.027 7  94696053.413 7  90750392.501 8  23125730.480    23125731.160
  23125730.620          47.400          44.750
 108562703.322 8  84594331.31747                  20658790.040
  20658787.300          49.900          46.350
 124326226.569 7  96877526.52245                  23658508.180
  23658507.580          46.900          35.900
 112919216.443 8  87989014.135 7                  21487799.160    21487797.720
  21487796.980          49.850          47.100
 103619063.297 7  80592696.938 7                  19438632.520    19438640.400
  19438639.720          42.850          42.600
 122224528.221 7  95063558.494 7                  22864618.560    22864624.320
  22864624.160          46.000          42.650
 130948160.867 7 101848607.896 6                  24470794.720    24470801.280
  24470800.040          42.550          36.850
 111943027.755 7  87066899.333 7                  20963303.440    20963309.420
  20963307.880          43.100          45.650
 127894267.095 7  99473307.163 6                  23908490.680    23908498.260
  23908496.620          43.250          37.900
 111100002.145 7  86411136.974 7                  20754409.160    20754412.120
  20754410.880          47.600          45.600
 125110984.628 6  97308574.743 6                  23396384.480    23396392.960
  23396390.860          38.550          40.200
 105580023.668 8  82117837.877 7                  19716313.180    19716315.600
  19716314.500          48.450          47.100
 118413030.998 7  92099159.910 7                  22159340.140    22159350.380
  22159348.400          44.700          42.600
 15  1 27 14  5 35.0000000  0 19G30G06G07G13G02G28G09G10G20G05R14R05
                                R21R13R19R03R20R04R15
 106989263.582 8  83368348.498 8  79894681.135 8  20359345.820    20359345.840
  20359345.080          50.650          49.600
 124007079.699 7  96628879.131 7  92602669.928 8  23597774.740    23597779.940
  23597778.780          46.450          43.600
 111699133.526 8  87038357.251 7                  21255613.260    21255610.620
  21255610.160          49.850          46.600
 121057163.421 8  94330313.56746                  23036395.140
  23036393.920          48.100          39.550
 113946835.140 8  88789740.55847                  21683357.240
  21683352.900          49.350          44.250
 126313880.588 7  98426508.78545                  24036683.320
  24036685.460          44.750          33.550
 121539181.400 7  94705874.980 7  90759804.850 8  23128129.000    23128129.700
  23128129.160          47.500          44.550
 108570883.693 8  84600705.61947                  20660346.720
  20660343.940          49.900          46.150
 124342994.260 7  96890592.23946                  23661699.000
  23661698.360          46.600          36.850
 112908168.753 8  87980405.544 7                  21485696.940    21485695.420
  21485694.660          49.800          46.950
 103611679.159 7  80586953.717 7                  19437247.260    19437255.100
  19437254.480          42.450          42.550
 122207616.958 7  95050405.316 7                  22861454.920    22861460.740
  22861460.660          45.600          42.850
 130940654.493 6 101842769.567 6                  24469391.980    24469398.560
  24469397.240          41.750          36.100
 111957038.797 7  87077796.812 7                  20965927.300    20965933.240
  20965931.720          42.850          46.000
 127910968.386 7  99486297.036 6                  23911612.840    23911620.440
  23911618.720          43.800          39.050
 111109524.519 7  86418543.254 7                  20756188.080    20756190.960
  20756189.700          47.800          45.950
 125116636.733 6  97312970.810 6                  23397441.480    23397449.960
  23397447.880          40.050          40.100
 105573156.701 8  82112496.895 7                  19715030.800    19715033.200
  19715032.120          48.650          47.200
 118391479.089 7  92082397.359 7                  22155306.960    22155317.240
  22155315.240          45.050          42.700
 15  1 27 14  5 40.0000000  0 19G30G06G07G13G02G28G09G10G20G05R14R05
                                R21R13R19R03R20R04R15
 106988433.998 8  83367702.063 8  79894061.641 8  20359187.960    20359187.980
  20359187.200          50.650          49.600
 124024717.072 7  96642622.504 7  92615840.660 8  23601131.000    23601136.280
  23601135.080          46.550          43.400
 111708277.416 8  87045482.371 7                  21257353.280    21257350.640
  21257350.160          50.000          46.550
 121044682.631 8  94320588.30446                  23034020.140
  23034018.920          48.050          39.900
 113954778.877 8  88795930.47747                  21684868.880
  21684864.540          49.300          44.750
 126299227.618 7  98415090.93545                  24033894.900
  24033897.020          45.250          32.950
 121551789.307 7  94715699.334 7  90769219.838 8  23130528.180    23130528.940
  23130528.380          46.950          44.900
 108579077.227 8  84607090.18847                  20661905.920
  20661903.120          49.750          46.550
 124359767.994 7  96903662.66746                  23664890.980
  23664890.380          46.350          36.600
 112897130.888 8  87971804.620 7                  21483596.560    21483594.960
  21483594.220          49.800          47.050
 103604317.929 7  80581228.322 7                  19435866.280    19435874.160
  19435873.540          42.600          42.450
 122190706.708 7  95037252.931 7                  22858291.460    22858297.400
  22858297.260          45.600          42.250
 130933167.447 7 101836946.326 5                  24467992.780    24467999.460
  24467998.120          42.050          35.700
 111971067.279 7  87088707.849 7                  20968554.400    20968560.340
  20968558.820          42.350          45.650
 127927676.317 7  99499292.086 6                  23914736.240    23914743.840
  23914742.100          43.250          39.050
 111119058.983 8  86425958.938 7                  20757969.200    20757972.080
  20757970.780          48.000          45.900
 125122308.660 6  97317382.313 6                  23398502.200    23398510.620
  23398508.540          40.400          39.400
 105566300.764 8  82107164.518 7                  19713750.480    19713752.860
  19713751.800          48.300          47.200
 118369936.445 7  92065642.020 7                  22151275.520    22151285.780
  22151283.780          45.100          42.600
 15  1 27 14  5 45.0000000  0 19G30G06G07G13G02G28G09G10G20G05R14R05
                                R21R13R19R03R20R04R15
 106987618.843 8  83367066.881 8  79893452.927 8  20359032.820    20359032.840
  20359032.080          50.450          49.650
 124042355.959 7  96656367.052 7  92629012.518 8  23604487.560    23604492.820
  23604491.740          46.600          43.650
 111717431.630 8  87052615.531 7                  21259095.300    21259092.620
  21259092.140          50.000          46.650
 121032204.851 7  94310865.35946                  23031645.680
  23031644.440          47.800          39.750
 113962735.148 8  88802130.15047                  21686382.880
  21686378.560          49.450          44.650
 126284575.136 7  98403673.46845                  24031106.660
  24031108.560          46.050          33.950
 121564398.405 7  94725524.586 7  90778635.701 8  23132927.620    23132928.420
  23132927.840          47.050          45.200
 108587281.572 8  84613483.18247                  20663467.160
  20663464.360          49.700          46.800
 124376545.473 7  96916735.99446                  23668083.640
  23668083.060          46.200          36.800
 112886100.516 8  87963209.525 7                  21481497.600    21481495.960
  21481495.200          49.900          47.050
 103596977.206 7  80575518.873 7                  19434489.120    19434497.020
  19434496.420          42.950          42.100
 122173795.106 7  95024099.468 6                  22855127.740    22855133.720
  22855133.520          45.600          41.950
 130925697.503 7 101831136.391 6                  24466596.780    24466603.500
  24466602.180          42.250          36.000
 111985110.795 7  87099630.570 7                  20971184.240    20971190.200
  20971188.720          42.000          45.450
 127944388.413 7  99512290.331 6                  23917860.480    23917867.980
  23917866.300          44.050          39.250
 111128603.000 8  86433382.062 7                  20759752.140    20759754.980
  20759753.660          48.200          45.650
 125127998.009 6  97321807.365 6                  23399566.220    23399574.580
  23399572.420          40.100          39.350
 105559453.351 8  82101838.746 7                  19712471.760    19712474.160
  19712473.080          48.400          47.100
 118348400.626 7  92048891.988 7                  22147245.380    22147255.680
  22147253.620          45.450          42.250
 15  1 27 14  5 50.0000000  0 19G30G06G07G13G02G28G09G10G20G05R14R05
                                R21R13R19R03R20R04R15
 106986819.307 8  83366443.868 8  79892855.865 8  20358880.660    20358880.680
  20358879.920          50.400          49.550
 124059997.528 7  96670113.692 7  92642186.367 8  23607844.640    23607849.960
  23607848.900          46.650          43.750
 111726597.279 8  87059757.597 7                  21260839.500    21260836.780
  21260836.280          49.950          46.600
 121019731.228 7  94301145.68146                  23029272.000
  23029270.780          47.600          38.400
 113970705.074 8  88808340.48447                  21687899.520
  21687895.220          49.050          44.850
 126269924.239 7  98392257.22845                  24028318.680
  24028320.540          46.100          34.700
 121577009.849 7  94735351.675 7  90788053.337 8  23135327.520    23135328.320
  23135327.780          47.150          45.200
 108595497.875 8  84619885.49847                  20665030.700
  20665027.860          49.550          46.750
 124393327.810 7  96929813.11146                  23671277.240
  23671276.620          46.250          37.200
 112875078.801 8  87954621.184 7                  21479400.300    21479398.580
  21479397.820          49.900          47.100
 103589658.223 7  80569826.341 7                  19433116.080    19433123.960
  19433123.380          42.900          42.300
 122156883.455 7  95010945.973 7                  22851964.020    22851970.080
  22851969.880          45.600          43.200
 130918245.754 7 101825340.552 6                  24465204.260    24465210.940
  24465209.660          42.650          36.600
 111999170.465 6  87110565.870 7                  20973817.120    20973823.180
  20973821.660          41.850          45.700
 127961105.869 7  99525292.763 6                  23920985.680    23920993.080
  23920991.500          44.000          39.250
 111138157.851 8  86440813.607 7                  20761537.120    20761539.900
  20761538.600          48.100          45.850
 125133705.903 6  97326246.830 6                  23400633.660    23400642.000
  23400639.780          39.600          39.900
 105552615.706 8  82096520.582 7                  19711194.860    19711197.260
  19711196.180          48.050          47.050
 118326872.857 7  92032148.225 7                  22143216.720    22143227.000
  22143225.000          45.150          42.300
 15  1 27 14  5 55.0000000  0 19G30G06G07G13G02G28G09G10G20G05R14R05
                                R21R13R19R03R20R04R15
 106986035.006 8  83365832.729 8  79892270.206 8  20358731.400    20358731.440
  20358730.640          50.700          49.550
 124077641.423 7  96683862.140 7  92655361.959 8  23611202.180    23611207.520
  23611206.480          46.750          43.600
 111735774.066 8  87066908.338 7                  21262585.800    21262583.060
  21262582.560          50.150          46.600
 121007261.444 7  94291428.97346                  23026899.060
  23026897.820          47.700          39.300
 113978688.319 8  88814561.19047                  21689418.660
  21689414.380          49.200          44.950
 126255274.627 7  98380841.98945                  24025531.000
  24025532.880          45.750          33.400
 121589623.303 7  94745180.327 7  90797472.463 8  23137727.800    23137728.620
  23137728.060          47.150          45.050
 108603725.808 8  84626296.87647                  20666596.440
  20666593.600          49.550          46.700
 124410114.681 7  96942893.76246                  23674471.660
  23674471.060          46.050          37.050
 112864065.448 8  87946039.350 7                  21477304.600    21477302.800
  21477302.020          49.850          46.850
 103582360.571 7  80564150.406 6                  19431747.080    19431754.900
  19431754.300          42.450          41.950
 122139971.393 7  94997792.182 7                  22848800.260    22848806.400
  22848806.220          45.350          43.100
 130910811.902 7 101819558.623 6                  24463815.080    24463821.680
  24463820.440          42.550          36.100
 112013246.030 7  87121513.530 7                  20976453.020    20976459.080
  20976457.580          42.300          45.700
 127977828.342 7  99538299.121 6                  23924111.740    23924119.340
  23924117.680          43.800          39.000
 111147723.112 8  86448253.250 7                  20763324.020    20763326.760
  20763325.480          48.100          45.600
 125139432.024 6  97330700.461 6                  23401704.440    23401712.800
  23401710.660          39.550          39.600
 105545787.563 8  82091209.809 7                  19709919.720    19709922.120
  19709921.060          48.250          46.900
 118305352.927 7  92015410.554 6                  22139189.500    22139199.780
  22139197.760          45.050          41.650
 15  1 27 14  6  0.0000000  0 19G30G06G07G13G02G28G09G10G20G05R14R05
                                R21R13R19R03R20R04R15
 106985267.172 8  83365234.422 8  79891696.805 8  20358585.280    20358585.320
  20358584.520          50.450          49.500
 124095288.773 7  96697613.285 7  92668540.128 8  23614560.380    23614565.720
  23614564.680          46.900          43.400
 111744963.121 8  87074068.645 7                  21264334.440    21264331.680
  21264331.180          50.050          46.650
 120994796.684 7  94281716.18146                  23024527.080
  23024525.820          47.800          38.400
 113986686.063 8  88820793.18647                  21690940.580
  21690936.320          49.350          45.000
 126240627.543 7  98369428.72345                  24022743.760
  24022745.540          45.400          35.400
 121602239.957 7  94755011.482 7  90806893.956 8  23140128.700    23140129.480
  23140128.940          47.150          45.350
 108611966.544 8  84632718.22747                  20668164.620
  20668161.740          49.650          46.600
 124426907.223 7  96955978.83346                  23677667.240
  23677666.560          46.600          36.300
 112853061.593 8  87937464.924 7                  21475210.680    21475208.800
  21475208.040          49.850          46.950
 103575085.614 7  80558492.112 7                  19430382.340    19430390.120
  19430389.520          42.300          42.300
 122123059.980 7  94984638.886 7                  22845636.600    22845642.820
  22845642.660          44.600          42.850
 130903397.134 7 101813791.580 5                  24462429.480    24462435.960
  24462434.740          42.950          35.500
 112027338.650 6  87132474.442 7                  20979092.140    20979098.160
  20979096.680          41.850          45.400
 127994556.965 7  99551310.228 6                  23927238.980    23927246.580
  23927244.940          42.850          38.600
 111157299.994 8  86455701.927 7                  20765113.120    20765115.800
  20765114.540          48.200          45.800
 125145177.567 6  97335169.204 6                  23402778.960    23402787.220
  23402785.120          39.600          40.100
 105538969.956 7  82085907.223 7                  19708646.580    19708649.000
  19708647.900          47.850          47.050
 118283842.030 7  91998679.904 6                  22135164.020    22135174.240
  22135172.240          44.600          41.500
 15  1 27 14  6  5.0000000  0 19G30G06G07G13G02G28G09G10G20G05R14R05
                                R21R13R19R03R20R04R15
 106984513.616 8  83364647.219 8  79891134.091 8  20358441.880    20358441.900
  20358441.120          50.500          49.800
 124112937.481 7  96711365.482 7  92681719.303 8  23617918.860    23617924.180
  23617923.160          46.450          44.000
 111754162.420 8  87081236.920 7                  21266085.020    21266082.260
  21266081.720          49.650          46.950
 120982334.775 7  94272005.60646                  23022155.640
  23022154.340          47.900          39.900
 113994696.171 8  88827034.82147                  21692464.840
  21692460.600          49.250          45.250
 126225980.797 7  98358015.71445                  24019956.460
  24019958.380          44.550          35.200
 121614857.626 7  94764843.413 7  90816316.239 8  23142529.800    23142530.560
  23142530.020          46.550          45.900
 108620217.922 8  84639147.86647                  20669734.820
  20669731.920          49.650          47.400
 124443703.326 7  96969066.67246                  23680863.480
  23680862.740          46.250          37.050
 112842065.171 8  87928896.283 7                  21473118.180    21473116.240
  21473115.500          49.850          47.350
 103567830.963 7  80552849.598 7                  19429021.400    19429029.160
  19429028.560          42.600          43.300
 122106147.239 7  94971484.542 7                  22842472.740    22842478.960
  22842478.820          44.900          43.550
 130895999.368 7 101808037.776 6                  24461047.020    24461053.640
  24461052.280          43.250          36.000
 112041446.005 7  87143446.811 7                  20981733.980    20981740.020
  20981738.500          42.250          46.100
 128011289.525 7  99564324.406 6                  23930366.980    23930374.640
  23930372.940          42.750          39.300
 111166886.254 8  86463157.902 7                  20766903.940    20766906.580
  20766905.360          48.350          46.750
 125150940.300 6  97339651.323 6                  23403856.640    23403864.860
  23403862.820          40.300          40.700
 105532160.727 8  82080611.148 7                  19707375.040    19707377.380
  19707376.300          48.150          47.650
 118262337.883 7  91981954.502 7                  22131139.780    22131149.960
  22131147.920          44.850          42.150
 15  1 27 14  6 10.0000000  0 19G30G06G07G13G02G28G09G10G20G05R14R05
                                R21R13R19R03R20R04R15
 106983776.240 8  83364072.655 8  79890583.449 8  20358301.540    20358301.600
  20358300.800          50.450          49.700
 124130589.368 7  96725120.167 7  92694900.858 8  23621277.940    23621283.280
  23621282.280          46.650          43.900
 111763373.744 8  87088414.570 7                  21267837.880    21267835.100
  21267834.580          49.750          46.800
 120969877.663 8  94262298.78246                  23019785.140
  23019783.800          48.250          39.400
 114002720.527 8  88833287.55147                  21693991.800
  21693987.600          49.350          44.750
 126211336.319 7  98346604.51245                  24017169.580
  24017171.680          45.150          35.500
 121627478.232 7  94774677.637 7  90825740.708 8  23144931.420    23144932.220
  23144931.700          47.050          45.650
 108628481.872 8  84645587.30647                  20671307.440
  20671304.520          49.950          46.650
 124460504.857 7  96982158.76646                  23684060.740
  23684059.940          46.500          37.600
 112831078.050 8  87920334.901 7                  21471027.440    21471025.460
  21471024.720          50.050          47.200
 103560598.669 7  80547224.488 7                  19427664.620    19427672.440
  19427671.800          42.550          43.000
 122089234.966 7  94958330.593 7                  22839308.900    22839315.180
  22839315.020          45.500          43.150
 130888620.464 7 101802298.633 6                  24459668.140    24459674.840
  24459673.300          43.900          37.350
 112055570.078 6  87154432.200 7                  20984378.960    20984385.020
  20984383.480          41.600          45.950
 128028027.982 7  99577343.165 6                  23933496.080    23933503.720
  23933502.000          43.100          38.900
 111176484.032 8  86470622.844 7                  20768696.980    20768699.560
  20768698.320          48.300          46.550
 125156722.168 6  97344148.335 6                  23404937.900    23404946.160
  23404944.100          40.050          40.450
 105525361.954 7  82075323.219 7                  19706105.400    19706107.740
  19706106.660          47.700          47.550
 118240842.544 7  91965235.949 6                  22127117.180    22127127.280
  22127125.280          44.250          41.850
 15  1 27 14  6 15.0000000  0 19G30G06G07G13G02G28G09G10G20G05R14R05
                                R21R13R19R03R20R04R15
 106983055.922 8  83363511.362 8  79890045.549 8  20358164.480    20358164.520
  20358163.700          50.600          50.300
 124148245.339 7  96738878.025 7  92708085.462 8  23624637.800    23624643.120
  23624642.140          46.650          44.800
 111772597.892 8  87095602.212 7                  21269593.180    21269590.420
  21269589.860          49.900          47.750
 120957426.196 8  94252596.35246                  23017415.720
  23017414.340          48.350          40.200
 114010759.990 8  88839552.05147                  21695521.660
  21695517.500          49.400          46.200
 126196695.018 7  98335195.75946                  24014383.440
  24014385.560          46.150          36.950
 121640102.661 7  94784514.849 7  90835168.027 8  23147333.740    23147334.620
  23147334.120          46.650          46.500
 108636759.242 8  84652037.19847                  20672882.600
  20672879.640          50.100          47.550
 124477312.712 7  96995255.76146                  23687259.180
  23687258.380          46.350          37.800
 112820101.119 8  87911781.448 8                  21468938.620    21468936.620
  21468935.900          50.000          48.150
 103553389.648 7  80541617.470 7                  19426312.180    19426320.100
  19426319.400          42.850          42.250
 122072324.170 7  94945177.754 7                  22836145.340    22836151.700
  22836151.420          45.150          42.600
 130881261.296 7 101796574.790 6                  24458292.960    24458299.540
  24458297.960          43.750          36.650
 112069711.788 6  87165431.296 7                  20987027.300    20987033.320
  20987031.740          41.200          45.100
 128044773.182 7  99590367.178 6                  23936626.440    23936634.040
  23936632.340          42.250          38.050
 111186094.095 8  86478097.327 7                  20770492.240    20770494.780
  20770493.580          48.300          45.750
 125162524.030 6  97348660.874 6                  23406022.920    23406031.120
  23406029.140          39.600          39.850
 105518574.407 7  82070044.016 7                  19704837.900    19704840.200
  19704839.100          47.250          46.900
 118219356.830 7  91948524.882 6                  22123096.400    22123106.420
  22123104.440          44.850          41.250
 15  1 27 14  6 20.0000000  0 19G30G06G07G13G02G28G09G10G20G05R14R05
                                R21R13R19R03R20R04R15
 106982348.562 8  83362960.177 8  79889517.346 8  20358029.880    20358029.920
  20358029.100          50.800          50.200
 124165901.275 7  96752635.857 7  92721270.057 8  23627997.660    23628002.980
  23628002.020          46.800          44.450
 111781830.802 8  87102796.688 7                  21271350.120    21271347.380
  21271346.820          49.800          47.650
 120944976.320 8  94242895.15546                  23015046.580
  23015045.240          48.100          39.900
 114018810.444 8  88845825.11847                  21697053.620
  21697049.480          49.450          45.900
 126182052.800 7  98323786.27145                  24011597.120
  24011599.100          46.450          34.800
 121652726.796 7  94794351.816 7  90844595.135 8  23149736.020    23149736.960
  23149736.460          46.700          46.350
 108645045.946 8  84658494.37347                  20674459.540
  20674456.540          50.100          47.250
 124494122.764 7  97008354.47646                  23690458.040
  23690457.260          46.450          39.550
 112809130.279 8  87903232.750 7                  21466850.940    21466848.940
  21466848.220          49.800          47.950
 103546199.718 7  80536025.313 7                  19424963.360    19424971.300
  19424970.560          42.900          42.050
 122055410.622 7  94932022.778 7                  22832981.340    22832987.700
  22832987.360          45.100          42.700
 130873917.705 7 101790863.070 6                  24456920.680    24456927.260
  24456925.620          42.700          36.200
 112083866.821 6  87176440.768 7                  20989678.100    20989684.100
  20989682.500          41.800          45.300
 128061520.875 6  99603393.153 6                  23939757.260    23939764.900
  23939763.180          41.750          38.400
 111195712.107 8  86485577.991 7                  20772289.040    20772291.500
  20772290.300          48.400          45.650
 125168341.694 6  97353185.707 6                  23407110.920    23407119.040
  23407117.100          40.500          40.150
 105511794.028 7  82064770.396 7                  19703571.720    19703574.000
  19703572.900          47.150          46.850
 118197876.571 7  91931818.066 6                  22119076.620    22119086.600
  22119084.640          45.050          41.500
 15  1 27 14  6 25.0000000  0 19G30G06G07G13G02G28G09G10G20G05R14R05
                                R21R13R19R03R20R04R15
 106981658.158 8  83362422.206 8  79889001.770 8  20357898.500    20357898.540
  20357897.700          50.650          50.050
 124183561.116 7  96766396.743 7  92734457.565 8  23631358.280    23631363.600
  23631362.640          46.850          44.150
 111791076.454 8  87110001.090 7                  21273109.500    21273106.760
  21273106.220          49.700          47.600
 120932531.944 8  94233198.26546                  23012678.480
  23012677.160          48.150          39.200
 114026875.851 8  88852109.84547                  21698588.420
  21698584.300          49.200          45.950
 126167413.621 7  98312379.13245                  24008811.360
  24008813.180          46.400          35.150
 121665354.610 7  94804191.673 7  90854024.990 8  23152139.000    23152139.980
  23152139.500          46.700          46.200
 108653345.968 8  84664961.92047                  20676039.000
  20676036.000          50.100          47.000
 124510938.985 7  97021458.00246                  23693658.080
  23693657.300          46.800          38.200
 112798169.507 8  87894691.901 7                  21464765.180    21464763.180
  21464762.460          49.800          47.750
 103539032.934 7  80530451.151 7                  19423618.920    19423626.840
  19423626.080          42.800          42.250
 122038498.402 7  94918868.869 7                  22829817.560    22829823.920
  22829823.600          45.250          43.450
 130866593.828 7 101785166.761 5                  24455551.980    24455558.500
  24455557.000          42.650          35.550
 112098039.305 7  87187463.812 7                  20992332.180    20992338.120
  20992336.520          42.200          45.550
 128078275.223 7  99616424.266 6                  23942889.360    23942896.940
  23942895.200          42.050          38.300
 111205342.445 8  86493068.247 7                  20774088.120    20774090.560
  20774089.320          48.300          45.600
 125174179.219 6  97357726.019 6                  23408202.520    23408210.720
  23408208.760          40.600          40.050
 105505024.875 7  82059505.508 7                  19702307.620    19702309.900
  19702308.780          47.450          46.750
 118176405.889 7  91915118.700 6                  22115058.680    22115068.640
  22115066.620          45.450          41.600
 15  1 27 14  6 30.0000000  0 19G30G06G07G13G02G28G09G10G20G05R14R05
                                R21R13R19R03R20R04R15
 106980982.600 8  83361895.787 8  79888497.295 8  20357769.940    20357769.960
  20357769.140          50.800          50.000
 124201222.815 7  96780159.065 7  92747646.445 8  23634719.260    23634724.600
  23634723.600          46.650          44.400
 111800332.739 8  87117213.767 7                  21274870.920    21274868.160
  21274867.660          49.750          47.400
 120920091.039 8  94223504.06246                  23010311.020
  23010309.700          48.150          39.100
 114034954.123 8  88858404.58847                  21700125.680
  21700121.580          49.250          45.600
 126152775.452 7  98300972.81745                  24006025.800
  24006027.560          46.250          35.500
 121677984.042 7  94814032.777 7  90863456.032 8  23154542.260    23154543.280
  23154542.860          46.650          46.350
 108661657.185 8  84671438.18447                  20677620.600
  20677617.580          50.050          47.200
 124527759.308 7  97034564.73546                  23696858.900
  23696858.160          46.650          36.950
 112787216.805 8  87886157.336 7                  21462680.940    21462678.960
  21462678.240          49.800          47.850
 103531887.043 7  80524893.236 7                  19422278.420    19422286.260
  19422285.500          42.700          42.400
 122021585.367 7  94905714.299 7                  22826653.660    22826660.020
  22826659.740          45.150          43.800
 130859287.505 7 101779484.078 6                  24454186.680    24454192.980
  24454191.660          43.350          37.750
 112112227.032 7  87198498.710 7                  20994989.140    20994995.020
  20994993.460          42.050          45.750
 128095034.066 7  99629458.877 6                  23946022.240    23946029.840
  23946028.120          43.100          39.600
 111214982.870 8  86500566.354 7                  20775889.120    20775891.500
  20775890.260          48.250          45.900
 125180034.470 6  97362280.099 6                  23409297.500    23409305.780
  23409303.780          40.050          40.300
 105498264.789 7  82054247.665 7                  19701045.220    19701047.500
  19701046.360          47.600          46.800
 118154942.613 7  91898425.089 6                  22111042.100    22111052.140
  22111050.040          44.850          41.600
 15  1 27 14  6 35.0000000  0 19G30G06G07G13G02G28G09G10G20G05R14R05
                                R21R13R19R03R20R04R15
 106980323.253 8  83361382.022 8  79888004.930 8  20357644.480    20357644.500
  20357643.680          50.550          49.350
 124218887.706 7  96793923.868 7  92760837.701 8  23638080.800    23638086.180
  23638085.220          46.250          43.600
 111809601.050 8  87124435.828 7                  21276634.620    21276631.880
  21276631.400          49.800          46.700
 120907654.961 7  94213813.62546                  23007944.500
  23007943.180          47.900          38.400
 114043046.620 8  88864710.42447                  21701665.660
  21701661.560          49.150          45.100
 126138139.669 7  98289568.36445                  24003240.660
  24003242.480          46.200          34.250
 121690616.435 7  94823876.177 7  90872889.303 8  23156946.080    23156947.160
  23156946.780          46.700          45.150
 108669980.972 8  84677924.25447                  20679204.560
  20679201.560          49.800          46.050
 124544585.114 7  97047675.72646                  23700060.740
  23700060.060          46.200          37.400
 112776273.475 8  87877630.080 7                  21460598.500    21460596.520
  21460595.800          49.700          47.000
 103524763.481 7  80519352.698 7                  19420942.040    19420949.900
  19420949.160          42.950          42.200
 122004672.938 7  94892560.217 7                  22823489.900    22823496.200
  22823495.980          45.450          43.300
 130852000.110 7 101773816.098 6                  24452824.900    24452831.200
  24452829.900          42.900          37.900
 112126431.530 7  87209546.634 7                  20997649.260    20997655.060
  20997653.500          42.050          45.550
 128111798.636 7  99642497.956 6                  23949156.240    23949163.880
  23949162.200          42.850          39.350
 111224634.594 8  86508073.243 7                  20777692.180    20777694.500
  20777693.300          48.300          45.700
 125185908.809 6  97366849.006 6                  23410396.080    23410404.380
  23410402.360          40.350          39.750
 105491515.144 7  82048997.952 7                  19699784.780    19699787.040
  19699785.900          47.800          46.800
 118133488.279 7  91881738.454 6                  22107027.180    22107037.160
  22107035.140          45.000          41.650
 15  1 27 14  6 40.0000000  0 19G30G06G07G13G02G28G09G10G20G05R14R05
                                R21R13R19R03R20R04R15
 106979678.621 8  83360879.711 8  79887523.546 8  20357521.800    20357521.820
  20357521.000          50.600          49.450
 124236554.247 7  96807689.957 7  92774030.191 8  23641442.680    23641448.060
  23641447.160          46.750          43.650
 111818879.840 8  87131666.052 7                  21278400.340    21278397.600
  21278397.140          49.950          47.000
 120895222.186 8  94204125.75346                  23005578.640
  23005577.260          48.000          38.100
 114051151.782 8  88871026.12647                  21703208.060
  21703203.940          49.250          44.750
 126123504.744 7  98278164.58245                  24000455.680
  24000457.620          45.900          34.300
 121703250.307 7  94833720.739 7  90882323.663 8  23159350.220    23159351.300
  23159350.960          46.650          45.300
 108678315.826 8  84684418.94447                  20680790.620
  20680787.640          49.800          46.550
 124561414.828 7  97060789.75246                  23703263.360
  23703262.720          46.400          36.300
 112765338.019 8  87869108.952 7                  21458517.560    21458515.600
  21458514.860          49.950          47.050
 103517660.911 7  80513828.488 7                  19419609.600    19419617.460
  19419616.720          43.100          42.000
 121987759.556 7  94879405.389 7                  22820325.960    22820332.200
  22820331.900          45.750          42.200
 130844730.181 7 101768161.703 6                  24451466.360    24451472.720
  24451471.420          42.850          36.800
 112140651.107 7  87220606.299 7                  21000312.140    21000317.960
  21000316.380          42.600          45.350
 128128567.526 7  99655540.401 6                  23952291.040    23952298.700
  23952297.080          42.650          39.050
 111234296.276 8  86515587.879 7                  20779497.140    20779499.400
  20779498.200          48.150          45.550
 125191800.738 6  97371431.620 6                  23411497.940    23411506.300
  23411504.200          41.000          40.050
 105484774.600 8  82043755.301 7                  19698526.060    19698528.280
  19698527.140          48.350          46.800
 118112041.446 7  91865057.650 6                  22103013.660    22103023.660
  22103021.620          45.200          41.000
 15  1 27 14  6 45.0000000  0 19G30G06G07G13G02G28G09G10G20G05R14R05
                                R21R13R19R03R20R04R15
 106979048.250 8  83360388.509 8  79887052.823 8  20357401.840    20357401.860
  20357401.020          50.900          49.800
 124254221.981 7  96821456.983 7  92787223.589 8  23644804.800    23644810.160
  23644809.300          46.800          44.100
 111828168.672 8  87138904.088 7                  21280167.960    21280165.200
  21280164.800          50.150          47.300
 120882792.264 8  94194440.10346                  23003213.300
  23003211.860          48.250          38.150
 114059269.222 8  88877351.38647                  21704752.780
  21704748.680          49.600          45.250
 126108870.353 7  98266761.23045                  23997670.800
  23997672.720          46.050          35.650
 121715885.171 7  94843566.060 7  90891758.768 8  23161754.560    23161755.640
  23161755.320          46.950          45.600
 108686661.300 8  84690921.89947                  20682378.700
  20682375.740          49.850          46.700
 124578248.025 7  97073906.50546                  23706466.600
  23706465.960          46.600          36.750
 112754410.047 8  87860593.642 7                  21456438.040    21456436.020
  21456435.320          50.050          47.400
 103510578.798 7  80508320.171 7                  19418281.020    19418288.860
  19418288.140          43.000          42.700
 121970844.842 7  94866249.492 7                  22817161.720    22817167.960
  22817167.560          45.800          42.950
 130837477.202 7 101762520.484 6                  24450110.940    24450117.320
  24450116.060          42.350          36.550
 112154885.179 7  87231677.236 7                  21002977.800    21002983.560
  21002981.980          42.700          45.700
 128145340.131 7  99668585.731 6                  23955426.580    23955434.200
  23955432.660          42.750          39.850
 111243967.431 7  86523109.868 7                  20781303.820    20781306.060
  20781304.880          47.950          46.000
 125197709.747 6  97376027.526 6                  23412602.960    23412611.380
  23412609.260          40.600          40.350
 105478042.442 8  82038519.163 7                  19697268.920    19697271.060
  19697269.920          48.350          47.150
 118090601.623 7  91848382.286 6                  22099001.420    22099011.500
  22099009.420          45.600          41.550
 15  1 27 14  6 50.0000000  0 19G30G06G07G13G02G28G09G10G20G05R14R05
                                R21R13R19R03R20R04R15
 106978435.263 8  83359910.863 8  79886595.071 8  20357285.200    20357285.200
  20357284.380          50.650          49.750
 124271894.030 7  96835227.370 7  92800420.212 8  23648167.700    23648173.100
  23648172.200          46.600          44.100
 111837470.648 8  87146152.377 7                  21281938.080    21281935.300
  21281934.960          50.350          47.250
 120870368.340 7  94184759.13446                  23000849.080
  23000847.640          47.950          38.950
 114067402.025 8  88883688.62947                  21706300.420
  21706296.340          49.600          45.100
 126094239.531 7  98255360.62845                  23994886.660
  23994888.520          45.950          34.950
 121728524.182 7  94853414.625 7  90901196.981 8  23164159.760    23164160.760
  23164160.440          47.550          45.200
 108695020.519 8  84697435.57647                  20683969.400
  20683966.480          49.750          46.800
 124595087.831 7  97087028.40146                  23709671.120
  23709670.480          46.400          37.400
 112743492.634 8  87852086.576 7                  21454360.540    21454358.520
  21454357.820          50.000          47.400
 103503520.344 7  80502830.269 7                  19416956.860    19416964.680
  19416964.000          43.000          42.350
 121953931.892 7  94853095.003 7                  22813997.800    22814004.040
  22814003.640          45.550          42.900
 130830244.381 7 101756894.979 6                  24448759.360    24448765.760
  24448764.440          43.250          36.900
 112169137.274 7  87242762.197 7                  21005646.780    21005652.500
  21005650.940          42.250          45.600
 128162119.733 7  99681636.486 6                  23958563.380    23958571.080
  23958569.540          42.550          39.300
 111253651.150 7  86530641.651 7                  20783112.880    20783115.060
  20783113.900          47.700          46.150
 125203639.053 6  97380639.194 6                  23413711.780    23413720.260
  23413718.100          40.600          39.750
 105471322.108 8  82033292.245 7                  19696014.000    19696016.080
  19696014.940          48.650          47.050
 118069171.828 7  91831714.713 6                  22094991.080    22095001.140
  22094999.080          45.350          41.550
 15  1 27 14  6 55.0000000  0 19G30G06G07G13G02G28G09G10G20G05R14R05
                                R21R13R19R03R20R04R15
 106977837.992 8  83359445.453 8  79886149.057 8  20357171.540    20357171.520
  20357170.720          50.700          49.750
 124289568.706 7  96848999.812 7  92813618.796 8  23651531.120    23651536.500
  23651535.640          46.350          44.400
 111846784.134 8  87153409.639 7                  21283710.380    21283707.580
  21283707.260          50.400          47.100
 120857948.755 7  94175081.54346                  22998485.700
  22998484.240          47.750          38.900
 114075548.500 8  88890036.52147                  21707850.680
  21707846.580          49.250          45.250
 126079610.621 7  98243961.53446                  23992102.860
  23992104.720          45.900          36.300
 121741165.635 7  94863265.105 7  90910637.008 8  23166565.400    23166566.340
  23166566.000          47.050          44.950
 108703391.809 8  84703958.65947                  20685562.400
  20685559.540          49.550          47.000
 124611932.532 7  97100154.11346                  23712876.520
  23712875.960          46.350          36.650
 112732584.179 8  87843586.487 7                  21452284.740    21452282.700
  21452282.020          49.900          47.450
 103496483.825 7  80497357.435 7                  19415636.840    19415644.660
  19415643.960          43.050          42.000
 121937019.058 7  94839940.605 7                  22810833.920    22810840.160
  22810839.760          44.650          42.600
 130823030.147 7 101751283.911 6                  24447411.240    24447417.560
  24447416.260          43.600          36.150
 112183405.408 7  87253859.634 7                  21008318.740    21008324.480
  21008322.920          42.000          45.650
 128178904.609 7  99694691.375 6                  23961701.160    23961708.860
  23961707.340          42.300          38.550
 111263345.810 7  86538181.943 7                  20784923.960    20784926.140
  20784924.980          47.800          45.950
 125209586.959 6  97385265.327 6                  23414824.080    23414832.580
  23414830.400          41.050          39.350
 105464611.764 8  82028073.096 7                  19694760.940    19694762.980
  19694761.820          48.350          47.100
 118047750.422 7  91815053.686 6                  22090982.300    22090992.440
  22090990.340          45.900          41.150
 15  1 27 14  7  0.0000000  0 19G30G06G07G13G02G28G09G10G20G05R14R05
                                R21R13R19R03R20R04R15
 106977254.665 8  83358990.920 8  79885713.459 8  20357060.540    20357060.520
  20357059.720          50.650          49.700
 124307244.246 7  96862772.915 7  92826818.014 8  23654894.720    23654900.140
  23654899.280          46.750          44.350
 111856107.365 8  87160674.501 7                  21285484.580    21285481.760
  21285481.400          50.250          46.850
 120845531.719 7  94165405.94746                  22996122.780
  22996121.360          47.750          39.250
 114083706.874 8  88896393.68147                  21709403.180
  21709399.120          49.200          45.400
 126064981.900 7  98232562.57245                  23989319.060
  23989320.920          45.900          35.850
 121753807.782 7  94873116.116 7  90920077.572 8  23168971.180    23168972.040
  23168971.680          47.250          44.800
 108711773.383 8  84710489.75147                  20687157.340
  20687154.520          49.600          47.350
 124628780.420 7  97113282.31146                  23716082.520
  23716082.080          46.400          37.500
 112721682.858 8  87835091.957 7                  21450210.300    21450208.220
  21450207.540          49.900          47.300
 103489467.419 7  80491900.236 7                  19414320.560    19414328.400
  19414327.680          42.850          42.300
 121920104.638 7  94826784.955 7                  22807669.700    22807675.960
  22807675.540          45.300          42.600
 130815832.569 7 101745685.753 6                  24446066.220    24446072.420
  24446071.160          44.400          37.400
 112197687.839 7  87264968.179 7                  21010993.340    21010999.100
  21010997.540          42.200          45.750
 128195692.796 7  99707748.829 6                  23964839.540    23964847.280
  23964845.700          43.250          38.300
 111273049.555 7  86545729.299 7                  20786736.720    20786738.920
  20786737.740          47.900          46.000
 125215551.582 6  97389904.471 6                  23415939.500    23415947.960
  23415945.800          41.150          39.300
 105457909.612 8  82022860.308 7                  19693509.400    19693511.380
  19693510.220          48.750          47.050
 118026335.766 7  91798397.892 6                  22086974.860    22086984.920
  22086982.820          46.400          41.000
 15  1 27 14  7  5.0000000  0 19G30G06G07G13G02G28G09G10G20G05R14R05
                                R21R13R19R03R20R04R15
 106976687.486 8  83358548.957 8  79885289.914 8  20356952.620    20356952.600
  20356951.760          50.500          49.650
 124324922.811 7  96876548.379 7  92840019.502 8  23658258.880    23658264.300
  23658263.460          46.600          44.300
 111865442.476 8  87167948.609 7                  21287261.000    21287258.180
  21287257.780          50.050          46.650
 120833119.438 7  94155734.05646                  22993760.800
  22993759.340          47.800          38.650
 114091879.363 8  88902761.84447                  21710958.360
  21710954.300          49.100          45.650
 126050355.591 7  98221165.50045                  23986535.720
  23986537.520          45.950          34.200
 121766452.845 7  94882969.398 7  90929520.302 8  23171377.520    23171378.300
  23171377.900          47.400          44.900
 108720167.483 8  84717030.59847                  20688754.680
  20688751.900          49.600          47.000
 124645633.647 7  97126414.65346                  23719289.580
  23719289.220          46.250          36.700
 112710790.924 8  87826604.734 7                  21448137.640    21448135.540
  21448134.880          49.850          47.150
 103482473.363 7  80486460.413 7                  19413008.520    19413016.340
  19413015.580          43.100          42.400
 121903190.716 7  94813629.701 7                  22804505.560    22804511.820
  22804511.360          45.000          42.250
 130808653.908 7 101740102.341 6                  24444724.760    24444730.900
  24444729.700          44.600          36.750
 112211986.754 7  87276089.539 7                  21013671.120    21013676.840
  21013675.260          42.550          45.650
 128212486.664 7  99720810.681 6                  23967978.980    23967986.720
  23967985.100          43.700          37.950
 111282764.774 7  86553285.562 7                  20788551.580    20788553.820
  20788552.660          47.600          45.900
 125221535.161 6  97394558.379 6                  23417058.480    23417066.980
  23417064.700          40.950          39.350
 105451217.922 8  82017655.664 7                  19692259.800    19692261.720
  19692260.560          48.450          47.200
 118004930.140 7  91781749.110 6                  22082969.060    22082979.120
  22082976.980          46.850          41.050
 15  1 27 14  7 10.0000000  0 19G30G06G07G13G02G28G09G10G20G05R14R05
                                R21R13R19R03R20R04R15
 106976135.781 8  83358119.059 8  79884877.929 8  20356847.640    20356847.600
  20356846.780          50.650          49.550
 124342603.774 7  96890325.714 7  92853222.760 8  23661623.500    23661628.920
  23661628.100          46.400          43.900
 111874788.791 8  87175231.457 7                  21289039.560    21289036.720
  21289036.300          50.000          46.400
 120820711.282 7  94146065.38246                  22991399.580
  22991398.120          47.800          37.750
 114100065.303 8  88909140.49247                  21712516.100
  21712512.020          49.150          45.200
 126035731.054 7  98209769.80346                  23983752.740
  23983754.480          45.300          36.250
 121779100.139 7  94892824.426 7  90938964.688 8  23173784.260    23173785.000
  23173784.520          47.350          44.300
 108728573.442 8  84723580.70147                  20690354.280
  20690351.520          49.650          46.900
 124662491.572 7  97139550.66846                  23722497.520
  23722497.180          46.650          36.600
 112699907.735 8  87818124.340 7                  21446066.620    21446064.560
  21446063.880          49.850          47.100
 103475501.102 7  80481037.552 7                  19411700.560    19411708.380
  19411707.580          43.050          42.550
 121886276.753 7  94800474.413 7                  22801341.440    22801347.640
  22801347.180          44.750          42.000
 130801493.579 7 101734533.224 6                  24443386.720    24443392.860
  24443391.720          42.900          37.000
 112226301.342 7  87287223.093 7                  21016351.800    21016357.500
  21016355.900          42.700          45.550
 128229285.443 7  99733876.380 6                  23971119.420    23971127.040
  23971125.460          43.200          37.800
 111292490.768 7  86560850.214 7                  20790368.500    20790370.700
  20790369.560          47.550          46.050
 125227537.077 6  97399226.527 6                  23418180.860    23418189.340
  23418187.100          41.200          39.650
 105444536.149 8  82012458.733 7                  19691012.060    19691013.960
  19691012.780          48.400          47.300
 117983532.890 7  91765106.850 6                  22078964.880    22078974.840
  22078972.720          46.950          40.900
 15  1 27 14  7 15.0000000  0 19G30G06G07G13G02G28G09G10G20G05R14R05
                                R21R13R19R03R20R04R15
 106975598.824 8  83357700.655 8  79884476.960 8  20356745.460    20356745.440
  20356744.580          50.450          50.250
 124360286.333 7  96904104.284 7  92866427.227 8  23664988.420    23664993.840
  23664993.060          46.450          45.050
 111884145.568 8  87182522.450 7                  21290820.080    21290817.260
  21290816.780          49.900          47.350
 120808306.513 7  94136399.32846                  22989039.000
  22989037.600          47.550          39.650
 114108263.915 8  88915529.01147                  21714076.260
  21714072.160          49.200          45.950
 126021107.517 7  98198374.88946                  23980969.880
  23980971.720          45.000          37.400
 121791748.912 7  94902680.605 7  90948410.196 8  23176191.320    23176191.980
  23176191.440          47.450          45.500
 108736990.488 8  84730139.42747                  20691955.980
  20691953.240          49.750          47.950
 124679353.436 7  97152689.75446                  23725706.240
  23725705.940          46.550          38.200
 112689032.563 8  87809650.181 7                  21443997.120    21443995.060
  21443994.400          49.850          47.950
 103468549.768 7  80475630.955 7                  19410396.480    19410404.300
  19410403.520          43.050          42.400
 121869362.042 7  94787318.535 7                  22798177.140    22798183.300
  22798182.860          44.950          42.100
 130794350.736 7 101728977.636 6                  24442051.960    24442057.960
  24442056.820          43.100          37.100
 112240631.133 7  87298368.477 7                  21019035.360    21019041.000
  21019039.400          42.750          45.100
 128246088.454 7  99746945.344 6                  23974260.540    23974268.180
  23974266.620          42.800          37.550
 111302226.594 7  86568422.510 7                  20792187.220    20792189.480
  20792188.280          47.850          45.850
 125233556.503 6  97403908.280 6                  23419306.540    23419315.040
  23419312.840          41.050          39.600
 105437863.393 8  82007268.817 7                  19689765.960    19689767.860
  19689766.680          48.650          46.900
 117962143.079 7  91748470.368 6                  22074962.040    22074971.940
  22074969.840          46.600          41.100
 15  1 27 14  7 20.0000000  0 19G30G06G07G13G02G28G09G10G20G05R14R05
                                R21R13R19R03R20R04R15
 106975078.914 8  83357295.526 8  79884088.703 8  20356646.540    20356646.480
  20356645.640          50.650          50.150
 124377972.804 7  96917885.915 7  92879634.594 8  23668354.080    23668359.500
  23668358.680          46.550          44.650
 111893515.099 8  87189823.388 7                  21292603.000    21292600.220
  21292599.700          49.800          47.050
 120795907.394 7  94126737.69546                  22986679.480
  22986678.100          47.700          39.550
 114116477.512 8  88921929.20447                  21715639.260
  21715635.120          49.400          45.800
 126006487.322 7  98186982.58945                  23978187.700
  23978189.520          45.650          35.550
 121804401.469 7  94912539.725 7  90957858.523 8  23178599.080    23178599.680
  23178599.120          47.400          45.250
 108745420.960 8  84736708.62647                  20693560.260
  20693557.540          49.950          47.600
 124696221.522 7  97165833.69046                  23728916.120
  23728915.840          46.450          37.650
 112678167.680 8  87801184.041 7                  21441929.600    21441927.520
  21441926.860          49.950          47.800
 103461621.737 7  80470242.505 7                  19409096.800    19409104.680
  19409103.880          43.050          42.300
 121852448.876 7  94774163.884 7                  22795013.120    22795019.320
  22795018.860          45.050          42.100
 130787227.780 7 101723437.588 6                  24440720.860    24440726.840
  24440725.700          43.400          36.600
 112254978.191 7  87309527.300 7                  21021722.180    21021727.700
  21021726.120          42.900          44.950
 128262897.865 7  99760019.297 6                  23977402.920    23977410.340
  23977408.900          42.300          36.750
 111311974.622 7  86576004.312 7                  20794008.200    20794010.500
  20794009.300          47.800          45.800
 125239595.773 6  97408605.486 6                  23420435.900    23420444.400
  23420442.240          41.150          38.600
 105431202.111 8  82002087.834 7                  19688521.980    19688523.900
  19688522.740          48.300          46.900
 117940763.085 7  91731841.537 6                  22070961.080    22070970.860
  22070968.860          46.600          41.000
 15  1 27 14  7 25.0000000  0 19G30G06G07G13G02G28G09G10G20G05R14R05
                                R21R13R19R03R20R04R15
 106974572.523 8  83356900.938 8  79883710.567 8  20356550.160    20356550.120
  20356549.280          50.700          49.350
 124395659.661 7  96931667.835 7  92892842.271 8  23671719.800    23671725.240
  23671724.400          46.300          43.250
 111902893.892 8  87197131.534 7                  21294387.680    21294384.960
  21294384.380          49.750          45.900
 120783510.439 7  94117077.73746                  22984320.380
  22984319.020          47.800          37.950
 114124702.538 8  88928338.29547                  21717204.440
  21717200.280          49.450          43.950
 125991866.949 7  98175590.12145                  23975405.520
  23975407.340          46.000          33.750
 121817054.365 7  94922399.112 7  90967307.088 8  23181006.880    23181007.420
  23181006.860          47.350          43.850
 108753861.338 8  84743285.53647                  20695166.400
  20695163.700          49.950          46.000
 124713092.335 7  97178979.74546                  23732126.520
  23732126.260          46.850          36.450
 112667309.621 8  87792723.211 7                  21439863.380    21439861.300
  21439860.640          49.800          46.800
 103454713.520 7  80464869.445 7                  19407800.860    19407808.720
  19407807.920          43.250          42.200
 121835533.628 7  94761007.576 7                  22791848.760    22791854.900
  22791854.460          44.750          42.050
 130780121.183 7 101717910.233 6                  24439392.860    24439398.780
  24439397.540          44.250          36.600
 112269339.071 7  87320696.863 7                  21024411.580    21024417.040
  21024415.420          42.950          44.800
 128279710.204 7  99773095.538 6                  23980545.800    23980553.240
  23980551.720          42.700          36.800
 111321731.498 7  86583592.983 7                  20795830.860    20795833.160
  20795831.960          47.600          45.750
 125245651.356 6  97413315.379 6                  23421568.380    23421576.780
  23421574.680          41.400          38.650
 105424548.708 8  81996912.961 7                  19687279.480    19687281.440
  19687280.260          48.600          46.750
 117919389.366 7  91715217.569 6                  22066961.220    22066971.060
  22066969.060          46.550          41.050
 15  1 27 14  7 30.0000000  0 19G30G06G07G13G02G28G09G10G20G05R14R05
                                R21R13R19R03R20R04R15
 106974083.414 8  83356519.822 8  79883345.321 8  20356457.100    20356457.040
  20356456.220          50.600          49.400
 124413350.625 7  96945452.971 7  92906053.010 8  23675086.300    23675091.760
  23675090.900          46.200          43.300
 111912285.676 8  87204449.811 7                  21296174.840    21296172.160
  21296171.560          49.700          46.250
 120771119.381 7  94107422.38946                  22981962.420
  22981961.060          47.700          38.550
 114132942.741 8  88934759.22647                  21718772.520
  21718768.340          49.400          44.250
 125977250.207 7  98164200.53645                  23972623.960
  23972625.840          45.800          35.150
 121829711.238 7  94932261.622 7  90976758.644 8  23183415.460    23183415.960
  23183415.340          47.600          44.200
 108762315.318 8  84749873.05547                  20696775.120
  20696772.460          50.050          46.250
 124729969.591 7  97192130.83546                  23735338.160
  23735337.900          46.600          36.450
 112656462.166 8  87784270.665 7                  21437799.160    21437797.080
  21437796.420          49.750          46.900
 103447828.922 7  80459514.766 7                  19406509.300    19406517.140
  19406516.400          43.150          42.050
 121818620.138 7  94747852.670 6                  22788684.720    22788690.800
  22788690.380          45.350          41.800
 130773034.715 7 101712398.542 6                  24438068.680    24438074.540
  24438073.240          43.600          36.650
 112283717.581 7  87331880.155 7                  21027104.280    21027109.680
  21027108.040          42.800          45.050
 128296529.233 7  99786176.976 6                  23983689.980    23983697.380
  23983695.820          42.200          36.450
 111331500.909 7  86591191.409 7                  20797655.840    20797658.180
  20797656.960          47.800          45.750
 125251727.023 6  97418040.895 6                  23422704.600    23422712.900
  23422710.880          41.400          38.550
 105417906.950 8  81991747.168 7                  19686039.180    19686041.140
  19686039.960          48.600          46.850
 117898025.916 7  91698601.600 6                  22062963.300    22062973.180
  22062971.160          46.800          41.150
 15  1 27 14  7 35.0000000  0 19G30G06G07G13G02G28G09G10G20G05R14R05
                                R21R13R19R03R20R04R15
 106973609.165 8  83356150.271 8  79882991.170 8  20356366.840    20356366.800
  20356365.960          50.700          49.450
 124431043.275 7  96959239.405 7  92919264.996 8  23678453.100    23678458.520
  23678457.720          45.800          42.800
 111921687.998 8  87211776.282 7                  21297964.040    21297961.340
  21297960.760          49.700          46.550
 120758731.799 7  94097769.73446                  22979605.120
  22979603.760          47.450          38.150
 114141195.719 8  88941190.10447                  21720343.020
  21720338.840          49.200          44.750
 125962634.677 7  98152811.85845                  23969842.660
  23969844.700          45.950          35.100
 121842369.725 7  94942125.374 7  90986211.398 8  23185824.300    23185824.800
  23185824.140          47.200          44.400
 108770780.534 8  84756469.31947                  20698385.980
  20698383.340          50.000          46.300
 124746850.864 7  97205285.02746                  23738550.560
  23738550.360          46.700          36.000
 112645622.880 8  87775824.471 7                  21435736.520    21435734.420
  21435733.740          49.550          46.950
 103440965.425 7  80454176.499 7                  19405221.760    19405229.560
  19405228.820          42.850          42.200
 121801706.034 7  94734697.271 6                  22785520.540    22785526.560
  22785526.120          45.450          41.400
 130765965.970 7 101706900.635 6                  24436747.780    24436753.700
  24436752.300          42.250          37.250
 112298111.145 7  87343075.130 7                  21029799.740    21029805.140
  21029803.460          42.700          45.300
 128313352.523 7  99799261.707 5                  23986835.020    23986842.360
  23986840.680          43.700          35.500
 111341280.338 7  86598797.615 7                  20799482.660    20799485.080
  20799483.840          47.600          45.800
 125257820.276 6  97422780.077 6                  23423844.100    23423852.340
  23423850.240          41.000          37.400
 105411274.534 8  81986588.618 7                  19684800.620    19684802.580
  19684801.400          48.750          46.850
 117876670.238 7  91681991.659 6                  22058966.820    22058976.700
  22058974.720          46.550          41.250
 15  1 27 14  7 40.0000000  0 19G30G06G07G13G02G28G09G10G20G05R14R05
                                R21R13R19R03R20R04R15
 106973150.755 8  83355793.069 8  79882648.855 8  20356279.620    20356279.560
  20356278.720          50.650          49.550
 124448738.590 7  96973027.921 7  92932478.977 8  23681820.420    23681825.820
  23681825.000          45.650          42.850
 111931101.914 8  87219111.788 7                  21299755.440    21299752.780
  21299752.200          49.950          46.400
 120746348.720 7  94088120.59046                  22977248.660
  22977247.360          47.600          38.400
 114149462.471 8  88947631.72247                  21721916.140
  21721911.980          49.400          44.800
 125948021.353 7  98141424.91246                  23967061.840
  23967063.880          46.150          36.650
 121855030.856 7  94951991.157 7  90995666.107 8  23188233.640    23188234.140
  23188233.460          47.050          44.250
 108779257.960 8  84763075.09547                  20699999.160
  20699996.560          50.100          46.550
 124763737.175 7  97218443.17546                  23741763.920
  23741763.740          46.750          36.250
 112634792.801 8  87767385.450 7                  21433675.620    21433673.500
  21433672.820          49.700          47.100
 103434124.024 7  80448855.401 7                  19403938.360    19403946.100
  19403945.380          42.600          42.250
 121784792.288 7  94721542.133 6                  22782356.440    22782362.380
  22782361.960          45.650          41.950
 130758915.930 6 101701417.262 6                  24435430.320    24435436.280
  24435434.900          41.150          37.550
 112312520.891 7  87354282.691 7                  21032498.240    21032503.620
  21032501.940          42.500          45.200
 128330180.884 7  99812350.401 5                  23989981.020    23989988.180
  23989986.480          42.950          34.900
 111351070.955 7  86606412.521 7                  20801311.580    20801314.080
  20801312.840          47.500          46.000
 125263932.283 6  97427533.872 6                  23424987.100    23424995.280
  23424993.060          40.650          37.750
 105404652.367 8  81981438.041 7                  19683563.980    19683565.940
  19683564.740          48.400          46.850
 117855323.417 7  91665388.630 6                  22054972.040    22054981.900
  22054979.940          46.750          41.050
 15  1 27 14  7 45.0000000  0 19G30G06G07G13G02G28G09G10G20G05R14R05
                                R21R13R19R03R20R04R15
 106972707.627 8  83355447.764 8  79882317.948 8  20356195.300    20356195.220
  20356194.400          50.850          48.850
 124466436.010 7  96986818.079 6  92945694.528 8  23685188.160    23685193.500
  23685192.720          45.250          41.700
 111940526.814 8  87226455.859 7                  21301548.940    21301546.260
  21301545.700          50.100          45.650
 120733969.581 7  94078474.52746                  22974892.960
  22974891.680          47.750          37.350
 114157742.397 8  88954083.60047                  21723491.780
  21723487.600          49.550          43.600
 125933409.685 7  98130039.24545                  23964281.320
  23964283.400          45.750          35.300
 121867693.970 7  94961858.512 7  91005122.337 8  23190643.320    23190643.880
  23190643.160          47.000          43.450
 108787747.028 8  84769689.94947                  20701614.560
  20701612.000          50.100          45.250
 124780627.960 7  97231604.79545                  23744978.160
  23744977.940          46.700          35.600
 112623971.359 8  87758953.168 7                  21431616.360    21431614.240
  21431613.560          49.750          46.200
 103427304.121 7  80443551.040 7                  19402659.000    19402666.780
  19402665.980          43.050          43.650
 121767878.290 7  94708386.822 7                  22779192.360    22779198.220
  22779197.840          45.900          43.350
 130751884.020 6 101695948.015 6                  24434116.220    24434122.300
  24434120.980          40.650          38.500
 112326946.048 7  87365502.252 7                  21035199.540    21035204.960
  21035203.320          42.500          46.300
 128347013.979 7  99825442.804 6                  23993127.880    23993134.800
  23993133.120          42.900          36.950
 111360872.082 7  86614035.614 7                  20803142.500    20803145.000
  20803143.800          47.400          47.200
 125270062.219 6  97432301.600 6                  23426133.400    23426141.640
  23426139.320          40.400          39.600
 105398039.903 8  81976295.005 7                  19682329.140    19682331.080
  19682329.880          48.500          47.800
 117833984.945 7  91648792.083 7                  22050978.840    22050988.680
  22050986.680          46.800          42.700
 15  1 27 14  7 50.0000000  0 19G30G06G07G13G02G28G09G10G20G05R14R05
                                R21R13R19R03R20R04R15
 106972278.477 8  83355113.374 8  79881997.481 8  20356113.640    20356113.560
  20356112.740          50.800          49.000
 124484134.202 7  97000608.835 7  92958910.653 8  23688555.980    23688561.340
  23688560.600          45.300          42.000
 111949961.356 8  87233807.449 7                  21303344.280    21303341.600
  21303341.060          50.200          45.900
 120721593.076 7  94068830.51846                  22972537.780
  22972536.460          47.850          38.700
 114166034.209 8  88960544.74347                  21725069.660
  21725065.480          49.700          43.500
 125918798.453 7  98118653.93145                  23961500.880
  23961502.920          45.350          34.350
 121880357.857 7  94971726.462 7  91014579.117 8  23193053.180    23193053.720
  23193053.000          47.050          43.400
 108796246.444 8  84776312.86747                  20703231.920
  20703229.380          49.950          45.550
 124797521.874 7  97244768.86345                  23748193.020
  23748192.720          46.850          35.650
 112613157.226 8  87750526.579 7                  21429558.500    21429556.360
  21429555.680          49.800          46.550
 103420504.660 7  80438262.581 7                  19401383.460    19401391.200
  19401390.400          43.150          43.400
 121750962.828 7  94695230.389 7                  22776027.920    22776033.800
  22776033.420          45.650          42.000
 130744869.011 6 101690491.918 6                  24432805.260    24432811.320
  24432810.160          41.250          37.450
 112341385.372 7  87376732.835 7                  21037903.580    21037908.980
  21037907.340          42.450          46.150
 128363850.251 7  99838537.614 6                  23996275.340    23996282.040
  23996280.360          43.050          36.400
 111370682.380 7  86621665.841 7                  20804975.120    20804977.660
  20804976.480          47.350          47.200
 125276208.845 6  97437082.290 6                  23427282.860    23427291.060
  23427288.760          39.900          39.650
 105391435.857 8  81971158.533 7                  19681095.880    19681097.840
  19681096.600          48.450          47.900
 117812653.332 7  91632200.879 7                  22046986.860    22046996.700
  22046994.700          46.900          42.000
 15  1 27 14  7 55.0000000  0 19G30G06G07G13G02G28G09G10G20G05R14R05
                                R21R13R19R03R20R04R15
 106971866.711 8  83354792.515 8  79881689.987 8  20356035.300    20356035.220
  20356034.380          50.700          50.050
 124501836.538 7  97014402.822 7  92972129.887 8  23691924.660    23691929.960
  23691929.220          45.050          43.250
 111959408.956 8  87241169.219 7                  21305142.120    21305139.420
  21305138.900          50.200          47.000
 120709222.607 7  94059191.20246                  22970183.780
  22970182.400          47.850          39.000
 114174341.262 8  88967017.75647                  21726650.460
  21726646.260          49.650          45.250
 125904190.971 7  98107271.54146                  23958721.080
  23958723.180          44.600          38.250
 121893025.858 7  94981597.623 7  91024038.977 8  23195463.800    23195464.360
  23195463.680          47.300          45.300
 108804759.578 8  84782946.46947                  20704851.880
  20704849.400          49.800          47.450
 124814422.370 7  97257938.04846                  23751409.100
  23751408.800          46.600          36.750
 112602353.851 8  87742108.360 7                  21427502.680    21427500.540
  21427499.840          49.600          47.650
 103413728.976 7  80432992.609 6                  19400112.360    19400120.080
  19400119.280          42.950          41.700
 121734049.184 7  94682075.332 6                  22772863.880    22772869.780
  22772869.320          45.900          40.750
 130737874.273 6 101685051.573 5                  24431498.140    24431504.060
  24431502.940          41.850          34.950
 112355842.152 7  87387976.989 7                  21040610.920    21040616.280
  21040614.640          42.800          44.600
 128380693.274 7  99851637.730 5                  23999423.960    23999430.740
  23999428.840          42.300          34.500
 111380505.311 7  86629305.888 7                  20806810.100    20806812.680
  20806811.540          47.250          45.700
 125282375.630 6  97441878.644 6                  23428435.960    23428444.220
  23428442.020          40.300          37.700
 105384843.693 8  81966031.297 7                  19679864.840    19679866.840
  19679865.560          48.700          46.600
 117791332.011 7  91615617.668 6                  22042996.800    22043006.660
  22043004.620          47.050          40.400
 15  1 27 14  8  0.0000000  0 19G30G06G07G13G02G28G09G10G20G05R14R05
                                R21R13R19R03R20R04R15
 106971468.059 8  83354481.881 8  79881392.296 8  20355959.440    20355959.340
  20355958.540          50.800          49.850
 124519538.800 7  97028196.754 7  92985349.060 8  23695293.340    23695298.580
  23695297.860          45.250          42.900
 111968865.405 8  87248537.888 7                  21306941.640    21306938.920
  21306938.440          50.250          46.950
 120696853.951 8  94049553.29246                  22967830.140
  22967828.700          48.000          39.100
 114182659.326 8  88973499.35547                  21728233.320
  21728229.140          49.650          45.150
 125889583.062 7  98095888.81546                  23955941.280
  23955943.260          45.550          36.550
 121905693.765 7  94991468.709 7  91033498.763 8  23197874.420    23197874.980
  23197874.340          46.950          45.050
 108813282.184 8  84789587.46147                  20706473.660
  20706471.220          49.800          46.950
 124831325.186 7  97271109.04946                  23754625.640
  23754625.320          46.850          37.700
 112591556.952 8  87733695.201 7                  21425448.080    21425445.960
  21425445.220          49.600          47.550
 103406972.619 7  80427737.677 6                  19398844.820    19398852.600
  19398851.800          42.850          41.800
 121717133.243 7  94668918.510 6                  22769699.420    22769705.280
  22769704.820          45.750          41.300
 130730895.530 6 101679623.649 5                  24430194.000    24430199.940
  24430198.660          40.550          35.000
 112370312.239 7  87399231.506 7                  21043320.740    21043326.100
  21043324.440          42.850          44.600
 128397538.651 6  99864739.659 5                  24002573.060    24002579.880
  24002577.840          41.000          34.050
 111390336.683 7  86636952.503 7                  20808646.640    20808649.260
  20808648.160          47.250          45.700
 125288558.204 6  97446687.304 6                  23429592.120    23429600.380
  23429598.200          40.500          36.950
 105378259.070 8  81960909.923 7                  19678635.200    19678637.200
  19678635.900          48.400          46.700
 117770016.785 7  91599039.207 6                  22039007.920    22039017.660
  22039015.720          46.700          40.200
 15  1 27 14  8  5.0000000  0 19G30G06G07G13G02G28G09G10G20G05R14R05
                                R21R13R19R03R20R04R15
 106971087.129 8  83354185.059 8  79881107.843 8  20355886.980    20355886.860
  20355886.060          50.600          50.400
 124537245.506 7  97041994.160 7  92998571.554 8  23698662.840    23698668.080
  23698667.320          45.250          43.950
 111978335.197 8  87255916.952 7                  21308743.720    21308740.980
  21308740.500          50.300          47.750
 120684491.619 7  94039920.32746                  22965477.680
  22965476.220          47.950          40.500
 114190992.971 8  88979993.08847                  21729819.180
  21729814.980          49.650          46.150
 125874979.327 7  98084509.31145                  23953162.240
  23953164.120          45.750          35.750
 121918366.135 7  95001343.266 7  91042961.882 8  23200285.860    23200286.480
  23200285.800          46.950          45.800
 108821818.844 8  84796239.40448                  20708098.120
  20708095.700          49.650          48.100
 124848234.837 7  97284285.37646                  23757843.480
  23757843.180          46.600          37.450
 112580771.123 8  87725290.665 8                  21423395.580    21423393.460
  21423392.740          49.650          48.250
 103400240.358 7  80422501.474 7                  19397581.860    19397589.700
  19397588.840          42.650          42.550
 121700219.567 7  94655763.449 6                  22766535.360    22766541.220
  22766540.760          45.900          41.750
 130723937.461 6 101674211.813 6                  24428893.800    24428899.740
  24428898.340          41.600          36.400
 112384800.335 7  87410500.019 7                  21046033.980    21046039.260
  21046037.620          43.050          45.500
 128414390.910 6  99877846.953 6                  24005723.400    24005730.160
  24005728.200          40.550          36.000
 111400180.973 7  86644609.166 7                  20810485.600    20810488.240
  20810487.180          47.250          46.100
 125294761.312 6  97451511.940 6                  23430752.100    23430760.300
  23430758.100          40.300          37.550
 105371686.664 8  81955798.056 7                  19677407.860    19677409.860
  19677408.560          48.000          47.100
 117748712.254 7  91582469.060 6                  22035021.020    22035030.740
  22035028.780          46.750          40.900
 15  1 27 14  8 10.0000000  0 19G30G06G07G13G02G28G09G10G20G05R14R05
                                R21R13R19R03R20R04R15
 106970721.439 8  83353900.091 8  79880834.750 8  20355817.400    20355817.280
  20355816.480          50.750          50.300
 124554954.221 7  97055793.112 7  93011795.530 8  23702032.720    23702038.000
  23702037.200          45.700          44.000
 111987815.872 8  87263304.487 7                  21310547.840    21310545.100
  21310544.620          50.300          47.600
 120672133.179 8  94030290.38046                  22963125.940
  22963124.420          48.250          39.900
 114199339.710 8  88986497.02147                  21731407.520
  21731403.340          49.700          45.550
 125860377.257 7  98073131.10645                  23950383.460
  23950385.320          45.250          35.000
 121931040.474 7  95011219.366 7  91052426.466 8  23202697.680    23202698.340
  23202697.700          47.050          45.750
 108830367.095 8  84802900.36647                  20709724.780
  20709722.400          49.900          47.850
 124865148.854 7  97297465.09546                  23761062.140
  23761061.900          47.050          36.000
 112569993.968 8  87716892.879 8                  21421344.720    21421342.640
  21421341.920          49.550          48.100
 103393529.577 7  80417281.977 7                  19396322.920    19396330.760
  19396329.920          42.700          42.750
 121683305.652 7  94642608.189 7                  22763371.240    22763377.120
  22763376.660          45.700          42.100
 130716997.535 7 101668814.087 5                  24427596.960    24427602.840
  24427601.460          42.300          35.850
 112399303.747 7  87421780.429 7                  21048750.040    21048755.280
  21048753.680          43.000          45.400
 128431247.679 6  99890957.762 6                  24008874.560    24008881.460
  24008879.440          41.050          36.050
 111410035.851 7  86652274.055 7                  20812326.520    20812329.200
  20812328.140          47.050          46.150
 125300982.340 6  97456350.508 6                  23431915.460    23431923.600
  23431921.360          40.050          38.550
 105365124.065 8  81950693.809 7                  19676182.320    19676184.360
  19676183.060          48.150          47.400
 117727415.944 7  91565905.301 6                  22031035.660    22031045.420
  22031043.380          46.650          40.300
 15  1 27 14  8 15.0000000  0 19G30G06G07G13G02G28G09G10G20G05R14R05
                                R21R13R19R03R20R04R15
 106970369.901 8  83353626.175 8  79880572.249 8  20355750.520    20355750.400
  20355749.600          50.800          50.150
 124572663.835 7  97069592.772 7  93025020.203 8  23705402.820    23705408.060
  23705407.300          45.750          44.100
 111997306.359 8  87270699.674 7                  21312353.820    21312351.080
  21312350.620          50.100          47.250
 120659777.605 8  94020662.67646                  22960774.780
  22960773.160          48.100          38.800
 114207698.432 8  88993010.31647                  21732998.160
  21732993.980          49.650          45.600
 125845775.862 7  98061753.46545                  23947604.820
  23947606.740          45.600          35.850
 121943715.788 7  95021096.219 7  91061891.784 8  23205109.680    23205110.360
  23205109.760          47.300          45.800
 108838925.877 8  84809569.54547                  20711353.440
  20711351.100          49.950          47.200
 124882066.203 7  97310647.43146                  23764281.440
  23764281.240          47.150          36.350
 112559224.387 8  87708501.013 8                  21419295.300    21419293.260
  21419292.540          49.450          48.000
 103386839.315 7  80412078.461 7                  19395067.880    19395075.680
  19395074.840          42.750          42.750
 121666390.463 7  94629451.951 6                  22760206.900    22760212.780
  22760212.360          46.100          41.700
 130710074.693 7 101663429.636 6                  24426303.260    24426309.000
  24426307.780          42.400          36.950
 112413821.384 7  87433071.924 7                  21051468.840    21051473.980
  21051472.380          43.300          45.400
 128448107.905 6  99904071.230 6                  24012026.400    24012033.380
  24012031.320          41.950          36.600
 111419900.075 7  86659946.225 7                  20814169.200    20814171.960
  20814170.860          47.250          46.050
 125307220.180 6  97461202.149 6                  23433081.900    23433090.020
  23433087.820          39.700          38.200
 105358570.018 7  81945596.223 7                  19674958.420    19674960.460
  19674959.160          47.850          47.400
 117706126.889 7  91549347.182 6                  22027051.680    22027061.320
  22027059.340          46.650          41.000
 15  1 27 14  8 20.0000000  0 19G30G06G07G13G02G28G09G10G20G05R14R05
                                R21R13R19R03R20R04R15
 106970034.758 8  83353365.027 8  79880321.978 8  20355686.760    20355686.620
  20355685.820          50.650          50.050
 124590376.555 7  97083394.859 7  93038247.189 8  23708773.500    23708778.760
  23708777.980          45.800          44.150
 112006808.845 8  87278104.206 7                  21314162.080    21314159.360
  21314158.900          49.850          47.000
 120647427.092 8  94011038.92246                  22958424.580
  22958422.920          48.100          39.300
 114216071.393 8  88999534.68747                  21734591.520
  21734587.300          49.600          45.700
 125831177.361 7  98050378.08545                  23944826.780
  23944828.720          45.750          35.100
 121956394.202 7  95030975.491 7  91071359.425 8  23207522.320    23207522.980
  23207522.400          47.500          45.550
 108847497.365 8  84816248.62747                  20712984.520
  20712982.220          49.900          47.050
 124898989.081 7  97323834.05646                  23767501.780
  23767501.540          47.150          36.900
 112548464.610 8  87700116.785 7                  21417247.740    21417245.740
  21417245.040          49.450          47.850
 103380171.829 7  80406892.640 7                  19393817.100    19393824.900
  19393824.040          42.450          42.350
 121649476.233 7  94616296.456 6                  22757042.740    22757048.560
  22757048.200          45.950          41.700
 130703171.214 7 101658060.259 6                  24425013.180    24425018.940
  24425017.780          42.850          37.250
 112428355.508 7  87444376.241 7                  21054190.640    21054195.740
  21054194.180          43.200          45.350
 128464973.618 7  99917188.996 6                  24015179.320    24015186.320
  24015184.280          42.200          36.550
 111429775.951 7  86667627.449 7                  20816014.040    20816016.880
  20816015.720          47.550          45.850
 125313477.102 6  97466068.652 6                  23434252.020    23434260.160
  23434257.800          40.700          38.200
 105352027.006 7  81940507.213 7                  19673736.540    19673738.620
  19673737.340          47.750          47.400
 117684847.326 7  91532796.459 6                  22023069.460    22023079.020
  22023077.060          46.400          40.900
 15  1 27 14  8 25.0000000  0 19G30G06G07G13G02G28G09G10G20G05R14R05
                                R21R13R19R03R20R04R15
 106969714.577 8  83353115.533 8  79880082.882 8  20355625.840    20355625.700
  20355624.900          50.850          50.050
 124608090.970 7  97097198.262 7  93051475.438 8  23712144.500    23712149.760
  23712148.980          45.800          44.350
 112016321.957 8  87285517.008 7                  21315972.320    21315969.640
  21315969.180          49.850          46.950
 120635080.171 8  94001417.94746                  22956075.040
  22956073.380          48.300          39.400
 114224457.082 8  89006068.97747                  21736187.320
  21736183.100          49.650          45.400
 125816580.354 7  98039003.84946                  23942049.000
  23942051.020          45.800          36.300
 121969074.353 7  95040856.117 7  91080828.353 8  23209935.300    23209935.960
  23209935.400          47.350          45.600
 108856080.162 8  84822936.51747                  20714617.760
  20714615.480          49.900          46.950
 124915916.023 7  97337023.86046                  23770722.940
  23770722.700          47.000          37.350
 112537713.233 8  87691739.093 7                  21415201.780    21415199.840
  21415199.140          49.600          47.850
 103373525.656 7  80401723.393 7                  19392570.260    19392578.080
  19392577.240          42.700          42.350
 121632561.522 7  94603140.582 6                  22753878.460    22753884.220
  22753883.920          45.750          41.550
 130696285.670 7 101652704.798 6                  24423726.440    24423732.180
  24423731.100          43.350          36.100
 112442904.653 7  87455692.235 7                  21056915.260    21056920.380
  21056918.780          43.150          45.350
 128481843.511 7  99930309.978 6                  24018333.020    24018340.040
  24018338.060          42.000          36.450
 111439662.160 7  86675316.715 7                  20817860.840    20817863.740
  20817862.500          47.550          45.850
 125319751.676 6  97470948.881 6                  23435425.400    23435433.420
  23435431.080          40.500          37.900
 105345493.372 7  81935425.508 7                  19672516.420    19672518.500
  19672517.260          47.750          47.250
 117663575.814 7  91516251.984 6                  22019088.760    22019098.300
  22019096.320          46.000          40.750
 15  1 27 14  8 30.0000000  0 19G30G06G07G13G02G28G09G10G20G05R14R05
                                R21R13R19R03R20R04R15
 106969409.338 8  83352877.689 8  79879854.950 8  20355567.760    20355567.620
  20355566.840          50.650          50.000
 124625807.039 7  97111002.934 7  93064704.916 8  23715515.800    23715521.040
  23715520.300          46.050          44.300
 112025845.673 8  87292938.080 7                  21317784.600    21317781.940
  21317781.460          49.850          46.650
 120622736.886 8  93991799.81346                  22953726.220
  22953724.560          48.500          38.800
 114232855.448 8  89012613.14247                  21737785.520
  21737781.280          49.550          45.600
 125801984.821 7  98027630.77346                  23939271.500
  23939273.660          46.000          36.850
 121981756.233 7  95050738.085 7  91090298.571 8  23212348.580    23212349.240
  23212348.740          47.150          45.300
 108864674.287 8  84829633.23147                  20716253.160
  20716250.860          50.000          46.800
 124932847.069 7  97350216.85746                  23773944.840
  23773944.540          47.150          36.600
 112526970.291 8  87683367.969 7                  21413157.420    21413155.500
  21413154.820          49.400          47.750
 103366900.884 7  80396570.801 7                  19391327.480    19391335.320
  19391334.460          42.850          42.450
 121615646.522 7  94589984.454 6                  22750714.120    22750719.880
  22750719.620          45.700          41.500
 130689417.981 7 101647363.264 5                  24422443.100    24422448.720
  24422447.560          42.800          34.700
 112457468.857 7  87467019.947 7                  21059642.700    21059647.800
  21059646.180          42.450          45.400
 128498717.531 7  99943434.175 6                  24021487.500    24021494.460
  24021492.560          42.050          36.250
 111449558.468 7  86683013.827 7                  20819709.520    20819712.440
  20819711.180          47.400          45.550
 125326043.859 6  97475842.774 6                  23436602.060    23436610.080
  23436607.720          40.800          38.600
 105338969.241 8  81930351.176 7                  19671298.080    19671300.160
  19671298.940          48.050          47.300
 117642312.250 7  91499713.697 6                  22015109.540    22015119.100
  22015117.060          46.150          41.500
 15  1 27 14  8 35.0000000  0 19G30G06G07G13G02G28G09G10G20G05R14R05
                                R21R13R19R03R20R04R15
 106969119.909 8  83352652.154 8  79879638.812 8  20355512.700    20355512.560
  20355511.780          50.700          49.950
 124643525.603 7  97124809.562 7  93077936.267 8  23718887.600    23718892.840
  23718892.120          46.300          44.400
 112035380.801 8  87300368.046 7                  21319599.040    21319596.420
  21319595.900          49.950          46.600
 120610398.091 8  93982185.18446                  22951378.260
  22951376.560          48.350          39.300
 114241267.488 8  89019167.96947                  21739386.300
  21739382.060          49.550          45.350
 125787391.612 7  98016259.49645                  23936494.480
  23936496.640          46.100          34.750
 121994440.646 7  95060622.031 7  91099770.681 8  23214762.340    23214762.980
  23214762.500          47.300          45.100
 108873280.566 8  84836339.41047                  20717890.880
  20717888.580          49.850          46.950
 124949783.021 7  97363413.67046                  23777167.660
  23777167.420          46.900          36.450
 112516236.594 8  87675004.050 7                  21411114.840    21411112.960
  21411112.260          49.300          47.650
 103360298.281 7  80391435.447 7                  19390088.780    19390096.660
  19390095.820          42.700          42.650
 121598731.811 7  94576828.599 6                  22747549.860    22747555.600
  22747555.380          46.100          41.700
 130682569.138 7 101642036.390 5                  24421163.260    24421168.800
  24421167.540          42.650          35.000
 112472048.936 7  87478359.996 7                  21062373.060    21062378.180
  21062376.560          42.050          45.250
 128515596.483 7  99956562.211 5                  24024642.880    24024649.760
  24024647.940          42.700          34.300
 111459465.994 7  86690719.671 7                  20821560.340    20821563.240
  20821561.980          47.600          45.800
 125332354.513 6  97480751.050 6                  23437782.120    23437790.200
  23437787.840          40.800          39.300
 105332455.503 8  81925284.940 7                  19670081.700    19670083.760
  19670082.560          48.300          47.350
 117621057.654 7  91483182.377 6                  22011132.020    22011141.500
  22011139.520          46.000          41.500
 15  1 27 14  8 40.0000000  0 19G30G06G07G13G02G28G09G10G20G05R14R05
                                R21R13R19R03R20R04R15
 106968845.772 8  83352438.547 8  79879434.103 8  20355460.540    20355460.400
  20355459.620          50.750          49.900
 124661246.145 7  97138617.736 7  93091169.102 8  23722259.800    23722265.040
  23722264.320          46.350          44.250
 112044926.849 8  87307806.523 7                  21321415.580    21321413.000
  21321412.420          49.950          46.600
 120598063.299 8  93972573.67446                  22949031.020
  22949029.380          48.250          39.600
 114249692.684 8  89025733.04447                  21740989.580
  21740985.340          49.550          45.650
 125772800.254 7  98004889.66245                  23933717.760
  23933719.980          45.300          35.200
 122007127.156 7  95070507.617 7  91109244.360 8  23217176.540    23217177.140
  23217176.660          46.950          44.950
 108881898.498 8  84843054.67847                  20719530.820
  20719528.520          49.800          47.000
 124966723.395 7  97376613.91646                  23780391.340
  23780391.140          46.900          37.150
 112505511.687 8  87666646.987 7                  21409073.900    21409072.080
  21409071.360          49.250          47.700
 103353717.267 7  80386316.885 7                  19388854.220    19388862.100
  19388861.240          42.850          42.600
 121581817.098 7  94563672.734 6                  22744385.600    22744391.380
  22744391.180          45.600          41.550
 130675738.540 7 101636723.705 5                  24419886.780    24419892.340
  24419890.960          42.050          35.800
 112486644.339 6  87489711.959 7                  21065106.300    21065111.440
  21065109.800          41.900          45.350
 128532479.896 7  99969693.740 5                  24027799.100    24027805.780
  24027804.100          42.500          34.050
 111469383.995 7  86698433.664 7                  20823413.080    20823416.000
  20823414.720          47.450          45.600
 125338683.123 6  97485673.281 6                  23438965.620    23438973.700
  23438971.380          41.000          38.650
 105325951.681 8  81920226.419 7                  19668867.200    19668869.200
  19668868.040          48.400          47.200
 117599811.543 7  91466657.665 6                  22007156.140    22007165.600
  22007163.560          45.750          41.300
 15  1 27 14  8 45.0000000  0 19G30G06G07G13G02G28G09G10G20G05R14R05
                                R21R13R19R03R20R04R15
 106968587.779 8  83352237.515 8  79879241.442 8  20355411.460    20355411.300
  20355410.540          50.650          49.650
 124678969.495 7  97152428.102 7  93104404.027 8  23725632.480    23725637.760
  23725637.040          46.150          44.100
 112054484.605 8  87315254.127 7                  21323234.380    21323231.760
  21323231.160          50.200          46.400
 120585733.312 8  93962965.90246                  22946684.720
  22946683.040          48.100          39.100
 114258131.812 8  89032308.97747                  21742595.500
  21742591.280          49.600          45.100
 125758211.574 7  97993521.90945                  23930941.520
  23930943.680          45.650          33.550
 122019816.540 7  95080395.434 7  91118720.175 8  23219591.300    23219591.860
  23219591.380          47.550          44.950
 108890528.898 8  84849779.66947                  20721173.120
  20721170.820          49.700          46.750
 124983668.996 7  97389818.26146                  23783616.000
  23783615.880          46.850          37.300
 112494796.404 8  87658297.425 7                  21407034.820    21407033.060
  21407032.300          49.450          47.500
 103347158.737 7  80381215.814 7                  19387623.860    19387631.740
  19387630.860          42.600          42.000
 121564903.012 7  94550517.336 6                  22741221.480    22741227.160
  22741226.980          45.750          40.650
 130668927.120 6 101631425.945 6                  24418613.880    24418619.520
  24418618.140          41.700          36.100
 112501256.004 7  87501076.573 7                  21067842.580    21067847.740
  21067846.120          42.250          45.000
 128549368.426 7  99982829.241 5                  24030956.300    24030962.860
  24030961.160          42.300          33.650
 111479313.434 7  86706156.548 7                  20825267.980    20825270.940
  20825269.620          47.550          45.600
 125345030.478 6  97490610.097 6                  23440152.620    23440160.800
  23440158.360          40.950          38.500
 105319458.506 8  81915176.168 7                  19667654.680    19667656.640
  19667655.480          48.550          46.700
 117578574.775 7  91450140.219 6                  22003181.960    22003191.400
  22003189.360          46.300          41.250
 15  1 27 14  8 50.0000000  0 19G30G06G07G13G02G28G09G10G20G05R14R05
                                R21R13R19R03R20R04R15
 106968343.696 8  83352047.316 8  79879059.178 8  20355365.020    20355364.880
  20355364.100          50.950          49.700
 124696693.445 7  97166238.923 7  93117639.387 8  23729005.280    23729010.580
  23729009.880          46.450          44.150
 112064051.878 8  87322709.149 7                  21325054.980    21325052.360
  21325051.720          50.350          46.350
 120573405.958 8  93953360.18446                  22944338.880
  22944337.180          48.150          39.550
 114266582.710 8  89038894.07647                  21744203.660
  21744199.460          49.650          45.050
 125743623.422 7  97982154.56545                  23928165.460
  23928167.500          45.600          35.750
 122032506.594 7  95090283.788 7  91128196.520 8  23222006.180    23222006.720
  23222006.240          47.800          44.900
 108899169.588 8  84856512.67447                  20722817.380
  20722815.100          49.650          46.600
 125000617.667 7  97403024.98446                  23786841.260
  23786841.200          46.750          36.650
 112484088.534 8  87649953.634 7                  21404997.140    21404995.400
  21404994.660          49.600          47.250
 103340620.647 7  80376130.637 7                  19386397.360    19386405.240
  19386404.320          42.850          42.000
 121547987.596 7  94537360.913 6                  22738057.080    22738062.740
  22738062.540          45.950          40.800
 130662132.619 7 101626141.335 6                  24417344.140    24417349.720
  24417348.500          42.050          36.600
 112515881.508 7  87512451.959 7                  21070581.480    21070586.640
  21070585.040          42.700          45.050
 128566260.102 7  99995967.179 5                  24034114.020    24034120.620
  24034118.800          43.300          34.550
 111489252.052 7  86713886.577 7                  20827124.660    20827127.540
  20827126.240          47.800          45.750
 125351394.432 6  97495559.828 6                  23441342.760    23441350.920
  23441348.480          40.800          38.850
 105312973.970 8  81910132.642 7                  19666443.780    19666445.720
  19666444.520          48.650          47.000
 117557345.163 7  91433628.323 6                  21999209.120    21999218.520
  21999216.500          46.150          41.100
 15  1 27 14  8 55.0000000  0 19G30G06G07G13G02G28G09G10G20G05R14R05
                                R21R13R19R03R20R04R15
 106968117.464 8  83351871.038 8  79878890.238 8  20355322.000    20355321.800
  20355321.040          50.600          49.850
 124714421.878 7  97180053.243 7  93130878.110 8  23732378.940    23732384.300
  23732383.540          46.250          44.250
 112073632.604 8  87330174.655 7                  21326878.160    21326875.500
  21326874.860          50.300          46.600
 120561085.146 8  93943759.56846                  22941994.300
  22941992.600          48.300          39.150
 114275049.245 8  89045491.36647                  21745814.820
  21745810.600          49.700          45.400
 125729039.711 7  97970790.68545                  23925390.220
  23925392.320          45.450          34.000
 122045201.259 7  95100175.729 7  91137676.295 8  23224421.960    23224422.460
  23224421.960          47.400          44.800
 108907824.479 8  84863256.73647                  20724464.340
  20724462.080          49.700          46.400
 125017573.284 7  97416237.10946                  23790067.820
  23790067.880          46.550          37.600
 112473391.983 8  87641618.661 7                  21402961.640    21402959.940
  21402959.160          49.750          47.450
 103334106.788 7  80371064.306 7                  19385175.380    19385183.260
  19385182.320          42.750          42.000
 121531074.665 7  94524206.422 6                  22734893.120    22734898.820
  22734898.600          44.950          40.950
 130655359.017 6 101620872.967 6                  24416078.260    24416084.080
  24416082.840          41.500          36.650
 112530524.938 7  87523841.289 7                  21073323.760    21073328.900
  21073327.300          43.000          45.050
 128583158.683 7 100009110.464 5                  24037273.040    24037279.640
  24037277.840          43.450          34.800
 111499203.810 8  86721626.821 7                  20828983.760    20828986.580
  20828985.360          48.000          45.600
 125357778.848 6  97500525.458 6                  23442536.680    23442544.880
  23442542.400          41.400          38.400
 105306501.889 8  81905098.797 7                  19665235.200    19665237.100
  19665235.900          48.800          46.900
 117536126.753 7  91417125.151 6                  21995238.380    21995247.720
  21995245.740          45.800          41.050
 15  1 27 14  9  0.0000000  0 19G30G06G07G13G02G28G09G10G20G05R14R05
                                R21R13R19R03R20R04R15
 106967903.600 8  83351704.388 8  79878730.531 8  20355281.300    20355281.120
  20355280.340          50.600          49.750
 124732149.330 7  97193866.789 7  93144116.076 8  23735752.420    23735757.760
  23735757.000          46.200          44.100
 112083221.280 8  87337646.356 7                  21328702.860    21328700.160
  21328699.520          50.300          46.700
 120548765.375 8  93934159.75946                  22939649.940
  22939648.160          48.150          38.550
 114283525.927 8  89052096.56147                  21747427.920
  21747423.680          49.700          45.050
 125714454.956 7  97959426.01345                  23922614.760
  23922616.780          45.650          34.950
 122057895.073 7  95110067.002 7  91147155.422 8  23226837.560    23226838.000
  23226837.520          47.550          44.850
 108916488.090 8  84870007.59747                  20726112.940
  20726110.700          49.700          46.850
 125034530.366 7  97429450.39446                  23793294.660
  23793294.820          46.600          38.050
 112462701.338 8  87633288.286 7                  21400927.260    21400925.560
  21400924.820          49.700          47.550
 103327611.574 7  80366012.478 7                  19383956.900    19383964.720
  19383963.800          42.850          42.100
 121514158.673 7  94511049.542 6                  22731728.640    22731734.300
  22731734.080          46.100          40.850
 130648600.754 6 101615616.561 6                  24414815.160    24414821.240
  24414820.100          40.600          37.700
 112545180.636 7  87535240.166 7                  21076068.320    21076073.440
  21076071.860          43.050          44.900
 128600058.653 7 100022254.893 5                  24040432.340    24040438.980
  24040437.200          42.900          35.350
 111509163.130 7  86729372.956 7                  20830844.300    20830847.100
  20830845.880          47.850          45.850
 125364178.267 6  97505502.788 6                  23443733.380    23443741.540
  23443739.100          41.800          38.700
 105300036.761 8  81900070.371 7                  19664027.920    19664029.820
  19664028.600          48.950          46.900
 117514913.918 7  91400626.317 6                  21991268.700    21991278.000
  21991276.020          44.850          41.500
 15  1 27 14  9  5.0000000  0 19G30G06G07G13G02G28G09G10G20G05R14R05
                                R21R13R19R03R20R04R15
 106967706.294 8  83351550.648 8  79878583.198 8  20355243.760    20355243.560
  20355242.800          50.700          49.750
 124749879.951 7  97207682.808 7  93157356.440 8  23739126.500    23739131.840
  23739131.080          46.550          44.050
 112092822.080 8  87345127.496 7                  21330529.840    21330527.120
  21330526.520          50.400          46.850
 120536450.854 8  93924564.03646                  22937306.560
  22937304.780          48.450          38.750
 114292016.948 8  89058712.92847                  21749043.760
  21749039.460          49.750          45.200
 125699873.452 7  97948063.85745                  23919839.960
  23919841.840          46.100          34.050
 122070592.221 7  95119960.880 7  91156637.041 8  23229253.760    23229254.180
  23229253.720          47.350          44.950
 108925164.608 8  84876768.51047                  20727763.980
  20727761.800          49.750          46.600
 125051493.093 7  97442668.07446                  23796522.600
  23796522.740          46.550          37.650
 112452020.770 8  87624965.766 7                  21398894.800    21398893.120
  21398892.360          49.700          47.600
 103321139.437 7  80360978.591 7                  19382742.760    19382750.540
  19382749.620          43.100          42.400
 121497243.979 7  94497893.674 6                  22728564.380    22728570.040
  22728569.820          46.300          41.600
 130641862.132 6 101610375.382 6                  24413555.820    24413562.080
  24413560.880          41.650          38.000
 112559852.833 7  87546651.870 7                  21078815.960    21078821.100
  21078819.500          42.800          45.500
 128616964.193 7 100035403.589 6                  24043592.700    24043599.480
  24043597.640          42.700          36.850
 111519134.429 7  86737128.409 7                  20832707.080    20832709.840
  20832708.640          47.950          46.200
 125370596.874 6  97510495.024 6                  23444933.640    23444941.840
  23444939.360          41.600          38.700
 105293582.718 8  81895050.568 7                  19662822.680    19662824.580
  19662823.380          49.150          47.550
 117493710.850 7  91384135.096 6                  21987300.760    21987310.080
  21987308.120          44.600          41.550
 15  1 27 14  9 10.0000000  0 19G30G06G07G13G02G28G09G10G20G05R14R05
                                R21R13R19R03R20R04R15
 106967525.103 8  83351409.456 8  79878447.893 8  20355209.300    20355209.100
  20355208.320          50.700          49.750
 124767613.333 7  97221500.987 7  93170598.840 8  23742501.080    23742506.460
  23742505.700          46.700          43.850
 112102434.575 8  87352617.746 7                  21332359.040    21332356.320
  21332355.760          50.350          46.900
 120524141.164 8  93914972.07646                  22934964.120
  22934962.360          48.600          38.650
 114300521.855 8  89065340.11247                  21750662.220
  21750657.900          49.850          45.000
 125685294.725 7  97936703.84345                  23917065.680
  23917067.620          46.100          35.350
 122083292.208 7  95129856.951 7  91166120.795 8  23231670.540    23231670.920
  23231670.480          47.450          45.000
 108933853.578 8  84883539.11747                  20729417.420
  20729415.240          49.800          46.550
 125068461.042 7  97455889.82246                  23799751.560
  23799751.700          46.600          37.250
 112441349.872 8  87616650.780 7                  21396864.180    21396862.480
  21396861.760          49.700          47.750
 103314689.882 7  80355962.275 7                  19381532.860    19381540.640
  19381539.660          43.200          42.400
 121480330.056 7  94484738.416 6                  22725400.300    22725405.960
  22725405.760          46.400          41.250
 130635142.641 7 101605149.113 6                  24412300.000    24412306.500
  24412305.280          42.350          37.250
 112574541.222 7  87558076.156 7                  21081566.600    21081571.780
  21081570.180          42.450          45.500
 128633874.883 7 100048556.302 6                  24046753.980    24046760.680
  24046759.060          42.650          36.800
 111529117.109 8  86744892.703 7                  20834571.980    20834574.720
  20834573.500          48.100          46.000
 125377034.155 6  97515501.789 6                  23446137.440    23446145.580
  23446143.140          41.950          38.850
 105287139.479 8  81890039.151 7                  19661619.460    19661621.320
  19661620.160          49.100          47.350
 117472517.110 7  91367651.082 6                  21983334.580    21983343.880
  21983341.920          44.250          41.350
 15  1 27 14  9 15.0000000  0 19G30G06G07G13G02G28G09G10G20G05R14R05
                                R21R13R19R03R20R04R15
 106967359.215 8  83351280.190 8  79878324.015 8  20355177.740    20355177.520
  20355176.760          50.900          49.650
 124785348.621 7  97235320.647 7  93183842.678 8  23745876.020    23745881.420
  23745880.660          46.450          43.600
 112112057.935 8  87360116.468 7                  21334190.300    21334187.600
  21334187.080          50.100          46.850
 120511835.474 8  93905383.24746                  22932622.420
  22932620.680          48.650          38.400
 114309039.821 8  89071977.49047                  21752283.140
  21752278.820          49.400          45.550
 125670717.982 7  97925345.40945                  23914291.760
  23914293.800          45.650          34.850
 122095994.311 7  95139754.680 7  91175606.118 8  23234087.700    23234088.060
  23234087.620          47.250          44.650
 108942554.214 8  84890318.83147                  20731073.060
  20731070.920          49.500          46.800
 125085433.385 7  97469114.99246                  23802981.300
  23802981.380          46.300          37.150
 112430687.867 8  87608342.737 7                  21394835.240    21394833.580
  21394832.860          49.550          47.600
 103308262.119 7  80350962.916 7                  19380327.020    19380334.820
  19380333.800          43.250          42.450
 121463416.184 7  94471583.186 6                  22722236.220    22722241.860
  22722241.660          45.850          41.200
 130628441.561 7 101599937.201 6                  24411047.700    24411054.300
  24411053.060          42.350          36.800
 112589244.724 7  87569512.196 7                  21084320.060    21084325.260
  21084323.700          42.250          45.450
 128650789.844 7 100061712.370 6                  24049916.020    24049922.780
  24049921.260          42.150          36.600
 111539110.383 7  86752665.239 7                  20836438.860    20836441.540
  20836440.360          47.800          45.750
 125383489.345 7  97520522.490 6                  23447344.640    23447352.720
  23447350.280          42.050          38.700
 105280706.162 8  81885035.464 7                  19660418.100    19660419.960
  19660418.820          49.300          47.300
 117451332.067 7  91351173.864 6                  21979370.000    21979379.380
  21979377.380          44.050          41.000
 15  1 27 14  9 20.0000000  0 19G30G06G07G13G02G28G09G10G20G05R14R05
                                R21R13R19R03R20R04R15
 106967210.723 8  83351164.489 8  79878213.129 8  20355149.500    20355149.260
  20355148.500          50.700          49.650
 124803087.879 7  97249143.398 7  93197089.481 8  23749251.720    23749257.140
  23749256.320          46.650          43.150
 112121694.246 8  87367625.278 7                  21336024.040    21336021.340
  21336020.860          49.800          46.900
 120499535.887 8  93895799.16446                  22930281.860
  22930280.140          48.300          39.400
 114317572.947 8  89078626.66347                  21753906.940
  21753902.620          49.350          45.150
 125656145.306 7  97913990.14145                  23911518.600
  23911520.780          45.650          33.750
 122108700.551 7  95149655.635 7  91185094.530 8  23236505.620    23236505.980
  23236505.540          46.900          44.650
 108951268.579 8  84897109.23947                  20732731.320
  20732729.200          49.400          47.050
 125102412.224 7  97482345.21946                  23806212.260
  23806212.360          46.400          37.950
 112420036.822 8  87600043.231 7                  21392808.400    21392806.740
  21392806.040          49.400          47.300
 103301858.314 7  80345982.183 7                  19379125.660    19379133.420
  19379132.480          43.400          42.600
 121446504.325 7  94458429.541 6                  22719072.520    22719078.240
  22719077.940          46.400          41.200
 130621760.970 6 101594741.176 6                  24409799.240    24409805.780
  24409804.620          40.000          36.550
 112603965.658 7  87580961.793 7                  21087076.900    21087081.980
  21087080.480          42.650          45.300
 128667711.272 7 100074873.506 6                  24053079.260    24053086.180
  24053084.680          43.200          37.350
 111549116.295 7  86760447.611 7                  20838308.100    20838310.720
  20838309.560          47.850          45.700
 125389964.521 7  97525558.740 6                  23448555.560    23448563.620
  23448561.140          42.100          39.200
 105274284.958 8  81880041.203 7                  19659219.000    19659220.880
  19659219.720          49.050          47.450
 117430157.815 7  91334705.045 6                  21975407.440    21975416.780
  21975414.820          44.800          41.100
 15  1 27 14  9 25.0000000  0 19G30G06G07G13G02G28G09G10G20G05R14R05
                                R21R13R19R03R20R04R15
 106967074.762 8  83351058.545 8  79878111.600 8  20355123.640    20355123.420
  20355122.620          50.600          49.650
 124820826.296 7  97262965.504 7  93210335.633 8  23752627.260    23752632.660
  23752631.840          46.450          42.800
 112131338.626 8  87375140.371 7                  21337859.300    21337856.600
  21337856.180          49.750          46.750
 120487237.546 8  93886216.05946                  22927941.540
  22927939.840          48.300          39.850
 114326116.360 8  89085283.85047                  21755532.700
  21755528.380          49.600          45.350
 125641571.874 7  97902634.27045                  23908745.360
  23908747.420          45.950          34.950
 122121406.105 7  95159556.059 7  91194582.428 8  23238923.420    23238923.800
  23238923.340          46.500          44.650
 108959991.841 8  84903906.58247                  20734391.280
  20734389.180          49.350          46.750
 125119392.670 7  97495576.72546                  23809443.560
  23809443.680          46.700          37.900
 112409391.915 8  87591748.504 7                  21390782.720    21390781.080
  21390780.380          49.300          47.200
 103295473.356 7  80341016.115 7                  19377927.920    19377935.540
  19377934.660          43.150          42.550
 121429589.713 7  94445273.734 6                  22715908.320    22715914.060
  22715913.740          46.450          41.650
 130615095.893 6 101589557.234 6                  24408553.700    24408560.200
  24408559.020          40.900          36.250
 112618698.874 7  87592420.967 7                  21089835.920    21089841.040
  21089839.540          42.700          45.100
 128684634.041 7 100088035.626 6                  24056242.760    24056249.820
  24056248.340          42.650          37.300
 111559130.165 8  86768236.178 7                  20840178.780    20840181.420
  20840180.240          48.050          45.800
 125396454.723 7  97530606.658 6                  23449769.320    23449777.300
  23449774.860          42.000          39.250
 105267871.035 8  81875052.588 7                  19658021.260    19658023.100
  19658021.980          49.200          47.050
 117408989.426 7  91318240.763 6                  21971445.980    21971455.320
  21971453.360          45.000          41.150
 15  1 27 14  9 30.0000000  0 19G30G06G07G13G02G28G09G10G20G05R14R05
                                R21R13R19R03R20R04R15
 106966953.594 8  83350964.127 8  79878021.113 8  20355100.580    20355100.340
  20355099.560          50.700          49.700
 124838566.068 7  97276788.660 7  93223582.803 8  23756003.080    23756008.480
  23756007.580          46.450          42.600
 112140993.359 8  87382663.531 7                  21339696.520    21339693.860
  21339693.460          49.850          46.700
 120474942.752 8  93876635.70746                  22925601.920
  22925600.200          48.600          39.000
 114334672.281 8  89091950.79147                  21757160.860
  21757156.500          49.600          44.900
 125626999.962 7  97891279.56745                  23905972.400
  23905974.460          45.700          35.400
 122134113.204 7  95169457.668 7  91204071.488 8  23241341.500    23241341.900
  23241341.420          47.050          44.650
 108968726.264 8  84910712.61847                  20736053.380
  20736051.280          49.600          46.550
 125136377.008 7  97508811.21746                  23812675.620
  23812675.720          46.650          37.200
 112398755.384 8  87583460.293 7                  21388758.620    21388757.020
  21388756.300          49.200          47.000
 103289109.679 7  80336066.578 7                  19376734.120    19376741.760
  19376740.880          43.000          42.450
 121412674.652 7  94432117.587 6                  22712744.040    22712749.720
  22712749.480          46.650          41.550
 130608448.729 6 101584387.238 6                  24407311.420    24407318.000
  24407316.820          40.650          36.550
 112633446.838 7  87603891.600 7                  21092597.700    21092602.880
  21092601.360          42.850          45.050
 128701560.645 7 100101200.687 6                  24059407.040    24059414.020
  24059412.640          42.750          36.550
 111569153.973 8  86776032.452 7                  20842051.360    20842053.900
  20842052.760          48.350          45.750
 125402962.320 6  97535668.104 6                  23450986.320    23450994.300
  23450991.840          41.950          38.850
 105261466.651 8  81870071.409 7                  19656825.300    19656827.140
  19656826.000          48.950          47.350
 117387829.188 7  91301782.816 6                  21967486.120    21967495.460
  21967493.460          45.100          41.450
 15  1 27 14  9 35.0000000  0 19G30G06G07G13G02G28G09G10G20G05R14R05
                                R21R13R19R03R20R04R15
 106966849.434 8  83350882.973 8  79877943.333 8  20355080.760    20355080.520
  20355079.740          50.550          50.100
 124856309.388 7  97290614.593 7  93236832.642 8  23759379.580    23759384.900
  23759384.020          46.350          42.950
 112150660.646 8  87390196.486 7                  21341536.120    21341533.480
  21341533.080          49.650          47.300
 120462653.663 8  93867059.81346                  22923263.380
  22923261.620          48.800          39.700
 114343242.955 8  89098629.23247                  21758791.820
  21758787.440          49.600          45.700
 125612431.803 7  97879927.80846                  23903200.120
  23903202.100          44.900          37.300
 122146824.115 7  95179362.278 7  91213563.380 8  23243760.280    23243760.740
  23243760.220          47.000          45.250
 108977474.035 8  84917529.06747                  20737718.020
  20737715.940          49.550          47.400
 125153367.412 7  97522050.48546                  23815908.820
  23815908.940          46.850          37.650
 112388129.469 8  87575180.371 7                  21386736.540    21386734.980
  21386734.260          49.300          47.700
 103282769.537 7  80331135.365 7                  19375544.700    19375552.400
  19375551.500          42.850          42.100
 121395761.275 7  94418962.757 6                  22709580.060    22709585.660
  22709585.460          46.350          40.300
 130601821.726 6 101579232.898 6                  24406072.960    24406079.720
  24406078.420          40.950          36.000
 112648211.699 7  87615375.382 7                  21095362.680    21095367.880
  21095366.320          42.600          44.400
 128718493.178 6 100114370.398 5                  24062572.520    24062579.400
  24062578.040          41.650          35.750
 111579190.213 8  86783838.413 7                  20843926.240    20843928.760
  20843927.600          48.300          45.050
 125409489.489 7  97540744.781 6                  23452207.060    23452214.960
  23452212.600          42.400          39.200
 105255073.981 8  81865099.334 7                  19655631.580    19655633.360
  19655632.200          48.950          46.700
 117366679.202 7  91285332.871 6                  21963528.240    21963537.480
  21963535.460          45.250          40.650
 15  1 27 14  9 40.0000000  0 19G30G06G07G13G02G28G09G10G20G05R14R05
                                R21R13R19R03R20R04R15
 106966760.545 8  83350813.699 8  79877876.957 8  20355063.840    20355063.600
  20355062.820          50.850          50.050
 124874054.558 7  97304441.959 7  93250083.860 8  23762756.400    23762761.700
  23762760.780          46.200          43.150
 112160338.705 8  87397737.827 7                  21343377.780    21343375.140
  21343374.760          49.650          47.150
 120450368.567 8  93857487.01746                  22920925.620
  22920923.800          48.550          39.600
 114351826.614 8  89105317.78547                  21760425.220
  21760420.860          49.800          45.400
 125597865.675 7  97868577.64245                  23900428.180
  23900430.140          45.250          34.300
 122159537.068 7  95189268.459 7  91223056.800 8  23246179.440    23246179.960
  23246179.440          47.100          45.400
 108986233.441 8  84924354.57247                  20739384.880
  20739382.800          49.700          47.300
 125170362.229 7  97535293.16046                  23819142.900
  23819142.940          46.700          36.800
 112377512.434 8  87566907.361 7                  21384716.140    21384714.640
  21384713.900          49.250          47.700
 103276451.213 7  80326221.121 7                  19374359.340    19374367.040
  19374366.220          42.850          42.200
 121378847.991 7  94405807.983 6                  22706416.120    22706421.620
  22706421.380          46.700          40.150
 130595213.122 7 101574092.860 6                  24404837.940    24404844.900
  24404843.460          42.050          37.400
 112662991.527 7  87626870.802 7                  21098130.460    21098135.680
  21098134.080          42.650          44.750
 128735429.791 7 100127543.321 5                  24065738.680    24065745.660
  24065744.220          42.850          35.950
 111589237.092 8  86791652.648 7                  20845803.120    20845805.600
  20845804.440          48.250          45.150
 125416034.390 7  97545835.251 6                  23453431.060    23453438.860
  23453436.660          42.050          39.100
 105248691.207 8  81860134.961 7                  19654439.660    19654441.460
  19654440.240          48.700          46.800
 117345537.875 7  91268889.630 6                  21959571.940    21959581.100
  21959579.080          44.800          41.350
 15  1 27 14  9 45.0000000  0 19G30G06G07G13G02G28G09G10G20G05R14R05
                                R21R13R19R03R20R04R15
 106966686.820 8  83350756.254 8  79877821.912 8  20355049.800    20355049.580
  20355048.800          50.800          49.900
 124891801.435 7  97318270.648 7  93263336.349 8  23766133.540    23766138.820
  23766137.900          46.200          42.850
 112170027.456 8  87405287.495 7                  21345221.480    21345218.840
  21345218.460          49.950          46.800
 120438087.397 8  93847917.29346                  22918588.580
  22918586.720          48.800          39.000
 114360423.171 8  89112016.38547                  21762061.120
  21762056.740          49.850          44.900
 125583301.500 7  97857228.94845                  23897656.660
  23897658.500          45.450          35.150
 122172251.931 7  95199176.122 7  91232551.655 8  23248599.000    23248599.520
  23248599.000          47.550          45.050
 108995004.371 8  84931189.05947                  20741053.940
  20741051.860          49.750          46.900
 125187361.315 7  97548539.16246                  23822377.780
  23822377.760          47.050          37.550
 112366904.236 8  87558641.232 7                  21382697.400    21382695.960
  21382695.240          49.200          47.650
 103270154.491 7  80321323.662 6                  19373178.080    19373185.760
  19373184.980          42.800          41.950
 121361934.651 7  94392653.159 6                  22703252.180    22703257.600
  22703257.340          46.450          40.650
 130588622.828 6 101568967.049 6                  24403606.340    24403613.460
  24403611.940          41.400          37.200
 112677786.478 7  87638377.978 7                  21100901.060    21100906.280
  21100904.700          42.850          44.800
 128752370.637 7 100140719.483 5                  24068905.680    24068912.600
  24068911.180          42.650          35.800
 111599294.317 8  86799474.930 7                  20847681.940    20847684.380
  20847683.220          48.200          45.100
 125422597.130 7  97550939.607 6                  23454658.400    23454666.200
  23454663.980          42.100          38.300
 105242318.442 8  81855178.365 7                  19653249.620    19653251.400
  19653250.140          48.850          46.750
 117324405.099 7  91252453.048 6                  21955617.200    21955626.360
  21955624.280          45.100          41.150
 15  1 27 14  9 50.0000000  0 19G30G06G07G13G02G28G09G10G20G05R14R05
                                R21R13R19R03R20R04R15
 106966627.927 8  83350710.368 8  79877777.931 8  20355038.580    20355038.380
  20355037.600          50.650          49.850
 124909549.655 7  97332100.389 7  93276589.851 8  23769510.920    23769516.200
  23769515.300          46.050          42.700
 112179726.520 8  87412845.219 7                  21347067.120    21347064.500
  21347064.120          49.950          46.600
 120425809.818 8  93838350.35746                  22916252.240
  22916250.380          48.350          39.700
 114369032.220 8  89118724.72647                  21763699.380
  21763695.020          49.450          45.350
 125568738.937 7  97845881.56845                  23894885.480
  23894887.240          45.350          35.650
 122184968.405 7  95209085.060 7  91242047.715 8  23251018.920    23251019.400
  23251018.880          47.600          44.650
 109003786.479 8  84938032.25647                  20742725.140
  20742723.040          49.850          46.700
 125204364.232 7  97561788.18246                  23825613.380
  23825613.340          46.300          36.900
 112356304.495 8  87550381.707 7                  21380680.300    21380678.900
  21380678.180          49.100          47.450
 103263879.068 7  80316442.784 7                  19372000.800    19372008.520
  19372007.740          42.600          42.100
 121345020.865 7  94379498.029 6                  22700088.100    22700093.420
  22700093.240          46.400          40.850
 130582050.479 6 101563855.218 6                  24402378.120    24402385.400
  24402383.760          40.900          36.350
 112692596.079 7  87649896.548 7                  21103674.420    21103679.640
  21103678.100          42.350          45.100
 128769315.033 6 100153898.418 5                  24072073.300    24072080.300
  24072078.700          41.850          35.650
 111609361.781 7  86807305.172 7                  20849562.640    20849565.120
  20849563.900          47.900          45.500
 125429177.121 6  97556057.390 6                  23455888.940    23455896.660
  23455894.480          41.700          38.550
 105235955.216 8  81850229.194 7                  19652061.360    19652063.120
  19652061.820          48.250          46.800
 117303280.621 7  91236022.920 6                  21951664.020    21951673.160
  21951671.060          44.700          41.600
 15  1 27 14  9 55.0000000  0 19G30G06G07G13G02G28G09G10G20G05R14R05
                                R21R13R19R03R20R04R15
 106966584.491 8  83350676.530 8  79877745.519 8  20355030.320    20355030.100
  20355029.340          50.650          49.800
 124927299.904 7  97345931.712 7  93289844.853 8  23772888.720    23772894.000
  23772893.060          45.800          42.450
 112189436.598 8  87420411.524 7                  21348914.900    21348912.280
  21348911.880          49.850          46.550
 120413536.475 8  93828786.73946                  22913916.680
  22913914.800          48.300          39.600
 114377654.451 8  89125443.34247                  21765340.160
  21765335.800          49.550          45.000
 125554178.663 7  97834535.93745                  23892114.700
  23892116.520          44.950          34.950
 122197687.122 7  95218995.753 7  91251545.465 8  23253439.260    23253439.720
  23253439.160          47.250          44.750
 109012580.413 8  84944884.67047                  20744398.580
  20744396.480          49.900          46.400
 125221371.689 7  97575040.70345                  23828849.820
  23828849.680          46.350          35.950
 112345713.923 8  87542129.320 7                  21378664.960    21378663.560
  21378662.880          49.050          47.400
 103257625.683 7  80311579.051 7                  19370827.620    19370835.360
  19370834.620          42.650          42.450
 121328107.314 7  94366343.062 6                  22696924.060    22696929.360
  22696929.120          46.000          40.250
 130575496.715 6 101558757.864 6                  24401153.400    24401160.760
  24401159.060          41.000          36.250
 112707421.061 7  87661427.086 7                  21106450.700    21106455.900
  21106454.360          42.100          45.200
 128786263.852 6 100167080.791 6                  24075241.760    24075248.720
  24075247.080          41.650          36.100
 111619439.985 7  86815143.776 7                  20851445.340    20851447.820
  20851446.600          47.650          45.650
 125435775.160 6  97561189.210 6                  23457122.900    23457130.520
  23457128.380          41.250          38.650
 105229602.296 8  81845288.047 7                  19650875.000    19650876.760
  19650875.440          48.050          47.100
 117282165.057 7  91219599.745 7                  21947712.480    21947721.620
  21947719.520          44.150          42.000
