     2.1            OBSERVATION DATA    G (GPS)             RINEX VERSION / TYPE
GPSNet 2.62 3098                        29-Sep-14 01:59:50  PGM / RUN BY / DATE
ALCO                                                        MARKER NAME
13496M001                                                   MARKER NUMBER
ICV                 ICV                                     OBSERVER / AGENCY
4426235499          TRIMBLE NETRS       1.31                REC # / TYPE / VERS
     0                                                      RCV CLOCK OFFS APPL
12589891            TRM41249.00                             ANT # / TYPE
  4984687.4297   -41199.1544  3966605.9473                  APPROX POSITION XYZ
        0.0470        0.0000        0.0000                  ANTENNA: DELTA H/E/N
     1     1     0                                          WAVELENGTH FACT L1/2
     6    C1    P2    L1    L2    S1    S2                  # / TYPES OF OBSERV
     5.000                                                  INTERVAL
  2014     9    29     0     0    0.0000000     GPS         TIME OF FIRST OBS
                                                            END OF HEADER
 14  9 29  0  0  0.0000000  0  7G07G26G05G15G28G10G30
  24305635.047    24305632.070    -2406575.36004  -1816542.39646        39.000
        22.000
  20360858.547    20360855.660   -25713133.87207 -19744526.24747        52.000
        40.000
  20617240.977    20617237.684   -21448941.88207 -16129043.24647        51.000
        42.000
  23214554.961    23214552.934    -9682715.58306  -7181761.85546        44.000
        29.000
  21627775.453    21627771.871   -17352996.65707 -11970172.02947        49.000
        34.000
  23553021.484    23553020.215    -6959615.81506  -4729330.12546        45.000
        25.000
  21849161.234    21849160.973   -16151195.78307 -12334383.03247        48.000
        36.000
 14  9 29  0  0  5.0000000  0  7G07G26G05G15G28G10G30
  24308617.141    24308614.297    -2390903.02804  -1804330.17146        39.000
        22.000
  20359707.953    20359705.512   -25719179.79307 -19749237.35247        51.000
        39.000
  20618227.156    20618224.066   -21443757.68707 -16125003.61647        51.000
        42.000
  23212014.148    23212012.328    -9696066.72006  -7192165.31946        44.000
        29.000
  21627132.273    21627129.078   -17356375.77907 -11972805.10047        49.000
        34.000
  23556407.875    23556406.316    -6941820.55106  -4715463.68446        45.000
        26.000
  21851553.898    21851552.977   -16138622.78007 -12324585.89147        48.000
        36.000
 14  9 29  0  0 10.0000000  0  7G07G26G05G15G28G10G30
  24311600.492    24311597.102    -2375230.32305  -1792117.69946        40.000
        23.000
  20358559.109    20358556.055   -25725217.22207 -19753941.84447        51.000
        39.000
  20619216.688    20619213.793   -21438558.55507 -16120952.34947        50.000
        42.000
  23209474.508    23209472.328    -9709415.77006  -7202567.17046        45.000
        29.000
  21626491.758    21626488.523   -17359740.21407 -11975426.73547        50.000
        34.000
  23559794.906    23559792.988    -6924021.10506  -4701593.99046        44.000
        25.000
  21853947.695    21853946.996   -16126043.64007 -12314783.96747        48.000
        35.000
 14  9 29  0  0 15.0000000  0  7G07G26G05G15G28G10G30
  24314582.484    24314579.355    -2359557.29804  -1779904.93546        39.000
        22.000
  20357411.664    20357409.199   -25731246.26207 -19758639.79747        51.000
        39.000
  20620209.414    20620206.320   -21433344.54407 -16116889.48747        50.000
        42.000
  23206934.141    23206932.508    -9722762.79506  -7212967.44846        45.000
        29.000
  21625854.359    21625851.137   -17363090.04307 -11978036.99047        49.000
        35.000
  23563182.453    23563181.105    -6906217.52006  -4687721.08146        45.000
        26.000
  21856342.570    21856341.973   -16113458.46507 -12304977.33747        48.000
        35.000
 14  9 29  0  0 20.0000000  0  7G07G26G05G15G28G10G30
  24317564.188    24317562.086    -2343883.89104  -1767691.91946        39.000
        22.000
  20356266.094    20356263.559   -25737266.80407 -19763331.12747        51.000
        39.000
  20621204.156    20621200.926   -21428115.56507 -16112814.96047        50.000
        42.000
  23204394.789    23204392.348    -9736107.68106  -7223366.05946        45.000
        29.000
  21625219.656    21625216.363   -17366425.13007 -11980635.76247        49.000
        35.000
  23566571.594    23566569.762    -6888409.72106  -4673844.88046        45.000
        24.000
  21858738.930    21858737.965   -16100867.14907 -12295165.92247        48.000
        35.000
 14  9 29  0  0 25.0000000  0  7G07G26G05G15G28G10G30
  24320547.195    24320544.199    -2328210.31904  -1755478.76146        39.000
        22.000
  20355121.734    20355119.223   -25743279.06107 -19768016.00447        51.000
        39.000
  20622201.813    20622198.840   -21422871.81407 -16108728.92547        50.000
        41.000
  23201855.430    23201853.160    -9749450.65006  -7233763.16546        45.000
        28.000
  21624587.922    21624584.313   -17369745.70307 -11983223.21747        49.000
        35.000
  23569961.289    23569959.555    -6870597.92806  -4659965.57846        44.000
        25.000
  21861135.859    21861134.957   -16088269.92007 -12285349.90047        48.000
        35.000
 14  9 29  0  0 30.0000000  0  7G07G26G05G15G28G10G30
  24323529.594    24323527.059    -2312536.04004  -1743265.01646        39.000
        21.000
  20353979.617    20353977.086   -25749282.43707 -19772693.95947        51.000
        40.000
  20623202.578    20623199.605   -21417612.72007 -16104630.93047        50.000
        41.000
  23199317.313    23199315.102    -9762791.13606  -7244158.35146        46.000
        29.000
  21623958.953    21623955.781   -17373051.23307 -11985798.94947        49.000
        35.000
  23573351.320    23573349.480    -6852781.62806  -4646082.75446        44.000
        22.000
  21863534.383    21863533.074   -16075666.24907 -12275528.86147        48.000
        35.000
 14  9 29  0  0 35.0000000  0  7G07G26G05G15G28G10G30
  24326512.625    24326510.039    -2296861.33304  -1731050.96146        39.000
        22.000
  20352839.000    20352836.145   -25755277.24907 -19777365.24347        51.000
        39.000
  20624206.117    20624203.113   -21412338.56007 -16100521.19547        51.000
        41.000
  23196779.125    23196776.219    -9776129.40706  -7254551.80646        45.000
        29.000
  21623332.672    21623329.332   -17376341.93107 -11988363.13347        49.000
        35.000
  23576742.430    23576740.656    -6834961.07106  -4632196.59946        44.000
        22.000
  21865934.273    21865932.930   -16063056.38807 -12265702.99347        49.000
        35.000
 14  9 29  0  0 40.0000000  0  7G07G26G05G15G28G10G30
  24329495.430    24329492.836    -2281186.47704  -1718836.81546        39.000
        22.000
  20351699.781    20351696.855   -25761263.71807 -19782030.01847        51.000
        39.000
  20625212.672    20625209.445   -21407049.59307 -16096399.92247        50.000
        41.000
  23194241.961    23194238.930    -9789465.73406  -7264943.73746        45.000
        29.000
  21622709.133    21622705.879   -17379618.09807 -11990915.98447        49.000
        35.000
  23580134.523    23580131.914    -6817136.54506  -4618307.37746        43.000
        22.000
  21868334.563    21868333.352   -16050440.63607 -12255872.53947        48.000
        35.000
 14  9 29  0  0 45.0000000  0  7G07G26G05G15G28G10G30
  24332478.047    24332475.402    -2265510.91704  -1706622.07146        39.000
        22.000
  20350562.219    20350559.727   -25767241.28107 -19786687.86047        51.000
        40.000
  20626221.859    20626218.559   -21401745.26507 -16092266.68047        50.000
        41.000
  23191704.461    23191701.563    -9802799.55106  -7275333.72346        45.000
        28.000
  21622088.750    21622084.773   -17382879.17707 -11993457.08547        49.000
        35.000
  23583527.867    23583525.469    -6799307.49106  -4604414.61446        43.000
        22.000
  21870736.625    21870735.336   -16037818.43107 -12246037.05447        48.000
        35.000
 14  9 29  0  0 50.0000000  0  7G07G26G05G15G28G10G30
  24335460.820    24335458.242    -2249835.16804  -1694407.21846        39.000
        22.000
  20349426.227    20349423.867   -25773210.48507 -19791339.18347        51.000
        40.000
  20627234.055    20627230.977   -21396426.12107 -16088121.89447        50.000
        41.000
  23189166.898    23189164.867    -9816131.32706  -7285722.09946        44.000
        28.000
  21621470.625    21621467.738   -17386125.68507 -11995986.82747        49.000
        35.000
  23586920.375    23586918.938    -6781474.42406  -4590518.72546        44.000
        22.000
  21873139.609    21873138.613   -16025190.30107 -12236196.95547        48.000
        34.000
 14  9 29  0  0 55.0000000  0  7G07G26G05G15G28G10G30
  24338444.359    24338441.395    -2234159.22104  -1682192.19646        39.000
        22.000
  20348292.023    20348289.125   -25779171.25607 -19795983.93847        51.000
        39.000
  20628249.219    20628245.988   -21391092.14007 -16083965.54847        50.000
        41.000
  23186630.609    23186628.250    -9829461.04506  -7296108.88646        44.000
        29.000
  21620855.430    21620851.984   -17389357.56207 -11998505.17447        49.000
        35.000
  23590314.078    23590312.918    -6763637.34606  -4576619.71146        43.000
        22.000
  21875543.641    21875542.117   -16012556.22807 -12226352.21947        48.000
        35.000
 14  9 29  0  1  0.0000000  0  7G07G26G05G15G28G10G30
  24341427.797    24341424.758    -2218482.81104  -1669976.82346        39.000
        22.000
  20347159.258    20347156.379   -25785123.35807 -19800621.94147        51.000
        39.000
  20629266.961    20629263.914   -21385743.05807 -16079797.43047        50.000
        41.000
  23184094.305    23184092.387    -9842788.47706  -7306493.88346        44.000
        29.000
  21620243.703    21620240.438   -17392574.55607 -12001011.91847        48.000
        34.000
  23593709.664    23593708.387    -6745796.00606  -4562717.38246        43.000
        23.000
  21877949.281    21877948.012   -15999915.95107 -12216502.65047        49.000
        35.000
 14  9 29  0  1  5.0000000  0  7G07G26G05G15G28G10G30
  24344410.805    24344408.105    -2202805.89104  -1657761.04146        38.000
        22.000
  20346028.477    20346025.668   -25791066.75007 -19805253.15147        51.000
        39.000
  20630287.953    20630284.844   -21380378.84207 -16075617.52447        50.000
        41.000
  23181558.609    23181556.109    -9856113.58906  -7316877.07446        44.000
        29.000
  21619634.250    21619630.426   -17395776.64407 -12003507.04647        48.000
        34.000
  23597105.914    23597104.730    -6727950.38906  -4548811.73146        43.000
        22.000
  21880355.672    21880354.781   -15987269.47607 -12206648.25447        49.000
        35.000
 14  9 29  0  1 10.0000000  0  7G07G26G05G15G28G10G30
  24347394.180    24347390.727    -2187128.74304  -1645545.08546        38.000
        22.000
  20344899.141    20344896.000   -25797001.69407 -19809877.78047        52.000
        39.000
  20631311.102    20631308.430   -21374999.75907 -16071426.03647        50.000
        41.000
  23179023.594    23179021.293    -9869436.61206  -7327258.65846        45.000
        30.000
  21619027.422    21619024.238   -17398964.04207 -12005990.72747        49.000
        34.000
  23600502.039    23600501.066    -6710100.75306  -4534902.93146        43.000
        22.000
  21882763.414    21882762.207   -15974617.03007 -12196789.20947        49.000
        34.000
 14  9 29  0  1 15.0000000  0  7G07G26G05G15G28G10G30
  24350377.438    24350374.203    -2171451.23604  -1633328.86146        38.000
        22.000
  20343771.195    20343768.391   -25802928.05807 -19814495.72947        52.000
        39.000
  20632337.914    20632334.973   -21369605.69907 -16067222.87847        50.000
        41.000
  23176488.531    23176486.207    -9882757.44506  -7337638.51846        44.000
        29.000
  21618424.172    21618420.430   -17402136.65307 -12008462.88947        49.000
        34.000
  23603899.516    23603898.238    -6692246.98405  -4520990.89746        42.000
        22.000
  21885172.375    21885171.066   -15961958.51907 -12186925.43947        48.000
        34.000
 14  9 29  0  1 20.0000000  0  7G07G26G05G15G28G10G30
  24353360.891    24353357.457    -2155773.46204  -1621112.38746        38.000
        22.000
  20342644.945    20342642.363   -25808845.92007 -19819107.05347        51.000
        39.000
  20633366.852    20633364.398   -21364196.73607 -16063008.10447        50.000
        41.000
  23173953.625    23173951.949    -9896076.11806  -7348016.69246        44.000
        29.000
  21617822.734    21617819.484   -17405294.57107 -12010923.60147        49.000
        34.000
  23607298.289    23607296.930    -6674389.16505  -4507075.74546        41.000
        22.000
  21887582.039    21887580.824   -15949294.07107 -12177057.03647        48.000
        35.000
 14  9 29  0  1 25.0000000  0  7G07G26G05G15G28G10G30
  24356344.070    24356340.824    -2140095.08504  -1608895.48846        38.000
        22.000
  20341520.383    20341517.813   -25814754.94507 -19823711.48047        52.000
        39.000
  20634399.305    20634396.559   -21358772.49307 -16058781.42347        51.000
        41.000
  23171420.813    23171417.738    -9909392.29406  -7358392.92046        45.000
        29.000
  21617225.055    21617221.027   -17408437.41007 -12013372.55847        49.000
        35.000
  23610697.828    23610695.961    -6656526.95805  -4493157.14846        42.000
        22.000
  21889992.961    21889992.078   -15936623.31607 -12167183.72247        48.000
        34.000
 14  9 29  0  1 30.0000000  0  7G07G26G05G15G28G10G30
  24359327.461    24359323.902    -2124416.99004  -1596678.79346        39.000
        22.000
  20340397.891    20340395.254   -25820655.98807 -19828309.69947        52.000
        40.000
  20635434.109    20635431.383   -21353333.87807 -16054543.54347        50.000
        41.000
  23168887.016    23168884.027    -9922706.91706  -7368767.94246        44.000
        29.000
  21616629.680    21616625.816   -17411566.05907 -12015810.46847        49.000
        35.000
  23614096.945    23614095.391    -6638661.26505  -4479235.83846        42.000
        22.000
  21892405.422    21892404.488   -15923947.13007 -12157306.17247        48.000
        35.000
 14  9 29  0  1 35.0000000  0  7G07G26G05G15G28G10G30
  24362311.570    24362308.105    -2108738.15804  -1584461.52246        38.000
        22.000
  20339276.711    20339273.922   -25826548.01307 -19832900.88547        52.000
        39.000
  20636472.383    20636469.281   -21347879.89607 -16050293.69147        50.000
        42.000
  23166353.523    23166350.836    -9936018.91206  -7379140.92846        45.000
        29.000
  21616037.203    21616033.059   -17414679.53307 -12018236.54947        50.000
        35.000
  23617497.945    23617495.926    -6620791.06405  -4465311.01746        42.000
        23.000
  21894818.570    21894818.082   -15911264.51007 -12147423.61347        48.000
        36.000
 14  9 29  0  1 40.0000000  0  7G07G26G05G15G28G10G30
  24365293.703    24365291.480    -2093059.26004  -1572244.20446        39.000
        21.000
  20338156.844    20338154.082   -25832431.65607 -19837485.54447        52.000
        40.000
  20637512.844    20637509.941   -21342411.15907 -16046032.33947        50.000
        41.000
  23163820.289    23163817.738    -9949328.92506  -7389512.36046        43.000
        29.000
  21615447.555    21615443.957   -17417778.43407 -12020651.27747        49.000
        34.000
  23620899.469    23620897.078    -6602917.01806  -4451383.19946        43.000
        22.000
  21897233.570    21897232.941   -15898576.10307 -12137536.54347        48.000
        35.000
 14  9 29  0  1 45.0000000  0  7G07G26G05G15G28G10G30
  24368278.398    24368275.035    -2077380.03404  -1560026.63145        39.000
        20.000
  20337038.781    20337036.199   -25838306.68307 -19842063.48747        52.000
        40.000
  20638556.195    20638553.422   -21336927.41507 -16041759.29847        49.000
        42.000
  23161287.719    23161285.324    -9962636.68106  -7399882.04646        43.000
        28.000
  21614860.617    21614857.023   -17420862.46507 -12023054.42047        49.000
        35.000
  23624301.273    23624299.152    -6585038.86706  -4437452.19246        43.000
        22.000
  21899649.211    21899648.672   -15885881.65207 -12127644.76647        48.000
        35.000
 14  9 29  0  1 50.0000000  0  7G07G26G05G15G28G10G30
  24371261.406    24371258.430    -2061700.29404  -1547808.62146        38.000
        21.000
  20335922.656    20335919.875   -25844172.89607 -19846634.56147        51.000
        39.000
  20639602.977    20639600.188   -21331428.52207 -16037474.44647        51.000
        41.000
  23158756.070    23158753.527    -9975941.98006  -7410249.80746        43.000
        29.000
  21614276.680    21614272.531   -17423931.44607 -12025445.82947        49.000
        35.000
  23627703.984    23627702.516    -6567156.44905  -4423517.83846        42.000
        24.000
  21902065.758    21902064.785   -15873180.99807 -12117748.15147        48.000
        36.000
 14  9 29  0  1 55.0000000  0  7G07G26G05G15G28G10G30
  24374245.578    24374242.465    -2046020.39904  -1535590.55346        38.000
        21.000
  20334808.125    20334805.270   -25850030.63907 -19851199.03047        51.000
        39.000
  20640651.875    20640649.184   -21325914.83007 -16033178.06747        50.000
        41.000
  23156224.555    23156221.676    -9989245.17506  -7420615.93646        43.000
        28.000
  21613695.547    21613691.586   -17426985.76207 -12027825.80747        49.000
        34.000
  23631107.867    23631106.508    -6549270.13805  -4409580.47446        42.000
        24.000
  21904483.727    21904483.078   -15860474.49707 -12107846.98747        48.000
        35.000
 14  9 29  0  2  0.0000000  0  7G07G26G05G15G28G10G30
  24377229.867    24377226.520    -2030340.21304  -1523372.21946        38.000
        21.000
  20333694.992    20333692.047   -25855879.73207 -19855756.76147        52.000
        39.000
  20641704.484    20641701.609   -21320386.12607 -16028869.99347        50.000
        41.000
  23153693.570    23153690.855   -10002546.13106  -7430980.29646        43.000
        29.000
  21613116.953    21613113.184   -17430025.22707 -12030194.22347        49.000
        34.000
  23634511.945    23634510.660    -6531379.76806  -4395639.94746        43.000
        23.000
  21906903.211    21906902.039   -15847761.99507 -12097941.14147        48.000
        35.000
 14  9 29  0  2  5.0000000  0  7G07G26G05G15G28G10G30
  24380213.695    24380210.383    -2014659.68204  -1511153.62946        39.000
        22.000
  20332583.516    20332580.789   -25861720.15507 -19860307.74347        52.000
        39.000
  20642758.891    20642756.313   -21314842.42907 -16024550.23147        50.000
        41.000
  23151162.953    23151160.160   -10015844.81006  -7441342.90346        44.000
        29.000
  21612541.633    21612537.797   -17433049.87007 -12032551.08447        50.000
        35.000
  23637917.250    23637916.172    -6513485.32406  -4381696.22346        43.000
        25.000
  21909322.883    21909322.262   -15835043.48106 -12088030.61447        47.000
        35.000
 14  9 29  0  2 10.0000000  0  7G07G26G05G15G28G10G30
  24383197.719    24383194.090    -1998979.04904  -1498934.92946        39.000
        21.000
  20331473.602    20331470.809   -25867552.14407 -19864852.14747        52.000
        40.000
  20643816.977    20643814.324   -21309283.97307 -16020218.96447        50.000
        41.000
  23148632.813    23148630.219   -10029141.42106  -7451703.88146        44.000
        30.000
  21611968.836    21611965.336   -17436059.81107 -12034896.49347        49.000
        34.000
  23641323.031    23641321.945    -6495587.03106  -4367749.50946        43.000
        24.000
  21911744.609    21911743.652   -15822319.19507 -12078115.58247        48.000
        35.000
 14  9 29  0  2 15.0000000  0  7G07G26G05G15G28G10G30
  24386181.109    24386178.547    -1983297.87904  -1486715.87346        38.000
        22.000
  20330365.852    20330362.793   -25873375.27507 -19869389.65147        52.000
        40.000
  20644877.414    20644874.789   -21303710.31207 -16015875.85847        50.000
        41.000
  23146102.359    23146100.008   -10042435.51206  -7462062.90446        44.000
        29.000
  21611398.867    21611395.133   -17439054.66407 -12037230.13847        49.000
        35.000
  23644730.852    23644728.336    -6477684.46405  -4353799.48446        42.000
        23.000
  21914167.195    21914166.852   -15809588.70306 -12068195.72647        47.000
        35.000
 14  9 29  0  2 20.0000000  0  7G07G26G05G15G28G10G30
  24389165.602    24389162.277    -1967616.93004  -1474496.93946        39.000
        22.000
  20329258.953    20329256.105   -25879190.25907 -19873920.81047        52.000
        40.000
  20645940.844    20645938.117   -21298122.19907 -16011521.48647        50.000
        41.000
  23143573.016    23143571.188   -10055727.82706  -7472420.55846        44.000
        30.000
  21610831.734    21610828.039   -17442035.19107 -12039552.63247        49.000
        35.000
  23648137.688    23648136.031    -6459778.38106  -4339846.69446        43.000
        23.000
  21916590.875    21916590.098   -15796852.75207 -12058271.61047        48.000
        35.000
 14  9 29  0  2 25.0000000  0  7G07G26G05G15G28G10G30
  24392149.883    24392146.711    -1951935.33904  -1462277.52046        39.000
        22.000
  20328154.305    20328151.176   -25884996.18707 -19878444.90947        52.000
        39.000
  20647007.156    20647004.402   -21292518.68507 -16007155.11547        50.000
        41.000
  23141044.648    23141042.078   -10069017.47706  -7482776.10946        44.000
        30.000
  21610267.227    21610263.684   -17445000.46207 -12041863.22847        49.000
        35.000
  23651546.289    23651544.098    -6441867.89005  -4325890.48946        42.000
        24.000
  21919015.820    21919015.137   -15784110.46307 -12048342.55547        48.000
        35.000
 14  9 29  0  2 30.0000000  0  7G07G26G05G15G28G10G30
  24395134.273    24395130.609    -1936253.79004  -1450058.13046        39.000
        22.000
  20327051.133    20327048.035   -25890793.71907 -19882962.46747        52.000
        40.000
  20648076.297    20648073.383   -21286900.47807 -16002777.29347        51.000
        41.000
  23138516.031    23138513.449   -10082305.17206  -7493130.15646        44.000
        29.000
  21609705.813    21609702.367   -17447951.17307 -12044162.48547        49.000
        35.000
  23654954.859    23654953.020    -6423953.69305  -4311931.37146        42.000
        26.000
  21921441.453    21921440.641   -15771362.50806 -12038409.08447        47.000
        35.000
 14  9 29  0  2 35.0000000  0  7G07G26G05G15G28G10G30
  24398118.633    24398114.875    -1920571.77904  -1437838.38546        39.000
        23.000
  20325949.695    20325946.484   -25896582.41007 -19887473.13447        51.000
        40.000
  20649148.016    20649145.348   -21281267.16907 -15998387.70247        51.000
        41.000
  23135987.859    23135985.184   -10095590.36506  -7503482.25346        45.000
        29.000
  21609147.313    21609144.043   -17450886.84807 -12046450.01747        50.000
        35.000
  23658364.344    23658363.102    -6406035.30906  -4297968.99746        43.000
        23.000
  21923868.430    21923867.844   -15758608.44807 -12028470.85447        48.000
        35.000
 14  9 29  0  2 40.0000000  0  7G07G26G05G15G28G10G30
  24401102.031    24401099.223    -1904889.38805  -1425618.32846        40.000
        22.000
  20324849.789    20324846.676   -25902362.34007 -19891976.97747        52.000
        39.000
  20650222.852    20650220.566   -21275618.79307 -15993986.37747        50.000
        41.000
  23133460.063    23133457.352   -10108873.17906  -7513832.48746        45.000
        29.000
  21608591.484    21608587.961   -17453807.53007 -12048725.87247        50.000
        35.000
  23661774.914    23661773.605    -6388112.84406  -4284003.46446        43.000
        23.000
  21926296.836    21926296.145   -15745848.36007 -12018527.92647        48.000
        35.000
 14  9 29  0  2 45.0000000  0  7G07G26G05G15G28G10G30
  24404086.828    24404083.672    -1889207.13105  -1413398.41246        40.000
        22.000
  20323751.445    20323748.297   -25908133.99807 -19896474.37447        52.000
        39.000
  20651300.875    20651298.160   -21269955.82507 -15989573.68047        50.000
        41.000
  23130932.383    23130930.395   -10122154.10606  -7524181.24346        44.000
        29.000
  21608038.234    21608034.898   -17456713.75607 -12050990.45947        49.000
        35.000
  23665186.445    23665185.035    -6370186.79106  -4270035.13046        43.000
        26.000
  21928725.898    21928725.199   -15733082.75507 -12008580.70547        48.000
        35.000
 14  9 29  0  2 50.0000000  0  7G07G26G05G15G28G10G30
  24407070.438    24407067.859    -1873524.55804  -1401178.20546        39.000
        22.000
  20322654.688    20322651.430   -25913896.92407 -19900964.96647        52.000
        39.000
  20652381.219    20652378.539   -21264277.88407 -15985149.31247        50.000
        41.000
  23128405.953    23128403.348   -10135432.67206  -7534528.17046        44.000
        30.000
  21607488.031    21607484.859   -17459605.04007 -12053243.40847        49.000
        34.000
  23668597.625    23668597.285    -6352256.68606  -4256063.62946        43.000
        25.000
  21931156.172    21931155.676   -15720311.18307 -11998628.83347        48.000
        36.000
 14  9 29  0  2 55.0000000  0  7G07G26G05G15G28G10G30
  24410055.180    24410052.656    -1857841.90405  -1388957.95546        40.000
        22.000
  20321559.703    20321556.445   -25919651.36407 -19905448.94047        52.000
        39.000
  20653464.617    20653461.676   -21258585.14907 -15980713.41847        51.000
        42.000
  23125879.484    23125877.172   -10148709.06206  -7544873.41446        44.000
        29.000
  21606940.680    21606937.809   -17462481.57307 -12055484.86047        48.000
        34.000
  23672010.695    23672009.586    -6334322.80406  -4242089.19346        43.000
        27.000
  21933587.836    21933586.852   -15707533.88607 -11988672.49847        48.000
        36.000
 14  9 29  0  3  0.0000000  0  7G07G26G05G15G28G10G30
  24413039.711    24413036.738    -1842158.76804  -1376737.32946        39.000
        22.000
  20320466.320    20320463.324   -25925396.84507 -19909925.94247        52.000
        39.000
  20654550.695    20654547.840   -21252877.19207 -15976265.66547        51.000
        41.000
  23123353.711    23123350.938   -10161982.92006  -7555216.67346        44.000
        28.000
  21606396.148    21606393.055   -17465342.97307 -12057714.52047        48.000
        34.000
  23675424.133    23675423.465    -6316384.70805  -4228111.46946        41.000
        26.000
  21936020.711    21936020.055   -15694750.43307 -11978711.37147        48.000
        36.000
 14  9 29  0  3  5.0000000  0  7G07G26G05G15G28G10G30
  24416023.766    24416021.145    -1826475.68604  -1364516.75446        39.000
        23.000
  20319374.633    20319371.441   -25931133.92307 -19914396.39047        52.000
        39.000
  20655639.789    20655637.160   -21247154.58707 -15971806.49247        51.000
        41.000
  23120828.234    23120825.551   -10175254.73106  -7565558.33846        45.000
        29.000
  21605854.508    21605851.066   -17468189.78907 -12059932.81447        48.000
        35.000
  23678839.164    23678838.035    -6298442.93606  -4214130.87746        43.000
        26.000
  21938454.211    21938453.484   -15681961.37807 -11968745.87147        48.000
        36.000
 14  9 29  0  3 10.0000000  0  7G07G26G05G15G28G10G30
  24419008.375    24419005.281    -1810792.30404  -1352295.92846        39.000
        24.000
  20318284.320    20318281.453   -25936862.25107 -19918860.02647        52.000
        39.000
  20656731.531    20656728.418   -21241416.97307 -15967335.63147        51.000
        41.000
  23118303.016    23118300.668   -10188524.12906  -7575898.12746        46.000
        29.000
  21605315.305    21605312.258   -17471021.62607 -12062139.43547        48.000
        34.000
  23682253.461    23682252.742    -6280497.14806  -4200147.16946        43.000
        27.000
  21940888.805    21940888.328   -15669166.40206 -11958775.76347        47.000
        35.000
 14  9 29  0  3 15.0000000  0  7G07G26G05G15G28G10G30
  24421992.758    24421989.816    -1795109.05005  -1340075.23046        40.000
        24.000
  20317196.195    20317193.059   -25942582.20907 -19923317.13947        51.000
        39.000
  20657826.305    20657823.273   -21235664.73407 -15962853.37147        51.000
        41.000
  23115778.648    23115775.695   -10201791.54106  -7586236.36446        46.000
        29.000
  21604779.461    21604775.977   -17473838.89507 -12064334.70947        48.000
        34.000
  23685669.555    23685668.992    -6262547.77006  -4186160.64646        43.000
        26.000
  21943324.680    21943324.145   -15656365.88307 -11948801.33547        48.000
        35.000
 14  9 29  0  3 20.0000000  0  7G07G26G05G15G28G10G30
  24424977.336    24424974.633    -1779425.20205  -1327854.04846        40.000
        24.000
  20316109.555    20316106.387   -25948293.09307 -19927767.17947        52.000
        39.000
  20658923.539    20658920.813   -21229897.20007 -15958359.18947        51.000
        41.000
  23113254.617    23113251.328   -10215056.26506  -7596572.50446        46.000
        29.000
  21604246.180    21604242.660   -17476640.92107 -12066518.10547        49.000
        34.000
  23689085.961    23689085.582    -6244594.11206  -4172170.80146        43.000
        25.000
  21945761.500    21945760.938   -15643559.13507 -11938822.05747        48.000
        36.000
 14  9 29  0  3 25.0000000  0  7G07G26G05G15G28G10G30
  24427962.266    24427959.500    -1763741.47905  -1315632.96046        40.000
        24.000
  20315024.445    20315021.398   -25953995.64707 -19932210.73347        51.000
        39.000
  20660024.016    20660021.090   -21224115.11307 -15953853.67347        51.000
        41.000
  23110731.016    23110727.488   -10228319.03906  -7606907.13346        45.000
        30.000
  21603715.633    21603712.336   -17479428.36207 -12068690.13747        48.000
        35.000
  23692503.250    23692502.320    -6226636.90906  -4158178.19446        43.000
        28.000
  21948199.891    21948199.320   -15630746.91207 -11928838.50747        48.000
        35.000
 14  9 29  0  3 30.0000000  0  7G07G26G05G15G28G10G30
  24430946.211    24430943.605    -1748057.55605  -1303411.72346        42.000
        25.000
  20313940.352    20313937.621   -25959689.47807 -19936647.48447        51.000
        39.000
  20661127.234    20661123.965   -21218318.07607 -15949336.50447        51.000
        41.000
  23108206.984    23108204.223   -10241579.46606  -7617239.92246        45.000
        29.000
  21603188.164    21603184.547   -17482200.88407 -12070850.54047        48.000
        35.000
  23695920.570    23695919.961    -6208675.81206  -4144182.54546        43.000
        26.000
  21950639.375    21950638.234   -15617928.84007 -11918850.40647        48.000
        35.000
 14  9 29  0  3 35.0000000  0  7G07G26G05G15G28G10G30
  24433930.492    24433928.246    -1732373.38805  -1291190.29546        41.000
        25.000
  20312858.766    20312855.961   -25965374.54307 -19941077.40047        51.000
        39.000
  20662232.734    20662230.148   -21212506.10707 -15944807.69547        50.000
        41.000
  23105683.734    23105681.723   -10254837.53606  -7627570.89246        45.000
        30.000
  21602663.539    21602660.059   -17484958.44607 -12072999.28247        49.000
        35.000
  23699339.711    23699338.941    -6190710.78506  -4130183.84146        43.000
        26.000
  21953079.625    21953078.633   -15605104.89907 -11908857.72147        48.000
        35.000
 14  9 29  0  3 40.0000000  0  7G07G26G05G15G28G10G30
  24436916.500    24436913.398    -1716688.79205  -1278968.53846        41.000
        26.000
  20311778.375    20311775.781   -25971050.66907 -19945500.35647        51.000
        39.000
  20663341.922    20663339.035   -21206678.99907 -15940267.09547        50.000
        41.000
  23103161.523    23103158.758   -10268093.05106  -7637899.85746        45.000
        29.000
  21602141.633    21602137.680   -17487700.87307 -12075136.23647        49.000
        34.000
  23702758.945    23702758.207    -6172741.65706  -4116181.94946        43.000
        27.000
  21955521.539    21955520.430   -15592274.92407 -11898860.34247        48.000
        36.000
 14  9 29  0  3 45.0000000  0  7G07G26G05G15G28G10G30
  24439900.266    24439897.988    -1701004.51705  -1266747.01046        41.000
        26.000
  20310699.922    20310697.297   -25976718.58407 -19949916.91547        51.000
        39.000
  20664453.461    20664450.438   -21200837.46207 -15935715.24947        50.000
        41.000
  23100639.438    23100636.723   -10281346.70206  -7648227.37846        43.000
        29.000
  21601622.906    21601618.973   -17490428.85707 -12077261.94347        48.000
        35.000
  23706179.148    23706178.125    -6154769.17606  -4102177.41846        44.000
        27.000
  21957963.688    21957962.633   -15579439.62307 -11888858.81147        48.000
        35.000
 14  9 29  0  3 50.0000000  0  7G07G26G05G15G28G10G30
  24442885.219    24442882.402    -1685319.73305  -1254525.11146        40.000
        26.000
  20309623.219    20309620.273   -25982377.44307 -19954326.41047        51.000
        39.000
  20665567.789    20665564.871   -21194980.66807 -15931151.51547        50.000
        40.000
  23098117.836    23098115.270   -10294597.69906  -7658552.81446        45.000
        29.000
  21601106.492    21601102.879   -17493141.58607 -12079375.75147        49.000
        35.000
  23709600.234    23709599.281    -6136792.50006  -4088169.63146        44.000
        27.000
  21960406.867    21960406.117   -15566598.19707 -11878852.50547        48.000
        35.000
 14  9 29  0  3 55.0000000  0  7G07G26G05G15G28G10G30
  24445869.961    24445867.027    -1669634.87605  -1242303.14246        40.000
        26.000
  20308548.156    20308545.281   -25988027.70107 -19958729.21047        51.000
        39.000
  20666685.000    20666682.266   -21189109.06607 -15926576.24147        50.000
        41.000
  23095596.469    23095593.938   -10307846.44906  -7668876.50046        44.000
        29.000
  21600592.914    21600589.387   -17495839.46907 -12081477.99447        49.000
        35.000
  23713021.578    23713021.055    -6118812.11506  -4074158.95646        44.000
        26.000
  21962851.828    21962850.730   -15553751.11207 -11868841.78847        48.000
        36.000
 14  9 29  0  4  0.0000000  0  7G07G26G05G15G28G10G30
  24448855.219    24448851.906    -1653949.89905  -1230081.08846        40.000
        26.000
  20307474.414    20307471.551   -25993669.28007 -19963125.23947        51.000
        39.000
  20667805.578    20667802.402   -21183222.53407 -15921989.33747        50.000
        40.000
  23093075.891    23093073.457   -10321092.92206  -7679198.42646        45.000
        29.000
  21600082.414    21600078.750   -17498522.46407 -12083568.63147        50.000
        35.000
  23716443.445    23716443.555    -6100827.91906  -4060145.30546        43.000
        26.000
  21965297.742    21965296.711   -15540898.28606 -11858826.60747        47.000
        35.000
 14  9 29  0  4  5.0000000  0  7G07G26G05G15G28G10G30
  24451838.820    24451837.039    -1638264.69505  -1217858.83546        40.000
        25.000
  20306402.102    20306399.695   -25999302.04407 -19967514.40647        51.000
        39.000
  20668928.500    20668925.422   -21177321.07407 -15917390.80147        50.000
        41.000
  23090556.023    23090553.133   -10334336.92906  -7689518.41646        45.000
        30.000
  21599574.703    21599571.000   -17501190.49707 -12085647.62147        48.000
        35.000
  23719866.570    23719866.250    -6082839.83906  -4046128.64746        43.000
        27.000
  21967744.469    21967743.754   -15528039.62206 -11848806.87247        47.000
        35.000
 14  9 29  0  4 10.0000000  0  7G07G26G05G15G28G10G30
  24454823.641    24454821.660    -1622579.64205  -1205636.72646        40.000
        24.000
  20305332.164    20305329.395   -26004926.38507 -19971897.01047        51.000
        39.000
  20670054.328    20670051.016   -21171405.01807 -15912780.88847        50.000
        41.000
  23088036.234    23088032.996   -10347578.87206  -7699836.80246        45.000
        30.000
  21599069.867    21599066.148   -17503843.93807 -12087715.23947        48.000
        35.000
  23723290.672    23723290.230    -6064848.27806  -4032109.26346        44.000
        27.000
  21970192.484    21970191.480   -15515175.51606 -11838782.89547        47.000
        35.000
 14  9 29  0  4 15.0000000  0  7G07G26G05G15G28G10G30
  24457808.852    24457806.203    -1606894.42505  -1193414.47346        40.000
        24.000
  20304263.594    20304260.566   -26010542.01107 -19976272.81847        51.000
        39.000
  20671182.867    20671180.012   -21165474.05007 -15908159.35547        50.000
        41.000
  23085516.430    23085513.586   -10360818.43606  -7710153.35246        45.000
        29.000
  21598567.563    21598564.070   -17506482.43807 -12089771.20447        49.000
        35.000
  23726715.336    23726714.645    -6046852.89406  -4018086.89646        44.000
        28.000
  21972641.289    21972640.980   -15502305.65106 -11828754.42747        47.000
        35.000
 14  9 29  0  4 20.0000000  0  7G07G26G05G15G28G10G30
  24460793.563    24460790.941    -1591208.96605  -1181192.03546        40.000
        25.000
  20303196.844    20303194.031   -26016148.79007 -19980641.73447        51.000
        39.000
  20672314.664    20672311.191   -21159528.10207 -15903526.14947        50.000
        41.000
  23082997.539    23082994.406   -10374055.51706  -7720467.95846        45.000
        30.000
  21598068.641    21598064.961   -17509105.92407 -12091815.48047        49.000
        34.000
  23730140.367    23730139.680    -6028853.63706  -4004061.52046        44.000
        26.000
  21975091.664    21975090.707   -15489429.94706 -11818721.41047        47.000
        36.000
 14  9 29  0  4 25.0000000  0  7G07G26G05G15G28G10G30
  24463778.813    24463775.957    -1575523.41805  -1168969.52946        41.000
        25.000
  20302131.188    20302128.793   -26021746.85807 -19985003.86247        51.000
        40.000
  20673449.086    20673445.910   -21153567.29307 -15898881.36847        50.000
        41.000
  23080478.742    23080475.297   -10387290.26806  -7730780.74046        46.000
        29.000
  21597572.133    21597568.320   -17511714.53807 -12093848.17147        49.000
        35.000
  23733566.141    23733565.285    -6010850.65006  -3990033.23546        44.000
        26.000
  21977543.078    21977542.051   -15476548.55706 -11808683.96647        47.000
        36.000
 14  9 29  0  4 30.0000000  0  7G07G26G05G15G28G10G30
  24466762.922    24466760.523    -1559837.88905  -1156747.03146        40.000
        24.000
  20301067.867    20301065.223   -26027336.35207 -19989359.31247        51.000
        39.000
  20674586.023    20674582.855   -21147591.75107 -15894225.09947        50.000
        41.000
  23077961.203    23077957.664   -10400522.80106  -7741091.80946        46.000
        29.000
  21597078.461    21597074.949   -17514308.35407 -12095869.32247        48.000
        35.000
  23736993.031    23736991.816    -5992844.04506  -3976002.13346        44.000
        26.000
  21979995.133    21979994.156   -15463661.59106 -11798642.18047        47.000
        35.000
 14  9 29  0  4 35.0000000  0  7G07G26G05G15G28G10G30
  24469748.438    24469745.625    -1544152.11905  -1144524.36446        41.000
        26.000
  20300005.648    20300003.129   -26032916.91707 -19993707.80347        51.000
        39.000
  20675726.031    20675722.668   -21141601.21407 -15889557.15147        50.000
        41.000
  23075444.016    23075440.152   -10413752.85906  -7751400.93146        45.000
        29.000
  21596587.953    21596584.355   -17516887.10907 -12097878.73847        48.000
        35.000
  23740420.188    23740418.988    -5974833.52406  -3961967.96746        44.000
        26.000
  21982448.797    21982447.621   -15450768.78006 -11788595.83547        46.000
        34.000
 14  9 29  0  4 40.0000000  0  8G07G26G05G15G24G28G10G30
  24472729.664    24472726.613    -1528485.67905  -1132316.74746        41.000
        25.000
  20298941.680    20298939.070   -26038508.17007 -19998064.62247        51.000
        40.000
  20676865.148    20676861.746   -21135615.21407 -15884892.73947        50.000
        41.000
  23072922.758    23072919.145   -10426999.92706  -7761723.31246        45.000
        28.000
  25232217.156                      -73518.22403          .00051        36.000

  21596096.516    21596092.773   -17519470.29907 -12099891.60947        49.000
        35.000
  23743844.523    23743842.969    -5956838.65806  -3947946.01246        44.000
        26.000
  21984898.969    21984898.582   -15437889.69806 -11778560.18747        47.000
        35.000
 14  9 29  0  4 45.0000000  0  8G07G26G05G15G24G28G10G30
  24475714.844    24475711.402    -1512799.94005  -1120094.08846        41.000
        23.000
  20297882.789    20297880.605   -26044071.48807 -20002399.67747        51.000
        40.000
  20678010.570    20678007.191   -21129595.17307 -15880201.79947        50.000
        41.000
  23070406.016    23070402.148   -10440225.44906  -7772028.91746        46.000
        29.000
  25229153.680                      -89624.88103          .00051        37.000

  21595611.125    21595607.926   -17522019.35407 -12101877.88547        48.000
        35.000
  23747272.938    23747271.813    -5938820.87206  -3933906.17746        44.000
        25.000
  21987354.594    21987354.000   -15424985.72506 -11768505.15047        46.000
        34.000
 14  9 29  0  4 50.0000000  0  8G07G26G05G15G24G28G10G30
  24478699.344    24478696.348    -1497114.13005  -1107871.38546        40.000
        26.000
  20296826.117    20296823.629   -26049626.09007 -20006727.93347        51.000
        40.000
  20679159.289    20679155.563   -21123560.33507 -15875499.32847        50.000
        41.000
  23067889.727    23067886.410   -10453448.61806  -7782332.67246        45.000
        30.000
  25226088.313                     -105728.32303          .00051        37.000

  21595128.797    21595125.434   -17524553.51607 -12103852.55547        48.000
        35.000
  23750702.516    23750701.266    -5920799.37306  -3919863.47746        43.000
        26.000
  21989811.578    21989810.723   -15412076.09506 -11758445.70047        46.000
        34.000
 14  9 29  0  4 55.0000000  0  8G07G26G05G15G24G28G10G30
  24481684.094    24481681.203    -1481428.21805  -1095648.60046        40.000
        25.000
  20295770.781    20295767.910   -26055171.93207 -20011049.36947        51.000
        40.000
  20680310.344    20680306.969   -21117510.62807 -15870785.27447        51.000
        41.000
  23065374.016    23065370.297   -10466669.37906  -7792634.56846        46.000
        29.000
  25223024.711    25223030.512     -121828.68603    310110.01545        37.000
        19.000
  21594649.219    21594646.195   -17527072.73506 -12105815.58047        47.000
        34.000
  23754132.289    23754131.648    -5902774.15906  -3905817.86546        44.000
        26.000
  21992268.672    21992268.660   -15399160.82606 -11748381.86047        46.000
        34.000
 14  9 29  0  5  0.0000000  0  8G07G26G05G15G24G28G10G30
  24484669.578    24484666.375    -1465742.00205  -1083425.56946        40.000
        26.000
  20294717.406    20294714.547   -26060708.77507 -20015363.79247        50.000
        39.000
  20681464.219    20681461.152   -21111445.82207 -15866059.45347        50.000
        41.000
  23062858.727    23062855.070   -10479887.52906  -7802934.42046        46.000
        29.000
  25219961.016    25219967.574     -137925.65303    297567.06045        37.000
        19.000
  21594173.031    21594169.488   -17529576.78507 -12107766.78147        48.000
        35.000
  23757563.188    23757562.020    -5884744.99706  -3891769.18646        43.000
        25.000
  21994727.336    21994727.281   -15386239.66406 -11738313.42247        46.000
        34.000
 14  9 29  0  5  5.0000000  0  8G07G26G05G15G24G28G10G30
  24487654.422    24487651.395    -1450055.98505  -1071202.70846        42.000
        26.000
  20293665.281    20293662.730   -26066237.10407 -20019671.57847        51.000
        39.000
  20682621.422    20682618.266   -21105366.40507 -15861322.24947        50.000
        41.000
  23060343.164    23060339.934   -10493103.55106  -7813232.61746        45.000
        30.000
  25216898.078    25216905.160     -154019.60703    285026.44045        36.000
        18.000
  21593698.945    21593695.684   -17532066.15407 -12109706.55147        48.000
        35.000
  23760994.773    23760993.352    -5866712.38006  -3877717.81146        43.000
        25.000
  21997187.828    21997187.105   -15373313.11806 -11728240.78947        46.000
        34.000
 14  9 29  0  5 10.0000000  0  8G07G26G05G15G24G28G10G30
  24490638.953    24490636.230    -1434369.97305  -1058979.83746        42.000
        26.000
  20292614.852    20292611.852   -26071756.78107 -20023972.62247        51.000
        39.000
  20683780.859    20683777.816   -21099272.22607 -15856573.54347        50.000
        41.000
  23057828.875    23057825.391   -10506317.29306  -7823529.03846        45.000
        29.000
  25213836.508    25213843.402     -170110.44102    272488.25845        35.000
        17.000
  21593228.328    21593225.059   -17534540.66807 -12111634.74147        48.000
        35.000
  23764426.781    23764425.887    -5848676.15806  -3863663.63946        43.000
        27.000
  21999648.352    21999648.086   -15360381.04206 -11718163.84547        46.000
        34.000
 14  9 29  0  5 15.0000000  0  8G07G26G05G15G24G28G10G30
  24493624.320    24493621.363    -1418683.81205  -1046756.85646        42.000
        26.000
  20291565.906    20291563.559   -26077267.63207 -20028266.79647        51.000
        39.000
  20684943.438    20684940.188   -21093163.13107 -15851813.21147        51.000
        41.000
  23055315.430    23055311.742   -10519528.54606  -7833823.50046        45.000
        29.000
  25210774.656    25210781.977     -186197.99402    259952.66445        34.000
        16.000
  21592760.102    21592757.191   -17537000.13206 -12113551.20347        47.000
        35.000
  23767860.336    23767859.066    -5830636.18506  -3849606.51546        43.000
        25.000
  22002110.445    22002109.723   -15347443.24606 -11708082.45247        46.000
        34.000
 14  9 29  0  5 20.0000000  0  8G07G26G05G15G24G28G10G30
  24496609.250    24496606.254    -1402997.56905  -1034533.81646        42.000
        25.000
  20290519.016    20290516.305   -26082769.63707 -20032554.07347        51.000
        39.000
  20686108.961    20686105.457   -21087039.15207 -15847041.27847        50.000
        41.000
  23052801.164    23052798.047   -10532737.35506  -7844116.08046        45.000
        29.000
  25207713.992    25207721.094     -202282.41302    247419.62945        35.000
        16.000
  21592295.188    21592291.953   -17539444.58706 -12115455.97647        47.000
        35.000
  23771293.234    23771292.352    -5812592.50705  -3835546.53646        42.000
        25.000
  22004573.703    22004573.223   -15334499.78706 -11697996.64147        46.000
        34.000
 14  9 29  0  5 25.0000000  0  8G07G26G05G15G24G28G10G30
  24499594.297    24499591.031    -1387311.33405  -1022310.77346        42.000
        26.000
  20289473.977    20289470.980   -26088262.92007 -20036834.55847        51.000
        40.000
  20687276.992    20687273.488   -21080900.38907 -15842257.83047        51.000
        41.000
  23050288.000    23050284.820   -10545943.79306  -7854406.80246        44.000
        29.000
  25204653.555    25204660.781     -218363.60503    234888.97245        36.000
        15.000
  21591832.977    21591829.574   -17541874.11207 -12117349.10947        48.000
        35.000
  23774728.281    23774726.918    -5794545.24406  -3821483.73746        43.000
        25.000
  22007037.664    22007037.250   -15321550.77906 -11687906.50447        46.000
        34.000
 14  9 29  0  5 30.0000000  0  8G07G26G05G15G24G28G10G30
  24502578.914    24502575.742    -1371625.05805  -1010087.70446        42.000
        26.000
  20288430.070    20288427.188   -26093747.41307 -20041108.18847        51.000
        40.000
  20688448.102    20688444.660   -21074746.75707 -15837462.79447        50.000
        41.000
  23047775.563    23047772.086   -10559147.84506  -7864695.66746        46.000
        29.000
  25201593.789    25201601.418     -234441.67802    222360.79045        35.000
        16.000
  21591373.617    21591369.715   -17544288.60907 -12119230.53847        49.000
        35.000
  23778162.211    23778161.512    -5776494.32105  -3807418.09346        42.000
        22.000
  22009502.766    22009502.098   -15308596.15906 -11677812.01047        46.000
        34.000
 14  9 29  0  5 35.0000000  0  8G07G26G05G15G24G28G10G30
  24505564.203    24505560.824    -1355938.79205   -997864.64246        41.000
        26.000
  20287388.039    20287385.379   -26099223.19807 -20045375.02947        51.000
        40.000
  20689621.523    20689618.359   -21068578.44107 -15832656.31447        51.000
        41.000
  23045264.039    23045259.813   -10572349.56306  -7874982.71946        45.000
        29.000
  25198535.063    25198542.359     -250516.55703    209835.09545        36.000
        17.000
  21590917.016    21590913.371   -17546688.23207 -12121100.37347        49.000
        35.000
  23781598.586    23781596.922    -5758439.83306  -3793349.67846        43.000
        22.000
  22011969.172    22011968.688   -15295636.00506 -11667713.18847        46.000
        34.000
 14  9 29  0  5 40.0000000  0  8G07G26G05G15G24G28G10G30
  24508549.227    24508545.668    -1340252.50405   -985641.55146        42.000
        26.000
  20286347.688    20286345.313   -26104690.18407 -20049635.02047        51.000
        40.000
  20690798.242    20690794.922   -21062395.32807 -15827838.30647        50.000
        41.000
  23042751.391    23042747.957   -10585548.86106  -7885267.88446        46.000
        29.000
  25195476.328    25195483.906     -266588.26303    197311.91745        36.000
        17.000
  21590463.336    21590459.137   -17549072.90307 -12122958.55347        48.000
        35.000
  23785034.961    23785033.719    -5740381.71805  -3779278.44046        42.000
        22.000
  22014436.188    22014435.887   -15282670.30906 -11657610.05147        46.000
        34.000
 14  9 29  0  5 45.0000000  0  8G07G26G05G15G24G28G10G30
  24511533.930    24511530.715    -1324566.17405   -973418.44546        41.000
        25.000
  20285309.141    20285306.691   -26110148.37307 -20053888.15047        51.000
        40.000
  20691977.313    20691973.750   -21056197.37707 -15823008.73347        50.000
        41.000
  23040240.281    23040236.809   -10598745.74106  -7895551.16746        45.000
        30.000
  25192417.680    25192425.477     -282656.63503    184791.27345        36.000
        18.000
  21590012.328    21590008.129   -17551442.61307 -12124805.07447        49.000
        35.000
  23788471.844    23788470.637    -5722319.96105  -3765204.35746        42.000
        23.000
  22016905.180    22016904.305   -15269699.01506 -11647502.55347        46.000
        34.000
 14  9 29  0  5 50.0000000  0  8G07G26G05G15G24G28G10G30
  24514519.188    24514515.676    -1308879.87305   -961195.35346        41.000
        24.000
  20284272.195    20284269.301   -26115597.81607 -20058134.46847        51.000
        39.000
  20693159.781    20693156.703   -21049984.65607 -15818167.65647        50.000
        40.000
  23037729.578    23037726.164   -10611940.22606  -7905832.59246        44.000
        29.000
  25189361.078    25189368.605     -298721.92302    172272.99145        35.000
        17.000
  21589564.000    21589560.168   -17553797.40207 -12126639.98047        49.000
        35.000
  23791909.617    23791908.719    -5704254.64005  -3751127.51046        42.000
        22.000
  22019373.703    22019373.770   -15256722.22406 -11637390.77147        46.000
        34.000
 14  9 29  0  5 55.0000000  0  8G07G26G05G15G24G28G10G30
  24517503.969    24517500.871    -1293193.66505   -948972.32846        41.000
        25.000
  20283236.953    20283234.391   -26121038.58807 -20062374.02947        52.000
        39.000
  20694344.781    20694341.578   -21043757.22807 -15813315.11647        50.000
        41.000
  23035219.391    23035215.500   -10625132.38406  -7916112.19046        45.000
        28.000
  25186303.891    25186311.563     -314784.27802    159756.97645        35.000
        16.000
  21589118.680    21589114.910   -17556137.32807 -12128463.29847        48.000
        35.000
  23795348.633    23795347.074    -5686185.82805  -3737047.93946        41.000
        22.000
  22021844.406    22021843.363   -15243739.99306 -11627274.75347        45.000
        34.000
 14  9 29  0  6  0.0000000  0  8G07G26G05G15G24G28G10G30
  24520489.031    24520485.777    -1277507.27605   -936749.16746        42.000
        25.000
  20282203.344    20282200.406   -26126470.40007 -20066606.60947        51.000
        39.000
  20695532.656    20695529.711   -21037514.82107 -15808450.90647        50.000
        41.000
  23032708.711    23032705.367   -10638321.92206  -7926389.75946        44.000
        28.000
  25183249.352    25183255.789     -330843.16502    147243.81145        35.000
        16.000
  21588676.664    21588672.840   -17558462.08807 -12130274.79647        49.000
        35.000
  23798786.773    23798785.664    -5668113.24205  -3722965.43146        42.000
        22.000
  22024315.906    22024315.426   -15230752.02906 -11617154.26047        46.000
        34.000
 14  9 29  0  6  5.0000000  0  8G07G26G05G15G24G28G10G30
  24523474.211    24523470.695    -1261821.10805   -924526.19046        41.000
        26.000
  20281171.266    20281168.293   -26131893.58807 -20070832.46747        51.000
        40.000
  20696723.469    20696719.973   -21031257.82607 -15803575.32647        50.000
        40.000
  23030199.211    23030196.082   -10651509.23606  -7936665.58146        44.000
        29.000
  25180193.344    25180200.316     -346898.96502    134732.91945        35.000
        17.000
  21588236.664    21588233.102   -17560772.07907 -12132074.78647        49.000
        35.000
  23802226.477    23802225.691    -5650037.28105  -3708880.24946        42.000
        21.000
  22026788.695    22026788.121   -15217758.74606 -11607029.62947        46.000
        34.000
 14  9 29  0  6 10.0000000  0  8G07G26G05G15G24G28G10G30
  24526458.766    24526455.824    -1246134.80505   -912303.08246        42.000
        26.000
  20280140.695    20280138.059   -26137307.84007 -20075051.36447        51.000
        40.000
  20697916.891    20697913.914   -21024985.88707 -15798688.10347        50.000
        40.000
  23027690.547    23027687.020   -10664693.99706  -7946939.40946        44.000
        29.000
  25177138.234    25177145.098     -362951.43803    122224.70745        36.000
        17.000
  21587799.891    21587796.328   -17563066.96707 -12133863.00947        49.000
        35.000
  23805667.094    23805665.781    -5631957.62005  -3694792.22846        41.000
        21.000
  22029262.344    22029261.426   -15204759.80406 -11596900.58847        46.000
        34.000
 14  9 29  0  6 15.0000000  0  8G07G26G05G15G24G28G10G30
  24529444.234    24529440.668    -1230448.55205   -900080.03446        42.000
        26.000
  20279112.461    20279109.664   -26142713.33207 -20079263.43247        51.000
        39.000
  20699113.039    20699110.539   -21018699.19707 -15793789.38847        49.000
        40.000
  23025181.570    23025179.203   -10677876.34406  -7957211.35446        44.000
        28.000
  25174083.641    25174091.152     -379000.74902    109718.87245        35.000
        16.000
  21587366.016    21587362.680   -17565346.90307 -12135639.57947        50.000
        35.000
  23809108.055    23809106.582    -5613874.47105  -3680701.47946        41.000
        22.000
  22031737.031    22031736.234   -15191755.40306 -11586767.28947        47.000
        34.000
 14  9 29  0  6 20.0000000  0  8G07G26G05G15G24G28G10G30
  24532428.984    24532425.813    -1214762.17505   -887856.86946        42.000
        26.000
  20278085.438    20278082.469   -26148109.86707 -20083468.52447        51.000
        40.000
  20700312.352    20700309.289   -21012397.57107 -15788879.03447        50.000
        40.000
  23022673.492    23022671.055   -10691056.15206  -7967481.32446        44.000
        28.000
  25171030.328    25171037.316     -395046.69602     97215.72245        34.000
        17.000
  21586935.344    21586931.527   -17567611.73907 -12137404.38347        49.000
        34.000
  23812549.781    23812548.102    -5595787.66205  -3666607.86446        41.000
        22.000
  22034213.039    22034211.836   -15178745.36906 -11576629.59947        47.000
        34.000
 14  9 29  0  6 25.0000000  0  8G07G26G05G15G24G28G10G30
  24535414.047    24535410.789    -1199076.20606   -875634.05346        43.000
        27.000
  20277059.805    20277057.176   -26153497.99607 -20087667.06347        50.000
        40.000
  20701514.070    20701511.348   -21006081.59907 -15783957.49147        49.000
        40.000
  23020165.883    23020163.445   -10704233.91106  -7977749.70646        44.000
        29.000
  25167977.063    25167984.391     -411089.86803     84714.68945        36.000
        17.000
  21586506.938    21586503.152   -17569862.02007 -12139157.84347        49.000
        35.000
  23815992.164    23815991.371    -5577697.74305  -3652511.85946        41.000
        22.000
  22036689.313    22036688.434   -15165730.26406 -11566487.95647        46.000
        35.000
 14  9 29  0  6 30.0000000  0  8G07G26G05G15G24G28G10G30
  24538399.094    24538395.527    -1183389.96206   -863410.99346        43.000
        26.000
  20276036.266    20276033.883   -26158877.02107 -20091858.51147        51.000
        39.000
  20702719.000    20702716.457   -20999750.52607 -15779024.19447        50.000
        41.000
  23017659.047    23017656.211   -10717408.91406  -7988015.93746        45.000
        29.000
  25164925.672    25164931.527     -427129.49303     72216.38745        36.000
        17.000
  21586081.570    21586078.254   -17572096.97107 -12140899.36047        49.000
        35.000
  23819435.289    23819433.871    -5559604.00805  -3638412.84346        40.000
        22.000
  22039167.133    22039166.355   -15152709.34506 -11556341.79147        47.000
        34.000
 14  9 29  0  6 35.0000000  0  8G07G26G05G15G24G28G10G30
  24541384.195    24541380.770    -1167703.96206   -851188.14146        43.000
        27.000
  20275014.266    20275011.484   -26164247.42807 -20096043.23947        51.000
        40.000
  20703926.375    20703923.844   -20993404.86807 -15774079.53147        50.000
        41.000
  23015152.359    23015149.559   -10730581.66206  -7998280.41246        44.000
        29.000
  25161874.367    25161879.918     -443165.99103     59720.58145        37.000
        17.000
  21585659.070    21585655.648   -17574317.12307 -12142629.34347        49.000
        35.000
  23822879.305    23822877.539    -5541506.93805  -3624311.23446        40.000
        22.000
  22041646.023    22041644.703   -15139683.15106 -11546191.51147        47.000
        34.000
 14  9 29  0  6 40.0000000  0  8G07G26G05G15G24G28G10G30
  24544368.625    24544366.043    -1152017.93105   -838965.25646        42.000
        27.000
  20273994.547    20273991.500   -26169608.92807 -20100221.02647        51.000
        40.000
  20705137.086    20705134.105   -20987044.43207 -15769123.34847        49.000
        41.000
  23012646.711    23012643.352   -10743751.89506  -8008542.92146        44.000
        29.000
  25158823.344    25158828.836     -459199.18503     47227.32545        37.000
        16.000
  21585239.695    21585235.988   -17576522.23707 -12144347.61647        49.000
        35.000
  23826323.789    23826322.207    -5523406.30405  -3610206.85346        41.000
        22.000
  22044126.016    22044124.984   -15126651.46107 -11536036.94747        48.000
        34.000
 14  9 29  0  6 45.0000000  0  8G07G26G05G15G24G28G10G30
  24547354.188    24547350.574    -1136331.96706   -826742.43246        43.000
        28.000
  20272975.672    20272972.809   -26174961.62807 -20104391.96047        51.000
        39.000
  20706349.773    20706347.180   -20980669.24307 -15764155.67147        50.000
        41.000
  23010140.227    23010137.262   -10756919.72606  -8018803.57346        44.000
        28.000
  25155771.711    25155778.113     -475229.17003     34736.54945        37.000
        16.000
  21584822.617    21584819.230   -17578712.39407 -12146054.22647        48.000
        35.000
  23829768.961    23829766.969    -5505302.19405  -3596099.78446        41.000
        21.000
  22046607.164    22046605.762   -15113614.33007 -11525878.14447        48.000
        34.000
 14  9 29  0  6 50.0000000  0  8G07G26G05G15G24G28G10G30
  24550338.789    24550335.723    -1120645.83106   -814519.46846        44.000
        28.000
  20271958.664    20271955.938   -26180305.24107 -20108555.81047        51.000
        39.000
  20707566.172    20707563.469   -20974279.07707 -15759176.32247        50.000
        41.000
  23007635.797    23007631.945   -10770084.83706  -8029062.09146        45.000
        29.000
  25152722.000    25152728.148     -491255.62303     22248.55245        36.000
        16.000
  21584408.617    21584405.203   -17580887.30707 -12147748.96247        48.000
        35.000
  23833215.016    23833212.598    -5487194.34405  -3581989.77246        40.000
        21.000
  22049088.711    22049087.813   -15100571.48806 -11515714.88447        47.000
        34.000
 14  9 29  0  6 55.0000000  0  8G07G26G05G15G24G28G10G30
  24553324.078    24553320.813    -1104960.28506   -802296.96246        44.000
        27.000
  20270943.547    20270940.809   -26185640.55707 -20112713.20047        51.000
        39.000
  20708784.695    20708782.133   -20967874.67807 -15754185.88647        50.000
        41.000
  23005130.313    23005127.031   -10783248.02106  -8039319.11546        45.000
        30.000
  25149673.203    25149679.102     -507279.41603      9762.61845        36.000
        16.000
  21583997.797    21583994.398   -17583047.77707 -12149432.43947        49.000
        35.000
  23836661.070    23836659.145    -5469083.57705  -3567877.51246        42.000
        21.000
  22051571.523    22051570.684   -15087523.76506 -11505547.83247        47.000
        34.000
 14  9 29  0  7  0.0000000  0  8G07G26G05G15G24G28G10G30
  24556308.977    24556305.699    -1089274.28506   -790074.11446        43.000
        28.000
  20269929.867    20269927.051   -26190966.55507 -20116863.32947        52.000
        39.000
  20710006.641    20710003.492   -20961455.02007 -15749183.56047        50.000
        41.000
  23002625.758    23002623.152   -10796408.22306  -8049573.82646        44.000
        30.000
  25146623.750    25146630.203     -523299.44003     -2720.41045        36.000
        17.000
  21583589.344    21583586.039   -17585192.73407 -12151103.83347        49.000
        35.000
  23840108.086    23840106.680    -5450968.84505  -3553762.14046        42.000
        22.000
  22054056.180    22054054.691   -15074470.12806 -11495376.16847        47.000
        34.000
 14  9 29  0  7  5.0000000  0  8G07G26G05G15G24G28G10G30
  24559293.711    24559290.574    -1073588.65706   -777851.54146        44.000
        27.000
  20268918.141    20268915.324   -26196283.96807 -20121006.77047        51.000
        39.000
  20711230.852    20711228.055   -20955020.89807 -15744169.96047        51.000
        41.000
  23000121.984    23000119.840   -10809566.24806  -8059826.81046        44.000
        30.000
  25143575.641    25143582.785     -539316.47502    -15201.04745        35.000
        17.000
  21583184.266    21583180.832   -17587322.94907 -12152763.74847        49.000
        35.000
  23843556.188    23843554.520    -5432850.91006  -3539644.26546        43.000
        22.000
  22056540.891    22056539.828   -15061411.34306 -11485200.48847        47.000
        34.000
 14  9 29  0  7 10.0000000  0  8G07G26G05G15G24G28G10G30
  24562278.664    24562275.199    -1057903.07406   -765629.02146        44.000
        28.000
  20267907.750    20267905.121   -26201592.50607 -20125143.29447        50.000
        39.000
  20712458.078    20712454.859   -20948571.99807 -15739144.84747        50.000
        41.000
  22997618.953    22997616.832   -10822721.74206  -8070077.82946        45.000
        29.000
  25140528.000    25140535.445     -555330.35902    -27679.29145        34.000
        16.000
  21582781.852    21582778.172   -17589438.14407 -12154411.94647        48.000
        35.000
  23847004.398    23847002.570    -5414729.51205  -3525523.71846        42.000
        21.000
  22059026.914    22059025.922   -15048347.12507 -11475020.58447        48.000
        34.000
 14  9 29  0  7 15.0000000  0  8G07G26G05G15G24G28G10G30
  24565263.750    24565259.938    -1042217.47206   -753406.46446        44.000
        28.000
  20266899.594    20266896.441   -26206892.13207 -20129272.87347        51.000
        39.000
  20713687.977    20713685.266   -20942108.25007 -15734108.16447        50.000
        41.000
  22995115.813    22995113.348   -10835874.67106  -8080326.86446        44.000
        30.000
  25137480.625    25137488.555     -571340.87502    -40154.79945        35.000
        15.000
  21582381.469    21582378.609   -17591538.26107 -12156048.39647        49.000
        35.000
  23850453.219    23850451.789    -5396604.57605  -3511400.39746        42.000
        22.000
  22061514.188    22061512.977   -15035277.43407 -11464836.40747        48.000
        34.000
 14  9 29  0  7 20.0000000  0  8G07G26G05G15G24G28G10G30
  24568248.219    24568245.410    -1026532.23506   -741184.19646        45.000
        29.000
  20265892.484    20265889.910   -26212183.19407 -20133395.77547        50.000
        39.000
  20714920.813    20714918.047   -20935630.05807 -15729060.22247        50.000
        41.000
  22992613.258    22992610.977   -10849025.38206  -8090574.15546        44.000
        29.000
  25134434.961    25134442.461     -587348.30502    -52628.03345        34.000
        16.000
  21581985.133    21581981.676   -17593623.62607 -12157673.35547        49.000
        35.000
  23853903.250    23853901.719    -5378476.49006  -3497274.64646        43.000
        22.000
  22064001.945    22064000.992   -15022202.61407 -11454648.23947        48.000
        34.000
 14  9 29  0  7 25.0000000  0  8G07G26G05G15G24G28G10G30
  24571233.617    24571230.246    -1010846.67206   -728961.68646        45.000
        29.000
  20264887.313    20264884.754   -26217464.93707 -20137511.41747        50.000
        39.000
  20716156.391    20716153.727   -20929136.71307 -15724000.47647        50.000
        41.000
  22990111.359    22990109.059   -10862173.12306  -8100819.14246        44.000
        29.000
  25131389.875    25131396.516     -603352.08102    -65098.36245        34.000
        16.000
  21581591.148    21581587.824   -17595693.53407 -12159286.26447        50.000
        35.000
  23857353.406    23857351.895    -5360344.56305  -3483145.86646        42.000
        22.000
  22066491.422    22066489.984   -15009121.97406 -11444455.53247        47.000
        34.000
 14  9 29  0  7 30.0000000  0  8G07G26G05G15G24G28G10G30
  24574218.094    24574215.133     -995161.51106   -716739.48046        44.000
        29.000
  20263884.109    20263880.996   -26222738.09907 -20141620.37047        51.000
        39.000
  20717394.641    20717392.719   -20922628.94907 -15718929.49147        50.000
        41.000
  22987609.992    22987607.145   -10875318.68006  -8111062.43346        45.000
        30.000
  25128344.344    25128351.453     -619352.75202    -77566.26545        35.000
        15.000
  21581200.609    21581197.027   -17597748.69807 -12160887.69147        50.000
        35.000
  23860804.570    23860803.109    -5342209.53105  -3469014.69746        42.000
        22.000
  22068981.508    22068980.453   -14996036.25607 -11434258.87047        48.000
        34.000
 14  9 29  0  7 35.0000000  0  8G07G26G05G15G24G28G10G30
  24577202.727    24577200.250     -979476.58106   -704517.45846        44.000
        29.000
  20262882.273    20262879.078   -26228002.48907 -20145722.49547        50.000
        40.000
  20718636.148    20718633.500   -20916106.57807 -15713847.13347        49.000
        41.000
  22985108.820    22985105.676   -10888461.84006  -8121303.85446        44.000
        29.000
  25125301.328    25125306.906     -635350.20604    -90031.71145        38.000
        17.000
  21580811.805    21580808.465   -17599788.92207 -12162477.47647        49.000
        35.000
  23864256.102    23864254.566    -5324071.20705  -3454880.95546        42.000
        22.000
  22071472.766    22071471.762   -14982945.25306 -11424058.08447        47.000
        35.000
 14  9 29  0  7 40.0000000  0  8G07G26G05G15G24G28G10G30
  24580187.484    24580185.316     -963791.73806   -692295.50646        45.000
        30.000
  20261882.117    20261878.824   -26233257.99407 -20149817.69347        50.000
        39.000
  20719879.891    20719877.617   -20909569.47407 -15708753.28947        50.000
        41.000
  22982608.406    22982604.941   -10901602.47806  -8131543.31346        45.000
        30.000
  25122257.305    25122262.863     -651344.40903   -102494.59045        37.000
        18.000
  21580426.164    21580422.910   -17601814.11307 -12164055.54147        49.000
        35.000
  23867708.719    23867706.672    -5305929.47905  -3440744.54946        42.000
        22.000
  22073964.633    22073963.617   -14969848.89207 -11413853.13747        48.000
        35.000
 14  9 29  0  7 45.0000000  0  8G07G26G05G15G24G28G10G30
  24583172.586    24583169.844     -948106.97706   -680073.62646        45.000
        29.000
  20260883.938    20260880.734   -26238504.58107 -20153905.94447        50.000
        39.000
  20721127.055    20721124.309   -20903017.60607 -15703647.94247        50.000
        41.000
  22980108.594    22980104.895   -10914740.59306  -8141780.80346        45.000
        29.000
  25119213.914    25119220.094     -667335.34204   -114954.91845        38.000
        18.000
  21580043.695    21580040.898   -17603824.27207 -12165621.90147        49.000
        35.000
  23871161.602    23871160.125    -5287784.35206  -3426605.51446        43.000
        22.000
  22076458.141    22076456.988   -14956747.17207 -11403644.00147        48.000
        34.000
 14  9 29  0  7 50.0000000  0  8G07G26G05G15G24G28G10G30
  24586157.180    24586154.543     -932422.39806   -667851.87946        45.000
        28.000
  20259887.211    20259884.328   -26243742.35707 -20157987.32747        50.000
        39.000
  20722376.219    20722373.578   -20896451.07607 -15698531.16747        50.000
        40.000
  22977608.492    22977605.324   -10927876.23006  -8152016.37146        44.000
        29.000
  25116172.094    25116177.594     -683322.86504   -127412.67145        38.000
        17.000
  21579664.289    21579661.066   -17605819.44507 -12167176.57347        49.000
        35.000
  23874615.195    23874613.688    -5269635.88205  -3412463.85246        42.000
        23.000
  22078952.141    22078950.957   -14943640.15306 -11393430.74747        47.000
        34.000
 14  9 29  0  7 55.0000000  0  8G07G26G05G15G24G28G10G30
  24589141.492    24589139.016     -916738.04606   -655630.30446        45.000
        28.000
  20258892.305    20258889.047   -26248971.34607 -20162061.86147        51.000
        39.000
  20723628.641    20723626.379   -20889869.93707 -15693403.00647        50.000
        41.000
  22975109.344    22975106.539   -10941009.45106  -8162250.04946        44.000
        30.000
  25113130.391    25113135.328     -699307.26304   -139867.89245        39.000
        18.000
  21579287.344    21579284.066   -17607799.69007 -12168719.62047        49.000
        35.000
  23878069.094    23878067.723    -5251484.15506  -3398319.66446        43.000
        23.000
  22081447.188    22081446.488   -14930527.91207 -11383213.41347        48.000
        34.000
 14  9 29  0  8  0.0000000  0  8G07G26G05G15G24G28G10G30
  24592126.383    24592123.715     -901053.67006   -643408.71246        45.000
        28.000
  20257898.852    20257895.918   -26254191.31507 -20166129.36547        51.000
        39.000
  20724883.773    20724881.449   -20883273.91907 -15688263.25147        50.000
        41.000
  22972610.977    22972607.922   -10954140.01406  -8172481.63546        44.000
        31.000
  25110088.492    25110094.273     -715288.15204   -152320.38945        39.000
        18.000
  21578913.852    21578910.289   -17609764.75407 -12170250.83247        49.000
        35.000
  23881523.828    23881523.039    -5233328.91606  -3384172.74146        43.000
        24.000
  22083943.289    22083942.664   -14917410.18507 -11372991.80947        48.000
        34.000
 14  9 29  0  8  5.0000000  0  8G07G26G05G15G24G28G10G30
  24595111.320    24595108.430     -885369.55506   -631187.33146        45.000
        29.000
  20256906.969    20256903.840   -26259402.50407 -20170190.03447        51.000
        39.000
  20726141.781    20726139.430   -20876663.32207 -15683112.14347        50.000
        40.000
  22970112.422    22970109.871   -10967268.17306  -8182711.37846        43.000
        30.000
  25107048.414    25107053.180     -731265.79904   -164770.41545        38.000
        18.000
  21578542.625    21578539.027   -17611714.91207 -12171770.43347        49.000
        35.000
  23884979.359    23884978.652    -5215170.46805  -3370023.33246        42.000
        24.000
  22086440.336    22086439.895   -14904287.28007 -11362766.16847        48.000
        34.000
 14  9 29  0  8 10.0000000  0  8G07G26G05G15G24G28G10G30
  24598094.984    24598092.699     -869685.56706   -618966.03646        45.000
        29.000
  20255916.969    20255913.926   -26264604.74107 -20174243.72447        51.000
        40.000
  20727402.320    20727399.797   -20870038.00307 -15677949.55747        50.000
        41.000
  22967614.953    22967611.957   -10980393.76606  -8192939.08946        44.000
        30.000
  25104008.102    25104013.383     -747240.02604   -177217.69945        38.000
        18.000
  21578174.133    21578171.031   -17613649.99207 -12173278.28947        50.000
        35.000
  23888435.711    23888434.723    -5197008.64406  -3355871.26046        43.000
        25.000
  22088938.617    22088938.434   -14891159.05006 -11352536.37947        47.000
        34.000
 14  9 29  0  8 15.0000000  0  8G07G26G05G15G24G28G10G30
  24601079.664    24601077.727     -854001.73806   -606744.87246        44.000
        28.000
  20254928.688    20254925.668   -26269798.10707 -20178290.49847        51.000
        39.000
  20728665.867    20728663.168   -20863398.01507 -15672775.54347        50.000
        41.000
  22965117.289    22965114.988   -10993516.84006  -8203164.86146        44.000
        30.000
  25100969.078    25100973.832     -763211.02603   -189662.54945        37.000
        17.000
  21577809.094    21577805.820   -17615569.95507 -12174774.36547        49.000
        35.000
  23891892.563    23891890.977    -5178843.51106  -3341716.62046        43.000
        26.000
  22091438.289    22091437.266   -14878025.52407 -11342302.47047        48.000
        34.000
 14  9 29  0  8 20.0000000  0  8G07G26G05G15G24G28G10G30
  24604064.148    24604062.391     -838318.14306   -594523.89046        44.000
        29.000
  20253942.352    20253939.008   -26274982.66807 -20182330.41647        51.000
        39.000
  20729932.336    20729929.543   -20856743.45307 -15667590.17347        49.000
        41.000
  22962620.547    22962618.023   -11006637.47606  -8213388.71746        45.000
        29.000
  25097930.289    25097935.293     -779178.78503   -202104.87345        37.000
        17.000
  21577446.227    21577443.066   -17617474.96107 -12176258.78847        49.000
        35.000
  23895349.797    23895348.398    -5160675.16206  -3327559.48946        44.000
        25.000
  22093938.383    22093937.398   -14864886.79806 -11332064.50747        47.000
        35.000
 14  9 29  0  8 25.0000000  0  8G07G26G05G15G24G28G10G30
  24607048.242    24607046.402     -822634.59806   -582302.96146        44.000
        29.000
  20252957.383    20252954.285   -26280158.21407 -20186363.30647        52.000
        39.000
  20731201.461    20731198.645   -20850074.08907 -15662393.27147        50.000
        41.000
  22960124.281    22960122.102   -11019755.42906  -8223610.50246        45.000
        29.000
  25094893.148    25094897.617     -795143.01903   -214544.41345        37.000
        17.000
  21577086.914    21577083.563   -17619364.85007 -12177731.42447        49.000
        35.000
  23898807.641    23898806.965    -5142503.42106  -3313399.69846        44.000
        25.000
  22096439.727    22096438.750   -14851742.70907 -11321822.36047        48.000
        35.000
 14  9 29  0  8 30.0000000  0  8G07G26G05G15G24G28G10G30
  24610033.492    24610031.090     -806951.43106   -570082.30646        44.000
        30.000
  20251974.281    20251970.965   -26285325.08707 -20190389.43747        51.000
        40.000
  20732473.797    20732470.887   -20843390.26607 -15657185.09847        50.000
        41.000
  22957628.711    22957625.961   -11032871.03206  -8233830.44746        44.000
        29.000
  25091855.211    25091859.926     -811104.19404   -226981.55245        38.000
        17.000
  21576729.750    21576726.324   -17621239.92907 -12179192.51647        49.000
        35.000
  23902266.078    23902265.410    -5124328.59806  -3299237.51546        43.000
        26.000
  22098941.586    22098941.066   -14838593.57407 -11311576.28547        48.000
        35.000
 14  9 29  0  8 35.0000000  0  8G07G26G05G15G24G28G10G30
  24613017.305    24613015.336     -791268.27806   -557861.66746        44.000
        29.000
  20250992.820    20250989.930   -26290482.89807 -20194408.50847        51.000
        39.000
  20733748.313    20733745.316   -20836691.63307 -15651965.39047        50.000
        40.000
  22955133.992    22955130.695   -11045983.99906  -8244048.32646        45.000
        30.000
  25088819.438    25088823.250     -827061.93904   -239416.06745        38.000
        17.000
  21576375.820    21576372.578   -17623099.82207 -12180641.78847        50.000
        34.000
  23905725.617    23905724.477    -5106150.34306  -3285072.65446        44.000
        25.000
  22101445.547    22101444.074   -14825439.03107 -11301325.99447        49.000
        34.000
 14  9 29  0  8 40.0000000  0  8G07G26G05G15G24G28G10G30
  24616001.906    24615999.520     -775585.48506   -545641.31446        45.000
        29.000
  20250012.953    20250009.715   -26295631.92707 -20198420.74147        52.000
        40.000
  20735025.586    20735022.918   -20829978.49607 -15646734.37447        50.000
        41.000
  22952638.469    22952635.523   -11059094.54706  -8254264.34746        45.000
        29.000
  25085782.617    25085787.063     -843016.40003   -251847.98145        37.000
        18.000
  21576025.133    21576021.473   -17624944.84407 -12182079.46447        50.000
        35.000
  23909185.664    23909184.527    -5087968.95706  -3270905.36046        43.000
        25.000
  22103949.094    22103948.461   -14812279.39506 -11291071.74247        47.000
        34.000
 14  9 29  0  8 45.0000000  0  8G07G26G05G15G24G28G10G30
  24618986.016    24618983.598     -759902.82406   -533421.05646        44.000
        29.000
  20249034.586    20249031.707   -26300771.97907 -20202425.97747        52.000
        39.000
  20736306.078    20736302.895   -20823250.64607 -15641491.89147        50.000
        40.000
  22950144.078    22950140.785   -11072202.47306  -8264478.30346        45.000
        29.000
  25082746.320    25082751.652     -858967.50803   -264277.35045        36.000
        17.000
  21575676.625    21575672.879   -17626774.79207 -12183505.39747        50.000
        35.000
  23912646.625    23912644.859    -5069784.25706  -3256735.49146        44.000
        24.000
  22106454.703    22106453.383   -14799114.46706 -11280813.35047        47.000
        35.000
 14  9 29  0  8 50.0000000  0  8G07G26G05G15G24G28G10G30
  24621970.289    24621967.941     -744220.37406   -521200.97046        44.000
        28.000
  20248058.297    20248055.285   -26305903.16607 -20206424.30147        51.000
        39.000
  20737589.227    20737586.285   -20816508.18607 -15636238.02947        50.000
        40.000
  22947650.664    22947647.063   -11085307.87406  -8274690.30246        46.000
        29.000
  25079711.891    25079716.414     -874915.34403   -276704.10845        37.000
        17.000
  21575330.969    21575328.055   -17628589.72307 -12184919.62947        49.000
        35.000
  23916106.891    23916106.117    -5051596.34406  -3242563.08646        44.000
        24.000
  22108960.125    22108959.496   -14785944.34606 -11270550.92447        47.000
        35.000
 14  9 29  0  8 55.0000000  0  8G07G26G05G15G24G28G10G30
  24624954.813    24624952.234     -728538.00806   -508980.95646        44.000
        28.000
  20247083.266    20247080.555   -26311025.30507 -20210415.57947        51.000
        40.000
  20738875.094    20738871.922   -20809750.96607 -15630972.66047        51.000
        40.000
  22945157.117    22945153.652   -11098410.55406  -8284900.18846        45.000
        29.000
  25076677.641    25076682.191     -890859.62503   -289128.10845        37.000
        16.000
  21574988.609    21574985.281   -17630389.58207 -12186322.11247        49.000
        35.000
  23919568.688    23919567.703    -5033405.09406  -3228388.11146        44.000
        25.000
  22111467.852    22111467.262   -14772768.89306 -11260284.33947        47.000
        34.000
 14  9 29  0  9  0.0000000  0  8G07G26G05G15G24G28G10G30
  24627938.984    24627936.336     -712855.82306   -496761.06246        44.000
        28.000
  20246110.164    20246107.758   -26316138.50207 -20214399.88847        51.000
        39.000
  20740163.719    20740160.695   -20802979.03907 -15625695.83247        51.000
        41.000
  22942664.109    22942660.637   -11111510.64606  -8295108.04046        45.000
        29.000
  25073644.523    25073648.703     -906800.50703   -301549.47645        37.000
        18.000
  21574649.359    21574645.707   -17632174.35007 -12187712.83847        49.000
        35.000
  23923031.055    23923030.184    -5015210.59506  -3214210.57746        44.000
        25.000
  22113975.852    22113975.250   -14759588.22107 -11250013.68547        48.000
        34.000
 14  9 29  0  9  5.0000000  0  8G07G26G05G15G24G28G10G30
  24630922.477    24630920.848     -697174.08606   -484541.53546        44.000
        28.000
  20245139.258    20245136.184   -26321243.00107 -20218377.41747        52.000
        39.000
  20741455.008    20741451.840   -20796192.73007 -15620407.80347        51.000
        41.000
  22940171.672    22940168.453   -11124608.38106  -8305314.06946        46.000
        29.000
  25070612.031    25070615.742     -922738.27804   -313968.42945        38.000
        17.000
  21574312.172    21574308.695   -17633944.27007 -12189091.99247        49.000
        35.000
  23926492.773    23926492.578    -4997013.11206  -3200030.74946        44.000
        25.000
  22116485.273    22116484.121   -14746402.58306 -11239739.17047        47.000
        34.000
 14  9 29  0  9 10.0000000  0  8G07G26G05G15G24G28G10G30
  24633906.844    24633904.859     -681492.31906   -472321.97046        43.000
        28.000
  20244169.883    20244166.961   -26326338.33707 -20222347.80747        52.000
        39.000
  20742748.945    20742745.930   -20789391.53107 -15615108.17347        50.000
        41.000
  22937679.859    22937676.668   -11137703.32006  -8315517.91846        46.000
        30.000
  25067580.055    25067583.176     -938672.47804   -326384.59945        38.000
        17.000
  21573978.422    21573974.715   -17635698.87607 -12190459.21147        49.000
        35.000
  23929957.164    23929956.133    -4978812.17206  -3185848.21546        43.000
        26.000
  22118995.281    22118994.215   -14733211.50706 -11229460.40647        47.000
        34.000
 14  9 29  0  9 15.0000000  0  8G07G26G05G15G24G28G10G30
  24636891.305    24636888.699     -665810.94306   -460102.71846        44.000
        28.000
  20243202.047    20243199.086   -26331424.89707 -20226311.35947        51.000
        40.000
  20744045.945    20744043.160   -20782575.85907 -15609797.26247        51.000
        41.000
  22935188.039    22935185.203   -11150795.86406  -8325719.89846        45.000
        30.000
  25064548.258    25064551.277     -954603.46204   -338798.22945        38.000
        17.000
  21573647.445    21573643.895   -17637438.55807 -12191814.80047        49.000
        34.000
  23933420.883    23933421.102    -4960608.20306  -3171663.33146        43.000
        25.000
  22121506.305    22121505.750   -14720015.42606 -11219177.75347        47.000
        34.000
 14  9 29  0  9 20.0000000  0  8G07G26G05G15G24G28G10G30
  24639874.969    24639872.461     -650129.78506   -447883.64146        44.000
        28.000
  20242235.281    20242232.758   -26336502.46807 -20230267.90847        51.000
        40.000
  20745346.172    20745342.621   -20775745.52707 -15604474.93247        50.000
        41.000
  22932697.711    22932694.727   -11163885.80206  -8335919.83946        46.000
        31.000
  25061516.602    25061520.355     -970531.00003   -351209.25445        37.000
        18.000
  21573319.383    21573315.672   -17639163.14807 -12193158.63947        49.000
        35.000
  23936885.398    23936885.711    -4942401.02006  -3157475.94446        44.000
        24.000
  22124018.242    22124017.488   -14706814.14706 -11208891.05047        47.000
        35.000
 14  9 29  0  9 25.0000000  0  8G07G26G05G15G24G28G10G30
  24642858.992    24642856.758     -634448.83506   -435664.71146        44.000
        27.000
  20241270.820    20241268.066   -26341571.08207 -20234217.47447        51.000
        39.000
  20746648.672    20746645.367   -20768900.56407 -15599141.19547        50.000
        40.000
  22930207.422    22930203.781   -11176973.15106  -8346117.75346        46.000
        30.000
  25058485.516    25058490.230     -986455.20703   -363617.62145        36.000
        17.000
  21572994.227    21572990.738   -17640872.65407 -12194490.71647        49.000
        35.000
  23940351.258    23940350.992    -4924190.66306  -3143286.06846        43.000
        26.000
  22126531.766    22126530.855   -14693607.68507 -11198600.30247        48.000
        34.000
 14  9 29  0  9 30.0000000  0  8G07G26G05G15G24G28G10G30
  24645843.156    24645840.762     -618768.22606   -423446.06546        44.000
        28.000
  20240307.734    20240304.969   -26346630.83707 -20238160.13847        51.000
        39.000
  20747953.883    20747950.840   -20762041.05207 -15593796.12647        50.000
        40.000
  22927717.078    22927714.277   -11190057.97406  -8356313.72946        45.000
        30.000
  25055457.195    25055460.609    -1002376.03403   -376023.33745        36.000
        16.000
  21572671.523    21572668.051   -17642567.19107 -12195811.13447        49.000
        35.000
  23943817.492    23943816.730    -4905977.24006  -3129093.79946        44.000
        25.000
  22129045.703    22129044.805   -14680396.17106 -11188305.62147        47.000
        34.000
 14  9 29  0  9 35.0000000  0  8G07G26G05G15G24G28G10G30
  24648827.273    24648824.152     -603087.79106   -411227.53846        45.000
        27.000
  20239346.641    20239343.902   -26351681.58107 -20242095.78047        52.000
        39.000
  20749262.344    20749258.918   -20755166.87407 -15588439.62547        51.000
        41.000
  22925228.258    22925224.375   -11203140.15506  -8366507.62446        47.000
        30.000
  25052426.844    25052431.410    -1018293.38703   -388426.36645        36.000
        17.000
  21572352.102    21572348.371   -17644246.61007 -12197119.76847        50.000
        35.000
  23947283.570    23947283.652    -4887760.60006  -3114899.02446        43.000
        25.000
  22131560.813    22131559.586   -14667179.44306 -11178006.87247        47.000
        34.000
 14  9 29  0  9 40.0000000  0  8G07G26G05G15G24G28G10G30
  24651811.180    24651807.859     -587407.45706   -399009.10346        44.000
        28.000
  20238387.391    20238384.629   -26356723.21407 -20246024.32747        51.000
        40.000
  20750572.992    20750569.711   -20748277.93407 -15583071.62347        51.000
        40.000
  22922738.313    22922735.398   -11216219.60406  -8376699.40346        46.000
        30.000
  25049398.547    25049403.180    -1034207.29202   -400826.71845        35.000
        16.000
  21572035.367    21572031.918   -17645910.83307 -12198416.56847        49.000
        35.000
  23950751.023    23950750.809    -4869540.63906  -3100701.67846        44.000
        25.000
  22134077.023    22134075.875   -14653957.43306 -11167704.00947        47.000
        34.000
 14  9 29  0  9 45.0000000  0  8G07G26G05G15G24G28G10G30
  24654794.594    24654791.730     -571727.62006   -386791.05246        44.000
        29.000
  20237429.945    20237427.027   -26361756.12007 -20249946.06747        51.000
        39.000
  20751886.859    20751883.730   -20741374.63507 -15577692.43047        51.000
        40.000
  22920249.531    22920246.496   -11229296.67106  -8386889.32046        45.000
        30.000
  25046370.578    25046375.496    -1050117.98603   -413224.54045        36.000
        16.000
  21571721.414    21571717.957   -17647560.19607 -12199701.77747        50.000
        35.000
  23954219.016    23954218.211    -4851317.77506  -3086502.05246        43.000
        25.000
  22136594.016    22136592.863   -14640730.52907 -11157397.33347        48.000
        34.000
 14  9 29  0  9 50.0000000  0  8G07G26G05G15G24G28G10G30
  24657778.406    24657775.219     -556047.95906   -374573.14146        44.000
        27.000
  20236473.898    20236470.824   -26366779.98807 -20253860.76947        52.000
        39.000
  20753203.242    20753200.094   -20734456.67007 -15572301.80547        51.000
        40.000
  22917762.477    22917758.828   -11242371.07906  -8397077.14746        46.000
        30.000
  25043343.750    25043348.074    -1066025.22803   -425619.72145        36.000
        16.000
  21571410.555    21571406.551   -17649194.38107 -12200975.17247        49.000
        35.000
  23957686.953    23957686.180    -4833091.69906  -3072299.94746        43.000
        25.000
  22139112.102    22139110.535   -14627498.41806 -11147086.60547        47.000
        34.000
 14  9 29  0  9 55.0000000  0  8G07G26G05G15G24G28G10G30
  24660761.602    24660758.688     -540368.66206   -362355.50746        44.000
        27.000
  20235519.453    20235516.688   -26371794.99407 -20257768.56947        52.000
        39.000
  20754522.383    20754519.605   -20727524.21407 -15566899.89547        51.000
        40.000
  22915275.039    22915271.668   -11255442.94306  -8407263.03246        46.000
        30.000
  25040316.703    25040321.141    -1081929.18303   -438012.32045        36.000
        15.000
  21571102.305    21571099.051   -17650813.62007 -12202236.91047        50.000
        35.000
  23961155.930    23961155.070    -4814862.61506  -3058095.48746        43.000
        26.000
  22141630.789    22141629.645   -14614261.32406 -11136771.98747        46.000
        33.000
 14  9 29  0 10  0.0000000  0  8G07G26G05G15G24G28G10G30
  24663745.359    24663742.309     -524689.52706   -350138.00546        44.000
        27.000
  20234566.477    20234563.859   -26376800.90907 -20261669.28447        52.000
        40.000
  20755844.547    20755841.289   -20720577.00307 -15561486.48447        51.000
        40.000
  22912788.414    22912784.520   -11268512.05406  -8417446.75046        47.000
        30.000
  25037290.961    25037295.957    -1097829.50503   -450402.09345        36.000
        16.000
  21570797.422    21570793.422   -17652417.59907 -12203486.75947        49.000
        35.000
  23964625.664    23964624.672    -4796630.26306  -3043888.46946        43.000
        25.000
  22144150.695    22144149.855   -14601018.98606 -11126453.28347        47.000
        34.000
 14  9 29  0 10  5.0000000  0  8G07G26G05G15G24G28G10G30
  24666729.148    24666725.609     -509010.93306   -337920.92046        44.000
        27.000
  20233615.633    20233613.070   -26381798.10407 -20265563.20147        51.000
        40.000
  20757169.227    20757166.141   -20713615.46507 -15556061.91547        50.000
        41.000
  22910301.102    22910297.895   -11281578.85206  -8427628.67646        46.000
        30.000
  25034266.117    25034270.359    -1113726.67803   -462789.43545        36.000
        17.000
  21570494.469    21570491.008   -17654006.75707 -12204725.06147        49.000
        35.000
  23968095.172    23968094.211    -4778395.07306  -3029679.23146        43.000
        25.000
  22146671.430    22146670.219   -14587771.81406 -11116130.81447        47.000
        34.000
 14  9 29  0 10 10.0000000  0  8G07G26G05G15G24G28G10G30
  24669712.609    24669708.910     -493332.50506   -325703.97146        43.000
        27.000
  20232666.648    20232663.922   -26386786.18907 -20269450.01847        51.000
        40.000
  20758496.578    20758493.445   -20706639.34907 -15550625.97847        51.000
        41.000
  22907814.836    22907812.250   -11294642.88706  -8437808.43946        46.000
        30.000
  25031242.102    25031245.957    -1129620.38203   -475174.04245        36.000
        16.000
  21570194.961    21570191.832   -17655580.75107 -12205951.55447        49.000
        35.000
  23971566.023    23971564.898    -4760156.68606  -3015467.53446        43.000
        25.000
  22149193.313    22149192.160   -14574519.45106 -11105804.29847        47.000
        33.000
 14  9 29  0 10 15.0000000  0  8G07G26G05G15G24G28G10G30
  24672696.422    24672692.570     -477654.23206   -313487.13146        43.000
        27.000
  20231719.234    20231716.418   -26391765.14107 -20273329.72047        52.000
        40.000
  20759826.984    20759823.871   -20699648.50807 -15545178.57547        51.000
        41.000
  22905329.602    22905326.629   -11307704.14406  -8447986.02846        46.000
        30.000
  25028218.141    25028221.289    -1145510.45803   -487555.80445        37.000
        17.000
  21569898.711    21569895.078   -17657139.50107 -12207166.16247        49.000
        34.000
  23975037.188    23975036.523    -4741915.07605  -3001253.30446        42.000
        25.000
  22151716.000    22151714.996   -14561261.88106 -11095473.72547        47.000
        34.000
 14  9 29  0 10 20.0000000  0  8G07G26G05G15G24G28G10G30
  24675679.891    24675676.129     -461976.37706   -301270.63646        44.000
        28.000
  20230773.492    20230770.813   -26396735.27807 -20277202.55847        52.000
        40.000
  20761160.008    20761156.770   -20692643.19707 -15539719.89647        51.000
        41.000
  22902844.953    22902841.773   -11320762.90306  -8458161.69146        46.000
        29.000
  25025194.938    25025197.895    -1161397.30303   -499935.17145        37.000
        17.000
  21569604.781    21569601.102   -17658683.34207 -12208369.15347        49.000
        35.000
  23978509.086    23978508.410    -4723670.54905  -2987036.81646        42.000
        24.000
  22154239.953    22154238.773   -14547999.40506 -11085139.32447        46.000
        34.000
 14  9 29  0 10 25.0000000  0  8G07G26G05G15G24G28G10G30
  24678663.172    24678659.402     -446298.73506   -289054.29146        44.000
        28.000
  20229829.547    20229826.730   -26401696.34007 -20281068.32047        52.000
        40.000
  20762496.102    20762492.789   -20685623.25507 -15534249.81247        51.000
        41.000
  22900360.453    22900356.875   -11333818.95706  -8468335.21846        45.000
        29.000
  25022172.172    25022175.746    -1177280.61903   -512311.64845        36.000
        17.000
  21569314.000    21569310.191   -17660212.02007 -12209560.33247        49.000
        35.000
  23981981.391    23981980.879    -4705422.87805  -2972817.84846        42.000
        23.000
  22156764.945    22156763.813   -14534731.77806 -11074800.91947        47.000
        34.000
 14  9 29  0 10 30.0000000  0  8G07G26G05G15G24G28G10G30
  24681646.664    24681642.988     -430621.54606   -276838.30046        44.000
        27.000
  20228886.945    20228884.273   -26406648.54007 -20284927.17947        51.000
        40.000
  20763834.211    20763830.832   -20678588.86407 -15528768.46847        51.000
        41.000
  22897875.969    22897873.215   -11346872.51506  -8478506.81146        45.000
        30.000
  25019150.305    25019153.348    -1193160.67902   -524685.63745        35.000
        17.000
  21569025.867    21569022.383   -17661725.77307 -12210739.87647        49.000
        36.000
  23985454.586    23985453.801    -4687172.27606  -2958596.63946        43.000
        23.000
  22159290.133    22159289.695   -14521459.25006 -11064458.68947        47.000
        33.000
 14  9 29  0 10 35.0000000  0  8G07G26G05G15G24G28G10G30
  24684630.031    24684626.059     -414944.74606   -264622.61946        43.000
        26.000
  20227946.289    20227943.516   -26411591.83407 -20288779.08947        52.000
        40.000
  20765175.852    20765172.520   -20671539.98607 -15523275.83647        51.000
        41.000
  22895392.766    22895389.789   -11359923.52506  -8488676.42446        44.000
        31.000
  25016128.930    25016132.523    -1209037.36003   -537057.01745        36.000
        17.000
  21568740.633    21568737.180   -17663224.53907 -12211907.74047        48.000
        35.000
  23988928.063    23988927.695    -4668918.73905  -2944373.12346        42.000
        24.000
  22161817.125    22161815.914   -14508181.77206 -11054112.60347        47.000
        34.000
 14  9 29  0 10 40.0000000  0  8G07G26G05G15G24G28G10G30
  24687612.656    24687609.242     -399268.04406   -252407.00346        43.000
        27.000
  20227007.813    20227004.828   -26416525.91907 -20292623.83447        51.000
        40.000
  20766519.961    20766516.582   -20664476.31707 -15517771.67747        51.000
        40.000
  22892909.938    22892906.797   -11372971.66206  -8498843.79646        46.000
        31.000
  25013107.492    25013111.969    -1224910.48202   -549425.60945        35.000
        17.000
  21568457.953    21568454.629   -17664708.00507 -12213063.69147        48.000
        35.000
  23992402.422    23992401.465    -4650661.92305  -2930147.04546        42.000
        25.000
  22164344.195    22164343.957   -14494899.04606 -11043762.43247        47.000
        33.000
 14  9 29  0 10 45.0000000  0  8G07G26G05G15G24G28G10G30
  24690595.883    24690592.711     -383591.74706   -240191.72046        44.000
        26.000
  20226070.453    20226067.707   -26421451.07307 -20296461.62247        51.000
        40.000
  20767866.906    20767863.730   -20657398.16007 -15512256.23547        50.000
        40.000
  22890427.609    22890424.012   -11386017.21206  -8509009.16946        46.000
        30.000
  25010087.984    25010092.102    -1240780.21703   -561791.48345        37.000
        16.000
  21568178.891    21568175.430   -17666176.45407 -12214207.93547        48.000
        35.000
  23995877.195    23995876.027    -4632402.16705  -2915918.68446        42.000
        23.000
  22166873.297    22166872.242   -14481611.39706 -11033408.42147        47.000
        34.000
 14  9 29  0 10 50.0000000  0  8G07G26G05G15G24G28G10G30
  24693578.820    24693575.484     -367915.84006   -227976.73446        43.000
        26.000
  20225134.680    20225132.258   -26426367.29607 -20300292.43847        51.000
        40.000
  20769216.336    20769214.148   -20650305.53907 -15506729.52247        51.000
        41.000
  22887945.055    22887941.891   -11399060.18006  -8519172.52446        46.000
        30.000
  25007069.789    25007072.457    -1256646.44903   -574154.77045        36.000
        17.000
  21567902.375    21567898.461   -17667629.87107 -12215340.46747        49.000
        35.000
  23999352.047    23999351.422    -4614139.48605  -2901688.03746        41.000
        22.000
  22169402.352    22169401.508   -14468318.80106 -11023050.55947        46.000
        34.000
 14  9 29  0 10 55.0000000  0  8G07G26G05G15G24G28G10G30
  24696561.617    24696558.379     -352240.49106   -215762.16346        44.000
        27.000
  20224200.672    20224198.191   -26431274.78307 -20304116.45447        51.000
        40.000
  20770568.570    20770566.004   -20643198.60707 -15501191.65347        51.000
        41.000
  22885463.375    22885460.504   -11412100.71306  -8529333.99046        45.000
        30.000
  25004050.461    25004053.637    -1272509.47003   -586515.43645        36.000
        17.000
  21567628.617    21567624.895   -17669068.43707 -12216461.42247        49.000
        35.000
  24002827.781    24002827.496    -4595874.04205  -2887455.24946        42.000
        22.000
  22171933.281    22171931.793   -14455021.46106 -11012688.99447        46.000
        34.000
 14  9 29  0 11  0.0000000  0  8G07G26G05G15G24G28G10G30
  24699544.914    24699541.676     -336565.22806   -203547.68746        43.000
        27.000
  20223268.023    20223266.082   -26436172.94107 -20307933.20147        51.000
        40.000
  20771924.031    20771921.375   -20636076.86407 -15495642.25047        50.000
        41.000
  22882982.617    22882979.184   -11425138.28106  -8539493.12146        45.000
        30.000
  25001032.063    25001035.801    -1288368.84002   -598873.32745        35.000
        17.000
  21567357.820    21567354.242   -17670491.59107 -12217570.37747        49.000
        35.000
  24006305.289    24006303.820    -4577605.32905  -2873219.91146        42.000
        23.000
  22174464.719    22174463.555   -14441718.83906 -11002323.31647        47.000
        34.000
 14  9 29  0 11  5.0000000  0  8G07G26G05G15G24G28G10G30
  24702527.898    24702524.375     -320890.39506   -191333.52046        43.000
        26.000
  20222338.656    20222335.801   -26441062.16207 -20311742.97947        51.000
        40.000
  20773282.094    20773279.004   -20628940.69207 -15490081.60347        50.000
        41.000
  22880501.852    22880498.500   -11438173.29006  -8549650.26846        45.000
        29.000
  24998013.969    24998017.922    -1304224.81202   -611228.53645        35.000
        16.000
  21567089.469    21567086.184   -17671899.74907 -12218667.64347        48.000
        35.000
  24009781.492    24009780.988    -4559333.70705  -2858982.29546        41.000
        23.000
  22176996.906    22176996.082   -14428411.32806 -10991953.82847        47.000
        33.000
 14  9 29  0 11 10.0000000  0  8G07G26G05G15G24G28G10G30
  24705510.336    24705506.934     -305216.10906   -179119.79046        43.000
        26.000
  20221409.617    20221407.160   -26445942.57807 -20315545.89747        51.000
        40.000
  20774642.977    20774639.918   -20621790.21007 -15484509.80247        51.000
        40.000
  22878021.633    22878019.125   -11451205.81106  -8559805.47246        45.000
        29.000
  24994998.984    24995001.340    -1320077.40403   -623581.14445        36.000
        17.000
  21566824.539    21566821.176   -17673293.02507 -12219753.30647        49.000
        35.000
  24013258.992    24013258.051    -4541059.32605  -2844742.54446        41.000
        22.000
  22179530.211    22179529.105   -14415099.03006 -10981580.61047        47.000
        34.000
 14  9 29  0 11 15.0000000  0  8G07G26G05G15G24G28G10G30
  24708493.320    24708490.273     -289541.75406   -166906.01646        43.000
        26.000
  20220482.461    20220479.996   -26450813.51407 -20319341.42847        51.000
        40.000
  20776006.281    20776003.258   -20614624.77007 -15478926.34447        51.000
        40.000
  22875542.781    22875539.191   -11464235.23706  -8569958.25746        44.000
        30.000
  24991981.180    24991985.523    -1335926.19701   -635930.75145        33.000
        17.000
  21566562.586    21566558.898   -17674670.76507 -12220826.87847        49.000
        35.000
  24016737.156    24016736.426    -4522781.58605  -2830500.14646        41.000
        22.000
  22182064.203    22182063.762   -14401781.35406 -10971203.20647        47.000
        33.000
 14  9 29  0 11 20.0000000  0  8G07G26G05G15G24G28G10G30
  24711475.156    24711472.559     -273867.97706   -154692.67746        43.000
        26.000
  20219557.547    20219555.066   -26455675.60507 -20323130.06647        51.000
        40.000
  20777372.422    20777369.809   -20607445.01907 -15473331.73547        50.000
        40.000
  22873064.289    22873060.258   -11477262.19206  -8580109.12946        45.000
        30.000
  24988965.938    24988969.832    -1351771.77702   -648277.84345        34.000
        16.000
  21566302.844    21566299.551   -17676033.61407 -12221888.83447        49.000
        35.000
  24020215.555    24020214.898    -4504501.08205  -2816255.64046        41.000
        22.000
  22184599.469    22184598.715   -14388458.92006 -10960822.09047        47.000
        33.000
 14  9 29  0 11 25.0000000  0  8G07G26G05G15G24G28G10G30
  24714458.109    24714455.191     -258194.54206   -142479.60646        43.000
        26.000
  20218634.133    20218631.230   -26460528.65307 -20326911.65947        51.000
        40.000
  20778741.453    20778738.055   -20600250.73907 -15467725.80547        50.000
        40.000
  22870585.281    22870582.191   -11490286.43006  -8590257.88546        45.000
        31.000
  24985952.016    24985955.555    -1367613.84902   -660622.27945        35.000
        17.000
  21566046.227    21566043.098   -17677381.34807 -12222939.01547        48.000
        35.000
  24023695.070    24023693.961    -4486217.60205  -2802008.79646        41.000
        22.000
  22187135.945    22187134.961   -14375131.51006 -10950437.09147        47.000
        33.000
 14  9 29  0 11 30.0000000  0  8G07G26G05G15G24G28G10G30
  24717440.773    24717437.660     -242521.55306   -130266.89346        43.000
        26.000
  20217712.195    20217709.414   -26465372.73707 -20330686.27247        51.000
        40.000
  20780113.656    20780110.156   -20593042.01907 -15462108.62047        51.000
        40.000
  22868107.758    22868104.086   -11503308.02906  -8600404.57846        46.000
        31.000
  24982938.953    24982941.496    -1383452.45503   -672963.96045        37.000
        17.000
  21565792.914    21565789.723   -17678714.03907 -12223977.46947        48.000
        35.000
  24027174.719    24027173.941    -4467931.25504  -2787759.70546        39.000
        21.000
  22189672.484    22189672.004   -14361799.22606 -10940048.30347        46.000
        33.000
 14  9 29  0 11 35.0000000  0  8G07G26G05G15G24G28G10G30
  24720422.820    24720419.977     -226849.15006   -118054.63546        43.000
        27.000
  20216791.719    20216789.121   -26470207.99907 -20334454.00647        50.000
        40.000
  20781488.109    20781484.758   -20585819.01307 -15456480.30547        51.000
        40.000
  22865630.273    22865626.926   -11516327.15506  -8610549.35946        46.000
        31.000
  24979924.352    24979927.895    -1399287.70203   -685302.98745        37.000
        18.000
  21565542.328    21565538.820   -17680031.85007 -12225004.33347        49.000
        36.000
  24030654.727    24030654.164    -4449642.20305  -2773508.52146        40.000
        21.000
  22192210.641    22192209.520   -14348462.21806 -10929655.83047        47.000
        33.000
 14  9 29  0 11 40.0000000  0  8G07G26G05G15G24G28G10G30
  24723405.063    24723402.121     -211177.02506   -105842.58146        43.000
        27.000
  20215873.609    20215870.844   -26475034.15007 -20338214.63747        51.000
        40.000
  20782864.789    20782861.590   -20578581.42707 -15450840.63247        50.000
        40.000
  22863152.766    22863150.121   -11529343.50006  -8620691.96046        46.000
        31.000
  24976912.656    24976915.488    -1415119.35403   -697639.28045        37.000
        18.000
  21565294.367    21565290.617   -17681334.46107 -12226019.35547        49.000
        35.000
  24034135.703    24034134.676    -4431350.14605  -2759254.99346        40.000
        22.000
  22194749.523    22194748.672   -14335120.22206 -10919259.47447        47.000
        33.000
 14  9 29  0 11 45.0000000  0  8G07G26G05G15G24G28G10G30
  24726387.797    24726384.477     -195505.19006    -93630.77146        43.000
        27.000
  20214956.930    20214953.789   -26479851.14107 -20341968.13647        51.000
        40.000
  20784244.805    20784241.832   -20571329.25807 -15445189.59247        50.000
        40.000
  22860677.234    22860673.742   -11542357.05906  -8630832.38546        46.000
        31.000
  24973899.602    24973903.496    -1430947.50403   -709972.90045        37.000
        18.000
  21565049.758    21565045.395   -17682621.87907 -12227022.53647        48.000
        35.000
  24037616.820    24037616.754    -4413055.08105  -2744999.10846        40.000
        22.000
  22197289.516    22197288.867   -14321773.22606 -10908859.22647        46.000
        33.000
 14  9 29  0 11 50.0000000  0  8G07G26G05G15G24G28G10G30
  24729369.578    24729366.754     -179833.75406    -81419.27046        44.000
        26.000
  20214041.797    20214039.520   -26484659.09107 -20345714.58947        51.000
        40.000
  20785627.781    20785624.574   -20564062.62807 -15439527.28847        50.000
        40.000
  22858200.852    22858198.035   -11555367.94406  -8640970.73346        46.000
        31.000
  24970888.703    24970892.027    -1446772.13003   -722303.71845        36.000
        18.000
  21564807.516    21564803.539   -17683894.18107 -12228013.93747        48.000
        35.000
  24041099.734    24041098.648    -4394757.12305  -2730740.97946        40.000
        22.000
  22199830.133    22199829.855   -14308421.32306 -10898455.14347        46.000
        33.000
 14  9 29  0 11 55.0000000  0  8G07G26G05G15G24G28G10G30
  24732351.789    24732348.711     -164162.85906    -69208.18346        43.000
        25.000
  20213128.688    20213126.172   -26489458.11407 -20349454.08447        51.000
        40.000
  20787012.992    20787010.328   -20556781.67007 -15433853.81147        50.000
        40.000
  22855725.000    22855722.477   -11568376.25306  -8651107.07846        46.000
        30.000
  24967877.930    24967881.449    -1462593.35503   -734631.81745        36.000
        17.000
  21564568.000    21564564.254   -17685151.53507 -12228993.68847        49.000
        36.000
  24044581.789    24044580.703    -4376456.41005  -2716480.71646        40.000
        22.000
  22202372.055    22202371.086   -14295064.67006 -10888047.36547        47.000
        33.000
 14  9 29  0 12  0.0000000  0  8G07G26G05G15G24G28G10G30
  24735333.766    24735330.707     -148492.35406    -56997.40946        43.000
        26.000
  20212217.016    20212214.414   -26494248.02207 -20353186.47547        51.000
        40.000
  20788401.891    20788398.711   -20549486.23807 -15428169.06747        49.000
        40.000
  22853250.195    22853247.316   -11581381.83306  -8661241.28546        46.000
        30.000
  24964867.977    24964871.016    -1478411.05803   -746957.23645        36.000
        17.000
  21564331.695    21564328.168   -17686393.75607 -12229961.65047        48.000
        35.000
  24048064.625    24048063.691    -4358152.80405  -2702218.18246        42.000
        22.000
  22204914.328    22204913.949   -14281703.13006 -10877635.77847        46.000
        33.000
 14  9 29  0 12  5.0000000  0  8G07G26G05G15G24G28G10G30
  24738315.641    24738313.125     -132822.20205    -44786.89746        42.000
        25.000
  20211307.734    20211304.773   -26499028.85007 -20356911.79447        51.000
        40.000
  20789792.922    20789789.441   -20542176.29907 -15422473.01847        50.000
        39.000
  22850775.938    22850772.809   -11594384.66406  -8671373.35646        45.000
        31.000
  24961858.211    24961861.918    -1494225.24302   -759279.95645        35.000
        18.000
  21564098.477    21564094.227   -17687620.81807 -12230917.80747        49.000
        36.000
  24051548.531    24051547.500    -4339846.28405  -2687953.39146        41.000
        22.000
  22207457.930    22207457.328   -14268336.66406 -10867220.35547        47.000
        33.000
 14  9 29  0 12 10.0000000  0  8G07G26G05G15G24G28G10G30
  24741297.805    24741294.563     -117152.57306    -32576.80746        43.000
        26.000
  20210399.156    20210396.563   -26503800.75307 -20360630.16147        51.000
        40.000
  20791186.461    20791183.715   -20534852.11507 -15416765.86347        49.000
        40.000
  22848302.578    22848299.445   -11607384.92706  -8681503.42946        45.000
        30.000
  24958850.203    24958853.336    -1510036.09403   -771599.99845        36.000
        18.000
  21563867.453    21563863.832   -17688832.89807 -12231862.28147        50.000
        35.000
  24055032.922    24055031.512    -4321537.04005  -2673686.45646        42.000
        22.000
  22210002.688    22210002.152   -14254965.44707 -10856801.23147        48.000
        33.000
 14  9 29  0 12 15.0000000  0  8G07G26G05G15G24G28G10G30
  24744279.539    24744276.809     -101483.31706    -20366.99546        43.000
        26.000
  20209493.375    20209490.305   -26508563.53107 -20364341.42047        51.000
        39.000
  20792582.969    20792579.879   -20527513.37207 -15411047.36547        50.000
        40.000
  22845829.117    22845826.066   -11620382.37706  -8691631.30546        45.000
        30.000
  24955841.836    24955845.352    -1525843.32503   -783917.27145        36.000
        17.000
  21563639.789    21563635.922   -17690029.79407 -12232794.91947        48.000
        35.000
  24058517.938    24058515.773    -4303224.86805  -2659417.22646        42.000
        22.000
  22212547.789    22212547.152   -14241589.32506 -10846378.28147        47.000
        33.000
 14  9 29  0 12 20.0000000  0  8G07G26G05G15G24G28G10G30
  24747261.203    24747258.445      -85814.51806     -8157.55746        44.000
        26.000
  20208588.711    20208585.672   -26513317.25507 -20368045.61247        51.000
        39.000
  20793982.219    20793979.254   -20520160.16307 -15405317.59547        49.000
        41.000
  22843355.984    22843353.129   -11633377.09906  -8701757.05746        45.000
        31.000
  24952834.172    24952838.227    -1541646.95102   -796231.69445        35.000
        16.000
  21563414.945    21563411.367   -17691211.59507 -12233715.80247        48.000
        36.000
  24062003.727    24062001.141    -4284909.88505  -2645145.84946        42.000
        22.000
  22215093.945    22215093.258   -14228208.36306 -10835951.56047        47.000
        33.000
 14  9 29  0 12 25.0000000  0  8G07G26G05G15G24G28G10G30
  24750242.734    24750239.758      -70146.25206      4051.48946        44.000
        26.000
  20207685.547    20207682.934   -26518061.98107 -20371742.80047        50.000
        39.000
  20795384.258    20795381.250   -20512792.56507 -15399576.61147        50.000
        41.000
  22840884.117    22840881.117   -11646369.16806  -8711880.74246        46.000
        31.000
  24949827.375    24949831.430    -1557447.16202   -808543.46545        35.000
        17.000
  21563192.766    21563189.383   -17692378.40407 -12234625.00147        49.000
        35.000
  24065488.906    24065486.914    -4266592.18205  -2630872.31146        41.000
        21.000
  22217641.227    22217640.613   -14214822.65706 -10825521.14047        47.000
        33.000
 14  9 29  0 12 30.0000000  0  8G07G26G05G15G24G28G10G30
  24753224.344    24753221.563      -54478.36406     16260.22446        44.000
        26.000
  20206784.266    20206781.582   -26522797.57007 -20375432.87247        50.000
        39.000
  20796788.898    20796785.887   -20505410.44607 -15393824.31147        50.000
        41.000
  22838412.063    22838409.004   -11659358.39206  -8722002.21746        45.000
        31.000
  24946820.813    24946825.402    -1573243.71403   -820852.40045        36.000
        16.000
  21562973.484    21562969.977   -17693530.04007 -12235522.37647        49.000
        35.000
  24068975.047    24068973.250    -4248271.61305  -2616596.55546        41.000
        21.000
  22220189.914    22220188.703   -14201432.07207 -10815086.91947        48.000
        34.000
 14  9 29  0 12 35.0000000  0  8G07G26G05G15G24G28G10G30
  24756205.969    24756202.523      -38810.89606     28468.63146        43.000
        27.000
  20205884.977    20205882.359   -26527524.05807 -20379115.85147        50.000
        39.000
  20798196.422    20798193.473   -20498013.84707 -15388060.72647        51.000
        41.000
  22835941.563    22835938.270   -11672344.84606  -8732121.51846        46.000
        31.000
  24943816.078    24943820.121    -1589036.79603   -833158.67045        36.000
        17.000
  21562757.133    21562753.898   -17694666.51207 -12236407.93147        49.000
        35.000
  24072461.758    24072460.145    -4229948.19705  -2602318.59246        42.000
        22.000
  22222738.344    22222737.414   -14188036.61507 -10804648.90247        48.000
        34.000
 14  9 29  0 12 40.0000000  0  8G07G26G05G15G24G28G10G30
  24759187.063    24759184.016      -23143.98606     40676.61246        43.000
        25.000
  20204987.141    20204984.719   -26532241.57607 -20382791.83747        51.000
        39.000
  20799606.859    20799603.754   -20490602.91507 -15382285.97747        50.000
        41.000
  22833469.813    22833467.176   -11685328.68206  -8742238.78746        45.000
        31.000
  24940812.289    24940815.574    -1604826.44203   -845462.19445        37.000
        16.000
  21562544.055    21562540.523   -17695787.98307 -12237281.80447        48.000
        35.000
  24075948.859    24075947.551    -4211622.10906  -2588038.52946        43.000
        22.000
  22225288.633    22225287.828   -14174636.45106 -10794207.22047        47.000
        34.000
 14  9 29  0 12 45.0000000  0  8G07G26G05G15G24G28G10G30
  24762168.359    24762164.996       -7477.49106     52884.27346        44.000
        26.000
  20204091.555    20204089.008   -26536949.93207 -20386460.68847        51.000
        40.000
  20801019.664    20801016.473   -20483177.49207 -15376499.93147        50.000
        41.000
  22830999.883    22830996.906   -11698309.69606  -8752353.86346        45.000
        31.000
  24937806.539    24937811.281    -1620612.37003   -857762.86845        36.000
        17.000
  21562333.625    21562329.613   -17696894.25107 -12238143.82747        49.000
        36.000
  24079436.852    24079435.805    -4193293.21205  -2573756.29946        42.000
        22.000
  22227839.609    22227838.414   -14161231.44906 -10783761.76647        47.000
        34.000
 14  9 29  0 12 50.0000000  0  8G07G26G05G15G24G28G10G30
  24765149.406    24765146.371        8188.53306     65091.55346        43.000
        26.000
  20203197.141    20203194.680   -26541649.21407 -20390122.46847        50.000
        40.000
  20802435.766    20802432.594   -20475737.66407 -15370702.66547        50.000
        40.000
  22828529.828    22828527.109   -11711287.96506  -8762466.78746        44.000
        31.000
  24934804.406    24934808.121    -1636394.85603   -870060.86345        37.000
        18.000
  21562126.125    21562122.602   -17697985.38607 -12238994.06047        48.000
        35.000
  24082925.281    24082924.207    -4174961.53605  -2559471.89246        42.000
        23.000
  22230391.352    22230390.406   -14147821.65806 -10773312.58147        47.000
        34.000
 14  9 29  0 12 55.0000000  0  8G07G26G05G15G24G28G10G30
  24768130.039    24768127.348       23854.26206     77298.61146        44.000
        26.000
  20202304.508    20202302.043   -26546339.22407 -20393777.02047        51.000
        40.000
  20803853.984    20803851.293   -20468283.28207 -15364894.05947        50.000
        40.000
  22826060.344    22826057.852   -11724263.32706  -8772577.45746        44.000
        30.000
  24931801.500    24931805.680    -1652173.58504   -882355.91945        38.000
        19.000
  21561921.180    21561917.676   -17699061.23707 -12239832.38947        49.000
        36.000
  24086413.953    24086413.570    -4156626.96205  -2545185.22846        42.000
        22.000
  22232944.156    22232943.301   -14134406.92906 -10762859.54947        47.000
        34.000
 14  9 29  0 13  0.0000000  0  8G07G26G05G15G24G28G10G30
  24771111.484    24771108.523       39519.36406     89505.16946        44.000
        26.000
  20201413.828    20201411.320   -26551020.28207 -20397424.59747        51.000
        40.000
  20805275.438    20805272.355   -20460814.61207 -15359074.32247        50.000
        41.000
  22823592.109    22823589.070   -11737236.05706  -8782686.07746        44.000
        30.000
  24928799.227    24928803.664    -1667948.92403   -894648.30045        37.000
        19.000
  21561719.258    21561715.832   -17700122.11707 -12240659.03847        49.000
        35.000
  24089903.820    24089902.844    -4138289.79606  -2530896.55646        43.000
        22.000
  22235497.367    22235496.848   -14120987.56306 -10752402.90247        47.000
        34.000
 14  9 29  0 13  5.0000000  0  8G07G26G05G15G24G28G10G30
  24774092.664    24774089.473       55184.06005    101711.42746        42.000
        26.000
  20200524.594    20200521.590   -26555692.13507 -20401064.99747        50.000
        40.000
  20806699.414    20806696.297   -20453331.54307 -15353243.36147        50.000
        40.000
  22821123.883    22821120.793   -11750205.94006  -8792792.47146        44.000
        30.000
  24925798.313    24925802.293    -1683720.64303   -906937.92745        37.000
        19.000
  21561520.070    21561516.719   -17701167.79407 -12241473.85247        49.000
        35.000
  24093393.719    24093392.715    -4119949.79605  -2516605.64546        42.000
        22.000
  22238052.453    22238051.691   -14107563.34006 -10741942.47447        47.000
        34.000
 14  9 29  0 13 10.0000000  0  8G07G26G05G15G24G28G10G30
  24777072.977    24777070.414       70848.13006    113917.18146        43.000
        26.000
  20199637.664    20199634.734   -26560355.02407 -20404698.41547        51.000
        40.000
  20808126.117    20808122.832   -20445834.23007 -15347401.30547        50.000
        40.000
  22818655.867    22818653.465   -11763173.19906  -8802896.82546        43.000
        31.000
  24922797.070    24922801.738    -1699488.94303   -919224.79645        36.000
        20.000
  21561324.195    21561320.750   -17702198.57007 -12242277.05547        49.000
        35.000
  24096884.133    24096883.121    -4101607.22305  -2502312.75046        42.000
        22.000
  22240607.484    22240607.281   -14094134.51006 -10731478.45347        47.000
        34.000
 14  9 29  0 13 15.0000000  0  8G07G26G05G15G24G28G10G30
  24780053.742    24780050.965       86511.87506    126122.69046        43.000
        26.000
  20198751.727    20198749.539   -26565008.66907 -20408324.63247        51.000
        40.000
  20809555.617    20809552.762   -20438322.36607 -15341547.90947        50.000
        40.000
  22816189.477    22816186.453   -11776137.52906  -8812998.89246        45.000
        30.000
  24919797.984    24919801.910    -1715253.62703   -931508.93845        36.000
        19.000
  21561130.750    21561127.070   -17703214.08407 -12243068.35647        49.000
        35.000
  24100375.188    24100374.332    -4083261.75805  -2488017.61446        42.000
        22.000
  22243163.758    22243163.004   -14080700.79006 -10721010.62347        46.000
        34.000
 14  9 29  0 13 20.0000000  0  8G07G26G05G15G24G28G10G30
  24783034.383    24783031.617      102175.10506    138327.81046        43.000
        26.000
  20197868.000    20197865.457   -26569653.23207 -20411943.77347        50.000
        40.000
  20810987.875    20810984.691   -20430796.10107 -15335683.29047        50.000
        40.000
  22813722.914    22813720.133   -11789099.11006  -8823098.82146        45.000
        31.000
  24916797.242    24916802.352    -1731014.76802   -943790.24045        35.000
        19.000
  21560940.250    21560937.035   -17704214.46807 -12243847.86747        48.000
        35.000
  24103867.430    24103866.008    -4064913.59906  -2473720.34946        43.000
        22.000
  22245721.117    22245720.906   -14067262.34406 -10710539.10647        46.000
        34.000
 14  9 29  0 13 25.0000000  0  8G07G26G05G15G24G28G10G30
  24786014.977    24786012.184      117837.78705    150532.47646        42.000
        25.000
  20196985.992    20196982.996   -26574288.74207 -20415555.85247        50.000
        40.000
  20812422.750    20812419.707   -20423255.50607 -15329807.50447        51.000
        40.000
  22811257.711    22811254.188   -11802057.96306  -8833196.63646        44.000
        30.000
  24913799.797    24913803.973    -1746772.28403   -956068.79445        36.000
        19.000
  21560752.586    21560749.133   -17705199.73707 -12244615.60847        48.000
        36.000
  24107358.773    24107357.688    -4046562.81905  -2459421.06646        42.000
        22.000
  22248279.234    22248278.711   -14053819.25006 -10700063.97747        47.000
        33.000
 14  9 29  0 13 30.0000000  0  8G07G26G05G15G24G28G10G30
  24788995.109    24788992.285      133499.98006    162736.79046        43.000
        24.000
  20196105.406    20196102.863   -26578915.12107 -20419160.82347        51.000
        40.000
  20813860.523    20813857.316   -20415700.52907 -15323920.51047        51.000
        40.000
  22808791.734    22808788.922   -11815014.03306  -8843292.27046        45.000
        31.000
  24910800.367    24910805.906    -1762526.27102   -968344.52245        35.000
        18.000
  21560567.992    21560564.816   -17706169.89507 -12245371.57547        48.000
        36.000
  24110851.672    24110850.398    -4028209.35605  -2445119.67146        42.000
        22.000
  22250838.336    22250837.895   -14040371.44006 -10689585.16747        47.000
        34.000
 14  9 29  0 13 35.0000000  0  8G07G26G05G15G24G28G10G30
  24791975.273    24791973.035      149161.68306    174940.70246        43.000
        24.000
  20195227.156    20195224.391   -26583532.36407 -20422758.67347        51.000
        39.000
  20815301.102    20815297.934   -20408131.15507 -15318022.29847        50.000
        40.000
  22806326.492    22806323.594   -11827967.30006  -8853385.72246        45.000
        30.000
  24907805.117    24907808.797    -1778276.65503   -980617.46245        37.000
        19.000
  21560386.297    21560383.266   -17707124.89607 -12246115.73347        49.000
        36.000
  24114344.680    24114343.234    -4009853.18006  -2430816.17746        43.000
        22.000
  22253399.047    22253397.535   -14026918.88006 -10679102.65647        47.000
        34.000
 14  9 29  0 13 40.0000000  0  8G07G26G05G15G24G28G10G30
  24794955.719    24794952.973      164822.75406    187144.12946        43.000
        25.000
  20194350.242    20194347.340   -26588140.60307 -20426349.50647        50.000
        40.000
  20816743.820    20816740.621   -20400547.55707 -15312113.00547        51.000
        40.000
  22803862.078    22803859.820   -11840917.89206  -8863477.08746        44.000
        30.000
  24904807.219    24904812.422    -1794023.55103   -992887.76545        36.000
        17.000
  21560207.508    21560204.184   -17708064.93007 -12246848.22247        49.000
        36.000
  24117838.313    24117836.973    -3991494.45306  -2416510.69546        43.000
        22.000
  22255959.008    22255958.180   -14013461.73506 -10668616.56847        47.000
        34.000
 14  9 29  0 13 45.0000000  0  8G07G26G05G15G24G28G10G30
  24797935.945    24797933.109      180483.35306    199347.17746        43.000
        24.000
  20193475.125    20193471.281   -26592739.68307 -20429933.20347        51.000
        39.000
  20818189.391    20818186.621   -20392949.55307 -15306192.48247        51.000
        41.000
  22801397.922    22801395.609   -11853865.66106  -8873566.24746        44.000
        30.000
  24901812.750    24901816.281    -1809766.80703  -1005155.14045        36.000
        18.000
  21560031.531    21560027.871   -17708989.81007 -12247568.90247        49.000
        35.000
  24121332.273    24121330.496    -3973133.03806  -2402203.10746        43.000
        22.000
  22258521.063    22258520.227   -13999999.87606 -10658126.80747        47.000
        34.000
 14  9 29  0 13 50.0000000  0  9G07G26G05G15G21G24G28G10G30
  24800915.445    24800912.781      196141.06005    211547.98246        42.000
        24.000
  20192600.953    20192597.879   -26597331.97007 -20433511.60647        50.000
        39.000
  20819637.789    20819634.469   -20385339.54907 -15300262.60747        50.000
        40.000
  22798934.453    22798931.582   -11866812.96106  -8883655.04646        44.000
        30.000
  25751323.375                      -48082.96704          .00051        38.000

  24898816.805    24898820.520    -1825508.76803  -1017421.58445        37.000
        18.000
  21559858.313    21559854.328   -17709901.88707 -12248279.61247        49.000
        35.000
  24124826.570    24124825.445    -3954771.35006  -2387895.32346        43.000
        22.000
  22261082.977    22261082.301   -13986535.68306 -10647635.23347        47.000
        34.000
 14  9 29  0 13 55.0000000  0  9G07G26G05G15G21G24G28G10G30
  24803895.289    24803892.402      211800.61006    223750.22946        43.000
        23.000
  20191729.602    20191726.801   -26601912.74607 -20437081.04247        50.000
        39.000
  20821089.281    20821086.129   -20377712.82607 -15294319.71247        50.000
        40.000
  22796471.547    22796468.473   -11879755.07906  -8893739.80846        45.000
        31.000
  25750379.375                      -53045.88803          .00051        37.000

  24895822.563    24895826.270    -1841244.83203  -1029683.38145        36.000
        19.000
  21559687.844    21559684.371   -17710796.45107 -12248976.67547        49.000
        35.000
  24128321.297    24128320.676    -3936404.65206  -2373583.61746        43.000
        22.000
  22263646.313    22263645.438   -13973064.43906 -10637138.15147        47.000
        34.000
 14  9 29  0 14  0.0000000  0  9G07G26G05G15G21G24G28G10G30
  24806874.891    24806872.625      227459.77106    235952.16646        44.000
        25.000
  20190859.266    20190856.520   -26606484.22607 -20440643.23847        51.000
        40.000
  20822543.141    20822540.055   -20370071.61607 -15288365.52447        50.000
        40.000
  22794009.930    22794006.395   -11892694.23506  -8903822.26346        44.000
        30.000
  25749436.813    25749432.605      -57996.92704    425627.36445        38.000
        19.000
  24892827.227    24892832.211    -1856977.23402  -1041942.29245        35.000
        19.000
  21559520.469    21559516.895   -17711675.72507 -12249661.82247        50.000
        35.000
  24131817.039    24131816.508    -3918035.17505  -2359269.75946        42.000
        24.000
  22266211.078    22266210.238   -13959588.37306 -10626637.32447        47.000
        34.000
 14  9 29  0 14  5.0000000  0  9G07G26G05G15G21G24G28G10G30
  24809854.906    24809852.109      243118.19106    248153.52046        43.000
        25.000
  20189991.359    20189987.848   -26611046.76607 -20444198.46347        50.000
        39.000
  20823999.852    20823997.285   -20362416.23507 -15282400.29447        51.000
        40.000
  22791547.539    22791544.688   -11905630.72506  -8913902.64746        45.000
        30.000
  25748497.914    25748493.578      -62936.40704    421778.46445        38.000
        17.000
  24889835.711    24889838.813    -1872706.24003  -1054198.59845        37.000
        17.000
  21559356.227    21559352.047   -17712540.01307 -12250335.28447        49.000
        35.000
  24135312.695    24135312.504    -3899663.24805  -2344954.00046        42.000
        23.000
  22268776.195    22268775.586   -13946107.83106 -10616133.01147        47.000
        33.000
 14  9 29  0 14 10.0000000  0  9G07G26G05G15G21G24G28G10G30
  24812834.930    24812831.895      258776.21806    260354.57046        43.000
        27.000
  20189124.430    20189121.563   -26615599.96707 -20447746.41347        51.000
        39.000
  20825459.375    20825456.379   -20354746.37007 -15276423.77947        50.000
        41.000
  22789086.156    22789083.652   -11918564.31006  -8923980.76246        45.000
        30.000
  25747559.844    25747555.617      -67863.99404    417938.75345        39.000
        17.000
  24886842.273    24886846.344    -1888431.34703  -1066451.92545        37.000
        17.000
  21559194.391    21559190.898   -17713389.05207 -12250996.87647        50.000
        36.000
  24138809.594    24138809.102    -3881288.55405  -2330636.07046        42.000
        22.000
  22271342.242    22271341.754   -13932622.48906 -10605624.95147        47.000
        34.000
 14  9 29  0 14 15.0000000  0  9G07G26G05G15G21G24G28G10G30
  24815814.039    24815811.188      274433.75706    272555.25346        43.000
        25.000
  20188260.055    20188257.309   -26620143.98107 -20451287.20147        51.000
        39.000
  20826921.586    20826918.805   -20347062.08407 -15270436.02647        50.000
        41.000
  22786626.328    22786622.656   -11931494.98706  -8934056.61746        45.000
        31.000
  25746624.273    25746620.215      -72779.78504    414108.30945        38.000
        18.000
  24883849.586    24883854.430    -1904152.79702  -1078702.34345        35.000
        17.000
  21559035.641    21559032.004   -17714222.88407 -12251646.60747        50.000
        36.000
  24142307.188    24142306.281    -3862911.18805  -2316316.06146        42.000
        21.000
  22273909.453    22273908.727   -13919132.44506 -10595113.23947        47.000
        34.000
 14  9 29  0 14 20.0000000  0  9G07G26G05G15G21G24G28G10G30
  24818793.750    24818790.016      290090.45806    284755.27446        43.000
        25.000
  20187397.016    20187394.598   -26624679.08507 -20454821.04447        51.000
        39.000
  20828387.055    20828383.844   -20339363.76907 -15264437.34647        50.000
        41.000
  22784165.672    22784162.574   -11944423.08106  -8944130.45046        46.000
        30.000
  25745690.469    25745687.617      -77684.09604    410286.70945        38.000
        17.000
  24880859.063    24880862.945    -1919870.88703  -1090950.13745        36.000
        17.000
  21558879.813    21558876.066   -17715041.83207 -12252284.74947        50.000
        35.000
  24145803.500    24145803.977    -3844531.48705  -2301994.23446        41.000
        22.000
  22276477.633    22276477.047   -13905638.02706 -10584598.10747        47.000
        34.000
 14  9 29  0 14 25.0000000  0  9G07G26G05G15G21G24G28G10G30
  24821772.883    24821769.219      305746.75006    296954.98546        43.000
        24.000
  20186536.086    20186532.793   -26629204.87807 -20458347.63647        51.000
        39.000
  20829854.414    20829851.492   -20331650.98907 -15258427.38747        51.000
        40.000
  22781706.867    22781703.801   -11957348.20306  -8954201.95247        46.000
        32.000
  25744759.930    25744756.125      -82576.50504    406474.48845        38.000
        17.000
  24877868.250    24877872.762    -1935585.17603  -1103195.02645        36.000
        18.000
  21558727.320    21558723.211   -17715845.51507 -12252910.99447        50.000
        35.000
  24149301.789    24149302.074    -3826149.04705  -2287670.28246        41.000
        22.000
  22279046.172    22279045.895   -13892138.84507 -10574079.27147        48.000
        33.000
 14  9 29  0 14 30.0000000  0  9G07G26G05G15G21G24G28G10G30
  24824752.141    24824748.227      321402.42606    309154.20546        44.000
        25.000
  20185676.555    20185673.500   -26633721.55707 -20461867.12647        52.000
        40.000
  20831324.781    20831322.148   -20323923.97707 -15252406.34547        50.000
        40.000
  22779247.305    22779245.141   -11970270.53706  -8964271.31147        46.000
        32.000
  25743831.234    25743827.320      -87457.22303    402671.33045        37.000
        16.000
  24874878.836    24874883.250    -1951295.98503  -1115437.11745        36.000
        17.000
  21558576.797    21558573.039   -17716634.12107 -12253525.49147        50.000
        35.000
  24152800.828    24152800.617    -3807764.08605  -2273344.36446        40.000
        22.000
  22281615.828    22281615.242   -13878635.10207 -10563556.87647        48.000
        34.000
 14  9 29  0 14 35.0000000  0  9G07G26G05G15G21G24G28G10G30
  24827731.063    24827727.516      337057.50906    321352.96946        44.000
        23.000
  20184818.500    20184815.926   -26638229.07807 -20465379.48247        51.000
        39.000
  20832798.008    20832795.332   -20316182.65507 -15246374.14647        50.000
        40.000
  22776788.625    22776786.461   -11983189.97806  -8974338.39847        45.000
        32.000
  25742904.922    25742900.547      -92326.19003    398877.33745        37.000
        18.000
  24871890.211    24871894.102    -1967003.17903  -1127676.39245        36.000
        18.000
  21558429.867    21558426.199   -17717407.59107 -12254128.19147        50.000
        35.000
  24156299.500    24156299.309    -3789376.55105  -2259016.42946        40.000
        22.000
  22284186.266    22284185.871   -13865126.74907 -10553030.88347        48.000
        34.000
 14  9 29  0 14 40.0000000  0  9G07G26G05G15G21G24G28G10G30
  24830709.836    24830706.277      352712.10506    333551.34046        44.000
        22.000
  20183962.508    20183960.148   -26642727.35207 -20468884.63047        51.000
        40.000
  20834274.141    20834271.020   -20308426.95607 -15240330.75247        50.000
        40.000
  22774331.125    22774328.727   -11996106.51706  -8984403.21947        46.000
        32.000
  25741980.742    25741976.715      -97183.33103    395092.49045        37.000
        17.000
  24868902.086    24868905.594    -1982706.61603  -1139912.80445        36.000
        19.000
  21558285.805    21558282.016   -17718165.81407 -12254719.01647        49.000
        35.000
  24159799.461    24159798.922    -3770986.38905  -2244686.47146        41.000
        22.000
  22286758.070    22286757.207   -13851613.70007 -10542501.24247        48.000
        34.000
 14  9 29  0 14 45.0000000  0  9G07G26G05G15G21G24G28G10G30
  24833688.984    24833684.816      368365.93906    345749.13546        43.000
        24.000
  20183108.500    20183105.938   -26647216.62107 -20472382.76047        51.000
        40.000
  20835752.273    20835748.949   -20300657.12307 -15234276.34247        51.000
        40.000
  22771872.969    22771870.891   -12009020.39706  -8994465.98846        46.000
        31.000
  25741057.531    25741054.883     -102028.92503    391316.74445        37.000
        17.000
  24865914.664    24865917.367    -1998406.59103  -1152146.50445        37.000
        19.000
  21558144.188    21558140.344   -17718909.10307 -12255298.19947        48.000
        35.000
  24163299.508    24163298.816    -3752593.86205  -2230354.63846        41.000
        22.000
  22289330.078    22289329.590   -13838096.25307 -10531968.17447        48.000
        34.000
 14  9 29  0 14 50.0000000  0  9G07G26G05G15G21G24G28G10G30
  24836667.711    24836663.629      384019.11206    357946.39146        43.000
        25.000
  20182255.641    20182252.746   -26651696.77407 -20475873.78847        51.000
        40.000
  20837233.719    20837230.434   -20292873.07107 -15228210.84347        50.000
        40.000
  22769416.219    22769413.918   -12021931.47706  -9004526.56746        46.000
        31.000
  25740138.039    25740135.020     -106862.83203    387550.07745        36.000
        16.000
  24862927.898    24862930.637    -2014103.03903  -1164377.46145        37.000
        18.000
  21558005.344    21558001.809   -17719637.28907 -12255865.61147        49.000
        35.000
  24166799.664    24166799.453    -3734198.87505  -2216020.91946        41.000
        21.000
  22291903.305    22291902.656   -13824574.31606 -10521431.60447        47.000
        33.000
 14  9 29  0 14 55.0000000  0  9G07G26G05G15G21G24G28G10G30
  24839646.336    24839642.348      399671.96506    370143.42246        43.000
        25.000
  20181404.594    20181402.270   -26656167.47907 -20479357.45547        52.000
        40.000
  20838717.875    20838714.805   -20285074.48007 -15222134.01747        51.000
        40.000
  22766960.602    22766957.172   -12034839.43106  -9014584.70746        46.000
        31.000
  25739220.734    25739217.516     -111684.71802    383792.76745        34.000
        16.000
  24859941.945    24859944.055    -2029795.54603  -1176605.31145        37.000
        19.000
  21557869.992    21557866.160   -17720350.07007 -12256421.01447        50.000
        35.000
  24170300.867    24170300.613    -3715801.08505  -2201684.97846        41.000
        22.000
  22294477.008    22294476.367   -13811047.53906 -10510891.25747        47.000
        33.000
 14  9 29  0 15  0.0000000  0  9G07G26G05G15G21G24G28G10G30
  24842624.547    24842621.297      415324.02806    382339.82146        43.000
        23.000
  20180555.953    20180553.098   -26660629.21107 -20482834.13047        51.000
        40.000
  20840204.430    20840201.145   -20277261.83207 -15216046.24047        50.000
        41.000
  22764504.805    22764501.219   -12047744.75006  -9024640.79346        46.000
        30.000
  25738304.891    25738302.191     -116495.00201    380044.48845        33.000
        17.000
  24856955.945    24856958.395    -2045484.54004  -1188830.49645        39.000
        19.000
  21557737.195    21557733.160   -17721047.90207 -12256964.78947        50.000
        35.000
  24173801.773    24173801.840    -3697400.97805  -2187347.25346        40.000
        22.000
  22297052.227    22297051.465   -13797516.39607 -10500347.51647        48.000
        33.000
 14  9 29  0 15  5.0000000  0  9G07G26G05G15G21G24G28G10G30
  24845603.141    24845599.703      430975.48506    394535.76246        44.000
        23.000
  20179708.484    20179705.926   -26665081.75907 -20486303.64547        51.000
        40.000
  20841694.219    20841690.789   -20269434.89407 -15209947.32947        51.000
        40.000
  22762049.430    22762045.867   -12060647.18106  -9034694.63346        47.000
        31.000
  25737391.352    25737389.395     -121293.51202    376305.35145        34.000
        16.000
  24853971.242    24853973.953    -2061169.90804  -1201052.79445        38.000
        18.000
  21557607.305    21557603.148   -17721730.58707 -12257496.74647        49.000
        35.000
  24177304.156    24177303.902    -3678998.36105  -2173007.57746        40.000
        22.000
  22299627.867    22299627.215   -13783980.68106 -10489800.20347        47.000
        33.000
 14  9 29  0 15 10.0000000  0  9G07G26G05G15G21G24G28G10G30
  24848581.188    24848578.043      446626.38105    406731.27246        42.000
        25.000
  20178863.156    20178860.711   -26669525.03807 -20489765.94147        51.000
        40.000
  20843186.172    20843183.008   -20261593.62107 -15203837.25047        51.000
        40.000
  22759594.555    22759591.398   -12073546.68706  -9044746.20447        46.000
        32.000
  25736480.906    25736478.742     -126080.18501    372575.49545        33.000
        16.000
  24850988.078    24850989.434    -2076851.60204  -1213272.24945        39.000
        18.000
  21557480.039    21557476.270   -17722398.05107 -12258016.84847        49.000
        35.000
  24180806.969    24180806.496    -3660593.16505  -2158665.89146        40.000
        22.000
  22302204.188    22302204.094   -13770440.36006 -10479249.30847        47.000
        33.000
 14  9 29  0 15 15.0000000  0  9G07G26G05G15G21G24G28G10G30
  24851559.891    24851556.234      462276.79906    418926.37546        44.000
        23.000
  20178019.367    20178016.352   -26673958.98607 -20493220.96347        51.000
        40.000
  20844681.188    20844677.699   -20253737.95807 -15197715.95947        51.000
        40.000
  22757140.008    22757137.816   -12086443.18606  -9054795.42347        46.000
        32.000
  25735572.633    25735570.504     -130854.94701    368854.92645        33.000
        15.000
  24848002.875    24848006.457    -2092529.47304  -1225488.75945        38.000
        18.000
  21557356.320    21557352.695   -17723050.28907 -12258525.07947        49.000
        35.000
  24184309.703    24184309.039    -3642185.40205  -2144322.20246        40.000
        22.000
  22304781.867    22304781.238   -13756895.39507 -10468694.79447        48.000
        33.000
 14  9 29  0 15 20.0000000  0  9G07G26G05G15G21G24G28G10G30
  24854536.766    24854533.977      477926.27006    431120.77446        43.000
        22.000
  20177177.539    20177174.598   -26678384.07807 -20496669.08347        51.000
        40.000
  20846178.336    20846175.410   -20245868.41407 -15191583.84947        50.000
        41.000
  22754686.602    22754684.051   -12099337.13206  -9064842.64947        46.000
        32.000
  25734666.547    25734663.867     -135618.29401    365143.18545        33.000
        15.000
  24845021.164    24845023.563    -2108204.05904  -1237702.65145        38.000
        19.000
  21557234.773    21557230.891   -17723687.69407 -12259021.75947        50.000
        34.000
  24187813.102    24187812.434    -3623775.53005  -2129976.87946        41.000
        22.000
  22307360.523    22307359.488   -13743346.23706 -10458137.01447        47.000
        34.000
 14  9 29  0 15 25.0000000  0  9G07G26G05G15G21G24G28G10G30
  24857515.766    24857511.676      493575.24206    443314.79346        44.000
        22.000
  20176337.406    20176334.699   -26682799.83607 -20500109.93147        51.000
        40.000
  20847678.734    20847675.809   -20237984.50207 -15185440.54547        50.000
        40.000
  22752234.203    22752230.754   -12112228.05706  -9074887.50746        47.000
        31.000
  25733762.461    25733759.766     -140369.74902    361440.78645        34.000
        15.000
  24842039.156    24842041.422    -2123874.95804  -1249913.64645        38.000
        19.000
  21557116.258    21557112.805   -17724309.81407 -12259506.52747        50.000
        34.000
  24191317.570    24191316.422    -3605363.04505  -2115629.49346        42.000
        23.000
  22309939.594    22309939.180   -13729792.41306 -10447575.59747        47.000
        34.000
 14  9 29  0 15 30.0000000  0  9G07G26G05G15G21G24G28G10G30
  24860493.719    24860489.867      509223.65205    455508.33546        42.000
        22.000
  20175498.445    20175495.723   -26687206.31307 -20503543.55147        51.000
        40.000
  20849182.008    20849178.598   -20230086.29107 -15179286.09847        51.000
        40.000
  22749780.406    22749778.621   -12125116.02706  -9084930.08946        46.000
        31.000
  25732860.211    25732857.449     -145109.33602    357747.57845        35.000
        16.000
  24839056.523    24839059.363    -2139542.15404  -1262121.82845        38.000
        18.000
  21557001.102    21556997.090   -17724916.77707 -12259979.48347        50.000
        35.000
  24194821.055    24194820.762    -3586948.03505  -2101280.16746        41.000
        22.000
  22312520.305    22312519.594   -13716234.03106 -10437010.62247        47.000
        33.000
 14  9 29  0 15 35.0000000  0  9G07G26G05G15G21G24G28G10G30
  24863470.844    24863467.535      524871.35305    467701.34846        42.000
        22.000
  20174661.594    20174658.766   -26691603.68707 -20506970.07847        52.000
        40.000
  20850687.289    20850684.480   -20222173.92307 -15173120.61747        51.000
        40.000
  22747329.258    22747326.715   -12138001.15606  -9094970.43046        45.000
        31.000
  25731960.594    25731957.703     -149837.25202    354063.52245        35.000
        16.000
  24836076.891    24836078.758    -2155205.60504  -1274327.06145        38.000
        18.000
  21556888.250    21556884.730   -17725508.66907 -12260440.69547        50.000
        35.000
  24198325.688    24198325.766    -3568530.66005  -2086928.98646        41.000
        22.000
  22315100.773    22315100.137   -13702671.23306 -10426442.22347        47.000
        34.000
 14  9 29  0 15 40.0000000  0  9G07G26G05G15G21G24G28G10G30
  24866448.414    24866444.766      540518.49005    479893.92846        42.000
        22.000
  20173826.617    20173823.797   -26695991.73007 -20510389.33147        51.000
        40.000
  20852195.945    20852192.777   -20214247.26107 -15166943.99847        50.000
        40.000
  22744878.414    22744875.238   -12150883.32806  -9105008.47446        46.000
        31.000
  25731063.352    25731060.234     -154553.27903    350388.66545        37.000
        16.000
  24833097.547    24833099.000    -2170865.24804  -1286529.32145        38.000
        18.000
  21556778.211    21556774.781   -17726085.30507 -12260890.02547        48.000
        35.000
  24201830.961    24201831.223    -3550110.77905  -2072575.84746        41.000
        22.000
  22317682.094    22317681.891   -13689103.84306 -10415870.23447        47.000
        34.000
 14  9 29  0 15 45.0000000  0  9G07G26G05G15G21G24G28G10G30
  24869425.727    24869422.273      556164.95905    492085.96646        42.000
        22.000
  20172993.453    20172990.594   -26700370.61307 -20513801.44747        51.000
        40.000
  20853706.703    20853703.551   -20206306.39607 -15160756.31247        50.000
        40.000
  22742426.906    22742424.355   -12163762.62906  -9115044.28946        46.000
        31.000
  25730168.688    25730165.371     -159257.55203    346722.97245        37.000
        16.000
  24830117.313    24830119.711    -2186521.28104  -1298728.74345        38.000
        18.000
  21556671.750    21556668.133   -17726646.87407 -12261327.60947        48.000
        35.000
  24205336.438    24205336.281    -3531688.48805  -2058220.85546        41.000
        22.000
  22320264.820    22320264.590   -13675532.01806 -10405294.78347        47.000
        34.000
 14  9 29  0 15 50.0000000  0  9G07G26G05G15G21G24G28G10G30
  24872403.031    24872399.875      571810.76805    504277.49746        42.000
        22.000
  20172161.859    20172159.035   -26704740.29407 -20517206.39347        51.000
        40.000
  20855220.906    20855217.582   -20198351.28907 -15154557.53547        50.000
        40.000
  22739976.555    22739973.691   -12176639.03406  -9125077.84346        46.000
        30.000
  25729275.250    25729271.891     -163950.05403    343066.48745        37.000
        16.000
  24827138.805    24827140.609    -2202173.62203  -1310925.35245        37.000
        17.000
  21556567.531    21556564.223   -17727193.30007 -12261753.39447        49.000
        35.000
  24208842.969    24208842.695    -3513263.79305  -2043863.96246        40.000
        22.000
  22322848.484    22322847.992   -13661955.72606 -10394715.86147        47.000
        34.000
 14  9 29  0 15 55.0000000  0  9G07G26G05G15G21G24G28G10G30
  24875380.047    24875376.699      587455.86005    516468.46146        42.000
        22.000
  20171332.164    20171329.367   -26709100.74507 -20520604.15247        52.000
        40.000
  20856736.992    20856734.234   -20190382.01507 -15148347.71847        50.000
        39.000
  22737526.828    22737523.695   -12189512.54706  -9135109.15846        46.000
        31.000
  25728384.906    25728381.219     -168630.71803    339419.23245        37.000
        17.000
  24824160.813    24824163.336    -2217822.33203  -1323119.07245        36.000
        17.000
  21556466.695    21556462.969   -17727724.58107 -12262167.37547        50.000
        35.000
  24212348.859    24212349.340    -3494836.71804  -2029505.20446        39.000
        22.000
  22325432.195    22325432.340   -13648374.98506 -10384133.46847        47.000
        34.000
 14  9 29  0 16  0.0000000  0  9G07G26G05G15G21G24G28G10G30
  24878356.938    24878353.832      603100.39305    528659.00446        42.000
        22.000
  20170504.320    20170501.242   -26713451.87907 -20523994.64147        51.000
        40.000
  20858256.180    20858253.277   -20182398.40807 -15142126.72747        49.000
        40.000
  22735077.258    22735074.473   -12202383.04806  -9145138.12546        46.000
        31.000
  25727496.039    25727493.008     -173299.49102    335781.22745        35.000
        17.000
  24821183.383    24821185.965    -2233467.29403  -1335309.89545        36.000
        17.000
  21556368.328    21556364.734   -17728240.60007 -12262569.46547        50.000
        35.000
  24215855.570    24215856.309    -3476407.12605  -2015144.52746        40.000
        21.000
  22328018.133    22328017.242   -13634789.67706 -10373547.51947        47.000
        34.000
 14  9 29  0 16  5.0000000  0  9G07G26G05G15G21G24G28G10G30
  24881333.445    24881331.227      618744.25105    540849.02446        42.000
        25.000
  20169677.977    20169674.754   -26717793.78907 -20527377.94647        51.000
        40.000
  20859778.508    20859774.953   -20174400.59107 -15135894.66647        50.000
        40.000
  22732629.547    22732625.363   -12215250.63906  -9155164.80546        46.000
        31.000
  25726609.813    25726606.801     -177956.49102    332152.38945        35.000
        18.000
  24818207.086    24818209.840    -2249108.47003  -1347497.81245        37.000
        18.000
  21556272.969    21556268.805   -17728741.47207 -12262959.75647        49.000
        35.000
  24219363.867    24219363.309    -3457975.15505  -2000781.96846        40.000
        21.000
  22330603.859    22330603.609   -13621199.92206 -10362958.10147        47.000
        34.000
 14  9 29  0 16 10.0000000  0  9G07G26G05G15G21G24G28G10G30
  24884310.453    24884308.195      634387.33706    553038.44946        43.000
        25.000
  20168853.570    20168850.746   -26722126.56307 -20530754.13447        51.000
        40.000
  20861302.742    20861299.457   -20166388.70507 -15129651.64147        50.000
        40.000
  22730181.234    22730177.844   -12228115.40106  -9165189.29046        46.000
        31.000
  25725725.609    25725722.684     -182601.79302    328532.62945        34.000
        18.000
  24815231.758    24815234.055    -2264746.03703  -1359682.86945        37.000
        19.000
  21556180.352    21556176.785   -17729227.34507 -12263338.35047        48.000
        35.000
  24222871.352    24222870.820    -3439540.89605  -1986417.63246        40.000
        22.000
  22333190.672    22333190.320   -13607605.83306 -10352365.31047        47.000
        33.000
 14  9 29  0 16 15.0000000  0  9G07G26G05G15G21G24G28G10G30
  24887287.414    24887284.820      650029.68805    565227.27046        42.000
        24.000
  20168030.734    20168027.574   -26726450.14207 -20534123.15947        51.000
        40.000
  20862830.398    20862827.137   -20158362.68207 -15123397.60047        50.000
        40.000
  22727733.852    22727730.258   -12240977.28106  -9175211.54046        46.000
        31.000
  25724844.516    25724841.695     -187235.39402    324922.06545        34.000
        17.000
  24812256.055    24812258.965    -2280380.02403  -1371865.14145        37.000
        19.000
  21556091.180    21556087.223   -17729698.15407 -12263705.21647        48.000
        35.000
  24226379.633    24226379.797    -3421104.32205  -1972051.47546        40.000
        21.000
  22335778.313    22335777.621   -13594007.37006 -10341769.11247        47.000
        34.000
 14  9 29  0 16 20.0000000  0  9G07G26G05G15G21G24G28G10G30
  24890264.547    24890261.570      665671.49206    577415.68146        43.000
        24.000
  20167209.453    20167206.898   -26730764.32007 -20537484.85447        51.000
        40.000
  20864360.000    20864357.023   -20150322.35707 -15117132.40947        51.000
        40.000
  22725286.891    22725283.563   -12253836.08506  -9185231.37446        46.000
        31.000
  25723964.516    25723961.445     -191857.08302    321320.76545        35.000
        18.000
  24809281.086    24809284.207    -2296010.20803  -1384044.44945        37.000
        19.000
  21556004.391    21556000.664   -17730153.67907 -12264060.16947        48.000
        35.000
  24229888.398    24229888.648    -3402665.27305  -1957683.42246        40.000
        21.000
  22338367.188    22338366.656   -13580404.37206 -10331169.37347        47.000
        34.000
 14  9 29  0 16 25.0000000  0  9G07G26G05G15G21G24G28G10G30
  24893240.766    24893238.121      681312.63605    589603.59346        42.000
        24.000
  20166390.516    20166387.270   -26735069.26907 -20540839.34947        51.000
        40.000
  20865892.602    20865889.566   -20142267.85507 -15110856.17347        50.000
        40.000
  22722839.891    22722837.305   -12266691.89906  -9195248.89946        46.000
        31.000
  25723086.977    25723084.535     -196466.93302    317728.62045        34.000
        17.000
  24806307.594    24806310.551    -2311636.49803  -1396220.74245        37.000
        19.000
  21555920.734    21555916.992   -17730594.01207 -12264403.28347        48.000
        35.000
  24233398.055    24233397.859    -3384223.85705  -1943313.51346        40.000
        22.000
  22340956.750    22340956.262   -13566796.92006 -10320566.16647        47.000
        33.000
 14  9 29  0 16 30.0000000  0  9G07G26G05G15G21G24G28G10G30
  24896216.844    24896214.406      696952.87605    601790.77746        42.000
        22.000
  20165572.953    20165569.898   -26739365.16607 -20544186.80047        51.000
        39.000
  20867428.148    20867424.656   -20134199.38507 -15104569.05247        50.000
        40.000
  22720394.445    22720391.188   -12279544.99506  -9205264.29347        46.000
        32.000
  25722211.695    25722210.281     -201065.17502    314145.58845        34.000
        17.000
  24803334.453    24803337.586    -2327259.38303  -1408394.35645        37.000
        19.000
  21555839.125    21555835.980   -17731019.42307 -12264734.77247        49.000
        35.000
  24236908.266    24236907.469    -3365780.31305  -1928941.92646        40.000
        21.000
  22343546.711    22343546.738   -13553185.27806 -10309959.69747        46.000
        33.000
 14  9 29  0 16 35.0000000  0  9G07G26G05G15G21G24G28G10G30
  24899192.156    24899190.703      712592.85105    613977.77346        41.000
        22.000
  20164757.398    20164754.793   -26743651.35207 -20547526.68347        50.000
        39.000
  20868966.484    20868963.434   -20126116.30407 -15098270.55247        50.000
        40.000
  22717949.039    22717946.422   -12292394.72006  -9215277.05047        47.000
        32.000
  25721339.555    25721338.168     -205651.22301    310572.05645        33.000
        16.000
  24800363.094    24800365.492    -2342878.21103  -1420564.84545        37.000
        19.000
  21555761.617    21555758.027   -17731429.26907 -12265054.12747        50.000
        35.000
  24240418.078    24240417.855    -3347334.04305  -1914568.23946        41.000
        22.000
  22346138.273    22346137.641   -13539568.81006 -10299349.46947        47.000
        34.000
 14  9 29  0 16 40.0000000  0  9G07G26G05G15G21G24G28G10G30
  24902168.617    24902166.680      728231.83805    626164.00446        41.000
        21.000
  20163943.367    20163940.629   -26747928.59307 -20550859.59847        51.000
        40.000
  20870507.328    20870503.988   -20118019.35807 -15091961.24847        50.000
        40.000
  22715504.273    22715501.156   -12305241.78206  -9225287.74746        46.000
        31.000
  25720470.156    25720467.191     -210225.73100    307007.47445        32.000
        16.000
  24797391.094    24797394.059    -2358493.54603  -1432732.55945        37.000
        19.000
  21555686.789    21555682.844   -17731824.24307 -12265361.89047        50.000
        35.000
  24243928.961    24243928.625    -3328885.75605  -1900192.96146        41.000
        21.000
  22348729.891    22348729.578   -13525948.23506 -10288736.03447        47.000
        34.000
 14  9 29  0 16 45.0000000  0  9G07G26G05G15G21G24G28G10G30
  24905144.992    24905142.359      743870.05305    638349.60346        40.000
        21.000
  20163131.109    20163128.629   -26752196.63107 -20554185.33847        51.000
        39.000
  20872050.672    20872047.270   -20109908.31607 -15085640.95847        49.000
        40.000
  22713060.031    22713057.164   -12318085.91606  -9235296.16547        46.000
        32.000
  25719599.469    25719599.375     -214788.48401    303452.16245        33.000
        16.000
  24794420.633    24794423.336    -2374105.18003  -1444897.42145        37.000
        19.000
  21555614.156    21555610.672   -17732204.12907 -12265657.90547        50.000
        35.000
  24247440.211    24247439.813    -3310435.22105  -1885815.94246        41.000
        22.000
  22351322.688    22351322.195   -13512323.34206 -10278119.24147        47.000
        33.000
 14  9 29  0 16 50.0000000  0  9G07G26G05G15G21G24G28G10G30
  24908120.578    24908117.898      759507.74305    650534.80946        40.000
        22.000
  20162320.680    20162317.977   -26756455.23207 -20557503.73047        51.000
        39.000
  20873597.148    20873593.805   -20101782.94807 -15079309.50847        49.000
        40.000
  22710616.813    22710613.793   -12330926.90606  -9245302.11646        47.000
        31.000
  25718735.727    25718733.445     -219339.28500    299905.97545        32.000
        16.000
  24791450.469    24791452.555    -2389713.00704  -1457059.32545        38.000
        19.000
  21555545.133    21555541.270   -17732568.63507 -12265941.93647        51.000
        35.000
  24250951.195    24250951.195    -3291982.23105  -1871437.01346        42.000
        22.000
  22353916.250    22353915.547   -13498693.91306 -10267498.91047        47.000
        33.000
 14  9 29  0 16 55.0000000  0  9G07G26G05G15G21G24G28G10G30
  24911096.328    24911093.410      775144.63305    662719.39246        41.000
        22.000
  20161512.063    20161509.301   -26760704.59507 -20560814.91847        51.000
        40.000
  20875146.000    20875142.816   -20093643.48307 -15072967.06647        49.000
        40.000
  22708173.992    22708170.543   -12343765.00006  -9255305.82046        47.000
        31.000
  25717870.633    25717869.492     -223878.33900    296369.15245        32.000
        16.000
  24788481.492    24788483.898    -2405317.18003  -1469218.38745        37.000
        19.000
  21555478.680    21555474.590   -17732918.05207 -12266214.20247        51.000
        35.000
  24254462.648    24254462.793    -3273527.01505  -1857056.33746        41.000
        22.000
  22356510.430    22356509.797   -13485060.17906 -10256875.22947        47.000
        33.000
 14  9 29  0 17  0.0000000  0  9G07G26G05G15G21G24G28G10G30
  24914071.414    24914068.934      790780.76305    674903.38346        41.000
        22.000
  20160705.422    20160702.363   -26764944.77707 -20564118.95147        51.000
        40.000
  20876697.289    20876694.379   -20085489.90607 -15066613.63347        50.000
        40.000
  22705730.938    22705727.359   -12356600.17406  -9265307.26746        46.000
        31.000
  25717010.328    25717009.023     -228405.62000    292841.38642        32.000
        14.000
  24785512.258    24785515.141    -2420917.57603  -1481374.48145        37.000
        19.000
  21555414.797    21555411.180   -17733252.38707 -12266474.72347        50.000
        35.000
  24257975.742    24257975.285    -3255069.56405  -1842673.93146        41.000
        22.000
  22359106.000    22359105.207   -13471422.13906 -10246248.18747        46.000
        33.000
 14  9 29  0 17  5.0000000  0  9G07G26G05G15G21G24G28G10G30
  24917046.531    24917044.063      806416.08105    687086.75546        41.000
        22.000
  20159900.086    20159897.297   -26769175.75407 -20567415.81947        51.000
        40.000
  20878251.563    20878248.590   -20077322.31207 -15060249.27947        49.000
        40.000
  22703289.477    22703285.477   -12369432.43506  -9275306.43146        47.000
        31.000
  25716150.297    25716149.020     -232921.18500    289322.75642        32.000
        14.000
  24782545.188    24782547.258    -2436514.29204  -1493527.71745        38.000
        19.000
  21555353.883    21555349.984   -17733571.68807 -12266723.52447        49.000
        35.000
  24261488.227    24261487.969    -3236609.93505  -1828289.81546        41.000
        22.000
  22361701.836    22361701.484   -13457779.84306 -10235617.83347        45.000
        33.000
 14  9 29  0 17 10.0000000  0  9G07G26G05G15G21G24G28G10G30
  24920021.523    24920019.152      822050.67505    699269.54146        42.000
        22.000
  20159097.156    20159094.313   -26773397.43507 -20570705.43547        52.000
        40.000
  20879808.766    20879805.699   -20069140.58007 -15053873.90447        50.000
        40.000
  22700847.938    22700844.402   -12382261.68306  -9285303.24246        47.000
        31.000
  25715293.141    25715292.496     -237424.90100    285813.36545        31.000
        15.000
  24779576.633    24779580.273    -2452107.36403  -1505678.15445        37.000
        20.000
  21555295.742    21555292.207   -17733875.82707 -12266960.51647        50.000
        34.000
  24265001.609    24265001.121    -3218148.04305  -1813903.94946        41.000
        22.000
  22364298.820    22364298.230   -13444133.18206 -10224984.08147        46.000
        33.000
 14  9 29  0 17 15.0000000  0  9G07G26G05G15G21G24G28G10G30
  24922997.063    24922994.211      837684.78405    711451.95646        42.000
        22.000
  20158295.195    20158292.711   -26777609.56007 -20573987.61447        52.000
        41.000
  20881368.203    20881365.645   -20060944.48707 -15047487.33747        50.000
        39.000
  22698406.578    22698404.031   -12395087.72506  -9295297.56247        47.000
        32.000
  25714439.195    25714437.887     -241916.56200    282313.29645        31.000
        15.000
  24776610.031    24776613.219    -2467696.46703  -1517825.42445        36.000
        20.000
  21555240.797    21555237.191   -17734164.57907 -12267185.51447        49.000
        34.000
  24268515.047    24268514.707    -3199683.67705  -1799516.13346        40.000
        22.000
  22366896.492    22366895.641   -13430481.97206 -10214346.78047        46.000
        33.000
 14  9 29  0 17 20.0000000  0  9G07G26G05G15G21G24G28G10G30
  24925972.063    24925968.574      853317.91105    723633.60846        42.000
        22.000
  20157495.461    20157492.570   -26781812.65808 -20577262.75847        53.000
        41.000
  20882930.883    20882928.082   -20052734.52207 -15041089.96747        50.000
        40.000
  22695967.156    22695964.070   -12407910.98306  -9305289.70146        46.000
        31.000
  25713587.609                     -246396.63800          .00051        31.000

  24773644.742    24773647.598    -2483282.04203  -1529970.00345        36.000
        19.000
  21555189.008    21555185.172   -17734438.41207 -12267398.88947        49.000
        34.000
  24272028.680    24272028.836    -3181217.31405  -1785126.77846        41.000
        21.000
  22369495.180    22369494.176   -13416826.67606 -10203706.29047        46.000
        33.000
 14  9 29  0 17 25.0000000  0  9G07G26G05G15G21G24G28G10G30
  24928946.961    24928943.633      868950.38005    735814.75646        42.000
        22.000
  20156697.672    20156695.117   -26786006.34707 -20580530.56947        52.000
        40.000
  20884495.695    20884493.137   -20044510.32207 -15034681.50147        50.000
        40.000
  22693527.289    22693525.000   -12420731.16606  -9315279.44047        47.000
        32.000
  25712736.305                     -250864.75401          .00051        33.000

  24770679.805    24770682.477    -2498863.73603  -1542111.53345        36.000
        18.000
  21555139.352    21555135.699   -17734696.98607 -12267600.37047        49.000
        34.000
  24275542.953    24275542.980    -3162748.61105  -1770735.60246        40.000
        21.000
  22372094.586    22372093.887   -13403166.95406 -10193062.35247        46.000
        33.000
 14  9 29  0 17 30.0000000  0  9G07G26G05G15G21G24G28G10G30
  24931921.938    24931919.078      884582.13305    747995.33546        41.000
        22.000
  20155901.313    20155898.613   -26790190.70307 -20583791.10647        51.000
        41.000
  20886063.234    20886060.762   -20036271.96607 -15028262.00447        50.000
        39.000
  22691088.234    22691086.063   -12433548.33306  -9325266.83847        47.000
        32.000
  25711888.125                     -255321.02402          .00051        34.000

  24767714.242    24767718.008    -2514441.63702  -1554250.09045        35.000
        18.000
  21555093.219    21555089.383   -17734940.38007 -12267790.02547        50.000
        34.000
  24279058.688    24279058.051    -3144277.66705  -1756342.69546        41.000
        22.000
  22374694.406    22374693.879   -13389502.88106 -10182415.02547        47.000
        32.000
 14  9 29  0 17 35.0000000  0  9G07G26G05G15G21G24G28G10G30
  24934896.305    24934892.859      900212.96805    760175.19546        41.000
        22.000
  20155106.539    20155104.141   -26794365.91707 -20587044.51747        51.000
        40.000
  20887633.781    20887630.816   -20028019.65507 -15021831.63947        50.000
        39.000
  22688650.172    22688647.500   -12446362.61806  -9335251.99047        47.000
        33.000
  25711042.789                     -259765.59701          .00051        33.000

  24764751.086    24764754.367    -2530015.75102  -1566385.72045        35.000
        18.000
  21555049.672    21555045.887   -17735168.73207 -12267967.96247        50.000
        35.000
  24282574.023    24282573.793    -3125804.65005  -1741948.17846        41.000
        22.000
  22377295.695    22377294.832   -13375834.66906 -10171764.47247        47.000
        33.000
 14  9 29  0 17 40.0000000  0  9G07G26G05G15G21G24G28G10G30
  24937870.367    24937867.301      915843.01405    772354.46646        41.000
        23.000
  20154313.844    20154311.320   -26798531.84907 -20590290.69747        52.000
        40.000
  20889206.539    20889204.105   -20019753.29407 -15015390.32147        49.000
        39.000
  22686212.328    22686209.188   -12459173.91806  -9345234.80647        47.000
        32.000
  25710198.797                     -264198.36401          .00051        33.000

  24761788.688    24761791.449    -2545586.22102  -1578518.48345        35.000
        18.000
  21555008.977    21555005.453   -17735381.96707 -12268134.12047        49.000
        35.000
  24286089.367    24286089.430    -3107329.45205  -1727551.92446        40.000
        21.000
  22379897.586    22379896.594   -13362162.18306 -10161110.59447        46.000
        33.000
 14  9 29  0 17 45.0000000  0  9G07G26G05G15G21G24G28G10G30
  24940844.695    24940841.418      931472.47005    784533.25546        41.000
        24.000
  20153523.023    20153520.301   -26802688.27507 -20593529.46847        51.000
        41.000
  20890782.508    20890779.762   -20011472.68207 -15008937.89947        49.000
        40.000
  22683775.094    22683771.902   -12471982.01507  -9355215.14847        48.000
        32.000
  25709357.711                     -268619.10402          .00051        34.000

  24758825.266    24758828.797    -2561152.73202  -1590648.18645        35.000
        17.000
  21554971.672    21554967.980   -17735579.86907 -12268288.32747        49.000
        35.000
  24289605.547    24289606.004    -3088851.87705  -1713153.82946        40.000
        21.000
  22382500.195    22382499.047   -13348485.22206 -10150453.22147        46.000
        33.000
 14  9 29  0 17 50.0000000  0  9G07G26G05G15G21G24G28G10G30
  24943818.656    24943815.383      947101.08605    796711.39546        41.000
        24.000
  20152733.945    20152731.176   -26806835.44407 -20596761.02847        52.000
        40.000
  20892360.688    20892358.363   -20003178.07807 -15002474.57947        50.000
        39.000
  22681338.242    22681334.926   -12484787.16006  -9365193.19047        47.000
        32.000
  25708519.766                     -273028.10901          .00051        33.000

  24755864.195    24755867.398    -2576715.50902  -1602774.98545        34.000
        18.000
  21554936.922    21554932.789   -17735762.69907 -12268430.78547        49.000
        35.000
  24293122.422    24293122.473    -3070372.18305  -1698754.08446        40.000
        22.000
  22385103.750    22385102.590   -13334804.07206 -10139792.59447        47.000
        33.000
 14  9 29  0 17 55.0000000  0  9G07G26G05G15G21G24G28G10G30
  24946792.289    24946789.945      962728.81705    808888.85146        41.000
        22.000
  20151946.523    20151943.695   -26810973.42307 -20599985.42747        51.000
        40.000
  20893941.836    20893939.340   -19994869.54407 -14996000.40147        49.000
        40.000
  22678901.758    22678898.914   -12497589.41706  -9375168.96747        47.000
        32.000
  25707682.078                     -277425.41201          .00051        33.000

  24752903.453    24752906.473    -2592274.62102  -1614898.94445        35.000
        17.000
  21554905.125    21554901.484   -17735930.48607 -12268561.53347        49.000
        35.000
  24296639.492    24296639.195    -3051890.46205  -1684352.79046        40.000
        21.000
  22387707.859    22387707.156   -13321118.78006 -10129128.72947        46.000
        33.000
 14  9 29  0 18  0.0000000  0  9G07G26G05G15G21G24G28G10G30
  24949766.523    24949763.285      978355.80805    821065.73446        41.000
        22.000
  20151161.070    20151157.859   -26815102.05707 -20603202.54347        52.000
        40.000
  20895525.789    20895522.723   -19986546.88607 -14989515.21947        50.000
        40.000
  22676465.852    22676463.195   -12510388.62906  -9385142.38147        47.000
        32.000
  25706847.859                     -281810.78400          .00051        31.000

  24749942.875    24749946.273    -2607829.90602  -1627019.89045        34.000
        18.000
  21554876.016    21554872.125   -17736083.08707 -12268680.44147        49.000
        35.000
  24300157.359    24300156.453    -3033406.51705  -1669949.73646        41.000
        22.000
  22390312.766    22390312.156   -13307429.19006 -10118461.51847        47.000
        33.000
 14  9 29  0 18  5.0000000  0  9G07G26G05G15G21G24G28G10G30
  24952740.242    24952737.188      993982.10605    833242.05946        42.000
        22.000
  20150376.922    20150374.059   -26819221.23407 -20606412.29247        52.000
        40.000
  20897112.078    20897109.816   -19978210.04707 -14983018.98547        49.000
        40.000
  22674030.680    22674028.258   -12523184.67706  -9395113.31047        46.000
        32.000
  25706015.875                     -286184.18600          .00051        31.000

  24746983.547    24746987.113    -2623381.36602  -1639137.86245        35.000
        18.000
  21554849.664    21554846.008   -17736220.41907 -12268787.44847        49.000
        35.000
  24303675.070    24303674.508    -3014920.31605  -1655544.91546        42.000
        22.000
  22392918.859    22392917.820   -13293735.24506 -10107790.92247        46.000
        33.000
 14  9 29  0 18 10.0000000  0  9G07G26G05G15G21G24G28G10G30
  24955713.617    24955710.203     1009607.45805    845417.65646        42.000
        23.000
  20149594.867    20149592.305   -26823331.24407 -20609614.89847        52.000
        40.000
  20898701.039    20898698.773   -19969859.29307 -14976511.90947        50.000
        40.000
  22671597.086    22671593.934   -12535977.83806  -9405081.99946        47.000
        31.000
  25705186.031                     -290545.95401          .00051        33.000

  24744024.492    24744028.328    -2638929.07802  -1651252.89945        35.000
        18.000
  21554826.461    21554822.707   -17736342.77107 -12268882.78247        49.000
        35.000
  24307193.078    24307193.203    -2996432.14105  -1641138.56046        41.000
        22.000
  22395525.266    22395524.484   -13280037.21106 -10097117.12747        47.000
        32.000
 14  9 29  0 18 15.0000000  0  9G07G26G05G15G21G24G28G10G30
  24958686.953    24958683.660     1025232.17705    857592.76246        42.000
        22.000
  20148814.703    20148811.637   -26827431.77107 -20612810.11047        52.000
        40.000
  20900292.836    20900290.332   -19961494.33907 -14969993.76247        49.000
        39.000
  22669162.242    22669160.168   -12548767.79306  -9415048.20246        46.000
        31.000
  25704359.078                     -294895.71301          .00051        33.000

  24741067.531    24741070.547    -2654472.91003  -1663364.93745        36.000
        19.000
  21554806.211    21554802.578   -17736449.81607 -12268966.19247        49.000
        35.000
  24310711.336    24310711.461    -2977941.64505  -1626730.40146        41.000
        22.000
  22398133.250    22398132.219   -13266334.78306 -10086439.91547        45.000
        32.000
 14  9 29  0 18 20.0000000  0  9G07G26G05G15G21G24G28G10G30
  24961659.039    24961656.848     1040855.75905    869766.98146        42.000
        22.000
  20148036.023    20148032.906   -26831523.31707 -20615998.32347        52.000
        40.000
  20901887.375    20901884.535   -19953115.70707 -14963464.96447        49.000
        40.000
  22666729.555    22666726.949   -12561555.08706  -9425012.30947        47.000
        32.000
  25703532.617                     -299233.87100          .00051        31.000

  24738110.453    24738113.633    -2670013.27102  -1675474.25845        35.000
        19.000
  21554788.500    21554785.023   -17736542.05107 -12269038.06347        49.000
        36.000
  24314230.633    24314230.355    -2959449.38405  -1612320.87446        41.000
        22.000
  22400740.992    22400740.410   -13252628.50606 -10075759.70347        46.000
        33.000
 14  9 29  0 18 25.0000000  0  9G07G26G05G15G21G24G28G10G30
  24964632.391    24964629.473     1056478.95705    881940.88646        41.000
        22.000
  20147259.563    20147256.516   -26835605.14607 -20619178.97347        52.000
        40.000
  20903484.320    20903481.953   -19944722.66307 -14956924.92447        50.000
        40.000
  22664297.141    22664294.059   -12574338.93607  -9434973.75146        48.000
        31.000
  25702709.211                     -303559.86000          .00051        31.000

  24735153.875    24735156.805    -2685549.44903  -1687580.31645        37.000
        19.000
  21554773.914    21554770.418   -17736618.73507 -12269097.81747        49.000
        36.000
  24317750.039    24317750.125    -2940954.61505  -1597909.38346        41.000
        22.000
  22403350.180    22403349.395   -13238917.62406 -10065075.90147        47.000
        33.000
 14  9 29  0 18 30.0000000  0  9G07G26G05G15G21G24G28G10G30
  24967605.414    24967602.008     1072101.16205    894114.04746        40.000
        22.000
  20146484.320    20146481.246   -26839677.78107 -20622352.45647        52.000
        40.000
  20905084.445    20905081.645   -19936315.75107 -14950374.09347        49.000
        40.000
  22661864.375    22661862.113   -12587119.89706  -9444932.95247        47.000
        32.000
  25701888.617                     -307874.18600          .00051        31.000

  24732198.773    24732201.035    -2701082.01603  -1699683.58245        37.000
        19.000
  21554762.039    21554758.707   -17736680.45007 -12269145.89947        48.000
        35.000
  24321270.234    24321269.906    -2922457.93305  -1583496.40846        40.000
        22.000
  22405960.016    22405959.641   -13225202.72206 -10054388.97147        47.000
        33.000
 14  9 29  0 18 35.0000000  0  9G07G26G05G15G21G24G28G10G30
  24970577.703    24970574.992     1087722.46205    906286.48346        41.000
        22.000
  20145711.008    20145708.008   -26843741.16407 -20625518.72347        51.000
        40.000
  20906686.703    20906683.598   -19927894.88907 -14943812.38647        50.000
        40.000
  22659432.617    22659430.301   -12599897.85606  -9454889.81046        46.000
        31.000
  25701069.398                     -312176.71000          .00051        31.000

  24729243.203    24729245.461    -2716610.81803  -1711783.89845        36.000
        19.000
  21554753.617    21554749.746   -17736727.07907 -12269182.22747        48.000
        36.000
  24324789.750    24324789.828    -2903959.23805  -1569081.85346        41.000
        22.000
  22408570.852    22408569.957   -13211483.68906 -10043698.81247        47.000
        34.000
 14  9 29  0 18 40.0000000  0  9G07G26G05G15G21G24G28G10G30
  24973549.852    24973547.293     1103343.22504    918458.51246        39.000
        22.000
  20144939.438    20144936.836   -26847794.90707 -20628677.48647        52.000
        40.000
  20908291.859    20908289.332   -19919459.73707 -14937239.54047        50.000
        40.000
  22657002.211    22656999.402   -12612672.46206  -9464844.03247        47.000
        32.000
  25700253.898                     -316467.11400          .00051        31.000

  24726288.117    24726290.820    -2732135.56703  -1723881.05045        36.000
        19.000
  21554747.406    21554744.129   -17736758.26107 -12269206.51947        48.000
        35.000
  24328310.305    24328310.398    -2885458.15305  -1554665.47346        40.000
        22.000
  22411182.000    22411181.512   -13197760.19106 -10033005.18247        47.000
        34.000
 14  9 29  0 18 45.0000000  0  9G07G26G05G15G21G24G28G10G30
  24976522.984    24976520.207     1118962.86604    930629.65446        38.000
        22.000
  20144169.789    20144167.055   -26851839.62007 -20631829.21247        52.000
        40.000
  20909899.789    20909896.906   -19911010.89007 -14930656.02047        50.000
        40.000
  22654571.695    22654568.668   -12625444.33606  -9474796.14047        46.000
        32.000
  25699439.914                     -320746.00800          .00051        27.000

  24723335.242    24723337.609    -2747656.76602  -1735975.50245        35.000
        17.000
  21554744.016    21554740.848   -17736774.58607 -12269219.24247        48.000
        36.000
  24331830.945    24331831.664    -2866955.32305  -1540247.68346        40.000
        22.000
  22413794.430    22413793.656   -13184032.82906 -10022308.54147        47.000
        34.000
 14  9 29  0 18 50.0000000  0  9G07G26G05G15G21G24G28G10G30
  24979495.484    24979492.879     1134584.79804    942802.58246        39.000
        22.000
  20143402.539    20143399.773   -26855871.88507 -20634971.23547        51.000
        40.000
  20911510.805    20911507.848   -19902544.93507 -14924059.17447        49.000
        40.000
  22652142.492    22652139.441   -12638209.98506  -9484743.39847        46.000
        32.000
  25698626.672                            .00010          .00051

  24720382.617    24720385.145    -2763171.13502  -1748064.55545        35.000
        17.000
  21554744.594    21554741.438   -17736772.66607 -12269217.74447        49.000
        36.000
  24335354.141    24335353.832    -2848447.34205  -1525825.91646        40.000
        21.000
  22416407.930    22416407.352   -13170298.19906 -10011606.23547        45.000
        34.000
 14  9 29  0 18 55.0000000  0  9G07G26G05G15G21G24G28G10G30
  24982467.711    24982464.902     1150202.90605    954972.54746        40.000
        22.000
  20142636.383    20142633.590   -26859897.77307 -20638108.28847        52.000
        40.000
  20913123.938    20913120.895   -19894068.00407 -14917453.77847        50.000
        40.000
  22649712.781    22649710.395   -12650975.54306  -9494690.58047        46.000
        32.000
  25697816.500                    -1904685.02710          .00051        28.000

  24717429.492    24717433.277    -2778684.58602  -1760152.92745        34.000
        17.000
  21554747.375    21554743.926   -17736758.59807 -12269206.77847        49.000
        36.000
  24338875.445    24338875.301    -2829940.32305  -1511404.88246        41.000
        21.000
  22419021.477    22419021.160   -13156562.40306 -10000903.02147        46.000
        34.000
 14  9 29  0 19  0.0000000  0  9G07G26G05G15G21G24G28G10G30
  24985439.750    24985436.945     1165820.20505    967141.87546        40.000
        22.000
  20141872.125    20141868.941   -26863914.25207 -20641238.01547        51.000
        40.000
  20914739.586    20914736.539   -19885577.03007 -14910837.43747        50.000
        40.000
  22647285.211    22647281.891   -12663737.95906  -9504635.31447        47.000
        33.000
  25697010.508                    -1908928.18500          .00051        29.000

  24714478.984    24714481.434    -2794194.03203  -1772238.13145        36.000
        17.000
  21554752.773    21554749.816   -17736729.28107 -12269183.93247        49.000
        36.000
  24342397.438    24342397.555    -2811431.19505  -1496982.19246        40.000
        21.000
  22421636.773    22421636.180   -13142822.38806  -9990196.51847        47.000
        33.000
 14  9 29  0 19  5.0000000  0  9G07G26G05G15G21G24G28G10G30
  24988410.938    24988408.582     1181436.58005    979310.46646        41.000
        22.000
  20141109.641    20141106.527   -26867921.43307 -20644360.49047        52.000
        40.000
  20916358.227    20916355.195   -19877072.12207 -14904210.24247        50.000
        40.000
  22644856.727    22644853.852   -12676497.34506  -9514577.68947        47.000
        33.000
  25696204.898                    -1913159.58800          .00051        29.000

  24711528.188    24711530.594    -2809699.76103  -1784320.51845        37.000
        17.000
  21554761.492    21554758.234   -17736684.88307 -12269149.33747        48.000
        35.000
  24345919.609    24345920.098    -2792920.09605  -1482557.99246        40.000
        21.000
  22424251.641    22424251.027   -13129078.32106  -9979486.86647        46.000
        33.000
 14  9 29  0 19 10.0000000  0  9G07G26G05G15G21G24G28G10G30
  24991382.609    24991380.152     1197052.08405    991478.40046        40.000
        22.000
  20140348.750    20140345.910   -26871919.26307 -20647475.68347        52.000
        40.000
  20917978.969    20917976.434   -19868553.27607 -14897572.18447        49.000
        40.000
  22642429.094    22642426.512   -12689253.66306  -9524517.67547        47.000
        33.000
  25695402.211                    -1917379.17700          .00051        27.000

  24708579.625    24708580.469    -2825201.72103  -1796399.87345        37.000
        19.000
  21554772.281    21554768.668   -17736625.32607 -12269102.92747        48.000
        35.000
  24349443.281    24349443.223    -2774407.02105  -1468132.23346        41.000
        22.000
  22426867.992    22426867.023   -13115330.14106  -9968774.00047        45.000
        34.000
 14  9 29  0 19 15.0000000  0  9G07G26G05G15G21G24G28G10G30
  24994354.563    24994351.332     1212666.86405   1003645.76246        41.000
        22.000
  20139589.781    20139587.148   -26875907.57007 -20650583.45747        52.000
        40.000
  20919602.750    20919600.133   -19860020.30707 -14890923.12247        50.000
        40.000
  22640002.141    22640000.012   -12702006.78106  -9534455.16747        47.000
        32.000
  25694599.586                            .00010          .00051

  24705629.469    24705631.637    -2840699.71203  -1808476.19545        36.000
        19.000
  21554786.930    21554783.418   -17736550.52607 -12269044.64247        48.000
        36.000
  24352966.398    24352965.926    -2755891.81605  -1453704.82546        41.000
        22.000
  22429485.266    22429484.316   -13101577.69406  -9958057.81347        47.000
        34.000
 14  9 29  0 19 20.0000000  0  9G07G26G05G15G21G24G28G10G30
  24997325.398    24997322.801     1228280.63005   1015812.32746        41.000
        22.000
  20138832.641    20138829.711   -26879886.67107 -20653684.05147        52.000
        39.000
  20921228.898    20921226.852   -19851473.50307 -14884263.28047        50.000
        40.000
  22637575.641    22637573.625   -12714756.96906  -9544390.37447        47.000
        32.000
  25693802.656                            .00010          .00051

  24702681.805    24702682.523    -2856194.09303  -1820549.69745        37.000
        19.000
  21554803.813    21554800.527   -17736460.72707 -12268974.66647        48.000
        36.000
  24356489.773    24356489.930    -2737374.76605  -1439275.97246        40.000
        22.000
  22432102.805    22432102.570   -13087821.28506  -9947338.54147        47.000
        34.000
 14  9 29  0 19 25.0000000  0  9G07G26G05G15G21G24G28G10G30
  25000296.563    25000294.137     1243893.74105   1027978.36546        40.000
        22.000
  20138077.227    20138074.266   -26883856.19407 -20656777.18647        52.000
        40.000
  20922858.500    20922855.461   -19842912.58207 -14877592.43547        50.000
        40.000
  22635150.188    22635147.563   -12727503.85406  -9554323.01047        47.000
        32.000
  25693006.531                    -3505386.34110          .00051        25.000

  24699733.406    24699734.531    -2871684.38803  -1832620.02645        36.000
        19.000
  21554823.922    21554820.773   -17736355.58706 -12268892.73947        47.000
        35.000
  24360013.930    24360013.840    -2718855.55305  -1424845.44146        40.000
        22.000
  22434721.445    22434720.617   -13074060.57506  -9936615.91547        47.000
        34.000
 14  9 29  0 19 30.0000000  0  8G07G26G05G15G24G28G10G30
  25003266.813    25003264.855     1259505.81505   1040143.61646        40.000
        22.000
  20137323.680    20137320.598   -26887816.49707 -20659863.13447        52.000
        40.000
  20924490.375    20924487.156   -19834337.85407 -14870910.83647        50.000
        40.000
  22632725.438    22632722.613   -12740247.79506  -9564253.34346        47.000
        31.000
  24696787.086    24696787.941    -2887171.00403  -1844687.49045        37.000
        18.000
  21554846.664    21554843.418   -17736235.44906 -12268799.12547        47.000
        35.000
  24363538.008    24363538.648    -2700334.52605  -1410413.48746        40.000
        22.000
  22437340.789    22437340.309   -13060295.92906  -9925890.21847        46.000
        34.000
 14  9 29  0 19 35.0000000  0  8G07G26G05G15G24G28G10G30
  25006237.867    25006234.871     1275116.84904   1052308.04746        39.000
        22.000
  20136571.547    20136568.578   -26891767.53707 -20662941.86747        52.000
        40.000
  20926124.961    20926121.680   -19825749.30107 -14864218.45747        50.000
        40.000
  22630301.055    22630298.305   -12752988.70106  -9574181.31847        47.000
        32.000
  24693839.734    24693841.727    -2902653.90303  -1856752.00945        36.000
        19.000
  21554872.195    21554868.691   -17736100.28207 -12268693.80147        48.000
        35.000
  24367063.211    24367062.969    -2681811.63704  -1395980.10046        39.000
        21.000
  22439960.523    22439960.344   -13046527.31506  -9915161.43047        47.000
        34.000
 14  9 29  0 19 40.0000000  0  8G07G26G05G15G24G28G10G30
  25009208.406    25009205.590     1290727.51304   1064472.17546        39.000
        21.000
  20135821.867    20135819.102   -26895708.69107 -20666012.89447        51.000
        40.000
  20927761.828    20927758.488   -19817146.30707 -14857514.82447        50.000
        39.000
  22627876.156    22627874.527   -12765725.96406  -9584106.45747        47.000
        32.000
  24690894.719    24690896.297    -2918132.44603  -1868813.16245        37.000
        18.000
  21554901.211    21554897.824   -17735949.46507 -12268576.27647        48.000
        35.000
  24370588.469    24370588.426    -2663286.28205  -1381544.76746        40.000
        22.000
  22442581.508    22442581.359   -13032754.11306  -9904429.06547        46.000
        33.000
 14  9 29  0 19 45.0000000  0  8G07G26G05G15G24G28G10G30
  25012178.414    25012175.734     1306336.96504   1076635.38046        38.000
        21.000
  20135073.797    20135070.938   -26899640.75207 -20669076.84047        52.000
        40.000
  20929401.492    20929398.309   -19808529.70007 -14850800.58847        49.000
        40.000
  22625453.867    22625450.586   -12778460.42406  -9594029.41247        47.000
        32.000
  24687949.063    24687951.516    -2933607.42703  -1880871.58545        37.000
        19.000
  21554932.219    21554928.766   -17735783.84207 -12268447.21947        48.000
        35.000
  24374114.188    24374114.039    -2644759.29105  -1367108.18646        40.000
        21.000
  22445203.328    22445203.227   -13018977.15006  -9893693.78047        45.000
        33.000
 14  9 29  0 19 50.0000000  0  8G07G26G05G15G24G28G10G30
  25015149.016    25015146.176     1321945.64105   1088797.98746        40.000
        21.000
  20134327.266    20134324.500   -26903563.32507 -20672133.38947        52.000
        40.000
  20931043.984    20931040.789   -19799899.11707 -14844075.45747        50.000
        40.000
  22623031.320    22623028.352   -12791191.68206  -9603949.85647        47.000
        32.000
  24685005.930    24685007.207    -2949078.45903  -1892926.85545        37.000
        18.000
  21554967.516    21554963.379   -17735602.95807 -12268306.26947        48.000
        35.000
  24377639.695    24377640.410    -2626230.23204  -1352669.97146        39.000
        22.000
  22447826.234    22447825.586   -13005196.01406  -9882955.23347        47.000
        34.000
 14  9 29  0 19 55.0000000  0  8G07G26G05G15G24G28G10G30
  25018119.375    25018115.770     1337553.32504   1100959.82446        39.000
        21.000
  20133582.711    20133579.656   -26907476.58207 -20675182.67747        52.000
        40.000
  20932688.883    20932685.348   -19791254.80207 -14837339.63047        49.000
        39.000
  22620608.922    22620606.191   -12803919.93007  -9613867.97647        48.000
        33.000
  24682061.922    24682063.523    -2964545.68903  -1904979.26045        37.000
        18.000
  21555004.773    21555000.988   -17735406.99907 -12268153.57747        49.000
        35.000
  24381166.367    24381167.242    -2607699.33004  -1338230.34546        39.000
        22.000
  22450449.555    22450448.512   -12991410.92006  -9872213.60647        46.000
        34.000
 14  9 29  0 20  0.0000000  0  8G07G26G05G15G24G28G10G30
  25021088.617    25021086.207     1353160.16304   1113121.00146        39.000
        22.000
  20132839.570    20132836.754   -26911380.35707 -20678224.57947        52.000
        41.000
  20934336.133    20934333.199   -19782596.45307 -14830592.86347        51.000
        40.000
  22618187.922    22618184.875   -12816644.96507  -9623783.59147        48.000
        33.000
  24679120.281    24679121.160    -2980008.97603  -1917028.48245        37.000
        19.000
  21555044.758    21555040.805   -17735195.82707 -12267989.02547        49.000
        35.000
  24384692.609    24384693.215    -2589166.43005  -1323789.14446        40.000
        21.000
  22453073.023    22453072.727   -12977621.70207  -9861468.77147        48.000
        33.000
 14  9 29  0 20  5.0000000  0  8G07G26G05G15G24G28G10G30
  25024058.805    25024055.855     1368766.07104   1125281.45646        39.000
        21.000
  20132098.453    20132095.512   -26915274.67207 -20681259.10747        52.000
        40.000
  20935986.781    20935983.184   -19773924.13207 -14823835.21647        50.000
        40.000
  22615766.977    22615763.730   -12829366.81607  -9633696.71847        48.000
        33.000
  24676177.711    24676178.707    -2995468.45203  -1929074.81145        37.000
        19.000
  21555088.039    21555083.461   -17734969.50307 -12267812.66447        50.000
        35.000
  24388220.063    24388220.715    -2570631.58304  -1309346.41446        39.000
        22.000
  22455697.992    22455697.734   -12963828.40306  -9850720.74047        47.000
        34.000
 14  9 29  0 20 10.0000000  0  8G07G26G05G15G24G28G10G30
  25027027.750    25027025.617     1384371.10904   1137441.21546        39.000
        21.000
  20131359.367    20131356.676   -26919159.60607 -20684286.33147        52.000
        41.000
  20937639.805    20937636.441   -19765237.93207 -14817066.74947        49.000
        39.000
  22613346.469    22613343.914   -12842085.55207  -9643607.41747        48.000
        33.000
  24673236.805    24673237.578    -3010924.05703  -1941118.12745        37.000
        18.000
  21555133.750    21555129.891   -17734728.06307 -12267624.52547        50.000
        35.000
  24391748.125    24391748.582    -2552094.86104  -1294902.24946        39.000
        22.000
  22458323.797    22458323.320   -12950031.10306  -9839969.60347        45.000
        34.000
 14  9 29  0 20 15.0000000  0  8G07G26G05G15G24G28G10G30
  25029997.359    25029995.594     1399975.25504   1149600.28346        39.000
        21.000
  20130621.719    20130618.852   -26923035.15207 -20687306.23047        52.000
        40.000
  20939295.148    20939292.059   -19756537.85307 -14810287.46447        50.000
        40.000
  22610926.938    22610924.031   -12854801.17907  -9653515.69247        48.000
        33.000
  24670296.750    24670297.707    -3026375.74103  -1953158.30345        37.000
        19.000
  21555182.383    21555178.277   -17734471.51507 -12267424.60947        50.000
        35.000
  24395275.719    24395275.855    -2533556.24505  -1280456.57446        40.000
        22.000
  22460949.992    22460949.758   -12936229.79206  -9829215.33747        47.000
        34.000
 14  9 29  0 20 20.0000000  0  8G07G26G05G15G24G28G10G30
  25032966.617    25032964.680     1415578.53505   1161758.66246        40.000
        22.000
  20129886.398    20129883.141   -26926901.21407 -20690318.74847        52.000
        40.000
  20940953.500    20940950.598   -19747823.80207 -14803497.29847        49.000
        39.000
  22608507.203    22608504.758   -12867513.59006  -9663421.47247        47.000
        33.000
  24667357.000    24667357.746    -3041823.50704  -1965195.48745        38.000
        19.000
  21555234.008    21555230.496   -17734199.75207 -12267212.84747        49.000
        35.000
  24398803.266    24398803.754    -2515015.68004  -1266009.44246        39.000
        22.000
  22463576.875    22463576.508   -12922424.39806  -9818457.89247        47.000
        34.000
 14  9 29  0 20 25.0000000  0  8G07G26G05G15G24G28G10G30
  25035936.344    25035933.418     1431180.85905   1173916.32046        41.000
        23.000
  20129152.336    20129149.480   -26930757.87107 -20693323.93147        52.000
        40.000
  20942614.125    20942611.375   -19739095.89507 -14796696.33447        50.000
        39.000
  22606088.797    22606086.492   -12880222.85906  -9673324.78747        47.000
        32.000
  24664417.836    24664418.695    -3057267.47904  -1977229.74045        38.000
        19.000
  21555288.680    21555284.867   -17733912.88007 -12266989.30547        49.000
        36.000
  24402331.742    24402332.180    -2496473.28704  -1251560.82046        39.000
        21.000
  22466205.242    22466204.465   -12908615.01907  -9807697.34047        48.000
        34.000
 14  9 29  0 20 30.0000000  0  8G07G26G05G15G24G28G10G30
  25038904.727    25038902.242     1446782.22705   1186073.22946        40.000
        24.000
  20128419.984    20128417.012   -26934605.14507 -20696321.80247        52.000
        41.000
  20944277.922    20944274.660   -19730354.13307 -14789884.57047        50.000
        39.000
  22603671.469    22603668.543   -12892929.02906  -9683225.69247        47.000
        32.000
  24661479.758    24661479.965    -3072707.61604  -1989261.01245        38.000
        20.000
  21555346.055    21555342.641   -17733610.92407 -12266754.01047        49.000
        36.000
  24405860.898    24405861.164    -2477929.06304  -1237110.81446        39.000
        21.000
  22468833.203    22468833.066   -12894801.70006  -9796933.72247        47.000
        34.000
 14  9 29  0 20 35.0000000  0  8G07G26G05G15G24G28G10G30
  25041873.258    25041870.785     1462382.69605   1198229.42646        40.000
        22.000
  20127689.852    20127686.836   -26938442.96507 -20699312.30847        52.000
        40.000
  20945943.953    20945940.723   -19721598.46007 -14783061.97547        50.000
        39.000
  22601253.836    22601251.121   -12905632.00506  -9693124.11247        47.000
        32.000
  24658543.039    24658543.254    -3088143.74904  -2001289.12045        38.000
        19.000
  21555406.648    21555402.961   -17733293.79307 -12266506.89147        50.000
        36.000
  24409389.953    24409390.324    -2459382.95605  -1222659.30646        40.000
        21.000
  22471462.766    22471461.984   -12880984.36506  -9786166.97047        47.000
        34.000
 14  9 29  0 20 40.0000000  0  8G07G26G05G15G24G28G10G30
  25044842.695    25044839.363     1477982.12404   1210384.83946        39.000
        21.000
  20126961.359    20126958.223   -26942271.45907 -20702295.55147        52.000
        41.000
  20947612.320    20947609.520   -19712829.06907 -14776228.68247        50.000
        39.000
  22598837.211    22598834.234   -12918331.89106  -9703020.12147        47.000
        32.000
  24655605.711    24655606.254    -3103576.14303  -2013314.31145        37.000
        20.000
  21555470.000    21555465.895   -17732961.63007 -12266248.06247        50.000
        36.000
  24412920.031    24412919.801    -2440835.10704  -1208206.46546        39.000
        22.000
  22474093.078    22474092.543   -12867163.15707  -9775397.20347        48.000
        35.000
 14  9 29  0 20 45.0000000  0  8G07G26G05G15G24G28G10G30
  25047809.813    25047807.344     1493580.90605   1222539.72346        40.000
        21.000
  20126234.789    20126231.840   -26946090.23707 -20705271.21947        52.000
        40.000
  20949283.922    20949281.293   -19704045.54007 -14769384.37647        50.000
        39.000
  22596421.242    22596418.207   -12931028.31506  -9712913.43947        47.000
        32.000
  24652670.000    24652670.773    -3119004.37703  -2025336.29745        36.000
        19.000
  21555536.047    21555532.277   -17732614.04907 -12265977.21647        50.000
        35.000
  24416450.031    24416449.559    -2422285.15404  -1193751.97746        39.000
        22.000
  22476723.648    22476723.496   -12853337.68907  -9764624.11847        48.000
        34.000
 14  9 29  0 20 50.0000000  0  8G07G26G05G15G24G28G10G30
  25050778.555    25050775.621     1509178.39204   1234693.59845        39.000
        20.000
  20125509.438    20125506.574   -26949899.93908 -20708239.81547        53.000
        40.000
  20950957.945    20950954.820   -19695248.52507 -14762529.56347        50.000
        39.000
  22594005.539    22594002.777   -12943721.92306  -9722804.56847        47.000
        32.000
  24649734.500    24649735.844    -3134428.96103  -2037355.40245        36.000
        19.000
  21555604.859    21555601.754   -17732251.67307 -12265694.84347        50.000
        36.000
  24419980.352    24419980.063    -2403733.72105  -1179296.35046        40.000
        22.000
  22479355.211    22479354.871   -12839508.61707  -9753848.22147        48.000
        34.000
 14  9 29  0 20 55.0000000  0  8G07G26G05G15G24G28G10G30
  25053746.055    25053743.469     1524775.12705   1246846.91246        40.000
        21.000
  20124786.492    20124783.422   -26953699.98607 -20711200.88947        52.000
        41.000
  20952634.375    20952631.453   -19686437.49307 -14755663.82347        49.000
        39.000
  22591590.227    22591588.141   -12956412.14806  -9732693.05347        47.000
        33.000
  24646799.070    24646801.578    -3149849.45103  -2049371.33245        36.000
        18.000
  21555676.602    21555673.203   -17731873.93307 -12265400.50247        50.000
        36.000
  24423510.469    24423510.102    -2385180.27804  -1164839.11146        39.000
        22.000
  22481987.992    22481987.102   -12825675.38307  -9743069.08147        48.000
        34.000
 14  9 29  0 21  0.0000000  0  8G07G26G05G15G24G28G10G30
  25056715.141    25056711.570     1540371.01505   1258999.54146        40.000
        22.000
  20124065.055    20124062.418   -26957490.45607 -20714154.50247        52.000
        40.000
  20954314.008    20954310.504   -19677612.50807 -14748787.21447        49.000
        39.000
  22589175.797    22589174.094   -12969099.06206  -9742578.95947        47.000
        32.000
  24643865.961    24643867.785    -3165265.88503  -2061384.10045        36.000
        18.000
  21555751.320    21555747.879   -17731480.92607 -12265094.26047        50.000
        35.000
  24427041.492    24427041.109    -2366624.91005  -1150380.44946        40.000
        22.000
  22484620.945    22484620.305   -12811838.08106  -9732286.77047        46.000
        34.000
 14  9 29  0 21  5.0000000  0  8G07G26G05G15G24G28G10G30
  25059682.609    25059678.727     1555965.58505   1271151.13546        41.000
        22.000
  20123345.664    20123342.680   -26961271.82907 -20717101.02447        51.000
        40.000
  20955995.820    20955992.684   -19668773.99407 -14741900.06047        50.000
        39.000
  22586762.859    22586760.410   -12981783.09606  -9752462.61447        47.000
        32.000
  24640932.992    24640935.168    -3180678.68802  -2073394.02445        35.000
        17.000
  21555829.078    21555825.344   -17731073.13307 -12264776.50147        50.000
        35.000
  24430573.219    24430572.617    -2348068.07905  -1135920.58546        40.000
        23.000
  22487254.820    22487254.301   -12797997.17706  -9721501.65447        47.000
        34.000
 14  9 29  0 21 10.0000000  0  8G07G26G05G15G24G28G10G30
  25062649.352    25062646.188     1571559.26705   1283302.05846        42.000
        22.000
  20122627.547    20122624.848   -26965043.69207 -20720040.14247        52.000
        41.000
  20957680.602    20957677.191   -19659921.59707 -14735002.09447        49.000
        39.000
  22584349.141    22584347.504   -12994463.84506  -9762343.70847        47.000
        32.000
  24638000.750    24638003.012    -3196087.58103  -2085400.89845        37.000
        17.000
  21555909.727    21555906.168   -17730650.13807 -12264446.89147        50.000
        35.000
  24434104.563    24434104.398    -2329509.40505  -1121459.30146        40.000
        22.000
  22489889.906    22489888.340   -12784152.27806  -9710713.42547        47.000
        34.000
 14  9 29  0 21 15.0000000  0  8G07G26G05G15G24G28G10G30
  25065616.906    25065613.477     1587152.05105   1295452.26346        41.000
        22.000
  20121911.586    20121909.098   -26968806.03107 -20722971.83447        51.000
        41.000
  20959367.602    20959364.281   -19651055.30907 -14728093.30247        50.000
        39.000
  22581937.344    22581935.117   -13007141.32906  -9772222.25747        47.000
        33.000
  24635069.641    24635071.629    -3211492.42803  -2097404.64945        36.000
        18.000
  21555993.039    21555989.230   -17730211.95007 -12264105.44747        49.000
        35.000
  24437636.750    24437635.980    -2310948.87605  -1106996.57946        40.000
        22.000
  22492524.695    22492523.891   -12770303.38907  -9699922.08547        48.000
        34.000
 14  9 29  0 21 20.0000000  0  8G07G26G05G15G24G28G10G30
  25068583.992    25068580.941     1602743.73205   1307601.61446        41.000
        22.000
  20121197.594    20121194.762   -26972559.03207 -20725896.25247        51.000
        40.000
  20961057.539    20961054.199   -19642175.35207 -14721173.85847        50.000
        39.000
  22579525.297    22579523.023   -13019815.71806  -9782098.39947        47.000
        32.000
  24632138.328    24632140.742    -3226893.38203  -2109405.38045        37.000
        19.000
  21556079.516    21556076.145   -17729758.75507 -12263752.30847        49.000
        35.000
  24441168.852    24441168.664    -2292386.71105  -1092532.57946        40.000
        22.000
  22495160.695    22495159.938   -12756450.70507  -9689127.78647        48.000
        33.000
 14  9 29  0 21 25.0000000  0  8G07G26G05G15G24G28G10G30
  25071550.297    25071547.637     1618334.69605   1319750.44246        41.000
        22.000
  20120484.969    20120482.629   -26976302.26507 -20728813.05747        52.000
        40.000
  20962750.070    20962746.809   -19633281.32907 -14714243.45147        50.000
        39.000
  22577114.438    22577111.773   -13032486.56507  -9791971.78247        48.000
        32.000
  24629208.211    24629210.707    -3242290.30603  -2121402.93545        37.000
        19.000
  21556168.828    21556165.438   -17729290.12707 -12263387.14147        48.000
        36.000
  24444701.859    24444701.598    -2273822.51105  -1078066.99646        40.000
        21.000
  22497797.688    22497796.656   -12742593.84407  -9678330.23347        48.000
        33.000
 14  9 29  0 21 30.0000000  0  8G07G26G05G15G24G28G10G30
  25074517.180    25074514.188     1633924.42605   1331898.24946        40.000
        21.000
  20119774.508    20119771.914   -26980036.31907 -20731722.70747        52.000
        40.000
  20964444.969    20964441.887   -19624373.80107 -14707302.52447        50.000
        39.000
  22574703.766    22574700.973   -13045154.50307  -9801842.90847        48.000
        33.000
  24626279.008    24626281.016    -3257683.52403  -2133397.61245        37.000
        19.000
  21556260.602    21556257.559   -17728806.63607 -12263010.39147        48.000
        36.000
  24448234.500    24448234.406    -2255256.85005  -1063600.24846        41.000
        21.000
  22500435.219    22500433.863   -12728733.35206  -9667529.85247        47.000
        33.000
 14  9 29  0 21 35.0000000  0  8G07G26G05G15G24G28G10G30
  25077483.641    25077480.512     1649513.55105   1344045.63546        40.000
        22.000
  20119066.148    20119063.504   -26983760.48107 -20734624.65347        52.000
        40.000
  20966142.883    20966139.586   -19615452.07807 -14700350.53947        50.000
        39.000
  22572293.641    22572290.859   -13057818.83506  -9811711.21247        47.000
        32.000
  24623350.117    24623352.555    -3273072.47503  -2145388.99045        37.000
        18.000
  21556355.625    21556352.254   -17728307.64507 -12262621.56847        48.000
        36.000
  24451767.539    24451767.844    -2236689.05905  -1049131.87946        40.000
        21.000
  22503073.695    22503073.074   -12714868.57207  -9656726.13347        48.000
        34.000
 14  9 29  0 21 40.0000000  0  8G07G26G05G15G24G28G10G30
  25080449.914    25080447.137     1665101.34405   1356191.94846        41.000
        21.000
  20118359.094    20118356.488   -26987475.50707 -20737519.47547        52.000
        40.000
  20967843.117    20967840.387   -19606516.90307 -14693388.06647        50.000
        39.000
  22569884.117    22569881.117   -13070480.24606  -9821577.24647        47.000
        33.000
  24620422.445    24620424.770    -3288457.75503  -2157377.43545        36.000
        19.000
  21556453.109    21556449.855   -17727793.82407 -12262221.19047        48.000
        36.000
  24455301.266    24455301.477    -2218119.86705  -1034662.39446        40.000
        21.000
  22505712.922    22505711.781   -12701000.22907  -9645919.63047        48.000
        33.000
 14  9 29  0 21 45.0000000  0  8G07G26G05G15G24G28G10G30
  25083416.242    25083412.840     1680688.38505   1368337.71246        40.000
        21.000
  20117654.078    20117651.430   -26991180.76507 -20740406.69247        52.000
        40.000
  20969545.930    20969542.703   -19597567.69807 -14686414.66747        50.000
        39.000
  22567475.281    22567472.715   -13083138.14906  -9831440.53947        47.000
        33.000
  24617496.086    24617497.883    -3303838.84003  -2169362.69045        37.000
        19.000
  21556554.234    21556551.023   -17727264.61507 -12261808.81747        49.000
        35.000
  24458835.539    24458835.227    -2199548.72605  -1020191.42246        40.000
        21.000
  22508352.516    22508351.621   -12687127.75407  -9635109.91547        48.000
        33.000
 14  9 29  0 21 50.0000000  0  8G07G26G05G15G24G28G10G30
  25086381.680    25086378.379     1696274.40205   1380482.65646        40.000
        21.000
  20116950.852    20116947.965   -26994876.59107 -20743286.55247        52.000
        40.000
  20971251.711    20971248.840   -19588604.81007 -14679430.60147        50.000
        39.000
  22565067.664    22565064.293   -13095792.82907  -9841301.32047        48.000
        33.000
  24614570.195    24614571.625    -3319215.98303  -2181344.81745        37.000
        19.000
  21556657.133    21556654.250   -17726720.30207 -12261384.67347        49.000
        36.000
  24462369.656    24462369.387    -2180975.91605  -1005719.09846        40.000
        21.000
  22510993.102    22510991.957   -12673251.43307  -9624297.19447        49.000
        33.000
 14  9 29  0 21 55.0000000  0  8G07G26G05G15G24G28G10G30
  25089347.422    25089344.227     1711859.12305   1392626.57746        40.000
        21.000
  20116249.438    20116246.555   -26998563.26307 -20746159.28447        52.000
        40.000
  20972959.828    20972956.746   -19579628.56507 -14672436.12747        49.000
        39.000
  22562660.555    22562656.852   -13108444.57307  -9851159.82147        49.000
        32.000
  24611644.023    24611646.793    -3334589.54303  -2193324.20245        37.000
        19.000
  21556764.258    21556760.770   -17726161.17107 -12260948.98347        49.000
        36.000
  24465903.859    24465903.898    -2162401.75705   -991245.74245        40.000
        20.000
  22513634.102    22513633.035   -12659371.59607  -9613481.74447        48.000
        33.000
 14  9 29  0 22  0.0000000  0  8G07G26G05G15G24G28G10G30
  25092313.055    25092309.531     1727443.14805   1404769.97545        41.000
        20.000
  20115549.695    20115546.910   -27002240.10807 -20749024.35747        51.000
        40.000
  20974670.594    20974667.293   -19570638.19707 -14665430.65047        49.000
        39.000
  22560253.273    22560250.262   -13121092.72907  -9861015.52947        48.000
        33.000
  24608720.242    24608721.641    -3349958.84503  -2205300.23745        37.000
        19.000
  21556873.219    21556870.035   -17725586.56007 -12260501.23247        49.000
        36.000
  24469439.680    24469438.609    -2143825.58205   -976770.85445        40.000
        20.000
  22516276.344    22516275.066   -12645487.57406  -9602663.02547        47.000
        33.000
 14  9 29  0 22  5.0000000  0  8G07G26G05G15G24G28G10G30
  25095278.484    25095275.086     1743025.86305   1416912.32845        40.000
        19.000
  20114851.508    20114848.922   -27005907.74007 -20751882.24847        51.000
        40.000
  20976384.047    20976381.082   -19561634.34107 -14658414.66647        50.000
        39.000
  22557847.188    22557843.945   -13133737.93307  -9870868.93347        49.000
        33.000
  24605795.414    24605797.512    -3365324.40503  -2217273.37845        37.000
        19.000
  21556985.422    21556982.137   -17724997.09907 -12260041.91147        49.000
        35.000
  24472974.039    24472973.988    -2125248.02605   -962294.86145        40.000
        20.000
  22518918.953    22518917.770   -12631599.99106  -9591841.53547        47.000
        33.000
 14  9 29  0 22 10.0000000  0  8G07G26G05G15G24G28G10G30
  25098244.172    25098240.578     1758607.92305   1429054.20145        41.000
        19.000
  20114155.641    20114152.988   -27009565.49907 -20754732.45547        52.000
        40.000
  20978100.055    20978097.414   -19552616.39207 -14651387.69547        50.000
        40.000
  22555440.867    22555437.996   -13146379.52607  -9880719.53547        49.000
        32.000
  24602871.930    24602874.688    -3380685.60403  -2229243.11345        36.000
        19.000
  21557100.531    21557097.055   -17724392.17207 -12259570.54247        49.000
        35.000
  24476510.555    24476509.508    -2106668.44905   -947817.27146        40.000
        21.000
  22521562.664    22521561.266   -12617708.22107  -9581016.78447        48.000
        34.000
 14  9 29  0 22 15.0000000  0  8G07G26G05G15G24G28G10G30
  25101209.148    25101205.438     1774188.77505   1441195.10345        41.000
        20.000
  20113461.203    20113458.992   -27013213.94607 -20757575.39947        52.000
        40.000
  20979818.797    20979816.059   -19543584.85707 -14644350.14147        50.000
        39.000
  22553035.695    22553032.949   -13159018.06107  -9890567.73547        48.000
        32.000
  24599949.039    24599951.949    -3396043.07403  -2241209.90545        36.000
        18.000
  21557218.609    21557215.289   -17723772.28807 -12259087.51347        50.000
        36.000
  24480046.281    24480045.695    -2088087.39704   -933338.56645        38.000
        20.000
  22524206.836    22524205.570   -12603812.80606  -9570189.19047        47.000
        34.000
 14  9 29  0 22 20.0000000  0  8G07G26G05G15G24G28G10G30
  25104173.258    25104169.762     1789768.77605   1453335.37846        41.000
        21.000
  20112768.961    20112766.461   -27016852.71907 -20760410.80347        52.000
        40.000
  20981539.688    20981537.176   -19534539.42407 -14637301.75347        50.000
        40.000
  22550631.188    22550628.805   -13171653.17806  -9900413.28247        47.000
        32.000
  24597028.469    24597030.617    -3411396.35703  -2253173.47345        36.000
        19.000
  21557339.547    21557336.090   -17723137.15407 -12258592.60147        51.000
        35.000
  24483581.805    24483582.055    -2069504.50804   -918858.42045        39.000
        20.000
  22526851.945    22526850.414   -12589913.41506  -9559358.49547        47.000
        34.000
 14  9 29  0 22 25.0000000  0  8G07G26G05G15G24G28G10G30
  25107137.305    25107134.988     1805347.45605   1465474.59245        40.000
        20.000
  20112078.125    20112075.871   -27020482.26307 -20763239.02047        52.000
        40.000
  20983263.727    20983261.301   -19525480.58507 -14630242.91847        49.000
        39.000
  22548227.773    22548224.711   -13184285.27107  -9910256.45547        48.000
        33.000
  24594107.461    24594109.129    -3426745.98703  -2265134.19145        37.000
        20.000
  21557463.031    21557459.586   -17722487.17307 -12258086.11547        51.000
        35.000
  24487118.352    24487118.234    -2050920.28504   -904377.21845        39.000
        20.000
  22529497.734    22529496.414   -12576010.48706  -9548525.05047        47.000
        34.000
 14  9 29  0 22 30.0000000  0  8G07G26G05G15G24G28G10G30
  25110101.125    25110099.211     1820925.29604   1477613.19146        39.000
        21.000
  20111389.328    20111386.988   -27024102.07607 -20766059.65347        52.000
        40.000
  20984990.219    20984987.508   -19516407.79307 -14623173.21347        49.000
        40.000
  22545824.891    22545821.270   -13196913.87407  -9920096.92347        48.000
        33.000
  24591187.180    24591189.484    -3442091.33203  -2277091.56345        37.000
        19.000
  21557589.594    21557586.203   -17721821.83607 -12257567.66747        50.000
        35.000
  24490655.789    24490655.633    -2032334.21705   -889894.60846        40.000
        21.000
  22532144.102    22532142.559   -12562103.52107  -9537688.45647        48.000
        33.000
 14  9 29  0 22 35.0000000  0  8G07G26G05G15G24G28G10G30
  25113065.508    25113063.848     1836502.11805   1489750.96645        40.000
        20.000
  20110702.016    20110700.340   -27027712.32907 -20768872.83447        52.000
        40.000
  20986719.453    20986716.898   -19507321.23707 -14616092.78847        50.000
        40.000
  22543422.258    22543418.613   -13209539.18707  -9929934.82447        48.000
        33.000
  24588268.305    24588270.168    -3457432.74303  -2289045.87745        36.000
        20.000
  21557719.258    21557715.762   -17721141.35807 -12257037.42647        50.000
        36.000
  24494192.250    24494192.789    -2013746.51905   -875410.71145        40.000
        20.000
  22534790.961    22534789.746   -12548192.77107  -9526848.91447        48.000
        33.000
 14  9 29  0 22 40.0000000  0  8G07G26G05G15G24G28G10G30
  25116029.188    25116027.754     1852077.74904   1501887.80545        39.000
        20.000
  20110017.234    20110014.676   -27031313.21907 -20771678.71747        52.000
        40.000
  20988450.930    20988448.438   -19498221.19807 -14609001.84247        49.000
        40.000
  22541020.273    22541017.129   -13222161.33607  -9939770.26647        48.000
        32.000
  24585349.328    24585351.684    -3472770.37703  -2300997.25245        37.000
        20.000
  21557851.578    21557847.746   -17720445.91507 -12256495.52147        49.000
        36.000
  24497730.352    24497729.852    -1995157.38505   -860925.68745        41.000
        20.000
  22537438.797    22537437.879   -12534278.39106  -9516006.54847        47.000
        33.000
 14  9 29  0 22 45.0000000  0  8G07G26G05G15G24G28G10G30
  25118993.133    25118991.434     1867652.63304   1514024.08745        39.000
        20.000
  20109333.852    20109331.305   -27034904.29707 -20774476.95847        52.000
        40.000
  20990185.234    20990182.820   -19489107.19807 -14601900.02747        49.000
        40.000
  22538618.430    22538615.582   -13234779.87607  -9949602.89847        48.000
        32.000
  24582431.016    24582433.672    -3488103.69903  -2312945.27645        36.000
        19.000
  21557986.805    21557983.203   -17719735.03207 -12255941.58247        49.000
        35.000
  24501267.781    24501267.387    -1976566.35705   -846439.19946        40.000
        21.000
  22540087.273    22540086.168   -12520359.92106  -9505160.98547        46.000
        33.000
 14  9 29  0 22 50.0000000  0  8G07G26G05G15G24G28G10G30
  25121957.703    25121955.012     1883226.17105   1526159.29046        40.000
        21.000
  20108652.266    20108649.535   -27038486.17207 -20777268.03147        52.000
        40.000
  20991922.063    20991919.605   -19479979.77107 -14594787.75147        49.000
        40.000
  22536218.594    22536214.754   -13247395.43507  -9959433.20147        48.000
        32.000
  24579514.188    24579516.555    -3503433.34803  -2324890.42245        36.000
        20.000
  21558125.086    21558121.203   -17719009.31207 -12255376.08547        49.000
        35.000
  24504805.969    24504805.488    -1957974.05505   -831951.70245        41.000
        20.000
  22542736.906    22542735.438   -12506437.98906  -9494312.73047        47.000
        34.000
 14  9 29  0 22 55.0000000  0  8G07G26G05G15G24G28G10G30
  25124920.469    25124918.363     1898798.97905   1538293.95746        40.000
        21.000
  20107972.648    20107969.988   -27042058.12207 -20780051.36647        52.000
        40.000
  20993662.180    20993659.527   -19470838.29507 -14587664.53147        49.000
        40.000
  22533818.773    22533815.500   -13260007.30107  -9969260.62647        49.000
        32.000
  24576597.461    24576600.465    -3518758.64702  -2336832.15245        35.000
        19.000
  21558266.109    21558262.129   -17718268.08607 -12254798.50547        48.000
        35.000
  24508344.234    24508343.242    -1939379.84805   -817462.74846        40.000
        21.000
  22545386.453    22545385.738   -12492511.94706  -9483461.26847        47.000
        33.000
 14  9 29  0 23  0.0000000  0  8G07G26G05G15G24G28G10G30
  25127883.781    25127881.598     1914370.55204   1550427.64046        39.000
        21.000
  20107294.344    20107291.863   -27045620.71907 -20782827.41547        52.000
        40.000
  20995404.016    20995401.297   -19461683.32207 -14580530.78647        50.000
        40.000
  22531418.969    22531415.711   -13272616.01307  -9979085.59947        48.000
        32.000
  24573681.430    24573684.941    -3534080.12203  -2348770.92245        36.000
        19.000
  21558409.945    21558406.305   -17717511.90007 -12254209.26047        49.000
        35.000
  24511882.211    24511882.258    -1920784.22405   -802972.65646        40.000
        21.000
  22548037.422    22548036.223   -12478582.30906  -9472607.00647        47.000
        33.000
 14  9 29  0 23  5.0000000  0  8G07G26G05G15G24G28G10G30
  25130846.766    25130844.652     1929941.03304   1562560.47145        39.000
        20.000
  20106618.563    20106615.781   -27049173.78507 -20785596.04047        52.000
        40.000
  20997148.539    20997146.145   -19452514.70507 -14573386.40747        50.000
        39.000
  22529020.234    22529016.848   -13285221.45107  -9988908.00947        48.000
        33.000
  24570767.344    24570769.961    -3549397.48302  -2360706.52146        35.000
        21.000
  21558556.570    21558552.926   -17716740.65207 -12253608.28647        49.000
        35.000
  24515421.461    24515421.270    -1902187.07705   -788481.40346        40.000
        21.000
  22550688.828    22550688.133   -12464648.96206  -9461749.85547        47.000
        34.000
 14  9 29  0 23 10.0000000  0  8G07G26G05G15G24G28G10G30
  25133809.133    25133807.051     1945510.36104   1574692.38845        39.000
        19.000
  20105943.953    20105941.578   -27052717.34307 -20788357.25247        52.000
        40.000
  20998896.156    20998893.500   -19443332.47007 -14566231.42447        50.000
        39.000
  22526622.023    22526618.801   -13297823.60307  -9998727.86547        48.000
        33.000
  24567854.070    24567855.977    -3564710.99903  -2372639.06045        36.000
        20.000
  21558706.219    21558702.375   -17715954.34107 -12252995.57847        49.000
        36.000
  24518961.063    24518960.563    -1883588.40805   -773988.95646        40.000
        22.000
  22553341.078    22553339.996   -12450711.92306  -9450889.82747        47.000
        33.000
 14  9 29  0 23 15.0000000  0  8G07G26G05G15G24G28G10G30
  25136771.984    25136769.762     1961078.71704   1586823.58345        39.000
        19.000
  20105271.453    20105269.180   -27056251.25507 -20791110.94447        52.000
        40.000
  21000646.016    21000643.234   -19434136.46907 -14559065.71547        49.000
        40.000
  22524224.906    22524221.090   -13310422.31707 -10008545.03847        48.000
        33.000
  24564939.836    24564942.402    -3580020.42803  -2384568.46845        36.000
        20.000
  21558858.695    21558855.082   -17715152.84507 -12252371.03147        50.000
        35.000
  24522501.094    24522500.297    -1864988.10004   -759495.23346        39.000
        21.000
  22555994.000    22555993.207   -12436771.05906  -9440026.82247        47.000
        34.000
 14  9 29  0 23 20.0000000  0  8G07G26G05G15G24G28G10G30
  25139734.852    25139731.797     1976645.82804   1598953.74045        39.000
        19.000
  20104600.844    20104598.410   -27059775.79707 -20793857.34147        51.000
        40.000
  21002398.531    21002396.000   -19424927.01407 -14551889.51747        50.000
        39.000
  22521827.852    22521824.621   -13323017.92406 -10018359.80247        47.000
        33.000
  24562027.367    24562029.469    -3595326.01102  -2396494.87245        35.000
        19.000
  21559014.188    21559010.352   -17714336.44007 -12251734.87447        49.000
        35.000
  24526041.047    24526040.488    -1846386.47805   -745000.47846        40.000
        21.000
  22558647.211    22558646.230   -12422826.65806  -9429161.05847        47.000
        33.000
 14  9 29  0 23 25.0000000  0  8G07G26G05G15G24G28G10G30
  25142696.719    25142693.742     1992212.11704   1611083.34545        39.000
        18.000
  20103932.031    20103929.660   -27063290.50707 -20796596.07647        52.000
        40.000
  21004153.742    21004150.781   -19415703.66307 -14544702.48847        50.000
        40.000
  22519431.211    22519428.219   -13335609.89006 -10028171.71047        47.000
        34.000
  24559115.344    24559118.090    -3610627.27602  -2408417.91645        35.000
        19.000
  21559172.586    21559168.848   -17713504.60707 -12251086.69147        49.000
        36.000
  24529580.313    24529580.391    -1827783.02904   -730504.31646        39.000
        21.000
  22561301.969    22561300.684   -12408878.25406  -9418292.17247        47.000
        33.000
 14  9 29  0 23 30.0000000  0  8G07G26G05G15G24G28G10G30
  25145658.875    25145655.813     2007777.17804   1623211.95545        39.000
        18.000
  20103264.695    20103262.137   -27066795.76907 -20799327.44847        51.000
        40.000
  21005911.258    21005908.695   -19406466.78007 -14537504.91847        48.000
        39.000
  22517036.336    22517032.723   -13348198.64106 -10037981.12647        47.000
        33.000
  24556204.906    24556207.242    -3625924.61903  -2420337.87945        36.000
        19.000
  21559333.492    21559329.914   -17712657.81807 -12250426.85847        49.000
        36.000
  24533121.320    24533120.965    -1809178.18204   -716007.03545        39.000
        20.000
  22563956.359    22563955.707   -12394926.27106  -9407420.50747        46.000
        34.000
 14  9 29  0 23 35.0000000  0  8G07G26G05G15G24G28G10G30
  25148620.984    25148617.676     2023341.08104   1635339.68445        38.000
        19.000
  20102599.984    20102596.965   -27070291.56607 -20802051.44347        51.000
        40.000
  21007671.461    21007669.102   -19397216.35507 -14530296.80147        49.000
        39.000
  22514640.898    22514638.066   -13360784.14606 -10047788.01147        47.000
        33.000
  24553295.102    24553296.633    -3641218.00703  -2432254.78645        37.000
        20.000
  21559497.563    21559493.949   -17711796.07107 -12249755.36347        49.000
        35.000
  24536662.313    24536661.809    -1790571.90504   -701508.69345        39.000
        20.000
  22566612.250    22566611.477   -12380970.66906  -9396546.00747        47.000
        34.000
 14  9 29  0 23 40.0000000  0  8G07G26G05G15G24G28G10G30
  25151581.695    25151579.117     2038903.97304   1647466.61445        38.000
        19.000
  20101936.508    20101933.418   -27073777.72807 -20804767.93247        51.000
        40.000
  21009434.898    21009431.852   -19387952.24507 -14523078.01947        49.000
        39.000
  22512246.766    22512244.281   -13373366.21906 -10057592.22047        47.000
        33.000
  24550385.227    24550387.082    -3656507.36003  -2444168.53045        37.000
        20.000
  21559664.320    21559660.730   -17710919.08507 -12249071.99547        49.000
        36.000
  24540202.359    24540202.750    -1771964.05405   -687009.08045        40.000
        20.000
  22569268.578    22569267.953   -12367011.30406  -9385668.58947        47.000
        34.000
 14  9 29  0 23 45.0000000  0  8G07G26G05G15G24G28G10G30
  25154543.055    25154540.590     2054465.54404   1659592.47245        38.000
        19.000
  20101274.953    20101272.078   -27077254.51707 -20807477.12047        52.000
        41.000
  21011200.352    21011197.594   -19378674.74907 -14515848.80647        49.000
        39.000
  22509853.164    22509850.629   -13385945.14207 -10067393.97547        48.000
        33.000
  24547476.422    24547478.320    -3671792.88403  -2456079.29145        36.000
        20.000
  21559834.430    21559830.633   -17710027.16107 -12248376.98947        48.000
        36.000
  24543743.414    24543744.359    -1753354.94005   -672508.50045        40.000
        20.000
  22571925.836    22571924.910   -12353048.46906  -9374788.46047        47.000
        33.000
 14  9 29  0 23 50.0000000  0  8G07G26G05G15G24G28G10G30
  25157503.758    25157501.359     2070026.31504   1671717.77945        38.000
        19.000
  20100614.602    20100612.121   -27080721.40707 -20810178.59647        52.000
        40.000
  21012968.367    21012965.219   -19369383.35807 -14508608.76347        49.000
        39.000
  22507459.711    22507457.621   -13398520.42306 -10077192.88547        47.000
        33.000
  24544567.852    24544570.055    -3687074.11703  -2467986.71145        37.000
        19.000
  21560006.938    21560002.992   -17709119.83707 -12247669.98647        49.000
        36.000
  24547285.047    24547285.703    -1734744.05904   -658006.53645        39.000
        20.000
  22574583.352    22574582.484   -12339081.64606  -9363905.22747        45.000
        33.000
 14  9 29  0 23 55.0000000  0  8G07G26G05G15G24G28G10G30
  25160465.617    25160462.746     2085585.98203   1683842.19545        37.000
        19.000
  20099957.156    20099954.414   -27084178.74807 -20812872.62447        51.000
        41.000
  21014738.898    21014735.871   -19360078.40007 -14501358.14747        50.000
        39.000
  22505067.789    22505065.594   -13411092.35806 -10086989.19047        47.000
        33.000
  24541660.203    24541663.148    -3702351.22803  -2479890.92345        37.000
        19.000
  21560182.609    21560178.645   -17708197.40507 -12246951.20947        48.000
        36.000
  24550827.383    24550827.684    -1716131.72204   -643503.45345        39.000
        19.000
  22577241.906    22577241.238   -12325111.17406  -9353019.14847        47.000
        33.000
 14  9 29  0 24  0.0000000  0  8G07G26G05G15G24G28G10G30
  25163425.578    25163423.293     2101144.50004   1695965.72245        38.000
        19.000
  20099301.016    20099298.242   -27087626.55307 -20815559.22547        51.000
        40.000
  21016512.039    21016509.395   -19350759.86207 -14494096.95447        49.000
        39.000
  22502675.883    22502673.492   -13423660.94106 -10096782.88547        47.000
        33.000
  24538754.977    24538756.535    -3717624.32504  -2491792.01745        38.000
        19.000
  21560360.734    21560356.984   -17707259.85607 -12246220.64647        49.000
        36.000
  24554369.867    24554369.438    -1697517.99704   -628999.29045        39.000
        19.000
  22579900.750    22579900.266   -12311137.07806  -9342130.25047        45.000
        34.000
 14  9 29  0 24  5.0000000  0  8G07G26G05G15G24G28G10G30
  25166386.930    25166383.930     2116701.76904   1708088.22645        38.000
        18.000
  20098646.883    20098644.121   -27091064.88007 -20818238.43947        51.000
        40.000
  21018287.945    21018285.102   -19341427.86007 -14486825.27547        49.000
        39.000
  22500284.914    22500282.195   -13436226.25406 -10106574.02947        47.000
        32.000
  24535849.695    24535850.949    -3732893.59403  -2503690.12045        37.000
        20.000
  21560542.000    21560538.461   -17706307.33807 -12245478.42747        48.000
        36.000
  24557911.555    24557912.281    -1678902.95404   -614494.09845        39.000
        19.000
  22582561.172    22582560.020   -12297159.46006  -9331238.60647        45.000
        34.000
 14  9 29  0 24 10.0000000  0  8G07G26G05G15G24G28G10G30
  25169346.000    25169343.773     2132258.03204   1720210.00945        39.000
        19.000
  20097994.305    20097991.336   -27094493.49107 -20820910.08347        51.000
        40.000
  21020066.375    21020063.777   -19332082.16107 -14479542.91747        50.000
        39.000
  22497895.047    22497891.637   -13448788.04306 -10116362.44247        47.000
        33.000
  24532944.492    24532946.059    -3748158.58303  -2515584.90845        37.000
        19.000
  21560725.930    21560722.781   -17705339.56107 -12244724.30947        48.000
        36.000
  24561454.484    24561454.523    -1660286.35804   -599987.67245        39.000
        20.000
  22585221.352    22585220.848   -12283178.06706  -9320344.02047        47.000
        34.000
 14  9 29  0 24 15.0000000  0  8G07G26G05G15G24G28G10G30
  25172306.805    25172304.113     2147813.04904   1732330.77745        39.000
        18.000
  20097343.883    20097340.859   -27097912.64807 -20823574.36547        51.000
        40.000
  21021847.508    21021844.246   -19322723.03407 -14472250.09147        50.000
        39.000
  22495505.000    22495501.855   -13461346.56607 -10126148.30247        48.000
        34.000
  24530040.633    24530041.688    -3763419.63303  -2527476.58645        37.000
        20.000
  21560913.125    21560909.301   -17704356.79907 -12243958.52247        49.000
        36.000
  24564997.773    24564997.711    -1641668.47604   -585480.26345        38.000
        19.000
  22587882.875    22587881.949   -12269193.17706  -9309446.70947        46.000
        34.000
 14  9 29  0 24 20.0000000  0  8G07G26G05G15G24G28G10G30
  25175266.703    25175263.418     2163367.05404   1744450.82345        39.000
        18.000
  20096694.984    20096692.113   -27101322.08207 -20826231.06547        51.000
        40.000
  21023631.195    21023628.125   -19313350.21807 -14464946.60247        49.000
        39.000
  22493116.055    22493112.563   -13473901.61707 -10135931.45347        48.000
        33.000
  24527137.758    24527138.805    -3778676.57703  -2539365.08345        36.000
        20.000
  21561103.023    21561099.715   -17703358.81407 -12243180.86147        48.000
        36.000
  24568540.195    24568540.844    -1623049.07104   -570971.64645        39.000
        20.000
  22590544.430    22590544.035   -12255204.54806  -9298546.48647        47.000
        33.000
 14  9 29  0 24 25.0000000  0  8G07G26G05G15G24G28G10G30
  25178226.477    25178223.582     2178919.75504   1756569.78545        38.000
        19.000
  20096047.672    20096045.012   -27104722.07507 -20828880.40947        51.000
        40.000
  21025417.008    21025413.918   -19303964.04207 -14457632.70547        49.000
        39.000
  22490726.836    22490724.316   -13486453.41007 -10145712.07247        48.000
        33.000
  24524233.984    24524235.652    -3793929.69502  -2551250.60946        35.000
        21.000
  21561295.805    21561291.984   -17702345.90507 -12242391.58147        48.000
        36.000
  24572083.891    24572084.441    -1604428.44104   -556462.10645        39.000
        20.000
  22593206.953    22593206.879   -12241212.48706  -9287643.58147        45.000
        34.000
 14  9 29  0 24 30.0000000  0  8G07G26G05G15G24G28G10G30
  25181186.586    25181182.402     2194471.48104   1768688.05745        39.000
        19.000
  20095402.641    20095400.246   -27108112.26707 -20831522.11947        52.000
        40.000
  21027206.047    21027202.816   -19294564.14107 -14450308.10847        50.000
        39.000
  22488339.477    22488336.781   -13499001.59307 -10155489.87447        48.000
        33.000
  24521330.914    24521334.457    -3809178.58102  -2563132.80645        35.000
        20.000
  21561491.383    21561487.801   -17701317.71807 -12241590.39447        49.000
        35.000
  24575627.813    24575628.020    -1585806.21204   -541951.27445        38.000
        20.000
  22595870.727    22595869.898   -12227216.61706  -9276737.70947        46.000
        34.000
 14  9 29  0 24 35.0000000  0  8G07G26G05G15G24G28G10G30
  25184145.055    25184141.367     2210021.96504   1780805.27945        38.000
        18.000
  20094759.492    20094756.715   -27111492.99707 -20834156.45147        51.000
        40.000
  21028997.266    21028994.105   -19285150.84407 -14442973.06847        50.000
        39.000
  22485951.891    22485949.188   -13511546.49607 -10165265.12447        48.000
        33.000
  24518431.477    24518432.980    -3824423.48103  -2575011.94145        36.000
        19.000
  21561690.070    21561686.164   -17700274.56507 -12240777.54947        49.000
        36.000
  24579170.891    24579172.148    -1567182.72505   -527439.50145        40.000
        20.000
  22598534.578    22598534.152   -12213217.24006  -9265829.10947        46.000
        33.000
 14  9 29  0 24 40.0000000  0  8G07G26G05G15G24G28G10G30
  25187104.352    25187100.949     2225571.46004   1792921.79145        39.000
        19.000
  20094117.844    20094115.383   -27114863.90907 -20836783.13547        51.000
        40.000
  21030791.328    21030787.738   -19275723.96407 -14435627.44947        50.000
        39.000
  22483566.039    22483562.664   -13524087.82807 -10175037.58247        49.000
        33.000
  24515530.000    24515532.926    -3839664.19303  -2586887.74545        36.000
        19.000
  21561891.383    21561887.414   -17699216.16307 -12239952.81647        48.000
        36.000
  24582715.109    24582715.449    -1548557.69304   -512926.50545        39.000
        19.000
  22601199.266    22601199.172   -12199214.12906  -9254917.60147        46.000
        33.000
 14  9 29  0 24 45.0000000  0  8G07G26G05G15G24G28G10G30
  25190062.836    25190059.805     2241119.71804   1805037.32145        39.000
        19.000
  20093478.086    20093475.504   -27118225.25507 -20839402.36347        51.000
        40.000
  21032587.516    21032584.629   -19266283.58107 -14428271.31147        50.000
        39.000
  22481179.820    22481177.020   -13536625.79207 -10184807.42347        49.000
        33.000
  24512632.352    24512633.387    -3854900.78003  -2598760.39545        36.000
        19.000
  21562095.508    21562091.883   -17698142.71107 -12239116.35747        49.000
        35.000
  24586260.313    24586260.645    -1529931.33304   -498412.46645        39.000
        18.000
  22603864.781    22603864.117   -12185207.46906  -9244003.32447        47.000
        34.000
 14  9 29  0 24 50.0000000  0  8G07G26G05G15G24G28G10G30
  25193021.961    25193018.320     2256666.66605   1817151.80145        40.000
        19.000
  20092840.727    20092837.926   -27121577.13307 -20842014.21647        51.000
        40.000
  21034386.383    21034383.625   -19256829.80607 -14420904.73647        50.000
        39.000
  22478795.086    22478791.852   -13549160.49507 -10194574.72347        48.000
        33.000
  24509733.211    24509734.785    -3870133.44003  -2610630.00145        37.000
        19.000
  21562302.844    21562298.613   -17697054.27007 -12238268.22247        48.000
        35.000
  24589804.359    24589804.855    -1511303.75004   -483897.54345        39.000
        19.000
  22606530.641    22606530.379   -12171197.37906  -9233086.38147        46.000
        34.000
 14  9 29  0 24 55.0000000  0  8G07G26G05G15G24G28G10G30
  25195979.242    25195976.449     2272212.44704   1829265.40645        39.000
        19.000
  20092204.375    20092201.832   -27124919.39307 -20844618.57247        52.000
        40.000
  21036187.813    21036185.066   -19247362.53907 -14413527.64747        49.000
        39.000
  22476410.008    22476406.637   -13561691.76906 -10204339.34747        47.000
        33.000
  24506834.922    24506836.199    -3885362.07003  -2622496.41645        37.000
        20.000
  21562512.578    21562509.234   -17695950.66007 -12237408.26747        49.000
        35.000
  24593350.242    24593350.078    -1492674.84304   -469381.49945        39.000
        19.000
  22609197.219    22609196.824   -12157183.72906  -9222166.65647        46.000
        33.000
 14  9 29  0 25  0.0000000  0  8G07G26G05G15G24G28G10G30
  25198937.445    25198934.949     2287757.12604   1841378.15445        39.000
        19.000
  20091570.086    20091567.746   -27128251.94807 -20847215.36947        50.000
        40.000
  21037992.430    21037988.809   -19237881.68107 -14406139.96347        50.000
        39.000
  22474026.023    22474022.617   -13574219.53107 -10214101.24247        48.000
        33.000
  24503937.359    24503939.422    -3900586.55504  -2634359.63045        38.000
        20.000
  21562725.656    21562721.863   -17694831.86206 -12236536.47747        47.000
        35.000
  24596895.203    24596895.352    -1474044.54505   -454864.43045        40.000
        19.000
  22611864.961    22611864.387   -12143166.45706  -9211244.11147        47.000
        34.000
 14  9 29  0 25  5.0000000  0  8G07G26G05G15G24G28G10G30
  25201895.383    25201892.395     2303300.60604   1853489.95845        39.000
        19.000
  20090938.117    20090935.160   -27131574.94207 -20849804.71247        51.000
        40.000
  21039799.164    21039795.906   -19228387.31307 -14398741.75847        49.000
        39.000
  22471641.805    22471638.809   -13586743.89506 -10223860.48347        47.000
        33.000
  24501041.000    24501042.762    -3915806.98303  -2646219.69045        37.000
        20.000
  21562941.305    21562937.520   -17693698.05907 -12235652.99547        49.000
        35.000
  24600440.656    24600441.020    -1455412.93405   -440346.28945        40.000
        20.000
  22614533.359    22614532.129   -12129145.65306  -9200318.81047        47.000
        34.000
 14  9 29  0 25 10.0000000  0  8G07G26G05G15G24G28G10G30
  25204851.844    25204850.090     2318843.11804   1865601.00345        38.000
        19.000
  20090307.594    20090304.488   -27134888.07907 -20852386.37747        51.000
        40.000
  21041608.109    21041605.152   -19218879.27006 -14391332.89147        47.000
        39.000
  22469259.516    22469256.266   -13599264.65907 -10233616.91247        48.000
        33.000
  24498145.742    24498147.184    -3931023.12604  -2658076.35045        38.000
        20.000
  21563159.906    21563155.977   -17692548.98707 -12234757.61147        49.000
        35.000
  24603986.219    24603986.496    -1436779.84004   -425827.03546        39.000
        21.000
  22617201.422    22617200.844   -12115121.10106  -9189390.58847        44.000
        33.000
 14  9 29  0 25 15.0000000  0  8G07G26G05G15G24G28G10G30
  25207810.516    25207807.293     2334384.53804   1877711.20745        38.000
        17.000
  20089678.750    20089676.094   -27138191.49007 -20854960.46447        51.000
        40.000
  21043420.094    21043417.012   -19209357.64907 -14383913.45347        48.000
        39.000
  22466878.227    22466874.398   -13611781.85607 -10243370.57447        48.000
        33.000
  24495251.148    24495252.492    -3946235.14704  -2669929.89145        38.000
        20.000
  21563381.352    21563377.871   -17691384.74507 -12233850.40847        49.000
        35.000
  24607532.320    24607532.691    -1418145.36004   -411306.69146        38.000
        21.000
  22619871.531    22619870.418   -12101092.93206  -9178459.55147        46.000
        33.000
 14  9 29  0 25 20.0000000  0  8G07G26G05G15G24G28G10G30
  25210767.281    25210764.523     2349924.68604   1889820.38245        38.000
        18.000
  20089051.875    20089049.383   -27141485.37807 -20857527.13247        51.000
        41.000
  21045234.609    21045231.750   -19199822.61007 -14376483.55247        49.000
        39.000
  22464496.648    22464493.500   -13624295.65307 -10253121.58147        48.000
        34.000
  24492358.523    24492358.336    -3961443.07004  -2681780.15645        38.000
        20.000
  21563606.109    21563602.469   -17690205.49807 -12232931.51447        49.000
        35.000
  24611078.406    24611079.402    -1399509.66104   -396785.41345        38.000
        20.000
  22622541.734    22622540.832   -12087061.30606  -9167525.82047        46.000
        33.000
 14  9 29  0 25 25.0000000  0  8G07G26G05G15G24G28G10G30
  25213723.766    25213720.699     2365463.37903   1901928.51645        37.000
        18.000
  20088427.211    20088423.828   -27144769.88207 -20860086.48947        51.000
        40.000
  21047051.664    21047048.809   -19190274.39807 -14369043.38947        49.000
        39.000
  22462116.125    22462112.715   -13636806.28807 -10262870.12247        48.000
        33.000
  24489464.625    24489464.961    -3976647.13004  -2693627.46846        39.000
        21.000
  21563833.070    21563829.266   -17689011.47507 -12232001.10747        49.000
        35.000
  24614624.922    24614625.680    -1380872.97004   -382263.31345        39.000
        20.000
  22625212.328    22625211.445   -12073026.45906  -9156589.58147        46.000
        33.000
 14  9 29  0 25 30.0000000  0  8G07G26G05G15G24G28G10G30
  25216680.414    25216677.945     2381000.88703   1914035.65345        37.000
        18.000
  20087803.734    20087800.797   -27148044.72007 -20862638.30847        52.000
        40.000
  21048870.984    21048868.203   -19180712.71807 -14361592.72947        49.000
        39.000
  22459735.867    22459732.922   -13649313.44107 -10272615.94747        48.000
        32.000
  24486571.508    24486572.555    -3991847.14804  -2705471.62345        39.000
        20.000
  21564063.406    21564059.566   -17687802.35007 -12231058.93447        49.000
        34.000
  24618171.656    24618172.699    -1362234.99305   -367740.27846        40.000
        21.000
  22627883.742    22627882.996   -12058988.09406  -9145650.60347        47.000
        33.000
 14  9 29  0 25 35.0000000  0  8G07G26G05G15G24G28G10G30
  25219637.281    25219634.754     2396537.56904   1926142.11045        38.000
        18.000
  20087182.492    20087180.133   -27151309.54007 -20865182.32347        52.000
        40.000
  21050693.180    21050690.445   -19171137.19007 -14354131.28247        49.000
        39.000
  22457356.242    22457353.352   -13661816.75406 -10282358.79747        47.000
        33.000
  24483679.648    24483680.566    -4007042.74903  -2717312.32845        37.000
        20.000
  21564296.070    21564292.703   -17686577.78707 -12230104.72847        49.000
        35.000
  24621719.070    24621719.945    -1343595.37804   -353215.91245        38.000
        20.000
  22630556.039    22630555.094   -12044945.85406  -9134708.59247        46.000
        33.000
 14  9 29  0 25 40.0000000  0  8G07G26G05G15G24G28G10G30
  25222593.406    25222591.156     2412072.97603   1938247.61245        37.000
        17.000
  20086563.055    20086560.492   -27154564.78907 -20867718.88547        51.000
        40.000
  21052517.758    21052515.254   -19161548.33607 -14346659.45747        49.000
        39.000
  22454977.711    22454974.895   -13674316.68206 -10292098.98947        47.000
        33.000
  24480788.633    24480789.039    -4022234.22104  -2729149.81145        38.000
        19.000
  21564531.922    21564528.230   -17685338.21407 -12229138.82547        48.000
        35.000
  24625265.625    24625266.809    -1324954.61204   -338690.68445        39.000
        20.000
  22633228.641    22633227.660   -12030900.20006  -9123763.93547        47.000
        33.000
 14  9 29  0 25 45.0000000  0  8G07G26G05G15G24G28G10G30
  25225549.211    25225547.289     2427607.13303   1950352.18645        37.000
        16.000
  20085945.672    20085942.820   -27157810.43107 -20870247.95447        51.000
        40.000
  21054345.133    21054342.344   -19151946.09907 -14339177.18947        49.000
        39.000
  22452599.859    22452596.660   -13686813.20007 -10301836.52847        49.000
        32.000
  24477899.313    24477899.203    -4037421.60704  -2740984.11645        38.000
        19.000
  21564770.586    21564766.957   -17684083.62307 -12228161.21847        48.000
        35.000
  24628814.234    24628814.195    -1306312.66605   -324164.50046        41.000
        21.000
  22635902.234    22635900.953   -12016851.10706  -9112816.58947        47.000
        34.000
 14  9 29  0 25 50.0000000  0  8G07G26G05G15G24G28G10G30
  25228505.203    25228503.012     2443140.08503   1962455.76145        36.000
        15.000
  20085329.664    20085326.902   -27161046.37907 -20872769.46947        51.000
        40.000
  21056175.086    21056172.105   -19142330.39907 -14331684.43647        50.000
        39.000
  22450222.289    22450219.117   -13699306.24106 -10311571.36347        47.000
        32.000
  24475009.625    24475009.977    -4052604.92904  -2752815.27345        38.000
        17.000
  21565012.422    21565008.664   -17682813.93107 -12227171.84747        49.000
        35.000
  24632361.023    24632362.066    -1287669.45205   -309637.36045        41.000
        20.000
  22638575.953    22638575.641   -12002798.50006  -9101866.51547        47.000
        33.000
 14  9 29  0 25 55.0000000  0  8G07G26G05G15G24G28G10G30
  25231460.172    25231458.832     2458671.59903   1974558.20145        37.000
        16.000
  20084715.594    20084713.082   -27164272.91207 -20875283.64847        49.000
        40.000
  21058007.375    21058004.254   -19132701.54207 -14324181.44047        48.000
        40.000
  22447846.078    22447842.207   -13711796.05507 -10321303.67647        48.000
        33.000
  24472121.086    24472121.109    -4067784.26103  -2764643.27945        36.000
        19.000
  21565256.875    21565253.184   -17681529.43706 -12226170.93847        46.000
        35.000
  24635909.859    24635910.027    -1269025.29705   -295109.46445        41.000
        20.000
  22641251.023    22641249.816   -11988742.69206  -9090913.93547        46.000
        33.000
 14  9 29  0 26  0.0000000  0  8G07G26G05G15G24G28G10G30
  25234415.273    25234414.000     2474202.21303   1986660.02845        36.000
        18.000
  20084103.547    20084100.652   -27167489.44007 -20877790.03647        50.000
        40.000
  21059842.305    21059839.719   -19123058.91807 -14316667.71047        49.000
        39.000
  22445469.625    22445466.254   -13724281.99207 -10331032.97547        48.000
        33.000
  24469233.844    24469233.906    -4082959.19803  -2776467.90345        37.000
        18.000
  21565504.180    21565500.738   -17680229.50307 -12225158.00647        48.000
        35.000
  24639457.172    24639457.805    -1250379.54105   -280580.33345        40.000
        20.000
  22643926.734    22643925.508   -11974683.03206  -9079958.36347        47.000
        33.000
 14  9 29  0 26  5.0000000  0  8G07G26G05G15G24G28G10G30
  25237370.594    25237369.066     2489731.60303   1998760.82445        37.000
        17.000
  20083493.070    20083490.887   -27170696.24707 -20880288.85247        50.000
        40.000
  21061679.656    21061677.020   -19113402.88407 -14309143.53147        49.000
        40.000
  22443094.523    22443090.473   -13736764.43007 -10340759.54647        48.000
        33.000
  24466346.266    24466346.418    -4098130.00403  -2788289.29245        36.000
        18.000
  21565754.500    21565750.586   -17678914.50807 -12224133.32647        49.000
        35.000
  24643005.164    24643005.781    -1231732.58305   -266050.25745        40.000
        19.000
  22646602.500    22646601.531   -11960619.91606  -9069000.09047        46.000
        34.000
 14  9 29  0 26 10.0000000  0  8G07G26G05G15G24G28G10G30
  25240326.109    25240324.309     2505259.84803   2010860.78045        37.000
        15.000
  20082885.016    20082882.254   -27173893.33707 -20882780.08447        50.000
        40.000
  21063519.672    21063516.922   -19103733.41807 -14301608.88447        50.000
        40.000
  22440719.742    22440716.027   -13749243.30107 -10350483.34047        48.000
        33.000
  24463459.516    24463460.879    -4113296.71602  -2800107.47045        35.000
        17.000
  21566007.352    21566003.887   -17677584.40207 -12223096.87747        49.000
        34.000
  24646554.492    24646554.684    -1213084.35305   -251519.20145        41.000
        19.000
  22649279.148    22649278.477   -11946553.31506  -9058039.10447        47.000
        33.000
 14  9 29  0 26 15.0000000  0  8G07G26G05G15G24G28G10G30
  25243281.695    25243279.250     2520786.81603   2022959.72245        37.000
        17.000
  20082278.469    20082275.895   -27177080.79907 -20885263.82247        51.000
        40.000
  21065362.555    21065359.422   -19094050.60807 -14294063.84147        50.000
        39.000
  22438346.078    22438342.078   -13761718.69806 -10360204.42647        47.000
        33.000
  24460573.828    24460575.469    -4128459.29802  -2811922.43245        35.000
        19.000
  21566263.688    21566259.949   -17676239.27007 -12222048.72047        48.000
        35.000
  24650102.813    24650103.313    -1194434.99405   -236987.24945        41.000
        20.000
  22651956.523    22651956.027   -11932483.30307  -9047075.46247        48.000
        33.000
 14  9 29  0 26 20.0000000  0  8G07G26G05G15G24G28G10G30
  25246235.156    25246233.906     2536312.55003   2035057.68445        36.000
        17.000
  20081673.883    20081670.934   -27180258.53507 -20887739.97947        51.000
        40.000
  21067207.320    21067204.625   -19084354.38907 -14286508.34847        49.000
        39.000
  22435972.406    22435968.516   -13774190.56606 -10369922.76647        47.000
        33.000
  24457690.031    24457690.906    -4143617.74103  -2823734.17745        36.000
        19.000
  21566522.672    21566518.676   -17674879.05207 -12220988.80747        49.000
        35.000
  24653653.086    24653652.793    -1175784.43204   -222454.36845        39.000
        20.000
  22654635.094    22654633.941   -11918409.82506  -9036109.11647        47.000
        33.000
 14  9 29  0 26 25.0000000  0  8G07G26G05G15G24G28G10G30
  25249189.070    25249188.242     2551837.05803   2047154.64345        37.000
        17.000
  20081070.977    20081067.949   -27183426.60807 -20890208.60947        51.000
        40.000
  21069055.406    21069052.691   -19074644.83807 -14278942.46447        50.000
        39.000
  22433599.805    22433596.395   -13786658.95506 -10379638.39447        47.000
        34.000
  24454806.211    24454807.336    -4158772.06403  -2835542.68245        37.000
        19.000
  21566784.297    21566780.391   -17673503.80907 -12219917.19147        49.000
        36.000
  24657201.617    24657202.348    -1157132.73605   -207920.61245        40.000
        20.000
  22657313.961    22657312.758   -11904332.96406  -9025140.13847        47.000
        33.000
 14  9 29  0 26 30.0000000  0  8G07G26G05G15G24G28G10G30
  25252143.695    25252141.957     2567360.11303   2059250.54545        37.000
        19.000
  20080470.063    20080466.844   -27186585.16707 -20892669.82347        51.000
        40.000
  21070905.180    21070902.996   -19064922.06107 -14271366.27947        48.000
        39.000
  22431228.398    22431224.414   -13799123.98307 -10389351.39647        48.000
        33.000
  24451923.234    24451924.324    -4173922.39703  -2847348.14545        37.000
        18.000
  21567048.883    21567044.816   -17672113.63407 -12218833.93547        50.000
        35.000
  24660751.438    24660751.652    -1138480.03705   -193386.07945        41.000
        19.000
  22659992.859    22659991.930   -11890252.83206  -9014168.61247        47.000
        32.000
 14  9 29  0 26 35.0000000  0  8G07G26G05G15G24G28G10G30
  25255097.359    25255095.918     2582882.14803   2071345.63345        36.000
        18.000
  20079870.922    20079867.684   -27189733.81207 -20895123.31147        51.000
        40.000
  21072758.086    21072755.246   -19055185.69607 -14263779.50647        48.000
        39.000
  22428857.141    22428853.184   -13811585.26606 -10399061.47347        47.000
        33.000
  24449041.711    24449041.906    -4189068.39004  -2859150.20045        39.000
        20.000
  21567316.203    21567312.414   -17670708.19207 -12217738.78347        50.000
        36.000
  24664301.609    24664301.234    -1119825.94005   -178850.45845        40.000
        20.000
  22662673.086    22662671.977   -11876169.08006  -9003194.26147        47.000
        32.000
 14  9 29  0 26 40.0000000  0  8G07G26G05G15G24G28G10G30
  25258050.695    25258049.012     2598402.76703   2083439.66845        37.000
        16.000
  20079273.359    20079270.336   -27192872.93607 -20897569.37847        50.000
        40.000
  21074613.000    21074610.430   -19045436.24507 -14256182.53247        49.000
        38.000
  22426486.102    22426482.289   -13824043.20406 -10408768.95047        47.000
        33.000
  24446160.258    24446160.285    -4204210.42304  -2870949.16645        38.000
        20.000
  21567586.648    21567582.895   -17669287.89906 -12216632.06247        47.000
        35.000
  24667851.688    24667851.613    -1101170.89404   -164314.07245        39.000
        20.000
  22665353.453    22665352.723   -11862082.11906  -8992217.41047        47.000
        33.000
 14  9 29  0 26 45.0000000  0  8G07G26G05G15G24G28G10G30
  25261003.320    25261002.934     2613922.25003   2095532.75745        36.000
        17.000
  20078678.039    20078674.863   -27196002.22507 -20900007.78447        51.000
        40.000
  21076471.313    21076468.523   -19035673.31107 -14248575.06647        49.000
        38.000
  22424115.656    22424112.102   -13836497.47306 -10418473.57847        47.000
        33.000
  24443279.383    24443279.582    -4219348.15404  -2882744.79445        39.000
        20.000
  21567859.648    21567856.281   -17667852.39507 -12215513.48647        48.000
        35.000
  24671401.445    24671401.625    -1082514.62005   -149776.74345        41.000
        20.000
  22668034.547    22668034.348   -11847991.63907  -8981237.81647        48.000
        33.000
 14  9 29  0 26 50.0000000  0  8G07G26G05G15G24G28G10G30
  25263957.469    25263955.754     2629440.22602   2107624.63745        35.000
        16.000
  20078083.992    20078081.281   -27199122.07507 -20902438.83347        51.000
        40.000
  21078331.086    21078328.574   -19025897.25907 -14240957.36447        50.000
        39.000
  22421746.297    22421742.633   -13848948.42706 -10428175.61547        47.000
        32.000
  24440399.406    24440399.793    -4234482.00804  -2894537.35245        39.000
        20.000
  21568135.836    21568131.945   -17666402.09307 -12214383.37847        49.000
        35.000
  24674951.820    24674952.043    -1063857.48705   -135238.74845        40.000
        20.000
  22670716.727    22670716.160   -11833897.99907  -8970255.76247        48.000
        33.000
 14  9 29  0 26 55.0000000  0  8G07G26G05G15G24G28G10G30
  25266909.727    25266909.371     2644957.33501   2119715.90945        33.000
        16.000
  20077492.508    20077489.492   -27202231.80607 -20904861.99947        51.000
        40.000
  21080194.250    21080191.551   -19016107.47307 -14233328.96247        49.000
        39.000
  22419377.961    22419374.238   -13861395.43706 -10437874.57747        47.000
        33.000
  24437520.164    24437520.703    -4249611.27004  -2906326.37445        38.000
        20.000
  21568414.484    21568410.773   -17664936.34307 -12213241.23247        49.000
        35.000
  24678501.867    24678502.848    -1045198.83705   -120699.58045        41.000
        20.000
  22673399.352    22673398.934   -11819800.59107  -8959270.77547        48.000
        33.000
 14  9 29  0 27  0.0000000  0  8G07G26G05G15G24G28G10G30
  25269861.242    25269862.262     2660473.02302   2131806.09145        34.000
        16.000
  20076902.305    20076899.363   -27205331.98107 -20907277.71847        51.000
        40.000
  21082059.961    21082057.500   -19006304.53807 -14225690.31547        50.000
        39.000
  22417009.813    22417006.469   -13873839.04606 -10447570.90447        47.000
        33.000
  24434642.586    24434641.938    -4264736.50004  -2918112.26545        39.000
        19.000
  21568696.305    21568692.633   -17663455.70107 -12212087.48647        49.000
        35.000
  24682053.547    24682053.309    -1026539.26205   -106159.68245        40.000
        19.000
  22676082.836    22676081.957   -11805699.97207  -8948283.29047        48.000
        33.000
 14  9 29  0 27  5.0000000  0  8G07G26G05G15G24G28G10G30
  25272814.414    25272814.398     2675987.32202   2143895.12845        35.000
        15.000
  20076314.195    20076311.559   -27208422.54107 -20909685.94147        51.000
        40.000
  21083927.930    21083924.977   -18996488.40507 -14218041.38347        50.000
        39.000
  22414642.773    22414638.879   -13886279.18807 -10457264.51447        48.000
        33.000
  24431764.492    24431764.250    -4279857.74103  -2929895.03645        37.000
        19.000
  21568980.922    21568977.223   -17661960.10907 -12210922.08647        48.000
        35.000
  24685604.188    24685604.355    -1007878.70805    -91619.01145        41.000
        20.000
  22678766.602    22678766.434   -11791596.11107  -8937293.26647        48.000
        33.000
 14  9 29  0 27 10.0000000  0  8G07G26G05G15G24G28G10G30
  25275766.844    25275766.895     2691502.45504   2155984.80345        38.000
        16.000
  20075728.563    20075725.461   -27211501.26907 -20912084.94847        51.000
        39.000
  21085798.680    21085795.945   -18986656.85307 -14210380.43747        50.000
        39.000
  22412275.914    22412272.691   -13898713.66106 -10466953.71047        47.000
        33.000
  24428887.742    24428888.070    -4294972.58604  -2941672.83145        39.000
        19.000
  21569268.797    21569264.707   -17660447.34907 -12209743.30947        49.000
        35.000
  24689156.000    24689155.824     -989214.95805    -77075.85545        41.000
        19.000
  22681451.703    22681451.156   -11777486.77007  -8926298.97647        48.000
        33.000
 14  9 29  0 27 15.0000000  0  8G07G26G05G15G24G28G10G30
  25278718.445    25278718.285     2707014.38804   2168072.02645        38.000
        17.000
  20075144.023    20075140.719   -27214572.23507 -20914477.90847        50.000
        40.000
  21087671.781    21087668.844   -18976813.94107 -14202710.64147        49.000
        39.000
  22409910.945    22409907.070   -13911146.48306 -10476641.61647        47.000
        33.000
  24426011.828    24426012.355    -4310085.26803  -2953448.91045        37.000
        19.000
  21569559.164    21569555.336   -17658921.47407 -12208554.31547        48.000
        35.000
  24692707.531    24692706.980     -970552.10405    -62533.42945        40.000
        20.000
  22684137.000    22684136.145   -11763376.02707  -8915303.59647        48.000
        33.000
 14  9 29  0 27 20.0000000  0  8G07G26G05G15G24G28G10G30
  25281670.609    25281669.500     2722524.94103   2180158.16845        36.000
        17.000
  20074561.602    20074558.238   -27217633.53507 -20916863.33147        50.000
        39.000
  21089547.492    21089544.852   -18966957.80607 -14195030.53947        49.000
        39.000
  22407545.641    22407542.109   -13923575.79106 -10486326.78647        47.000
        34.000
  24423136.508    24423137.500    -4325193.84103  -2965221.79845        37.000
        19.000
  21569852.586    21569848.949   -17657380.61706 -12207353.64547        47.000
        35.000
  24696258.734    24696258.426     -951888.25705    -47990.17645        41.000
        20.000
  22686822.820    22686821.863   -11749262.02307  -8904305.67147        48.000
        34.000
 14  9 29  0 27 25.0000000  0  8G07G26G05G15G24G28G10G30
  25284620.945    25284620.320     2738035.21302   2192244.10045        35.000
        16.000
  20073981.016    20073977.953   -27220684.09907 -20919240.39547        51.000
        40.000
  21091425.656    21091422.781   -18957087.38307 -14187339.29747        50.000
        39.000
  22405181.164    22405178.074   -13936000.51107 -10496008.37847        48.000
        34.000
  24420261.922    24420263.578            .00013          .00055

  21570148.453    21570145.211   -17655823.73007 -12206140.48647        49.000
        35.000
  24699811.063    24699810.633     -933222.35705    -33445.35445        40.000
        20.000
  22689509.156    22689508.566   -11735143.68707  -8893304.37047        48.000
        34.000
 14  9 29  0 27 30.0000000  0  8G07G26G05G15G24G28G10G30
  25287571.930    25287572.039     2753542.09002   2204327.40045        34.000
        15.000
  20073401.813    20073398.961   -27223727.00307 -20921611.49147        51.000
        40.000
  21093306.117    21093303.070   -18947205.72307 -14179639.30847        50.000
        39.000
  22402816.445    22402814.223   -13948423.70406 -10505688.79247        47.000
        33.000
  24417387.930    24417389.398   -12232498.38603  -9126757.69745        37.000
        18.000
  21570447.234    21570443.320   -17654253.85207 -12204917.20547        49.000
        35.000
  24703363.172    24703362.457     -914557.48705    -18901.32445        40.000
        20.000
  22692196.453    22692195.602   -11721024.08006  -8882302.08947        47.000
        34.000
 14  9 29  0 27 35.0000000  0  8G07G26G05G15G24G28G10G30
  25290523.688                     2769048.70302          .00051        34.000

  20072824.813    20072821.727   -27226759.15907 -20923974.21147        49.000
        40.000
  21095189.188    21095186.008   -18937309.81507 -14171928.21147        50.000
        39.000
  22400453.086    22400450.742   -13960842.34206 -10515365.65047        47.000
        34.000
  24414516.789    24414516.945   -12247594.36504  -9138520.82445        38.000
        18.000
  21570749.117    21570745.430   -17652667.95306 -12203681.43847        46.000
        35.000
  24706914.453    24706914.656     -895890.60505     -4355.73845        40.000
        19.000
  22694883.820    22694883.129   -11706900.18106  -8871296.46147        47.000
        33.000
 14  9 29  0 27 40.0000000  0  8G07G26G05G15G24G28G10G30
  25293474.563                     2784554.29601          .00051        33.000

  20072249.781    20072246.832   -27229781.34407 -20926329.16047        50.000
        40.000
  21097075.109    21097071.523   -18927400.43807 -14164206.62147        51.000
        39.000
  22398091.242    22398088.523   -13973257.18906 -10525039.55147        46.000
        33.000
  24411644.477    24411644.633   -12262686.04003  -9150280.55545        37.000
        19.000
  21571053.898    21571050.188   -17651066.77606 -12202433.76947        47.000
        36.000
  24710467.250    24710467.293     -877222.45205     10190.85145        41.000
        19.000
  22697572.602    22697571.695   -11692772.73807  -8860288.06547        48.000
        34.000
 14  9 29  0 27 45.0000000  0  8G07G26G05G15G24G28G10G30
  25296425.484                     2800058.10502          .00051        34.000

  20071676.922    20071673.496   -27232794.29507 -20928676.91247        51.000
        40.000
  21098962.547    21098959.758   -18917478.35007 -14156475.12547        50.000
        38.000
  22395729.539    22395726.715   -13985668.94907 -10534711.04147        48.000
        33.000
  24408774.008    24408773.949   -12277774.02003  -9162037.39545        37.000
        19.000
  21571361.469    21571357.625   -17649451.09407 -12201174.79447        48.000
        36.000
  24714019.750    24714020.016     -858553.85205     24737.75445        41.000
        20.000
  22700260.875    22700260.543   -11678642.51407  -8849277.50347        48.000
        33.000
 14  9 29  0 27 50.0000000  0  8G07G26G05G15G24G28G10G30
  25299374.961                     2815561.25501          .00051        33.000

  20071105.234    20071101.898   -27235796.81307 -20931016.53747        50.000
        40.000
  21100853.422    21100850.570   -18907542.28307 -14148732.73747        50.000
        38.000
  22393368.641    22393365.914   -13998076.36306 -10544379.14347        47.000
        34.000
  24405903.094    24405903.941   -12292857.15504  -9173790.45445        38.000
        19.000
  21571671.461    21571668.352   -17647819.70306 -12199903.57647        47.000
        35.000
  24717572.617    24717572.516     -839883.54205     39286.06945        40.000
        19.000
  22702950.523    22702949.855   -11664508.29106  -8838263.82347        47.000
        34.000
 14  9 29  0 27 55.0000000  0  8G07G26G05G15G24G28G10G30
  25302324.695                     2831062.73602          .00051        34.000

  20070535.602    20070532.613   -27238789.95707 -20933348.85547        51.000
        40.000
  21102747.156    21102744.203   -18897593.38507 -14140980.35647        50.000
        39.000
  22391008.102    22391005.023   -14010480.58606 -10554044.76847        47.000
        33.000
  24403033.367    24403034.672   -12307936.53004  -9185540.60545        38.000
        19.000
  21571984.781    21571981.336   -17646173.65807 -12198620.94947        48.000
        35.000
  24721125.281    24721125.746     -821212.63705     53834.77045        41.000
        19.000
  22705640.656    22705640.523   -11650371.19007  -8827247.90147        48.000
        33.000
 14  9 29  0 28  0.0000000  0  8G07G26G05G15G24G28G10G30
  25305274.602                     2846563.04802          .00051        35.000

  20069967.805    20069964.797   -27241773.24607 -20935673.49847        51.000
        40.000
  21104642.555    21104639.910   -18887631.15607 -14133217.57847        50.000
        39.000
  22388648.070    22388645.410   -14022881.06506 -10563707.47347        47.000
        33.000
  24400164.797    24400165.914   -12323011.51604  -9197287.31745        38.000
        19.000
  21572300.953    21572297.441   -17644512.44607 -12197326.49547        49.000
        35.000
  24724678.883    24724678.832     -802540.59905     68384.37445        40.000
        19.000
  22708331.680    22708331.250   -11636230.66607  -8816229.32347        48.000
        33.000
 14  9 29  0 28  5.0000000  0  8G07G26G05G15G24G28G10G30
  25308223.977                     2862062.04303          .00051        37.000

  20069401.750    20069399.340   -27244746.67707 -20937990.45547        50.000
        40.000
  21106541.305    21106537.973   -18877655.65807 -14125444.46847        50.000
        39.000
  22386289.195    22386286.207   -14035277.85206 -10573367.30547        47.000
        34.000
  24397298.344    24397298.512   -12338082.29205  -9209030.76245        40.000
        20.000
  21572620.203    21572616.152   -17642836.14807 -12196020.29347        48.000
        35.000
  24728232.461    24728232.090     -783867.52705     82934.80645        40.000
        19.000
  22711022.977    22711022.570   -11622086.83407  -8805208.15747        48.000
        33.000
 14  9 29  0 28 10.0000000  0  8G07G26G05G15G24G28G10G30
  25311173.836                     2877559.44704          .00051        38.000

  20068837.859    20068834.977   -27247710.60407 -20940300.01047        49.000
        40.000
  21108441.766    21108438.781   -18867667.18507 -14117661.24547        50.000
        39.000
  22383930.641    22383927.762   -14047671.27006 -10583024.51747        46.000
        34.000
  24394430.672    24394431.156   -12353149.10405  -9220771.12046        40.000
        21.000
  21572942.078    21572938.461   -17641145.10906 -12194702.58947        47.000
        35.000
  24731785.336    24731784.852     -765193.73305     97485.74645        40.000
        19.000
  22713715.680    22713714.648   -11607939.98207  -8794184.64347        48.000
        32.000
 14  9 29  0 28 15.0000000  0  8G07G26G05G15G24G28G10G30
  25314121.961                     2893055.64404          .00051        39.000

  20068275.938    20068273.070   -27250664.66907 -20942601.87647        51.000
        40.000
  21110344.742    21110342.000   -18857665.38107 -14109867.63547        50.000
        39.000
  22381573.055    22381570.000   -14060060.92706 -10592678.78647        47.000
        34.000
  24391564.602    24391565.605   -12368211.60604  -9232508.13246        39.000
        22.000
  21573266.328    21573263.109   -17639438.92507 -12193373.10347        48.000
        35.000
  24735340.023    24735338.844     -746518.88005    112037.57245        41.000
        19.000
  22716408.039    22716407.625   -11593789.76907  -8783158.50147        48.000
        33.000
 14  9 29  0 28 20.0000000  0  8G07G26G05G15G24G28G10G30
  25317071.500    25317067.578     2908550.51704   2426486.02545        38.000
        19.000
  20067715.414    20067712.828   -27253608.89607 -20944896.08047        50.000
        40.000
  21112250.836    21112247.762   -18847650.36707 -14102063.73447        50.000
        39.000
  22379216.008    22379213.219   -14072446.94006 -10602330.22447        46.000
        34.000
  24388698.797    24388700.105   -12383269.78604  -9244241.74746        38.000
        23.000
  21573594.344    21573590.613   -17637717.64907 -12192031.84047        49.000
        35.000
  24738893.117    24738892.699     -727843.03504    126590.13845        39.000
        20.000
  22719101.516    22719100.609   -11579636.25206  -8772129.79647        47.000
        33.000
 14  9 29  0 28 25.0000000  0  8G07G26G05G15G24G28G10G30
  25320019.422    25320016.621     2924044.00004   2438558.90845        38.000
        19.000
  20067157.039    20067154.684   -27256543.37607 -20947182.68447        49.000
        40.000
  21114159.070    21114156.012   -18837622.28307 -14094249.64747        50.000
        39.000
  22376859.477    22376856.871   -14084829.34106 -10611978.84347        46.000
        34.000
  24385833.570    24385835.848   -12398323.71804  -9255972.04946        39.000
        22.000
  21573924.906    21573920.906   -17635981.37307 -12190678.90547        48.000
        35.000
  24742447.188    24742447.094     -709166.25804    141143.44745        39.000
        20.000
  22721795.297    22721794.441   -11565479.52107  -8761098.57847        48.000
        33.000
 14  9 29  0 28 30.0000000  0  8G07G26G05G15G24G28G10G30
  25322966.711    25322964.398     2939536.03603   2450630.63445        36.000
        17.000
  20066600.805    20066598.082   -27259468.16207 -20949461.73647        49.000
        40.000
  21116070.156    21116067.293   -18827581.05707 -14086425.31147        50.000
        40.000
  22374504.414    22374501.520   -14097208.20106 -10621624.70847        46.000
        33.000
  24382970.125    24382971.996   -12413373.58404  -9267699.18546        39.000
        22.000
  21574257.516    21574253.977   -17634230.17706 -12189314.32947        47.000
        35.000
  24746001.781    24746001.672     -690488.68705    155697.35545        41.000
        20.000
  22724489.703    22724489.461   -11551319.66306  -8750064.93247        47.000
        32.000
 14  9 29  0 28 35.0000000  0  8G07G26G05G15G24G28G10G30
  25325915.977    25325912.996     2955027.06703   2462701.57845        36.000
        16.000
  20066045.859    20066043.359   -27262382.85507 -20951732.93147        50.000
        40.000
  21117983.469    21117980.707   -18817526.32107 -14078590.45947        50.000
        40.000
  22372149.289    22372146.328   -14109583.06606 -10631267.45247        45.000
        33.000
  24380106.742    24380109.035   -12428418.93404  -9279422.79246        38.000
        22.000
  21574594.063    21574589.922   -17632463.65207 -12187937.81847        48.000
        35.000
  24749556.945    24749556.164     -671809.88205    170252.24645        41.000
        20.000
  22727184.797    22727184.074   -11537156.28107  -8739028.53947        48.000
        32.000
 14  9 29  0 28 40.0000000  0  8G07G26G05G15G24G28G10G30
  25328863.297    25328860.953     2970516.61403   2474771.38045        36.000
        16.000
  20065493.203    20065490.445   -27265287.91607 -20953996.61247        50.000
        40.000
  21119899.141    21119896.148   -18807458.53907 -14070745.43347        50.000
        39.000
  22369794.609    22369792.430   -14121954.40406 -10640907.45247        47.000
        33.000
  24377244.641    24377246.723   -12443460.11804  -9291143.15446        38.000
        22.000
  21574933.242    21574928.980   -17630682.21507 -12186549.69047        48.000
        35.000
  24753110.844    24753110.359     -653130.32605    184807.71345        41.000
        20.000
  22729880.344    22729879.852   -11522989.80806  -8727989.72447        47.000
        33.000
 14  9 29  0 28 45.0000000  0  8G07G26G05G15G24G28G10G30
  25331810.414    25331808.094     2986004.89003   2486840.13345        37.000
        16.000
  20064941.797    20064939.406   -27268183.17107 -20956252.65447        50.000
        40.000
  21121817.633    21121814.406   -18797377.57507 -14062890.13647        51.000
        39.000
  22367441.547    22367438.199   -14134322.04706 -10650544.57347        47.000
        33.000
  24374383.063    24374385.137   -12458497.04603  -9302860.23746        37.000
        21.000
  21575274.844    21575270.652   -17628885.77907 -12185149.86347        49.000
        36.000
  24756665.625    24756665.555     -634449.86604    199363.85745        39.000
        19.000
  22732577.266    22732576.496   -11508820.11406  -8716948.40847        47.000
        33.000
 14  9 29  0 28 50.0000000  0  8G07G26G05G15G24G28G10G30
  25334756.672    25334755.180     3001491.86703   2498907.85245        37.000
        15.000
  20064393.086    20064390.492   -27271068.63207 -20958501.06147        50.000
        41.000
  21123738.008    21123735.328   -18787283.43107 -14055024.57447        50.000
        39.000
  22365088.375    22365085.402   -14146686.02906 -10660178.84647        47.000
        33.000
  24371521.742    24371524.309   -12473529.86104  -9314574.09645        38.000
        20.000
  21575619.281    21575615.473   -17627074.32906 -12183738.34447        47.000
        35.000
  24760220.758    24760220.703     -615768.52405    213920.72845        40.000
        19.000
  22735274.352    22735273.383   -11494647.22306  -8705904.60447        47.000
        33.000
 14  9 29  0 28 55.0000000  0  8G07G26G05G15G24G28G10G30
  25337703.398    25337701.816     3016977.47103   2510974.62145        37.000
        15.000
  20063845.859    20063843.523   -27273944.27707 -20960741.82747        50.000
        40.000
  21125661.703    21125658.824   -18777176.14907 -14047148.76647        50.000
        39.000
  22362736.539    22362733.699   -14159046.31206 -10669810.24047        45.000
        33.000
  24368662.414    24368664.797   -12488558.39803  -9326284.62845        37.000
        20.000
  21575967.289    21575963.027   -17625247.89307 -12182315.14447        48.000
        35.000
  24763776.430    24763775.871     -597086.31705    228478.28545        41.000
        19.000
  22737971.594    22737971.492   -11480471.12807  -8694858.29147        48.000
        33.000
 14  9 29  0 29  0.0000000  0  8G07G26G05G15G24G28G10G30
  25340650.156    25340648.219     3032461.67802   2523040.20242        35.000
        14.000
  20063300.336    20063297.902   -27276810.15507 -20962974.97647        50.000
        40.000
  21127587.375    21127584.508   -18767055.73807 -14039262.73647        49.000
        39.000
  22360384.672    22360382.004   -14171402.95506 -10679438.79347        45.000
        33.000
  24365803.094    24365805.141   -12503582.64303  -9337991.80145        37.000
        20.000
  21576317.461    21576313.508   -17623406.43807 -12180880.24747        48.000
        36.000
  24767330.766    24767331.098     -578403.25605    243036.48545        40.000
        19.000
  22740670.234    22740669.738   -11466291.84406  -8683809.50547        47.000
        33.000
 14  9 29  0 29  5.0000000  0  8G07G26G05G15G24G28G10G30
  25343597.617    25343594.906     3047944.47303   2535104.65842        37.000
        13.000
  20062756.688    20062754.199   -27279666.18207 -20965200.44947        51.000
        40.000
  21129515.836    21129512.922   -18756922.20507 -14031366.47847        49.000
        38.000
  22358034.586    22358031.223   -14183755.92606 -10689064.47147        46.000
        33.000
  24362945.742    24362947.230   -12518602.59004  -9349695.64646        38.000
        21.000
  21576670.570    21576667.098   -17621549.97707 -12179433.65047        48.000
        35.000
  24770886.453    24770886.203     -559719.36805    257595.31345        40.000
        19.000
  22743369.281    22743368.473   -11452109.39206  -8672758.24447        47.000
        33.000
 14  9 29  0 29 10.0000000  0  8G07G26G05G15G24G28G10G30
  25346542.828    25346541.504     3063425.85904   2547168.15342        38.000
        13.000
  20062215.375    20062212.867   -27282512.41107 -20967418.29447        50.000
        40.000
  21131446.734    21131443.543   -18746775.58107 -14023460.02347        49.000
        39.000
  22355684.773    22355681.215   -14196105.24706 -10698687.30947        46.000
        33.000
  24360088.906    24360090.371   -12533618.33704  -9361396.20746        39.000
        21.000
  21577026.500    21577023.039   -17619678.53807 -12177975.38447        49.000
        35.000
  24774442.070    24774441.734     -541034.65005    272154.81645        40.000
        19.000
  22746068.391    22746067.387   -11437923.77906  -8661704.51947        47.000
        33.000
 14  9 29  0 29 15.0000000  0  8G07G26G05G15G24G28G10G30
  25349488.203    25349486.773     3078905.82502   2559230.42442        35.000
        14.000
  20061675.406    20061672.969   -27285348.92607 -20969628.56747        50.000
        40.000
  21133379.648    21133376.559   -18736615.89807 -14015543.39147        49.000
        39.000
  22353335.164    22353331.852   -14208450.92806 -10708307.31447        47.000
        33.000
  24357231.883    24357232.949   -12548629.88904  -9373093.51046        39.000
        21.000
  21577385.617    21577382.047   -17617792.15307 -12176505.46747        48.000
        35.000
  24777997.523    24777997.742     -522349.14705    286714.92045        40.000
        19.000
  22748768.891    22748767.570   -11423735.05707  -8650648.38347        48.000
        32.000
 14  9 29  0 29 20.0000000  0  8G07G26G05G15G24G28G10G30
  25352434.141    25352431.965     3094384.68602   2571291.81742        35.000
        13.000
  20061137.609    20061135.242   -27288175.31607 -20971830.95047        50.000
        40.000
  21135315.141    21135312.656   -18726442.81407 -14007616.31147        49.000
        39.000
  22350985.867    22350983.027   -14220792.58906 -10717924.20647        46.000
        33.000
  24354376.398    24354377.602   -12563636.97504  -9384787.35746        38.000
        21.000
  21577747.328    21577743.668   -17615890.49706 -12175023.65847        47.000
        35.000
  24781553.414    24781553.574     -503662.50505    301275.88345        40.000
        19.000
  22751468.844    22751468.809   -11409542.90107  -8639589.55947        48.000
        33.000
 14  9 29  0 29 25.0000000  0  8G07G26G05G15G24G28G10G30
  25355379.953                     3109861.87403          .00051        36.000

  20060601.406    20060599.129   -27290992.19807 -20974025.92547        50.000
        40.000
  21137254.039    21137250.570   -18716256.94007 -13999679.26947        49.000
        38.000
  22348638.281    22348635.504   -14233130.84006 -10727538.41847        46.000
        33.000
  24351520.539    24351522.520   -12578640.11603  -9396478.08746        37.000
        21.000
  21578111.969    21578108.551   -17613974.15907 -12173530.40647        48.000
        35.000
  24785109.680    24785109.734     -484975.37804    315837.26445        39.000
        19.000
  22754170.445    22754169.785   -11395347.91706  -8628528.52947        47.000
        32.000
 14  9 29  0 29 30.0000000  0  8G07G26G05G15G24G28G10G30
  25358324.203                     3125337.85502          .00051        35.000

  20060067.523    20060064.820   -27293799.12407 -20976213.14347        50.000
        40.000
  21139194.945    21139191.926   -18706057.83307 -13991731.91247        50.000
        39.000
  22346291.484    22346287.988   -14245465.24906 -10737149.64547        47.000
        33.000
  24348665.766    24348668.199   -12593638.71303  -9408165.29645        36.000
        20.000
  21578479.875    21578475.785   -17612042.68907 -12172025.36047        49.000
        35.000
  24788666.172    24788665.707     -466287.30005    330399.32145        40.000
        19.000
  22756872.102    22756871.578   -11381149.65706  -8617464.96147        47.000
        33.000
 14  9 29  0 29 35.0000000  0  8G07G26G05G15G24G28G10G30
  25361269.828                     3140812.31102          .00051        34.000

  20059535.391    20059532.961   -27296596.30207 -20978392.75847        49.000
        40.000
  21141138.266    21141134.984   -18695845.70907 -13983774.41647        50.000
        39.000
  22343945.281    22343941.719   -14257795.95406 -10746757.99147        47.000
        33.000
  24345812.516    24345814.957   -12608633.22903  -9419849.29346        37.000
        21.000
  21578850.250    21578846.520   -17610096.29306 -12170508.68747        47.000
        35.000
  24792223.078    24792222.250     -447598.51405    344962.01945        40.000
        19.000
  22759574.320    22759573.551   -11366948.31506  -8606398.98047        46.000
        32.000
 14  9 29  0 29 40.0000000  0  8G07G26G05G15G24G28G10G30
  25364214.469                     3156285.49102          .00051        34.000

  20059004.836    20059002.383   -27299383.51507 -20980564.61547        51.000
        40.000
  21143084.008    21143080.777   -18685620.37407 -13975806.62547        49.000
        39.000
  22341599.711    22341596.473   -14270122.80406 -10756363.32147        47.000
        34.000
  24342961.133    24342962.578   -12623623.28104  -9431529.83446        38.000
        22.000
  21579222.883    21579219.488   -17608134.77507 -12168980.23547        49.000
        35.000
  24795779.367    24795779.273     -428908.82205    359525.35445        40.000
        20.000
  22762277.430    22762276.285   -11352743.73706  -8595330.48547        47.000
        32.000
 14  9 29  0 29 45.0000000  0  8G07G26G05G15G24G28G10G30
  25367156.047                     3171757.31102          .00051        34.000

  20058476.313    20058473.730   -27302160.94307 -20982728.84447        50.000
        40.000
  21145032.375    21145029.332   -18675382.04407 -13967828.71147        50.000
        38.000
  22339254.695    22339251.055   -14282446.00906 -10765965.81247        47.000
        33.000
  24340108.492    24340110.730   -12638609.19003  -9443207.14146        37.000
        21.000
  21579599.648    21579596.012   -17606158.33807 -12167440.15447        49.000
        35.000
  24799335.758    24799336.039     -410218.43105    374089.27845        40.000
        20.000
  22764981.266    22764980.543   -11338536.09206  -8584259.59646        47.000
        31.000
 14  9 29  0 29 50.0000000  0  8G07G26G05G15G24G28G10G30
  25370100.609                     3187227.89502          .00051        35.000

  20057949.703    20057947.027   -27304928.35307 -20984885.26147        51.000
        40.000
  21146983.164    21146980.152   -18665130.45307 -13959840.46447        50.000
        38.000
  22336910.273    22336906.398   -14294765.30006 -10775565.25947        47.000
        34.000
  24337257.680    24337259.918   -12653590.71303  -9454881.02746        37.000
        21.000
  21579978.602    21579974.715   -17604166.73107 -12165888.24947        49.000
        35.000
  24802892.328    24802893.008     -391527.11805    388653.90945        40.000
        19.000
  22767685.281    22767684.852   -11324325.15506  -8573186.13647        47.000
        32.000
 14  9 29  0 29 55.0000000  0  8G07G26G05G15G24G28G10G30
  25373044.359                     3202697.04102          .00051        34.000

  20057425.102    20057422.012   -27307685.89007 -20987033.98947        51.000
        40.000
  21148936.250    21148933.688   -18654865.79707 -13951842.03147        50.000
        39.000
  22334566.883    22334563.070   -14307080.82506 -10785161.77147        47.000
        33.000
  24334407.844    24334409.988   -12668567.98403  -9466551.62946        36.000
        21.000
  21580360.227    21580356.371   -17602160.13907 -12164324.66947        49.000
        35.000
  24806449.391    24806449.449     -372835.02805    403219.13745        40.000
        19.000
  22770390.406    22770388.898   -11310111.10506  -8562110.26147        47.000
        32.000
 14  9 29  0 30  0.0000000  0  8G07G26G05G15G24G28G10G30
  25375987.766                     3218164.80302          .00051        34.000

  20056902.148    20056899.238   -27310433.61907 -20989175.07947        50.000
        40.000
  21150892.406    21150889.629   -18644588.16207 -13943833.48947        50.000
        39.000
  22332223.906    22332220.063   -14319392.67206 -10794755.42247        45.000
        34.000
  24331557.727    24331560.449   -12683541.03803  -9478218.89946        36.000
        21.000
  21580744.969    21580740.797   -17600138.58606 -12162749.43547        47.000
        35.000
  24810007.000    24810006.703     -354142.21105    417784.91445        40.000
        18.000
  22773095.648    22773094.895   -11295893.98706  -8551031.98747        47.000
        32.000
 14  9 29  0 30  5.0000000  0  8G07G26G05G15G24G28G10G30
  25378930.352                     3233631.33202          .00051        34.000

  20056381.273    20056378.535   -27313171.35207 -20991308.37447        50.000
        40.000
  21152850.563    21152847.652   -18634297.34207 -13935814.67147        50.000
        39.000
  22329881.430    22329878.078   -14331700.63606 -10804346.03847        47.000
        34.000
  24328709.773    24328711.938   -12698509.62803  -9489882.69646        37.000
        21.000
  21581132.602    21581129.148   -17598101.92106 -12161162.42347        47.000
        35.000
  24813564.063    24813563.797     -335448.48605    432351.43245        40.000
        19.000
  22775801.852    22775801.234   -11281673.62606  -8539951.20047        47.000
        32.000
 14  9 29  0 30 10.0000000  0  8G07G26G05G15G24G28G10G30
  25381873.125                     3249096.02202          .00051        35.000

  20055862.047    20055859.078   -27315899.67107 -20993434.33847        51.000
        40.000
  21154810.859    21154808.363   -18623993.92607 -13927786.04147        50.000
        39.000
  22327540.250    22327536.641   -14344005.28206 -10813934.07647        46.000
        34.000
  24325862.148    24325864.363   -12713474.28004  -9501543.45546        38.000
        21.000
  21581522.844    21581519.039   -17596050.72507 -12159564.08147        48.000
        35.000
  24817120.883    24817120.781     -316754.48905    446918.14445        40.000
        18.000
  22778508.406    22778507.445   -11267450.62806  -8528868.34147        47.000
        32.000
 14  9 29  0 30 15.0000000  0  8G07G26G05G15G24G28G10G30
  25384816.641                     3264559.35704          .00051        38.000

  20055344.648    20055341.457   -27318618.07907 -20995552.57547        51.000
        41.000
  21156774.344    21156771.367   -18613677.52507 -13919747.29147        50.000
        39.000
  22325199.086    22325195.980   -14356306.11706 -10823519.13647        45.000
        33.000
  24323015.891    24323017.465   -12728434.61304  -9513200.82846        38.000
        22.000
  21581916.297    21581912.535   -17593984.51307 -12157954.04847        49.000
        35.000
  24820679.117    24820678.438     -298059.71404    461485.47445        39.000
        19.000
  22781215.625    22781214.426   -11253224.50006  -8517783.05147        47.000
        32.000
 14  9 29  0 30 20.0000000  0  8G07G26G05G15G24G28G10G30
  25387759.633                     3280021.51703          .00051        37.000

  20054829.344    20054826.305   -27321326.42007 -20997662.96647        50.000
        40.000
  21158740.063    21158736.914   -18603347.86107 -13911698.21047        50.000
        39.000
  22322859.172    22322855.625   -14368602.93706 -10833101.06747        45.000
        34.000
  24320169.391    24320171.344   -12743390.45304  -9524854.71146        38.000
        22.000
  21582311.883    21582308.496   -17591903.10907 -12156332.17647        49.000
        35.000
  24824236.836    24824236.492     -279364.00404    476053.51045        39.000
        19.000
  22783923.430    22783922.465   -11238995.07906  -8506695.19647        47.000
        32.000
 14  9 29  0 30 25.0000000  0  8G07G26G05G15G24G28G10G30
  25390701.461                     3295482.08802          .00051        35.000

  20054316.047    20054312.969   -27324024.99407 -20999765.75147        51.000
        40.000
  21160708.102    21160705.023   -18593005.30307 -13903639.07847        49.000
        40.000
  22320519.945    22320516.547   -14380896.10706 -10842680.15447        46.000
        33.000
  24317323.781    24317326.316   -12758342.02903  -9536505.26546        36.000
        22.000
  21582710.977    21582707.098   -17589806.87307 -12154698.74347        49.000
        35.000
  24827795.016    24827794.441     -260667.70304    490622.02945        39.000
        19.000
  22786631.633    22786630.895   -11224762.71606  -8495605.05046        47.000
        31.000
 14  9 29  0 30 30.0000000  0  8G07G26G05G15G24G28G10G30
  25393643.023                     3310941.19403          .00051        37.000

  20053804.258    20053801.254   -27326713.70507 -21001860.84847        50.000
        40.000
  21162678.758    21162676.133   -18582649.71107 -13895569.79147        50.000
        39.000
  22318181.523    22318177.914   -14393185.49706 -10852256.30547        46.000
        33.000
  24314479.461    24314481.957   -12773289.29603  -9548152.45246        37.000
        22.000
  21583113.328    21583109.414   -17587695.64607 -12153053.63347        49.000
        35.000
  24831352.727    24831352.555     -241970.70905    505191.07645        40.000
        19.000
  22789340.719    22789339.434   -11210527.30206  -8484512.52647        46.000
        32.000
 14  9 29  0 30 35.0000000  0  8G07G26G05G15G24G28G10G30
  25396584.336                     3326398.96804          .00051        38.000

  20053294.430    20053291.402   -27329392.46907 -21003948.19547        49.000
        40.000
  21164651.438    21164649.133   -18572281.04907 -13887490.31847        49.000
        39.000
  22315843.281    22315840.367   -14405471.01206 -10861829.42547        45.000
        33.000
  24311636.391    24311638.441   -12788232.18403  -9559796.23446        37.000
        22.000
  21583517.852    21583513.953   -17585569.38407 -12151396.80247        48.000
        35.000
  24834910.773    24834910.355     -223272.95705    519760.69545        40.000
        19.000
  22792050.141    22792049.160   -11196288.78406  -8473417.58147        47.000
        32.000
 14  9 29  0 30 40.0000000  0  8G07G26G05G15G24G28G10G30
  25399526.523                     3341855.12203          .00051        37.000

  20052786.688    20052783.773   -27332061.53507 -21006027.98347        50.000
        40.000
  21166627.336    21166624.484   -18561899.57607 -13879400.86147        50.000
        39.000
  22313506.094    22313503.473   -14417752.90206 -10871399.72547        46.000
        34.000
  24308793.430    24308795.277   -12803171.00604  -9571436.84246        38.000
        22.000
  21583925.203    21583921.340   -17583428.35907 -12149728.47147        48.000
        35.000
  24838468.641    24838468.750     -204574.70405    534330.75145        40.000
        19.000
  22794760.297    22794759.238   -11182047.41306  -8462320.42447        46.000
        32.000
