     2.1            OBSERVATION DATA    G (GPS)             RINEX VERSION / TYPE
GPSNet 2.51 2653                        10-Dec-13 16:59:44  PGM / RUN BY / DATE
DENI                                                        MARKER NAME
13498M001                                                   MARKER NUMBER
ICV                 ICV                                     OBSERVER / AGENCY
020277697           TRIMBLE 5700        NP  1.23 / SP 1.22  REC # / TYPE / VERS
     0                                                      RCV CLOCK OFFS APPL
                    TRM41249.00                             ANT # / TYPE
  4974895.8850     9000.7650  3978089.6860                  APPROX POSITION XYZ
        0.0800        0.0000        0.0000                  ANTENNA: DELTA H/E/N
     1     1     0                                          WAVELENGTH FACT L1/2
     6    C1    P2    L1    L2    S1    S2                  # / TYPES OF OBSERV
     5.000                                                  INTERVAL
  2013    12    10    16     0    0.0000000     GPS         TIME OF FIRST OBS
                                                            END OF HEADER
 13 12 10 16  0  0.0000000  0  8G10G04G07G20G02G08G13G17
  21220867.027    21220863.998   -51386414.15207 -40003374.85447        49.000
        36.000
  20486586.252    20486583.162   -67562962.59807 -52602675.75347        51.000
        41.000
  22316200.601    22316199.489   -26296147.71506 -20382557.29147        46.000
        33.000
  22848962.703    22848959.696   -95896961.43006 -74615876.02246        44.000
        28.000
  23215582.189    23215578.239   -29475755.52006 -22856751.16546        45.000
        29.000
  24770248.827    24770265.540    -1556680.87105  -1165757.42946        41.000
        22.000
  20208593.382    20208589.222   -67920125.89807 -52898311.34547        50.000
        41.000
  24137271.321    24137279.885   -71200861.79304 -55460603.39346        39.000
        25.000
 13 12 10 16  0  5.0000000  0  8G10G04G07G20G02G08G13G17
  21215390.921    21215387.791   -51415190.85907 -40025798.25047        48.000
        36.000
  20482682.708    20482679.758   -67583474.17207 -52618658.79047        51.000
        40.000
  22309690.178    22309687.865   -26330362.15206 -20409217.84847        46.000
        34.000
  22847738.867    22847736.098   -95903392.42606 -74620887.19446        44.000
        28.000
  23208975.247    23208971.745   -29510473.57806 -22883804.19346        45.000
        29.000
  24763204.859    24763221.260    -1593693.50405  -1194598.06446        41.000
        23.000
  20205447.145    20205443.362   -67936659.41807 -52911194.60547        50.000
        40.000
  24136434.179    24136442.528   -71205261.07005 -55464031.61046        40.000
        25.000
 13 12 10 16  0 10.0000000  0  8G10G04G07G20G02G08G13G17
  21209915.929    21209912.928   -51443961.14107 -40048216.64647        48.000
        36.000
  20478782.531    20478779.416   -67603969.39107 -52634629.08747        52.000
        40.000
  22303180.816    22303178.581   -26364568.35906 -20435872.01047        45.000
        33.000
  22846516.239    22846513.257   -95909818.37906 -74625894.42946        44.000
        27.000
  23202370.228    23202366.310   -29545184.43806 -22910851.60546        44.000
        29.000
  24756161.515    24756178.001    -1630706.60205  -1223439.02146        41.000
        23.000
  20202303.131    20202299.573   -67953180.61707 -52924068.26647        50.000
        40.000
  24135597.687    24135606.038   -71209658.46904 -55467458.30446        39.000
        25.000
 13 12 10 16  0 15.0000000  0  8G10G04G07G20G02G08G13G17
  21204442.563    21204439.277   -51472725.33207 -40070630.30347        49.000
        36.000
  20474885.424    20474883.060   -67624448.52007 -52650586.85247        51.000
        40.000
  22296673.648    22296671.069   -26398766.66006 -20462520.00747        46.000
        33.000
  22845293.678    22845291.397   -95916239.61706 -74630897.98746        44.000
        28.000
  23195766.854    23195761.956   -29579888.36306 -22937893.58846        45.000
        30.000
  24749117.859    24749133.932    -1667720.56305  -1252280.71846        41.000
        22.000
  20199161.720    20199157.690   -67969689.81307 -52936932.56647        50.000
        41.000
  24134760.968    24134769.920   -71214054.30504 -55470883.83246        39.000
        24.000
 13 12 10 16  0 20.0000000  0  8G10G04G07G20G02G08G13G17
  21198970.062    21198966.753   -51501483.43807 -40093039.21947        49.000
        37.000
  20470991.359    20470988.711   -67644911.58207 -52666532.09047        51.000
        40.000
  22290167.082    22290164.831   -26432957.09406 -20489161.87147        46.000
        34.000
  22844072.988    22844069.821   -95922656.13306 -74635897.88846        43.000
        28.000
  23189163.824    23189159.837   -29614585.37106 -22964930.23046        44.000
        29.000
  24742073.589    24742089.465    -1704735.39105  -1281123.01246        42.000
        22.000
  20196022.422    20196018.398   -67986187.00807 -52949787.53047        50.000
        41.000
  24133924.893    24133933.925   -71218448.67604 -55474308.15546        39.000
        23.000
 13 12 10 16  0 25.0000000  0  8G10G04G07G20G02G08G13G17
  21193498.394    21193495.327   -51530235.21507 -40115443.19047        48.000
        37.000
  20467100.612    20467097.907   -67665358.37507 -52682464.64747        51.000
        40.000
  22283662.214    22283659.829   -26467139.38706 -20515797.40347        47.000
        34.000
  22842852.718    22842849.712   -95929067.72306 -74640893.95146        43.000
        27.000
  23182562.696    23182558.576   -29649275.21106 -22991961.23846        44.000
        29.000
  24735029.325    24735045.590    -1741750.78905  -1309965.70646        42.000
        21.000
  20192885.376    20192881.490   -68002672.02307 -52962632.99947        49.000
        41.000
  24133089.595    24133098.156   -71222841.35205 -55477731.19346        40.000
        25.000
 13 12 10 16  0 30.0000000  0  8G10G04G07G20G02G08G13G17
  21188028.615    21188025.419   -51558980.94507 -40137842.46247        48.000
        36.000
  20463212.570    20463209.859   -67685789.12507 -52698384.71347        51.000
        41.000
  22277159.102    22277156.752   -26501313.69506 -20542426.72047        46.000
        34.000
  22841633.617    22841630.308   -95935474.63706 -74645886.33446        44.000
        26.000
  23175962.644    23175958.967   -29683958.15206 -23018986.91946        44.000
        29.000
  24727985.687    24728001.225    -1778767.04306  -1338809.17046        43.000
        23.000
  20189750.410    20189746.765   -68019145.15207 -52975469.20147        49.000
        41.000
  24132254.311    24132262.542   -71227232.60205 -55481153.09846        40.000
        24.000
 13 12 10 16  0 35.0000000  0  8G10G04G07G20G02G08G13G17
  21182559.833    21182556.700   -51587720.16007 -40160236.65847        48.000
        36.000
  20459328.129    20459325.211   -67706203.46107 -52714291.98447        51.000
        41.000
  22270657.333    22270655.447   -26535479.64506 -20569049.51847        46.000
        33.000
  22840415.440    22840412.269   -95941876.46506 -74650874.77846        44.000
        26.000
  23169363.836    23169360.357   -29718633.72306 -23046006.80346        44.000
        29.000
  24720941.195    24720956.963    -1815783.68005  -1367652.91046        42.000
        23.000
  20186618.194    20186614.546   -68035605.85907 -52988295.73147        50.000
        41.000
  24131419.037    24131427.052   -71231622.02705 -55484573.61046        40.000
        24.000
 13 12 10 16  0 40.0000000  0  8G10G04G07G20G02G08G13G17
  21177091.819    21177088.702   -51616453.23807 -40182626.06147        49.000
        36.000
  20455446.358    20455443.526   -67726601.72707 -52730186.73347        51.000
        41.000
  22264157.296    22264155.638   -26569637.61706 -20595666.09147        47.000
        33.000
  22839198.523    22839194.961   -95948273.62506 -74655859.58946        43.000
        26.000
  23162766.854    23162762.786   -29753302.27306 -23073021.24646        45.000
        29.000
  24713896.822    24713912.458    -1852801.10505  -1396497.28746        41.000
        22.000
  20183488.232    20183484.468   -68052054.62107 -53001112.95147        48.000
        40.000
  24130584.621    24130592.565   -71236009.99605 -55487992.99646        40.000
        24.000
 13 12 10 16  0 45.0000000  0  8G10G04G07G20G02G08G13G17
  21171625.713    21171622.607   -51645180.23807 -40205010.73247        49.000
        36.000
  20451568.097    20451565.026   -67746983.93807 -52746068.96747        51.000
        41.000
  22257658.796    22257657.312   -26603787.64106 -20622276.46247        47.000
        34.000
  22837981.791    22837978.560   -95954666.10906 -74660840.75146        43.000
        26.000
  23156171.080    23156166.733   -29787963.89806 -23100030.29546        44.000
        29.000
  24706851.380    24706867.677    -1889819.39105  -1425342.28546        41.000
        22.000
  20180360.070    20180356.538   -68068491.46507 -53013920.87747        50.000
        41.000
  24129749.642    24129758.172   -71240396.62105 -55491411.28846        41.000
        24.000
 13 12 10 16  0 50.0000000  0  8G10G04G07G20G02G08G13G17
  21166159.745    21166157.090   -51673901.06307 -40227390.58947        49.000
        37.000
  20447692.217    20447689.380   -67767350.07407 -52761938.68047        51.000
        40.000
  22251161.729    22251160.081   -26637929.67606 -20648880.60647        46.000
        34.000
  22836766.198    22836763.018   -95961053.91006 -74665818.27846        43.000
        27.000
  23149576.379    23149571.896   -29822618.50806 -23127033.90546        44.000
        29.000
  24699806.267    24699822.881    -1926838.38305  -1454187.88646        42.000
        22.000
  20177235.005    20177230.868   -68084916.33207 -53026719.46747        49.000
        41.000
  24128915.532    24128923.547   -71244781.75805 -55494828.47746        41.000
        24.000
 13 12 10 16  0 55.0000000  0  8G10G04G07G20G02G08G13G17
  21160695.915    21160692.923   -51702615.64107 -40249765.57747        49.000
        36.000
  20443819.902    20443817.130   -67787699.97707 -52777795.74447        52.000
        40.000
  22244666.648    22244664.833   -26672063.56606 -20675478.42247        46.000
        34.000
  22835551.791    22835548.199   -95967436.87106 -74670792.01446        43.000
        26.000
  23142983.246    23142978.678   -29857265.97706 -23154031.91046        45.000
        29.000
  24692761.901    24692778.140    -1963858.01605  -1483033.96846        41.000
        22.000
  20174111.463    20174107.649   -68101329.14107 -53039508.67147        50.000
        40.000
  24128080.822    24128089.599   -71249165.39505 -55498244.43746        40.000
        25.000
 13 12 10 16  1  0.0000000  0  8G10G04G07G20G02G08G13G17
  21155232.734    21155230.011   -51731324.02007 -40272135.74347        49.000
        37.000
  20439950.316    20439947.519   -67808033.75007 -52793640.24147        51.000
        40.000
  22238172.354    22238170.536   -26706189.35907 -20702069.92447        48.000
        34.000
  22834337.258    22834334.219   -95973815.02706 -74675762.01946        43.000
        25.000
  23136391.601    23136386.963   -29891906.35206 -23181024.40646        44.000
        29.000
  24685716.412    24685732.664    -2000878.37505  -1511880.59746        40.000
        22.000
  20170990.430    20170986.552   -68117729.95307 -53052288.51647        50.000
        41.000
  24127246.479    24127255.297   -71253547.57805 -55501659.29946        40.000
        25.000
 13 12 10 16  1  5.0000000  0  8G10G04G07G20G02G08G13G17
  21149770.839    21149768.020   -51760025.97707 -40294500.90147        49.000
        36.000
  20436084.132    20436080.992   -67828351.17207 -52809471.98747        51.000
        40.000
  22231680.230    22231677.893   -26740306.81306 -20728654.93847        47.000
        34.000
  22833125.073    22833121.433   -95980188.21506 -74680728.14446        43.000
        24.000
  23129801.124    23129796.192   -29926539.46106 -23208011.21646        44.000
        29.000
  24678671.769    24678687.704    -2037899.15205  -1540727.46846        41.000
        22.000
  20167871.603    20167867.642   -68134118.57407 -53065058.87147        50.000
        41.000
  24126413.365    24126422.296   -71257928.11705 -55505072.89046        40.000
        25.000
 13 12 10 16  1 10.0000000  0  8G10G04G07G20G02G08G13G17
  21144310.349    21144307.455   -51788721.79307 -40316861.27547        49.000
        37.000
  20432220.860    20432217.961   -67848652.47307 -52825291.18847        52.000
        40.000
  22225189.038    22225187.017   -26774416.23806 -20755233.69047        47.000
        34.000
  22831913.264    22831909.821   -95986556.71905 -74685690.63446        42.000
        23.000
  23123210.986    23123207.235   -29961165.48806 -23234992.53546        43.000
        29.000
  24671626.583    24671641.754    -2074920.67605  -1569575.09346        41.000
        22.000
  20164755.536    20164751.423   -68150495.25807 -53077819.92247        49.000
        41.000
  24125580.461    24125588.904   -71262307.28104 -55508485.39846        39.000
        25.000
 13 12 10 16  1 15.0000000  0  8G10G04G07G20G02G08G13G17
  21138850.650    21138847.998   -51817411.21907 -40339216.66447        49.000
        37.000
  20428361.025    20428357.934   -67868937.46907 -52841097.67247        52.000
        40.000
  22218699.706    22218698.113   -26808517.28906 -20781805.90947        46.000
        34.000
  22830701.558    22830698.996   -95992920.26605 -74690649.22446        42.000
        26.000
  23116623.469    23116619.765   -29995784.22706 -23261968.16246        44.000
        28.000
  24664581.455    24664596.551    -2111942.62105  -1598422.96646        41.000
        22.000
  20161641.451    20161637.449   -68166859.77307 -53090571.49747        50.000
        40.000
  24124747.277    24124756.300   -71266684.88705 -55511896.68446        41.000
        25.000
 13 12 10 16  1 20.0000000  0  8G10G04G07G20G02G08G13G17
  21133392.688    21133389.564   -51846094.66807 -40361567.40347        50.000
        37.000
  20424504.018    20424501.024   -67889206.51207 -52856891.72747        52.000
        40.000
  22212212.066    22212210.506   -26842610.43006 -20808371.96147        46.000
        34.000
  22829492.345    22829488.884   -95999279.34005 -74695604.36146        42.000
        27.000
  23110037.123    23110033.051   -30030396.09406 -23288938.43346        44.000
        28.000
  24657536.141    24657551.029    -2148965.47305  -1627271.53146        41.000
        22.000
  20158529.541    20158525.486   -68183212.55507 -53103313.91947        49.000
        41.000
  24123914.915    24123923.829   -71271061.32005 -55515307.09846        40.000
        25.000
 13 12 10 16  1 25.0000000  0  8G10G04G07G20G02G08G13G17
  21127935.344    21127932.414   -51874771.86707 -40383913.27047        49.000
        37.000
  20420649.976    20420647.050   -67909459.37907 -52872673.17647        51.000
        40.000
  22205725.903    22205724.311   -26876695.37506 -20834931.64147        46.000
        34.000
  22828282.778    22828279.726   -96005633.58606 -74700555.71746        43.000
        27.000
  23103452.046    23103448.178   -30065000.74206 -23315903.07746        44.000
        29.000
  24650490.162    24650505.221    -2185988.86705  -1656120.63146        41.000
        22.000
  20155419.895    20155416.385   -68199553.31607 -53116046.97447        49.000
        41.000
  24123082.280    24123091.510   -71275436.33205 -55518716.37246        40.000
        25.000
 13 12 10 16  1 30.0000000  0  8G10G04G07G20G02G08G13G17
  21122479.515    21122476.323   -51903442.81607 -40406254.26247        49.000
        36.000
  20416798.929    20416795.841   -67929696.03107 -52888441.99147        52.000
        40.000
  22199241.279    22199239.543   -26910772.10906 -20861484.90247        46.000
        34.000
  22827074.782    22827071.721   -96011983.03106 -74705503.33846        43.000
        26.000
  23096868.895    23096864.802   -30099598.16806 -23342862.12346        44.000
        29.000
  24643444.401    24643459.559    -2223012.82805  -1684970.08546        42.000
        22.000
  20152312.799    20152308.934   -68215882.08207 -53128770.69447        50.000
        40.000
  24122250.101    24122259.246   -71279810.00005 -55522124.60546        40.000
        25.000
 13 12 10 16  1 35.0000000  0  8G10G04G07G20G02G08G13G17
  21117024.986    21117022.008   -51932107.34807 -40428590.25947        48.000
        37.000
  20412950.995    20412948.038   -67949916.31607 -52904198.06047        51.000
        40.000
  22192758.576    22192756.642   -26944840.48006 -20888031.66347        46.000
        35.000
  22825867.907    22825864.549   -96018327.53905 -74710447.10346        42.000
        26.000
  23090286.467    23090282.547   -30134188.23806 -23369815.38946        44.000
        28.000
  24636398.492    24636413.789    -2260037.22705  -1713819.80946        40.000
        21.000
  20149207.818    20149204.101   -68232198.70707 -53141484.94047        50.000
        40.000
  24121418.836    24121427.183   -71284182.09805 -55525531.60146        41.000
        25.000
 13 12 10 16  1 40.0000000  0  8G10G04G07G20G02G08G13G17
  21111571.528    21111568.702   -51960765.39107 -40450921.19647        48.000
        37.000
  20409106.628    20409103.696   -67970120.24207 -52919941.36847        51.000
        40.000
  22186277.361    22186275.493   -26978900.41006 -20914571.85847        47.000
        34.000
  22824660.776    22824657.667   -96024667.06305 -74715387.02846        41.000
        26.000
  23083705.494    23083701.687   -30168770.86706 -23396762.87846        45.000
        29.000
  24629352.789    24629368.033    -2297061.87905  -1742669.89146        41.000
        21.000
  20146105.329    20146101.650   -68248503.12507 -53154189.68247        50.000
        40.000
  24120586.799    24120595.716   -71288552.62105 -55528937.38646        41.000
        25.000
 13 12 10 16  1 45.0000000  0  8G10G04G07G20G02G08G13G17
  21106119.289    21106116.438   -51989417.19107 -40473247.26947        48.000
        37.000
  20405264.679    20405261.996   -67990307.98407 -52935672.06847        52.000
        40.000
  22179797.277    22179795.502   -27012952.14106 -20941105.64147        47.000
        34.000
  22823455.717    22823452.656   -96031001.80106 -74720323.16446        43.000
        25.000
  23077125.952    23077122.154   -30203346.27706 -23423704.75346        44.000
        30.000
  24622307.066    24622322.275    -2334087.12505  -1771520.34846        41.000
        21.000
  20143004.956    20143001.123   -68264795.57407 -53166885.08647        50.000
        41.000
  24119755.381    24119764.974   -71292921.84005 -55532342.15946        41.000
        26.000
 13 12 10 16  1 50.0000000  0  8G10G04G07G20G02G08G13G17
  21100668.131    21100665.280   -52018062.78107 -40495568.52347        48.000
        37.000
  20401426.254    20401423.269   -68010479.53507 -52951390.16147        51.000
        40.000
  22173318.736    22173316.773   -27046995.66006 -20967633.03347        47.000
        34.000
  22822250.864    22822248.055   -96037331.81606 -74725255.71046        43.000
        25.000
  23070548.433    23070544.020   -30237914.50806 -23450641.02446        45.000
        30.000
  24615260.705    24615276.239    -2371112.96105  -1800371.28346        42.000
        23.000
  20139906.502    20139902.963   -68281076.10207 -53179571.21747        49.000
        41.000
  24118924.752    24118933.840   -71297289.74205 -55535745.86646        41.000
        26.000
 13 12 10 16  1 55.0000000  0  8G10G04G07G20G02G08G13G17
  21095218.102    21095214.979   -52046702.37907 -40517885.07647        48.000
        37.000
  20397590.803    20397587.852   -68030635.21907 -52967095.88847        52.000
        40.000
  22166842.267    22166839.911   -27081031.22306 -20994154.21947        47.000
        34.000
  22821047.018    22821044.430   -96043657.38305 -74730184.71446        41.000
        26.000
  23063971.267    23063967.212   -30272475.74206 -23477571.84446        45.000
        30.000
  24608215.237    24608229.741    -2408139.57405  -1829222.84446        42.000
        23.000
  20136810.884    20136807.047   -68297344.95707 -53192248.23747        49.000
        41.000
  24118094.077    24118103.046   -71301656.55505 -55539148.76046        40.000
        26.000
 13 12 10 16  2  0.0000000  0  8G10G04G07G20G02G08G13G17
  21089769.170    21089766.168   -52075335.50007 -40540196.58747        49.000
        37.000
  20393758.469    20393755.669   -68050774.53507 -52982788.84947        52.000
        40.000
  22160367.485    22160364.478   -27115058.33206 -21020668.82247        47.000
        34.000
  22819844.320    22819841.915   -96049977.93405 -74735109.80846        42.000
        25.000
  23057396.217    23057391.338   -30307029.39106 -23504496.76046        44.000
        29.000
  24601169.240    24601183.450    -2445166.49605  -1858074.60046        42.000
        23.000
  20133717.320    20133713.537   -68313601.65207 -53204915.79147        49.000
        40.000
  24117263.138    24117272.729   -71306021.89505 -55542550.53946        40.000
        25.000
 13 12 10 16  2  5.0000000  0  8G10G04G07G20G02G08G13G17
  21084321.924    21084319.253   -52103962.19107 -40562503.10347        49.000
        37.000
  20389929.022    20389926.441   -68070897.46507 -52998469.04947        51.000
        40.000
  22153893.428    22153891.250   -27149076.98406 -21047176.84047        47.000
        34.000
  22818642.756    22818639.849   -96056293.55505 -74740031.06846        42.000
        25.000
  23050821.849    23050817.598   -30341575.69906 -23531415.94846        44.000
        29.000
  24594122.680    24594136.479    -2482193.74605  -1886926.67746        42.000
        23.000
  20130625.963    20130622.390   -68329846.24607 -53217573.91247        50.000
        40.000
  24116433.653    24116442.283   -71310385.81305 -55545951.13946        41.000
        26.000
 13 12 10 16  2 10.0000000  0  8G10G04G07G20G02G08G13G17
  21078875.366    21078872.784   -52132582.82407 -40584804.88247        48.000
        37.000
  20386102.787    20386100.157   -68091004.41407 -53014136.80147        51.000
        40.000
  22147421.523    22147419.185   -27183087.55506 -21073678.56147        47.000
        34.000
  22817441.482    22817438.774   -96062604.61705 -74744948.78646        42.000
        26.000
  23044250.040    23044244.720   -30376114.90206 -23558329.61446        44.000
        29.000
  24587075.553    24587089.673    -2519221.70705  -1915779.28246        42.000
        22.000
  20127537.205    20127533.440   -68346079.10507 -53230222.89147        50.000
        41.000
  24115603.001    24115612.136   -71314748.66805 -55549351.00346        41.000
        26.000
 13 12 10 16  2 15.0000000  0  8G10G04G07G20G02G08G13G17
  21073430.688    21073427.733   -52161196.77307 -40607101.46447        48.000
        36.000
  20382280.023    20382277.034   -68111094.74607 -53029791.60147        52.000
        40.000
  22140950.992    22140948.803   -27217089.44507 -21100173.51747        48.000
        35.000
  22816242.182    22816238.528   -96068910.54305 -74749862.50946        42.000
        25.000
  23037678.114    23037673.726   -30410646.43806 -23585237.27646        44.000
        29.000
  24580029.306    24580043.144    -2556249.79305  -1944631.96146        41.000
        22.000
  20124450.337    20124446.622   -68362299.66407 -53242862.29447        50.000
        41.000
  24114773.117    24114782.595   -71319109.93405 -55552749.57046        40.000
        26.000
 13 12 10 16  2 20.0000000  0  8G10G04G07G20G02G08G13G17
  21067986.827    21067983.681   -52189804.24207 -40629393.00547        49.000
        36.000
  20378459.931    20378457.293   -68131168.67207 -53045433.62247        51.000
        40.000
  22134481.914    22134480.596   -27251082.78506 -21126661.81647        47.000
        35.000
  22815042.965    22815039.976   -96075211.55506 -74754772.39546        43.000
        26.000
  23031108.865    23031104.486   -30445170.48006 -23612139.13446        45.000
        29.000
  24572982.173    24572996.428    -2593278.17205  -1973484.92446        41.000
        22.000
  20121365.790    20121362.471   -68378508.10907 -53255492.24847        50.000
        41.000
  24113943.341    24113953.277   -71323469.63705 -55556146.95146        40.000
        26.000
 13 12 10 16  2 25.0000000  0  8G10G04G07G20G02G08G13G17
  21062544.097    21062541.136   -52218405.50407 -40651679.69147        48.000
        36.000
  20374642.891    20374640.115   -68151226.55507 -53061063.13647        51.000
        40.000
  22128014.812    22128013.277   -27285067.92606 -21153143.72647        47.000
        35.000
  22813844.784    22813841.772   -96081507.93406 -74759678.65846        43.000
        25.000
  23024540.803    23024536.111   -30479687.33606 -23639035.36446        45.000
        30.000
  24565936.024    24565949.518    -2630307.10905  -2002338.25846        41.000
        23.000
  20118283.911    20118280.082   -68394704.77007 -53268113.01847        50.000
        40.000
  24113114.436    24113124.389   -71327828.31605 -55559543.51346        40.000
        25.000
 13 12 10 16  2 30.0000000  0  8G10G04G07G20G02G08G13G17
  21057102.425    21057099.754   -52247000.62907 -40673961.59947        49.000
        37.000
  20370829.170    20370826.262   -68171268.37907 -53076680.13647        51.000
        40.000
  22121549.198    22121547.797   -27319044.88706 -21179619.25347        47.000
        35.000
  22812646.874    22812644.446   -96087799.75005 -74764581.39746        41.000
        26.000
  23017973.292    23017968.727   -30514197.02306 -23665926.00746        45.000
        29.000
  24558889.289    24558903.277    -2667336.65205  -2031192.07246        42.000
        22.000
  20115203.949    20115200.431   -68410889.66807 -53280724.61947        50.000
        41.000
  24112285.330    24112295.067   -71332185.95705 -55562939.26346        40.000
        25.000
 13 12 10 16  2 35.0000000  0  8G10G04G07G20G02G08G13G17
  21051662.545    21051659.708   -52275589.48407 -40696238.63047        48.000
        37.000
  20367018.423    20367015.634   -68191293.99607 -53092284.50747        52.000
        40.000
  22115085.106    22115083.641   -27353013.50806 -21206088.27447        46.000
        35.000
  22811450.396    22811448.442   -96094086.83605 -74769480.43546        41.000
        25.000
  23011407.442    23011403.186   -30548699.40606 -23692810.97046        45.000
        29.000
  24551842.310    24551856.657    -2704366.61705  -2060046.32046        41.000
        22.000
  20112126.892    20112122.745   -68427062.69907 -53293326.97147        50.000
        41.000
  24111456.174    24111465.826   -71336542.41005 -55566334.14946        40.000
        25.000
 13 12 10 16  2 40.0000000  0  8G10G04G07G20G02G08G13G17
  21046223.465    21046220.343   -52304171.91007 -40718510.64547        48.000
        37.000
  20363210.726    20363207.948   -68211303.30907 -53107876.18347        51.000
        40.000
  22108622.925    22108621.055   -27386973.67606 -21232550.71447        47.000
        35.000
  22810255.745    22810253.137   -96100369.03505 -74774375.63346        42.000
        25.000
  23004843.682    23004838.915   -30583194.34406 -23719690.13346        45.000
        29.000
  24544795.798    24544809.806    -2741396.90205  -2088900.68546        42.000
        23.000
  20109051.257    20109047.145   -68443223.71507 -53305919.97447        50.000
        41.000
  24110628.283    24110637.688   -71340897.57805 -55569727.98346        40.000
        25.000
 13 12 10 16  2 45.0000000  0  9G10G04G07G20G02G08G09G13G17
  21040785.274    21040782.413   -52332747.91807 -40740777.65747        49.000
        37.000
  20359406.162    20359403.633   -68231296.20307 -53123455.05647        50.000
        40.000
  22102162.421    22102160.136   -27420925.34006 -21259006.52147        47.000
        35.000
  22809060.379    22809058.279   -96106646.37906 -74779267.08346        43.000
        25.000
  22998280.805    22998275.958   -30617681.72306 -23746563.41246        44.000
        29.000
  24537749.316    24537762.972    -2778427.51205  -2117755.39946        42.000
        24.000
  24733818.457                      -67552.37900          .00051        32.000

  20105977.937    20105974.152   -68459372.76207 -53318503.64647        50.000
        41.000
  24109799.553    24109809.286   -71345251.51605 -55573120.85646        40.000
        25.000
 13 12 10 16  2 50.0000000  0  9G10G04G07G20G02G08G09G13G17
  21035348.766    21035345.656   -52361317.43007 -40763039.60947        48.000
        36.000
  20355604.516    20355602.018   -68251272.77007 -53139021.21147        50.000
        40.000
  22095703.063    22095700.897   -27454868.35207 -21285455.60947        48.000
        35.000
  22807867.042    22807864.749   -96112918.83606 -74784154.73346        43.000
        26.000
  22991719.705    22991714.545   -30652161.59006 -23773430.84046        44.000
        29.000
  24530702.075    24530715.324    -2815458.33205  -2146610.19246        41.000
        22.000
  24726345.077                     -106827.61701          .00051        33.000

  20102907.327    20102903.598   -68475509.77007 -53331077.93247        50.000
        41.000
  24108971.949    24108981.209   -71349604.12105 -55576512.68646        40.000
        26.000
 13 12 10 16  2 55.0000000  0  9G10G04G07G20G02G08G09G13G17
  21029913.544    21029910.413   -52389880.42607 -40785296.48747        49.000
        36.000
  20351806.824    20351803.809   -68271232.91007 -53154574.56847        50.000
        40.000
  22089245.826    22089243.702   -27488802.76207 -21311897.99947        48.000
        35.000
  22806674.119    22806672.092   -96119186.33606 -74789038.48146        43.000
        26.000
  22985159.473    22985155.082   -30686633.84006 -23800292.30346        44.000
        29.000
  24523654.820    24523668.716    -2852489.30105  -2175465.20146        41.000
        22.000
  24718870.622                     -146104.03502          .00051        35.000

  20099838.208    20099834.827   -68491634.64807 -53343642.77247        50.000
        41.000
  24108142.548    24108153.215   -71353955.43005 -55579903.52046        40.000
        26.000
 13 12 10 16  3  0.0000000  0  9G10G04G07G20G02G08G09G13G17
  21024479.488    21024476.322   -52418436.88307 -40807548.26847        49.000
        36.000
  20348011.619    20348008.753   -68291176.61707 -53170115.10347        51.000
        40.000
  22082789.645    22082787.579   -27522728.52707 -21338333.64847        48.000
        35.000
  22805482.699    22805480.214   -96125448.81606 -74793918.34446        43.000
        26.000
  22978601.012    22978596.660   -30721098.46906 -23827147.86246        44.000
        29.000
  24516607.274    24516621.054    -2889520.42205  -2204320.28146        40.000
        22.000
  24711396.057                     -185381.52002          .00051        35.000

  20096772.274    20096768.661   -68507747.45707 -53356198.20547        50.000
        41.000
  24107315.938    24107325.852   -71358305.37505 -55583293.29246        40.000
        24.000
 13 12 10 16  3  5.0000000  0  9G10G04G07G20G02G08G09G13G17
  21019046.114    21019043.499   -52446986.85207 -40829794.99147        49.000
        36.000
  20344219.387    20344216.695   -68311103.93807 -53185642.88447        51.000
        40.000
  22076335.005    22076333.534   -27556645.77706 -21364762.64147        47.000
        35.000
  22804291.730    22804289.892   -96131706.48406 -74798794.47946        43.000
        25.000
  22972044.261    22972040.140   -30755555.55906 -23853997.51646        44.000
        29.000
  24509560.413    24509574.333    -2926551.75405  -2233175.54446        41.000
        22.000
  24703921.072                     -224660.27003          .00051        36.000

  20093709.157    20093705.008   -68523848.28507 -53368744.30747        50.000
        41.000
  24106488.715    24106498.354   -71362654.07805 -55586682.08646        40.000
        25.000
 13 12 10 16  3 10.0000000  0  9G10G04G07G20G02G08G09G13G17
  21013614.451    21013611.771   -52475530.32807 -40852036.64947        49.000
        37.000
  20340430.717    20340427.629   -68331014.85207 -53201157.88247        51.000
        40.000
  22069882.941    22069881.087   -27590554.42206 -21391184.93447        47.000
        35.000
  22803102.191    22803099.341   -96137959.24605 -74803666.77246        41.000
        25.000
  22965488.774    22965484.259   -30790005.07406 -23880841.28846        44.000
        29.000
  24502513.763    24502526.880    -2963583.28105  -2262030.97546        41.000
        21.000
  24696446.049                     -263940.09003          .00051        37.000

  20090647.204    20090643.163   -68539937.10207 -53381281.03647        50.000
        40.000
  24105661.129    24105671.216   -71367001.50405 -55590069.92146        40.000
        24.000
 13 12 10 16  3 15.0000000  0  9G10G04G07G20G02G08G09G13G17
  21008184.552    21008181.374   -52504067.21907 -40874273.19247        49.000
        37.000
  20336644.542    20336641.862   -68350909.33607 -53216660.06947        51.000
        41.000
  22063431.507    22063430.289   -27624454.36707 -21417600.43247        48.000
        35.000
  22801913.552    22801910.649   -96144207.00806 -74808535.15746        43.000
        25.000
  22958934.543    22958929.748   -30824446.89506 -23907679.04746        44.000
        29.000
  24495466.087    24495479.459    -3000614.91805  -2290886.43746        41.000
        21.000
  24688970.540                     -303221.04704          .00051        39.000

  20087587.898    20087583.757   -68556013.82007 -53393808.34947        50.000
        40.000
  24104834.172    24104844.442   -71371347.68505 -55593456.73246        40.000
        23.000
 13 12 10 16  3 20.0000000  0  9G10G04G07G20G02G08G09G13G17
  21002755.539    21002752.336   -52532597.43807 -40896504.53047        49.000
        37.000
  20332862.134    20332858.782   -68370787.25407 -53232149.35847        51.000
        41.000
  22056982.749    22056980.859   -27658345.56307 -21444009.13647        48.000
        35.000
  22800724.959    22800722.643   -96150449.75405 -74813399.64846        42.000
        25.000
  22952381.757    22952377.083   -30858880.98006 -23934510.80346        44.000
        29.000
  24488419.625    24488432.428    -3037646.57405  -2319741.99046        41.000
        22.000
  24681495.235                     -342502.94904          .00051        39.000

  20084530.800    20084527.093   -68572078.41807 -53406326.20947        50.000
        40.000
  24104008.409    24104017.764   -71375692.41404 -55596842.47046        39.000
        25.000
 13 12 10 16  3 25.0000000  0  9G10G04G07G20G02G08G09G13G17
  20997327.331    20997324.384   -52561121.08207 -40918730.73447        48.000
        37.000
  20329082.433    20329079.423   -68390648.73007 -53247625.82747        51.000
        40.000
  22050535.030    22050533.061   -27692228.05507 -21470411.06447        48.000
        35.000
  22799538.283    22799535.404   -96156687.54705 -74818260.24246        42.000
        26.000
  22945830.735    22945825.884   -30893307.39106 -23961336.55946        45.000
        29.000
  24481371.238    24481385.082    -3074678.33605  -2348597.54546        41.000
        22.000
  24674019.582                     -381785.90204          .00051        39.000

  20081476.090    20081472.484   -68588130.94907 -53418834.67247        50.000
        40.000
  24103181.516    24103191.865   -71380035.91005 -55600227.26246        40.000
        23.000
 13 12 10 16  3 30.0000000  0  9G10G04G07G20G02G08G09G13G17
  21291694.315    21291691.409   -52589632.50807 -40940947.42247        48.000
        37.000
  20625099.269    20625096.195   -68410489.87507 -53263086.45447        51.000
        40.000
  22343882.577    22343880.474   -27726095.12907 -21496800.97747        48.000
        36.000
  23098145.534    23098141.997   -96162919.21105 -74823116.10446        42.000
        26.000
  23239075.151    23239070.262   -30927719.28906 -23988151.03346        45.000
        29.000
  24774119.296    24774131.499    -3111702.82005  -2377447.52146        42.000
        21.000
  24966337.471                     -421062.09805          .00051        41.000

  20378216.389    20378212.978   -68604168.28907 -53431331.29647        50.000
        41.000
  24402148.362    24402158.327   -71384377.34405 -55603610.36546        40.000
        24.000
 13 12 10 16  3 35.0000000  0  9G10G04G07G20G02G08G09G13G17
  21286268.937    21286265.978   -52618143.05907 -40963163.44247        49.000
        37.000
  20621326.206    20621323.242   -68430318.62107 -53278537.42247        51.000
        40.000
  22337438.259    22337435.999   -27759960.26607 -21523189.38147        48.000
        35.000
  23096960.032    23096956.672   -96169147.21905 -74827969.09746        42.000
        25.000
  23232526.992    23232521.836   -30962130.42206 -24014964.91546        45.000
        30.000
  24767071.672    24767084.506    -3148734.82005  -2406303.30646        41.000
        22.000
  24958861.979    24958879.231     -460347.25005   -314979.52346        41.000
        23.000
  20375166.637    20375162.940   -68620196.85507 -53443821.08547        50.000
        40.000
  24401322.197    24401332.165   -71388718.42205 -55606993.25246        40.000
        25.000
 13 12 10 16  3 40.0000000  0  9G10G04G07G20G02G08G09G13G17
  21280844.821    21280842.002   -52646647.12906 -40985374.40747        47.000
        37.000
  20617555.863    20617553.136   -68450130.98807 -53293975.62947        51.000
        40.000
  22330995.786    22330993.385   -27793816.74206 -21549571.04047        46.000
        35.000
  23095775.771    23095772.617   -96175370.34806 -74832818.29546        43.000
        24.000
  23225980.205    23225975.137   -30996533.93006 -24041772.80646        45.000
        29.000
  24760023.943    24760037.464    -3185766.98005  -2435159.17746        41.000
        22.000
  24951385.087    24951403.414     -499633.44505   -345591.68146        41.000
        23.000
  20372118.789    20372115.013   -68636213.48807 -53456301.56447        50.000
        40.000
  24400496.117    24400506.788   -71393058.38304 -55610375.27246        39.000
        25.000
 13 12 10 16  3 45.0000000  0  9G10G04G07G20G02G08G09G13G17
  21275421.796    21275419.084   -52675144.57407 -41007580.19647        48.000
        37.000
  20613788.895    20613786.062   -68469926.84007 -53309400.97247        52.000
        40.000
  22324554.334    22324552.533   -27827664.48806 -21575945.87047        47.000
        35.000
  23094592.404    23094588.912   -96181588.49206 -74837663.59446        44.000
        25.000
  23219434.871    23219429.830   -31030929.67206 -24068574.69146        44.000
        30.000
  24752977.314    24752990.036    -3222799.14505  -2464015.08246        42.000
        22.000
  24943909.073    24943927.627     -538920.66805   -376204.62646        41.000
        24.000
  20369073.098    20369069.732   -68652218.05507 -53468772.66147        51.000
        40.000
  24399669.670    24399681.246   -71397397.05504 -55613756.28546        38.000
        24.000
 13 12 10 16  3 50.0000000  0  9G10G04G07G20G02G08G09G13G17
  21270000.106    21269997.613   -52703635.25807 -41029780.72047        48.000
        37.000
  20610024.922    20610021.905   -68489705.98007 -53324813.29047        51.000
        40.000
  22318115.158    22318113.192   -27861503.27006 -21602313.72447        47.000
        36.000
  23093410.488    23093406.703   -96187801.49206 -74842504.90446        43.000
        26.000
  23212891.049    23212886.391   -31065317.44106 -24095370.33646        45.000
        29.000
  24745929.608    24745942.582    -3259831.13705  -2492870.88146        41.000
        22.000
  24936431.877    24936450.927     -578208.68405   -406818.18846        41.000
        25.000
  20366030.064    20366026.098   -68668210.37507 -53481234.21547        50.000
        40.000
  24398845.679    24398856.126   -71401734.30104 -55617136.18346        38.000
        24.000
 13 12 10 16  3 55.0000000  0  9G10G04G07G20G02G08G09G13G17
  21264580.086    21264576.980   -52732119.44107 -41051976.18447        48.000
        37.000
  20606264.379    20606261.549   -68509468.77707 -53340212.86047        51.000
        40.000
  22311677.609    22311675.239   -27895333.35906 -21628674.79347        47.000
        35.000
  23092228.363    23092225.846   -96194009.64506 -74847342.43246        44.000
        26.000
  23206348.831    23206343.560   -31099697.55506 -24122160.03646        45.000
        29.000
  24738882.207    24738895.149    -3296863.25405  -2521726.76146        42.000
        21.000
  24928955.289    24928974.526     -617497.77005   -437432.59046        41.000
        24.000
  20362988.898    20362985.095   -68684190.82007 -53493686.49647        50.000
        40.000
  24398021.556    24398031.006   -71406070.42605 -55620515.21846        40.000
        25.000
 13 12 10 16  4  0.0000000  0  9G10G04G07G20G02G08G09G13G17
  21259161.017    21259158.289   -52760596.94507 -41074166.44547        49.000
        36.000
  20602506.662    20602503.721   -68529215.08207 -53355599.59147        51.000
        40.000
  22305241.523    22305239.738   -27929154.59007 -21655028.97547        48.000
        35.000
  23091048.504    23091045.182   -96200212.75406 -74852176.01146        44.000
        26.000
  23199807.858    23199803.022   -31134069.86706 -24148943.62946        44.000
        29.000
  24731835.238    24731848.070    -3333895.31305  -2550582.57646        42.000
        22.000
  24921478.457    24921497.761     -656787.77005   -468047.73546        42.000
        25.000
  20359950.270    20359946.654   -68700159.18007 -53506129.36847        50.000
        40.000
  24397196.266    24397206.201   -71410405.30505 -55623893.27746        40.000
        25.000
 13 12 10 16  4  5.0000000  0  9G10G04G07G20G02G08G09G13G17
  21253743.035    21253740.179   -52789068.09807 -41096351.74847        49.000
        36.000
  20598752.199    20598748.896   -68548945.11307 -53370973.63547        51.000
        40.000
  22298807.412    22298805.027   -27962967.21907 -21681376.46947        48.000
        36.000
  23089868.463    23089865.691   -96206411.14806 -74857005.96246        44.000
        26.000
  23193268.619    23193263.907   -31168434.58206 -24175721.31146        44.000
        29.000
  24724788.217    24724800.309    -3370927.59805  -2579438.61746        42.000
        21.000
  24914000.818    24914020.085     -696078.97305   -498663.75046        41.000
        26.000
  20356913.841    20356910.310   -68716115.72307 -53518563.02747        50.000
        41.000
  24396371.144    24396381.634   -71414739.26605 -55627270.59446        40.000
        24.000
 13 12 10 16  4 10.0000000  0  9G10G04G07G20G02G08G09G13G17
  21248326.540    21248323.446   -52817532.71507 -41118531.95147        49.000
        36.000
  20595000.668    20594998.051   -68568658.74207 -53386334.90847        51.000
        40.000
  22292374.493    22292372.514   -27996771.07807 -21707717.13247        49.000
        36.000
  23088690.492    23088686.937   -96212604.73406 -74861832.11646        44.000
        26.000
  23186730.733    23186726.155   -31202791.62506 -24202493.01946        44.000
        30.000
  24717741.419    24717753.040    -3407959.93805  -2608294.69946        42.000
        21.000
  24906523.655    24906542.339     -735371.21105   -529280.58046        41.000
        25.000
  20353879.771    20353875.925   -68732060.40207 -53530987.44947        50.000
        41.000
  24395547.073    24395557.254   -71419072.13305 -55630647.09046        40.000
        25.000
 13 12 10 16  4 15.0000000  0  9G10G04G07G20G02G08G09G13G17
  21242911.078    21242907.954   -52845990.61707 -41140706.94347        49.000
        36.000
  20591252.275    20591249.438   -68588355.78107 -53401683.24847        51.000
        40.000
  22285943.481    22285941.549   -28030566.03107 -21734050.83647        48.000
        35.000
  23087512.542    23087509.383   -96218793.25406 -74866654.37746        44.000
        26.000
  23180193.650    23180189.311   -31237140.73006 -24229258.55646        44.000
        30.000
  24710694.135    24710705.199    -3444992.18406  -2637150.67946        43.000
        22.000
  24899046.303    24899064.923     -774664.30505   -559898.09346        40.000
        23.000
  20350847.930    20350844.101   -68747992.97707 -53543402.44447        50.000
        41.000
  24394722.755    24394733.121   -71423403.77705 -55634022.59546        40.000
        25.000
 13 12 10 16  4 20.0000000  0  9G10G04G07G20G02G08G09G13G17
  21237496.759    21237493.996   -52874442.01207 -41162876.85347        49.000
        37.000
  20587507.509    20587504.623   -68608036.47707 -53417018.85447        51.000
        40.000
  22279514.281    22279512.107   -28064352.23807 -21760377.72247        48.000
        36.000
  23086335.264    23086333.059   -96224977.00006 -74871472.89446        44.000
        27.000
  23173658.840    23173653.993   -31271482.12506 -24256018.06546        44.000
        29.000
  24703646.956    24703658.447    -3482024.43405  -2666006.71146        42.000
        22.000
  24891568.390    24891587.067     -813958.42605   -590516.40746        40.000
        23.000
  20347818.180    20347814.761   -68763913.64507 -53555808.14947        49.000
        40.000
  24393899.256    24393909.701   -71427734.41005 -55637397.38046        40.000
        23.000
 13 12 10 16  4 25.0000000  0  9G10G04G07G20G02G08G09G13G17
  21232083.891    21232080.888   -52902887.01207 -41185041.79147        48.000
        37.000
  20583765.283    20583762.663   -68627700.93007 -53432341.79447        51.000
        40.000
  22273086.597    22273084.738   -28098129.83606 -21786697.90547        47.000
        35.000
  23085159.575    23085157.306   -96231156.04706 -74876287.71146        44.000
        24.000
  23167125.789    23167120.394   -31305815.90606 -24282771.66546        44.000
        30.000
  24696599.606    24696611.340    -3519056.89105  -2694862.91046        42.000
        22.000
  24884090.379    24884108.731     -853253.68404   -621135.63246        39.000
        24.000
  20344791.086    20344787.179   -68779822.55507 -53568204.70947        50.000
        41.000
  24393075.406    24393085.794   -71432064.12905 -55640771.40646        40.000
        25.000
 13 12 10 16  4 30.0000000  0  9G10G04G07G20G02G08G09G13G17
  21226672.266    21226669.122   -52931325.70307 -41207201.80047        49.000
        37.000
  20580026.679    20580023.666   -68647349.21107 -53447652.14347        51.000
        40.000
  22266660.671    22266658.736   -28131898.87507 -21813011.41047        48.000
        36.000
  23083984.680    23083981.844   -96237330.46906 -74881098.97046        43.000
        26.000
  23160593.096    23160588.025   -31340142.15606 -24309519.37146        45.000
        30.000
  24689552.373    24689564.183    -3556089.59805  -2723719.24646        41.000
        23.000
  24876612.095    24876630.250     -892550.19105   -651755.82346        40.000
        22.000
  20341765.473    20341761.912   -68795719.83607 -53580592.19247        50.000
        41.000
  24392251.402    24392262.528   -71436393.12504 -55644144.86646        39.000
        25.000
 13 12 10 16  4 35.0000000  0  9G10G04G07G20G02G08G09G13G17
  21221262.005    21221258.947   -52959757.71107 -41229356.61147        48.000
        37.000
  20576290.719    20576287.621   -68666980.99207 -53462949.63347        51.000
        40.000
  22260236.299    22260234.031   -28165659.03506 -21839318.01747        47.000
        36.000
  23082811.097    23082808.314   -96243499.97706 -74885906.35746        44.000
        26.000
  23154063.102    23154057.653   -31374460.47706 -24336260.91746        45.000
        30.000
  24682504.411    24682517.071    -3593122.28105  -2752575.48846        41.000
        22.000
  24869133.691    24869152.192     -931847.57005   -682376.66946        40.000
        22.000
  20338742.626    20338739.289   -68811605.12507 -53592970.32547        50.000
        41.000
  24391428.846    24391438.827   -71440721.07404 -55647517.52746        39.000
        25.000
 13 12 10 16  4 40.0000000  0  9G10G04G07G20G02G08G09G13G17
  21215852.725    21215849.734   -52988183.10207 -41251506.25347        48.000
        37.000
  20572557.969    20572555.205   -68686596.28507 -53478234.27147        51.000
        40.000
  22253813.446    22253811.942   -28199410.29307 -21865617.68047        48.000
        36.000
  23081637.852    23081634.854   -96249664.52006 -74890709.93046        44.000
        25.000
  23147533.959    23147528.452   -31408770.91406 -24362996.30946        44.000
        29.000
  24675457.127    24675469.432    -3630154.82005  -2781431.82046        42.000
        22.000
  24861655.493    24861673.999     -971145.78905   -712998.20946        41.000
        22.000
  20335722.574    20335718.714   -68827478.45307 -53605339.15847        50.000
        41.000
  24390606.242    24390615.401   -71445047.86305 -55650889.32946        41.000
        26.000
 13 12 10 16  4 45.0000000  0  9G10G04G07G20G02G08G09G13G17
  21210444.438    21210441.557   -53016602.06607 -41273650.89747        48.000
        37.000
  20568828.325    20568825.325   -68706195.28507 -53493506.21347        51.000
        40.000
  22247392.853    22247390.972   -28233152.86706 -21891910.58347        47.000
        36.000
  23080465.217    23080462.672   -96255824.35206 -74895509.82146        44.000
        25.000
  23141006.278    23141000.430   -31443073.72306 -24389725.77246        44.000
        30.000
  24668409.916    24668422.130    -3667187.51605  -2810288.06946        41.000
        22.000
  24854176.283    24854195.392    -1010445.14505   -743620.59346        40.000
        22.000
  20332704.062    20332700.401   -68843340.04707 -53617698.83247        50.000
        41.000
  24389781.979    24389792.913   -71449373.87904 -55654260.46546        38.000
        24.000
 13 12 10 16  4 50.0000000  0  9G10G04G07G20G02G08G09G13G17
  21205038.039    21205035.003   -53045014.70707 -41295790.61347        49.000
        37.000
  20565102.005    20565099.154   -68725778.17607 -53508765.61747        50.000
        40.000
  22240973.233    22240971.048   -28266886.87507 -21918196.79647        48.000
        36.000
  23079294.602    23079291.229   -96261979.60506 -74900306.13346        43.000
        25.000
  23134479.947    23134474.367   -31477369.03506 -24416449.39646        43.000
        30.000
  24661362.789    24661374.818    -3704220.42605  -2839144.63146        41.000
        23.000
  24846697.747    24846715.771    -1049745.66405   -774243.94746        40.000
        22.000
  20329687.643    20329684.312   -68859190.04307 -53630049.47447        50.000
        40.000
  24388959.186    24388970.042   -71453699.21904 -55657631.08846        39.000
        25.000
 13 12 10 16  4 55.0000000  0  9G10G04G07G20G02G08G09G13G17
  21199632.336    21199629.572   -53073421.14507 -41317925.48447        49.000
        37.000
  20561378.148    20561375.537   -68745345.05907 -53524012.54247        49.000
        41.000
  22234554.901    22234553.145   -28300612.37506 -21944476.40647        47.000
        35.000
  23078123.821    23078120.856   -96268130.44906 -74905099.00346        43.000
        25.000
  23127955.382    23127949.995   -31511656.88706 -24443167.17946        43.000
        29.000
  24654315.422    24654326.921    -3741253.62105  -2868001.35046        41.000
        23.000
  24839218.974    24839236.152    -1089047.46905   -804868.28546        40.000
        22.000
  20326673.432    20326670.176   -68875028.58207 -53642391.19047        50.000
        40.000
  24388136.411    24388147.141   -71458023.95304 -55661001.27746        39.000
        26.000
 13 12 10 16  5  0.0000000  0  9G10G04G07G20G02G08G09G13G17
  21194228.206    21194225.175   -53101821.16807 -41340055.37947        49.000
        38.000
  20557658.020    20557655.228   -68764895.64507 -53539246.76047        49.000
        41.000
  22228139.196    22228137.005   -28334329.21106 -21970749.22447        46.000
        35.000
  23076954.300    23076951.138   -96274276.60506 -74909888.20046        44.000
        26.000
  23121432.188    23121426.682   -31545937.08606 -24469879.01646        43.000
        29.000
  24647267.640    24647279.265    -3778286.93405  -2896858.19146        41.000
        23.000
  24831738.531    24831756.597    -1128350.35905   -835493.46446        40.000
        23.000
  20323662.277    20323658.262   -68890855.42607 -53654723.79347        50.000
        40.000
  24387314.001    24387324.495   -71462347.91004 -55664370.82946        38.000
        26.000
 13 12 10 16  5  5.0000000  0  9G10G04G07G20G02G08G09G13G17
  21188824.942    21188822.204   -53130214.41007 -41362179.97547        49.000
        37.000
  20553940.722    20553937.980   -68784429.60507 -53554468.03147        50.000
        41.000
  22221724.932    22221722.270   -28368036.97306 -21997014.97947        47.000
        35.000
  23075786.120    23075782.927   -96280417.70306 -74914673.47946        44.000
        27.000
  23114910.431    23114905.172   -31580209.24206 -24496584.55946        44.000
        29.000
  24640220.420    24640231.917    -3815319.98405  -2925714.86146        41.000
        23.000
  24824259.576    24824276.885    -1167653.92205   -866119.11146        40.000
        23.000
  20320652.719    20320648.680   -68906670.26607 -53667047.03847        50.000
        41.000
  24386492.153    24386502.042   -71466670.78104 -55667739.52446        39.000
        26.000
 13 12 10 16  5 10.0000000  0  9G10G04G07G20G02G08G09G13G17
  21183423.219    21183420.405   -53158601.12106 -41384299.48247        47.000
        37.000
  20550226.785    20550224.182   -68803947.19907 -53569676.54447        50.000
        40.000
  22215312.233    22215309.736   -28401735.89106 -22023273.86747        46.000
        36.000
  23074618.161    23074615.283   -96286554.04306 -74919455.05546        44.000
        26.000
  23108390.099    23108385.257   -31614473.57406 -24523284.01946        43.000
        30.000
  24633173.023    24633184.267    -3852353.03905  -2954571.46546        41.000
        22.000
  24816779.636    24816797.357    -1206958.47305   -896745.57746        40.000
        23.000
  20317645.250    20317641.476   -68922473.29707 -53679361.07747        50.000
        41.000
  24385669.196    24385679.526   -71470992.76205 -55671107.55346        40.000
        27.000
 13 12 10 16  5 15.0000000  0  9G10G04G07G20G02G08G09G13G17
  21178022.419    21178019.584   -53186981.15207 -41406413.78447        48.000
        37.000
  20546515.827    20546512.810   -68823448.32007 -53584872.21947        50.000
        40.000
  22208901.529    22208899.139   -28435425.86707 -22049525.77247        48.000
        36.000
  23073451.406    23073448.396   -96292685.43006 -74924232.75846        44.000
        27.000
  23101870.801    23101866.101   -31648729.96906 -24549977.31246        44.000
        29.000
  24626126.694    24626136.931    -3889385.90605  -2983427.95846        42.000
        22.000
  24809300.536    24809317.267    -1246263.80504   -927372.59546        39.000
        23.000
  20314640.401    20314636.525   -68938264.42607 -53691665.85247        50.000
        41.000
  24384847.184    24384857.406   -71475313.85504 -55674474.91746        39.000
        25.000
 13 12 10 16  5 20.0000000  0  9G10G04G07G20G02G08G09G13G17
  21172623.179    21172620.390   -53215354.62907 -41428522.97747        49.000
        38.000
  20542808.226    20542805.408   -68842933.10207 -53600055.16247        50.000
        40.000
  22202492.178    22202489.671   -28469106.99207 -22075770.79747        48.000
        36.000
  23072285.397    23072282.970   -96298812.01206 -74929006.74346        44.000
        26.000
  23095354.083    23095348.587   -31682978.55106 -24576664.51146        44.000
        30.000
  24619078.338    24619089.158    -3926418.72705  -3012284.40346        41.000
        21.000
  24801819.446    24801837.217    -1285570.02304   -958000.38346        39.000
        23.000
  20311637.218    20311633.830   -68954043.80107 -53703961.46847        50.000
        40.000
  24384024.989    24384035.480   -71479634.10505 -55677841.56146        40.000
        26.000
 13 12 10 16  5 25.0000000  0  9G10G04G07G20G02G08G09G13G17
  21167225.203    21167222.354   -53243721.58607 -41450627.09647        48.000
        38.000
  20539103.470    20539100.635   -68862401.53507 -53615225.37547        50.000
        41.000
  22196084.040    22196082.023   -28502779.31306 -22102008.95847        47.000
        36.000
  23071120.746    23071117.712   -96304933.89506 -74933777.05046        44.000
        24.000
  23088838.201    23088832.215   -31717219.32006 -24603345.62946        44.000
        29.000
  24612031.197    24612042.543    -3963451.52705  -3041140.86246        42.000
        21.000
  24794339.525    24794356.840    -1324877.22705   -988628.92446        40.000
        23.000
  20308637.332    20308633.385   -68969811.44907 -53716247.95047        50.000
        40.000
  24383203.163    24383213.852   -71483953.56605 -55681207.64146        40.000
        27.000
 13 12 10 16  5 30.0000000  0  9G10G04G07G20G02G08G09G13G17
  21161828.729    21161825.693   -53272081.96506 -41472726.08347        47.000
        38.000
  20535401.879    20535399.036   -68881853.55507 -53630382.79147        50.000
        41.000
  22189677.707    22189675.962   -28536442.71906 -22128240.16147        46.000
        36.000
  23069956.615    23069953.730   -96311050.96506 -74938543.60446        44.000
        25.000
  23082324.136    23082318.353   -31751452.23406 -24630020.60846        43.000
        29.000
  24604984.619    24604995.371    -4000484.24205  -3069997.20646        41.000
        21.000
  24786859.291    24786876.272    -1364185.32005  -1019258.15946        40.000
        24.000
  20305638.825    20305634.969   -68985567.31607 -53728525.24047        50.000
        41.000
  24382381.788    24382392.643   -71488272.21504 -55684573.05946        39.000
        24.000
 13 12 10 16  5 35.0000000  0  9G10G04G07G20G02G08G09G13G17
  21156432.914    21156430.039   -53300435.79307 -41494819.97747        48.000
        37.000
  20531703.355    20531700.328   -68901289.19107 -53645527.43247        50.000
        41.000
  22183273.813    22183271.558   -28570097.21906 -22154464.42347        46.000
        36.000
  23068793.588    23068790.461   -96317163.26606 -74943306.43646        44.000
        26.000
  23075811.108    23075805.273   -31785677.26206 -24656689.47246        44.000
        29.000
  24597936.865    24597948.060    -4037516.86705  -3098853.56146        41.000
        22.000
  24779378.504    24779395.330    -1403494.28905  -1049888.10046        40.000
        22.000
  20302642.965    20302638.924   -69001311.45707 -53740793.39247        50.000
        41.000
  24381560.115    24381571.294   -71492590.03104 -55687937.90646        38.000
        24.000
 13 12 10 16  5 40.0000000  0  9G10G04G07G20G02G08G09G13G17
  21151038.402    21151035.506   -53328783.23407 -41516908.87847        48.000
        37.000
  20528007.818    20528005.028   -68920708.69907 -53660659.51047        50.000
        40.000
  22176872.068    22176868.971   -28603742.98806 -22180681.88147        47.000
        36.000
  23067630.925    23067628.397   -96323270.98806 -74948065.69246        45.000
        26.000
  23069299.520    23069293.760   -31819894.57006 -24683352.28746        43.000
        29.000
  24590889.505    24590900.681    -4074549.60505  -3127709.92146        41.000
        22.000
  24771897.126    24771914.297    -1442804.31604  -1080518.84046        39.000
        22.000
  20299648.745    20299644.942   -69017044.05907 -53753052.56247        50.000
        41.000
  24380739.612    24380750.380   -71496907.27004 -55691302.23246        39.000
        24.000
 13 12 10 16  5 45.0000000  0  9G10G04G07G20G02G08G09G13G17
  21145645.401    21145642.415   -53357124.17607 -41538992.72647        48.000
        37.000
  20524315.522    20524312.740   -68940111.84807 -53675778.85747        50.000
        41.000
  22170470.808    22170468.262   -28637379.85906 -22206892.41847        47.000
        36.000
  23066469.913    23066466.832   -96329373.98806 -74952821.30146        44.000
        26.000
  23062789.502    23062784.163   -31854104.07406 -24710009.03346        43.000
        29.000
  24583841.836    24583853.279    -4111582.22305  -3156566.21946        42.000
        23.000
  24764416.474    24764433.177    -1482115.25004  -1111150.26946        39.000
        23.000
  20296657.250    20296653.671   -69032764.95307 -53765302.60347        50.000
        41.000
  24379918.563    24379929.167   -71501223.82004 -55694665.99646        38.000
        25.000
 13 12 10 16  5 50.0000000  0  9G10G04G07G20G02G08G09G13G17
  21140253.741    21140250.911   -53385458.46107 -41561071.38447        48.000
        37.000
  20520626.382    20520623.419   -68959498.55107 -53690885.37247        49.000
        41.000
  22164071.697    22164068.983   -28671007.74606 -22233095.95347        47.000
        36.000
  23065309.490    23065306.515   -96335472.15606 -74957573.10446        45.000
        26.000
  23056281.275    23056275.497   -31888305.62505 -24736659.57846        42.000
        29.000
  24576794.575    24576805.596    -4148614.65205  -3185422.30846        41.000
        23.000
  24756935.085    24756952.549    -1521427.02304  -1141782.26146        38.000
        23.000
  20293668.165    20293664.427   -69048474.01607 -53777543.42447        50.000
        41.000
  24379096.734    24379108.394   -71505539.57805 -55698029.17046        40.000
        26.000
 13 12 10 16  5 55.0000000  0  9G10G04G07G20G02G08G09G13G17
  21134862.974    21134860.275   -53413786.32407 -41583145.03547        48.000
        37.000
  20516940.358    20516937.667   -68978869.00007 -53705979.23347        50.000
        40.000
  22157673.231    22157671.526   -28704626.80106 -22259292.59047        47.000
        36.000
  23064149.726    23064147.768   -96341565.65606 -74962321.28546        44.000
        26.000
  23049774.405    23049768.755   -31922499.37906 -24763304.05246        43.000
        29.000
  24569747.345    24569758.006    -4185647.08205  -3214278.50546        41.000
        22.000
  24749453.805    24749470.682    -1560739.57805  -1172415.01946        40.000
        23.000
  20290680.796    20290677.082   -69064171.48807 -53789775.22147        50.000
        41.000
  24378275.951    24378287.122   -71509854.74604 -55701391.94246        39.000
        25.000
 13 12 10 16  6  0.0000000  0  9G10G04G07G20G02G08G09G13G17
  21129473.462    21129470.583   -53442107.85907 -41605213.75347        48.000
        37.000
  20513257.384    20513254.438   -68998223.32807 -53721060.53947        50.000
        40.000
  22151277.916    22151275.925   -28738237.12106 -22285482.43447        47.000
        36.000
  23062991.281    23062988.796   -96347654.65606 -74967065.96746        45.000
        26.000
  23043268.762    23043263.390   -31956685.46106 -24789942.57046        43.000
        29.000
  24562699.783    24562710.421    -4222679.60505  -3243134.68346        40.000
        22.000
  24741972.929    24741988.896    -1600053.30905  -1203048.67246        40.000
        23.000
  20287696.037    20287692.312   -69079857.48807 -53801998.06947        50.000
        41.000
  24377455.026    24377466.434   -71514169.41804 -55704754.26846        39.000
        25.000
 13 12 10 16  6  5.0000000  0  9G10G04G07G20G02G08G09G13G17
  21124085.427    21124082.186   -53470422.90206 -41627277.42147        47.000
        37.000
  20509577.455    20509574.589   -69017561.36307 -53736129.12547        50.000
        40.000
  22144883.646    22144881.722   -28771838.57406 -22311665.37447        46.000
        36.000
  23061832.829    23061830.740   -96353738.97306 -74971807.01046        45.000
        27.000
  23036765.103    23036759.581   -31990863.71505 -24816574.95146        42.000
        28.000
  24555652.506    24555663.165    -4259712.09005  -3271990.92146        40.000
        21.000
  24734490.593    24734507.229    -1639367.95305  -1233682.95346        40.000
        22.000
  20284713.194    20284709.482   -69095531.87907 -53814211.87547        50.000
        41.000
  24376634.916    24376645.594   -71518483.53104 -55708116.22946        39.000
        25.000
 13 12 10 16  6 10.0000000  0  9G10G04G07G20G02G08G09G13G17
  21118698.867    21118695.631   -53498731.15607 -41649335.79647        48.000
        37.000
  20505900.778    20505897.821   -69036882.85207 -53751184.83447        51.000
        41.000
  22138491.186    22138489.129   -28805430.87106 -22337841.16347        46.000
        36.000
  23060676.213    23060674.022   -96359818.37506 -74976544.19146        44.000
        27.000
  23030263.337    23030257.581   -32025033.78906 -24843200.95846        44.000
        30.000
  24548605.329    24548616.250    -4296744.27005  -3300846.86846        40.000
        21.000
  24727009.040    24727024.896    -1678683.21105  -1264317.85146        41.000
        23.000
  20281732.526    20281729.186   -69111194.38307 -53826416.41947        50.000
        40.000
  24375813.447    24375825.150   -71522796.83605 -55711477.46546        41.000
        26.000
 13 12 10 16  6 15.0000000  0  9G10G04G07G20G02G08G09G13G17
  21113313.056    21113310.080   -53527032.94907 -41671389.13147        48.000
        37.000
  20502226.830    20502224.216   -69056188.10907 -53766227.89347        50.000
        41.000
  22132100.668    22132098.793   -28839014.29706 -22364010.05447        47.000
        36.000
  23059520.554    23059517.910   -96365893.15206 -74981277.81546        44.000
        27.000
  23023761.936    23023756.874   -32059196.07806 -24869820.92346        43.000
        30.000
  24541558.813    24541569.505    -4333776.34805  -3329702.76146        41.000
        21.000
  24719527.756    24719542.654    -1717999.37105  -1294953.37746        40.000
        22.000
  20278754.419    20278750.554   -69126845.28907 -53838611.92847        50.000
        40.000
  24374992.780    24375004.927   -71527109.57805 -55714838.31946        40.000
        26.000
 13 12 10 16  6 20.0000000  0  9G10G04G07G20G02G08G09G13G17
  21107928.491    21107925.504   -53555328.38707 -41693437.50747        48.000
        37.000
  20498556.381    20498553.314   -69075477.25807 -53781258.39947        50.000
        41.000
  22125711.686    22125709.471   -28872588.96906 -22390172.12247        46.000
        36.000
  23058364.975    23058363.253   -96371963.43806 -74986007.89446        45.000
        28.000
  23017263.217    23017257.750   -32093350.62506 -24896434.83946        44.000
        30.000
  24534511.274    24534521.780    -4370808.47705  -3358558.67346        41.000
        21.000
  24712045.342    24712060.344    -1757316.53305  -1325589.73046        40.000
        22.000
  20275778.023    20275774.889   -69142484.77007 -53850798.52047        50.000
        41.000
  24374173.351    24374184.305   -71531421.95704 -55718198.95146        39.000
        25.000
 13 12 10 16  6 25.0000000  0  9G10G04G07G20G02G08G09G13G17
  21102545.000    21102542.458   -53583617.49207 -41715480.96647        49.000
        37.000
  20494888.697    20494885.908   -69094750.22707 -53796276.28847        50.000
        41.000
  22119324.357    22119322.170   -28906154.85906 -22416327.32947        47.000
        36.000
  23057210.597    23057209.261   -96378029.23006 -74990734.51146        44.000
        27.000
  23010764.502    23010759.302   -32127497.44906 -24923042.74946        43.000
        30.000
  24527464.053    24527474.276    -4407840.66405  -3387414.64046        41.000
        21.000
  24704563.299    24704578.369    -1796634.81305  -1356226.87646        40.000
        22.000
  20272804.881    20272800.718   -69158112.81607 -53862976.22047        50.000
        40.000
  24373353.125    24373363.928   -71535733.93405 -55721559.14446        40.000
        25.000
 13 12 10 16  6 30.0000000  0  9G10G04G07G20G02G08G09G13G17
  21097163.209    21097160.226   -53611899.96907 -41737519.24847        49.000
        37.000
  20491224.240    20491221.664   -69114006.72707 -53811281.35947        51.000
        41.000
  22112937.918    22112936.190   -28939711.68806 -22442475.50247        46.000
        36.000
  23056057.968    23056055.519   -96384090.22706 -74995457.36446        45.000
        27.000
  23004268.735    23004263.256   -32161636.23806 -24949644.38946        44.000
        29.000
  24520416.961    24520427.530    -4444872.68005  -3416270.50546        42.000
        22.000
  24697080.185    24697095.826    -1835953.76504  -1386864.58546        39.000
        23.000
  20269832.963    20269829.092   -69173729.21507 -53875144.84347        51.000
        40.000
  24372532.535    24372543.924   -71540045.27305 -55724918.91246        40.000
        25.000
 13 12 10 16  6 35.0000000  0  9G10G04G07G20G02G08G09G13G17
  21091782.308    21091779.450   -53640176.19907 -41759552.66747        48.000
        37.000
  20487562.901    20487560.218   -69133247.25407 -53826273.96647        51.000
        41.000
  22106554.627    22106552.329   -28973259.82806 -22468616.88747        45.000
        36.000
  23054905.048    23054903.331   -96390146.80906 -75000176.79546        45.000
        28.000
  22997773.302    22997768.077   -32195767.35506 -24976240.06646        43.000
        30.000
  24513370.245    24513380.395    -4481904.79305  -3445126.40646        41.000
        23.000
  24689597.843    24689613.312    -1875273.89105  -1417503.12846        40.000
        23.000
  20266863.283    20266859.277   -69189334.28507 -53887304.63547        50.000
        40.000
  24371711.854    24371723.838   -71544356.36305 -55728278.47446        40.000
        26.000
 13 12 10 16  6 40.0000000  0  9G10G04G07G20G02G08G09G13G17
  21086402.909    21086399.892   -53668445.93006 -41781581.02547        47.000
        36.000
  20483904.916    20483901.949   -69152471.55507 -53841253.94447        50.000
        41.000
  22100172.373    22100169.861   -29006799.11306 -22494751.37547        45.000
        35.000
  23053753.418    23053751.567   -96396198.82406 -75004892.67846        45.000
        26.000
  22991279.621    22991274.775   -32229890.65606 -25002829.63246        43.000
        30.000
  24506322.205    24506333.160    -4518936.82005  -3473982.20046        41.000
        22.000
  24682114.861    24682129.960    -1914594.85205  -1448142.43046        40.000
        23.000
  20263896.085    20263892.076   -69204927.85507 -53899455.47047        50.000
        40.000
  24370891.578    24370903.372   -71548666.98804 -55731637.69846        39.000
        24.000
 13 12 10 16  6 45.0000000  0  9G10G04G07G20G02G08G09G13G17
  21081024.438    21081021.623   -53696709.40607 -41803604.52547        48.000
        37.000
  20480249.419    20480246.800   -69171679.82807 -53856221.43347        50.000
        41.000
  22093791.772    22093789.459   -29040329.67206 -22520879.06947        46.000
        36.000
  23052602.520    23052600.404   -96402246.39806 -75009605.05546        45.000
        28.000
  22984787.883    22984782.538   -32264006.25406 -25029413.20146        43.000
        30.000
  24499274.781    24499285.905    -4555968.98405  -3502838.12446        40.000
        22.000
  24674631.351    24674647.173    -1953916.91004  -1478782.53246        38.000
        23.000
  20260930.722    20260927.001   -69220510.14807 -53911597.50347        50.000
        40.000
  24370072.139    24370083.062   -71552977.40604 -55734996.74946        39.000
        26.000
 13 12 10 16  6 50.0000000  0  9G10G04G07G20G02G08G09G13G17
  21075647.336    21075644.506   -53724966.48007 -41825623.01147        48.000
        37.000
  20476597.346    20476594.812   -69190871.97307 -53871176.35247        50.000
        41.000
  22087412.529    22087410.723   -29073851.39806 -22546999.87747        47.000
        36.000
  23051452.932    23051450.634   -96408289.51606 -75014313.99746        45.000
        28.000
  22978297.418    22978291.768   -32298114.06606 -25055990.70146        43.000
        29.000
  24492227.418    24492238.115    -4593001.11305  -3531694.12246        40.000
        21.000
  24667147.885    24667164.009    -1993239.86704  -1509423.39946        38.000
        23.000
  20257968.022    20257963.543   -69236081.06607 -53923730.67247        50.000
        41.000
  24369251.738    24369263.576   -71557287.50805 -55738355.53046        40.000
        24.000
 13 12 10 16  6 55.0000000  0  9G10G04G07G20G02G08G09G13G17
  21070271.366    21070268.574   -53753217.12907 -41847636.48647        48.000
        37.000
  20472948.336    20472945.719   -69210047.88307 -53886118.61547        50.000
        40.000
  22081035.237    22081032.903   -29107364.24606 -22573113.76847        47.000
        36.000
  23050303.587    23050301.334   -96414328.06606 -75019019.37846        45.000
        26.000
  22971808.429    22971802.808   -32332213.98805 -25082562.07046        42.000
        30.000
  24485180.787    24485191.269    -4630033.19905  -3560549.98346        41.000
        21.000
  24659664.934    24659680.456    -2032563.70305  -1540064.94146        40.000
        23.000
  20255006.765    20255002.606   -69251640.52307 -53935854.92547        50.000
        41.000
  24368432.068    24368443.952   -71561597.25005 -55741714.03846        40.000
        26.000
 13 12 10 16  7  0.0000000  0  9G10G04G07G20G02G08G09G13G17
  21064896.300    21064893.811   -53781461.34407 -41869644.96947        48.000
        37.000
  20469302.890    20469299.542   -69229207.59407 -53901048.26247        49.000
        40.000
  22074659.752    22074657.615   -29140868.09806 -22599220.65847        47.000
        36.000
  23049155.391    23049152.964   -96420362.03906 -75023721.15446        45.000
        27.000
  22965320.790    22965315.254   -32366305.98806 -25109127.25146        43.000
        29.000
  24478133.634    24478143.966    -4667065.07805  -3589405.73245        41.000
        20.000
  24652181.325    24652196.631    -2071888.36704  -1570707.10246        39.000
        23.000
  20252048.048    20252044.132   -69267188.47707 -53947970.20747        50.000
        41.000
  24367612.121    24367624.110   -71565906.62104 -55745072.29346        39.000
        25.000
 13 12 10 16  7  5.0000000  0  9G10G04G07G20G02G08G09G13G17
  21059522.923    21059520.101   -53809698.82407 -41891648.20047        49.000
        37.000
  20465659.511    20465656.784   -69248350.76607 -53915965.00947        49.000
        40.000
  22068286.050    22068283.527   -29174362.74206 -22625320.36147        46.000
        36.000
  23048008.154    23048005.842   -96426391.17206 -75028419.20646        45.000
        27.000
  22958834.334    22958829.253   -32400389.84405 -25135686.07546        42.000
        30.000
  24471086.813    24471096.750    -4704096.55905  -3618261.18646        42.000
        22.000
  24644698.148    24644713.243    -2111213.60204  -1601349.71746        39.000
        23.000
  20249091.427    20249087.766   -69282724.73007 -53960076.38247        50.000
        41.000
  24366792.481    24366804.337   -71570215.38705 -55748430.04946        40.000
        26.000
 13 12 10 16  7 10.0000000  0  9G10G04G07G20G02G08G09G13G17
  21054151.249    21054148.251   -53837930.05107 -41913646.53947        48.000
        37.000
  20462019.929    20462017.171   -69267477.97707 -53930869.33747        49.000
        40.000
  22061913.553    22061911.543   -29207848.62906 -22651413.23947        46.000
        36.000
  23046861.703    23046859.189   -96432415.96906 -75033113.83046        45.000
        25.000
  22952350.610    22952345.132   -32434465.94106 -25162238.86346        44.000
        29.000
  24464040.485    24464049.477    -4741128.06305  -3647116.58846        42.000
        23.000
  24637214.139    24637228.999    -2150539.90604  -1631993.13746        38.000
        22.000
  20246137.299    20246133.834   -69298249.75007 -53972173.78847        50.000
        41.000
  24365972.473    24365985.410   -71574524.01205 -55751787.68746        40.000
        23.000
 13 12 10 16  7 15.0000000  0  9G10G04G07G20G02G08G09G13G17
  21048779.890    21048777.347   -53866154.98407 -41935639.99647        48.000
        37.000
  20458383.089    20458380.145   -69286589.05107 -53945761.08347        49.000
        40.000
  22055542.854    22055540.658   -29241325.77006 -22677499.31347        45.000
        36.000
  23045715.951    23045713.476   -96438436.31306 -75037805.02646        45.000
        28.000
  22945867.228    22945862.136   -32468534.29706 -25188785.64046        44.000
        29.000
  24456993.248    24457002.578    -4778159.65605  -3675972.11346        42.000
        23.000
  24629729.707    24629744.912    -2189867.18005  -1662637.36546        40.000
        23.000
  20243184.808    20243181.183   -69313763.52307 -53984262.43647        50.000
        40.000
  24365152.856    24365165.280   -71578832.46505 -55755145.26346        40.000
        24.000
 13 12 10 16  7 20.0000000  0  9G10G04G07G20G02G08G09G13G17
  21043410.322    21043407.409   -53894373.54707 -41957628.46847        48.000
        37.000
  20454749.597    20454746.826   -69305684.04307 -53960640.30347        48.000
        40.000
  22049174.612    22049172.016   -29274794.01206 -22703578.44047        46.000
        36.000
  23044570.982    23044568.761   -96444452.21106 -75042492.73746        45.000
        27.000
  22939385.737    22939380.751   -32502594.78505 -25215326.26546        42.000
        30.000
  24449946.154    24449955.633    -4815191.14505  -3704827.50546        41.000
        23.000
  24622244.982    24622260.390    -2229195.34804  -1693282.26146        38.000
        23.000
  20240235.072    20240231.326   -69329265.96907 -53996342.25747        51.000
        40.000
  24364333.259    24364345.832   -71583140.64805 -55758502.57146        40.000
        25.000
 13 12 10 16  7 25.0000000  0  9G10G04G07G20G02G08G09G13G17
  21038041.451    21038038.809   -53922585.71107 -41979611.96447        48.000
        37.000
  20451118.926    20451116.062   -69324762.91007 -53975506.95247        49.000
        41.000
  22042807.360    22042805.037   -29308253.35506 -22729650.63847        47.000
        36.000
  23043427.627    23043424.741   -96450463.66006 -75047177.00846        45.000
        27.000
  22932905.954    22932900.610   -32536647.48406 -25241860.83146        43.000
        31.000
  24442898.435    24442908.533    -4852222.59405  -3733682.94146        40.000
        22.000
  24614761.240    24614775.751    -2268524.44504  -1723927.89446        38.000
        23.000
  20237287.456    20237283.528   -69344757.09407 -54008413.26147        50.000
        40.000
  24363513.930    24363525.975   -71587448.52305 -55761859.64146        40.000
        25.000
 13 12 10 16  7 30.0000000  0  9G10G04G07G20G02G08G09G13G17
  21032674.124    21032671.323   -53950791.48007 -42001590.49547        49.000
        37.000
  20447491.386    20447488.524   -69343825.63707 -53990361.02147        50.000
        40.000
  22036441.689    22036439.808   -29341703.78906 -22755715.89847        47.000
        37.000
  23042284.248    23042281.549   -96456470.65206 -75051857.76946        45.000
        28.000
  22926427.014    22926422.209   -32570692.27306 -25268389.19446        43.000
        31.000
  24435851.077    24435861.428    -4889253.94905  -3762538.26246        40.000
        22.000
  24607276.486    24607291.072    -2307854.47304  -1754574.26446        39.000
        22.000
  20234341.646    20234337.602   -69360236.90207 -54020475.44047        50.000
        40.000
  24362694.377    24362706.208   -71591756.25005 -55765216.60746        40.000
        24.000
 13 12 10 16  7 35.0000000  0  9G10G04G07G20G02G08G09G13G17
  21027307.824    21027305.176   -53978990.64807 -42023563.85447        49.000
        37.000
  20443866.625    20443864.210   -69362872.09807 -54005202.42447        50.000
        40.000
  22030078.155    22030075.944   -29375145.11306 -22781774.05147        46.000
        36.000
  23041141.833    23041139.097   -96462472.96106 -75056534.90846        44.000
        28.000
  22919950.135    22919945.446   -32604729.03506 -25294911.34746        44.000
        31.000
  24428804.311    24428814.597    -4926285.02305  -3791393.35446        40.000
        21.000
  24599792.740    24599806.722    -2347185.12905  -1785221.11946        41.000
        23.000
  20231397.748    20231394.162   -69375705.23007 -54032528.68147        50.000
        40.000
  24361875.585    24361887.304   -71596063.72705 -55768573.39446        40.000
        24.000
 13 12 10 16  7 40.0000000  0  9G10G04G07G20G02G08G09G13G17
  21021943.173    21021940.171   -54007183.22707 -42045532.08647        48.000
        37.000
  20440245.651    20440242.600   -69381902.28907 -54020031.14347        50.000
        40.000
  22023716.342    22023714.345   -29408577.30106 -22807825.08547        47.000
        36.000
  23040000.947    23039998.308   -96468470.65606 -75061208.44646        45.000
        27.000
  22913474.625    22913470.143   -32638757.71106 -25321427.19146        43.000
        31.000
  24421757.819    24421767.242    -4963315.81305  -3820248.21246        41.000
        21.000
  24592307.411    24592322.033    -2386516.44105  -1815868.52246        41.000
        24.000
  20228456.565    20228452.870   -69391162.07407 -54044572.96547        50.000
        40.000
  24361055.714    24361067.787   -71600370.82805 -55771929.83846        41.000
        24.000
 13 12 10 16  7 45.0000000  0  9G10G04G07G20G02G08G09G13G17
  21016579.630    21016576.298   -54035369.36307 -42067495.31747        48.000
        37.000
  20436627.303    20436624.664   -69400916.22707 -54034847.19647        51.000
        40.000
  22017355.813    22017353.854   -29442000.46506 -22833869.10647        46.000
        37.000
  23038860.185    23038857.513   -96474463.86306 -75065878.47946        45.000
        27.000
  22907001.130    22906996.107   -32672778.41006 -25347936.82546        44.000
        30.000
  24414710.487    24414720.079    -5000346.41805  -3849102.98246        41.000
        21.000
  24584822.395    24584837.065    -2425848.59005  -1846516.49446        41.000
        24.000
  20225517.030    20225513.579   -69406607.55907 -54056608.40447        50.000
        40.000
  24360236.268    24360248.674   -71604677.80105 -55775286.23846        40.000
        24.000
 13 12 10 16  7 50.0000000  0  9G10G04G07G20G02G08G09G13G17
  21011217.058    21011214.039   -54063549.22707 -42089453.63447        49.000
        37.000
  20433012.141    20433009.496   -69419914.16407 -54049650.78047        51.000
        41.000
  22010997.472    22010995.314   -29475414.89106 -22859906.29747        46.000
        36.000
  23037720.527    23037717.984   -96480452.78106 -75070545.18546        45.000
        27.000
  22900528.134    22900523.142   -32706791.33606 -25374440.41446        44.000
        30.000
  24407663.464    24407673.177    -5037377.01205  -3877957.77446        41.000
        22.000
  24577337.307    24577352.010    -2465181.68405  -1877165.30346        40.000
        22.000
  20222580.671    20222576.215   -69422041.85207 -54068635.12047        50.000
        40.000
  24359417.258    24359429.457   -71608984.81604 -55778642.64346        39.000
        25.000
 13 12 10 16  7 55.0000000  0  9G10G04G07G20G02G08G09G13G17
  21005855.976    21005853.072   -54091722.59407 -42111406.91147        48.000
        37.000
  20429400.030    20429397.431   -69438895.87907 -54064441.72547        50.000
        41.000
  22004640.386    22004638.292   -29508820.29306 -22885936.46547        46.000
        36.000
  23036581.896    23036579.190   -96486437.16006 -75075208.34846        45.000
        27.000
  22894057.581    22894052.332   -32740796.25006 -25400937.73546        43.000
        30.000
  24400616.940    24400625.532    -5074407.42205  -3906812.44646        41.000
        22.000
  24569852.034    24569866.060    -2504515.57405  -1907814.66546        41.000
        23.000
  20219645.140    20219641.642   -69437464.82007 -54080653.01447        50.000
        40.000
  24358597.849    24358610.620   -71613291.60505 -55781998.90946        41.000
        23.000
 13 12 10 16  8  0.0000000  0  9G10G04G07G20G02G08G09G13G17
  21000496.215    21000493.110   -54119889.29307 -42133354.97747        48.000
        37.000
  20425791.030    20425788.304   -69457861.21107 -54079219.90747        50.000
        41.000
  21998285.433    21998283.248   -29542216.47306 -22911959.43347        46.000
        36.000
  23035443.811    23035441.085   -96492416.86706 -75079867.85746        45.000
        27.000
  22887588.385    22887582.847   -32774793.00006 -25427428.69346        43.000
        30.000
  24393569.320    24393578.771    -5111437.45305  -3935666.68246        41.000
        21.000
  24562366.393    24562380.494    -2543849.97705  -1938464.41346        40.000
        23.000
  20216712.455    20216708.933   -69452876.29307 -54092661.95047        50.000
        40.000
  24357778.430    24357791.305   -71617598.11305 -55785354.91846        41.000
        24.000
 13 12 10 16  8  5.0000000  0  9G10G04G07G20G02G08G09G13G17
  20995137.281    20995134.212   -54148049.54706 -42155298.03447        46.000
        37.000
  20422185.074    20422182.238   -69476810.37907 -54093985.48847        50.000
        41.000
  21991932.072    21991929.940   -29575603.62106 -22937975.38347        45.000
        36.000
  23034306.361    23034304.122   -96498392.12106 -75084523.91546        45.000
        27.000
  22881120.384    22881115.036   -32808781.70306 -25453913.38046        44.000
        29.000
  24386523.386    24386532.168    -5148467.25805  -3964520.86046        41.000
        22.000
  24554880.261    24554894.537    -2583185.19505  -1969114.89246        40.000
        22.000
  20213782.094    20213778.349   -69468276.41007 -54104662.02947        50.000
        40.000
  24356959.108    24356972.046   -71621904.48805 -55788710.83246        41.000
        23.000
 13 12 10 16  8 10.0000000  0  9G10G04G07G20G02G08G09G13G17
  20989779.840    20989776.978   -54176203.03106 -42177235.80347        47.000
        37.000
  20418582.624    20418579.402   -69495743.08207 -54108738.24647        50.000
        41.000
  21985580.493    21985578.330   -29608981.43006 -22963984.05447        44.000
        36.000
  23033170.355    23033167.415   -96504362.58606 -75089176.20946        45.000
        26.000
  22874654.311    22874648.261   -32842762.10506 -25480391.60346        45.000
        29.000
  24379476.563    24379485.879    -5185496.58205  -3993374.55046        41.000
        21.000
  24547395.090    24547409.207    -2622520.83205  -1999765.68246        41.000
        22.000
  20210853.887    20210850.077   -69483664.94907 -54116653.09547        51.000
        40.000
  24356139.979    24356152.713   -71626210.45305 -55792066.47246        41.000
        23.000
 13 12 10 16  8 15.0000000  0  9G10G04G07G20G02G08G09G13G17
  20984423.807    20984420.513   -54204349.85207 -42199168.38847        48.000
        37.000
  20414982.601    20414979.714   -69514659.43007 -54123478.25547        50.000
        40.000
  21979230.627    21979228.602   -29642349.96506 -22989985.49547        46.000
        36.000
  23032035.412    23032032.337   -96510328.35506 -75093824.87346        45.000
        26.000
  22868189.724    22868184.074   -32876734.28906 -25506863.44346        44.000
        29.000
  24372430.118    24372438.671    -5222525.44105  -4022227.96046        41.000
        22.000
  24539909.539    24539923.153    -2661857.07405  -2030416.85046        40.000
        22.000
  20207927.848    20207923.729   -69499041.99207 -54128635.20747        51.000
        40.000
  24355321.003    24355333.844   -71630516.08605 -55795421.78546        42.000
        25.000
 13 12 10 16  8 20.0000000  0  9G10G04G07G20G02G08G09G13G17
  20979068.897    20979065.853   -54232489.71507 -42221095.54447        49.000
        37.000
  20411386.431    20411383.372   -69533559.12107 -54138205.29347        50.000
        40.000
  21972882.695    21972880.795   -29675708.98406 -23015979.52147        46.000
        37.000
  23030900.709    23030898.280   -96516289.27006 -75098469.75246        45.000
        27.000
  22861726.454    22861721.185   -32910698.02306 -25533328.66246        44.000
        30.000
  24365384.040    24365392.648    -5259553.63705  -4051080.82446        41.000
        22.000
  24532424.278    24532437.458    -2701193.52305  -2061068.31346        41.000
        23.000
  20205003.867    20204999.797   -69514407.30507 -54140608.17547        50.000
        41.000
  24354501.820    24354514.898   -71634821.23405 -55798776.79746        41.000
        23.000
 13 12 10 16  8 25.0000000  0  9G10G04G07G20G02G08G09G13G17
  20973715.045    20973712.368   -54260623.30507 -42243017.81247        48.000
        37.000
  20407792.961    20407789.850   -69552442.84807 -54152919.88147        50.000
        40.000
  21966536.566    21966534.302   -29709059.12106 -23041966.62647        46.000
        36.000
  23029767.584    23029764.944   -96522245.94106 -75103111.34046        45.000
        27.000
  22855264.914    22855259.656   -32944653.90606 -25559787.77946        43.000
        31.000
  24358338.003    24358346.036    -5296581.76605  -4079933.69746        42.000
        23.000
  24524937.601    24524951.492    -2740530.95305  -2091720.44846        41.000
        25.000
  20202081.910    20202078.031   -69529761.56607 -54152572.52047        50.000
        41.000
  24353683.303    24353696.129   -71639126.48805 -55802131.87946        41.000
        22.000
 13 12 10 16  8 30.0000000  0  9G10G04G07G20G02G08G09G13G17
  20968362.577    20968359.890   -54288750.23007 -42264934.88147        49.000
        37.000
  20404202.397    20404199.837   -69571310.24207 -54167621.74547        49.000
        40.000
  21960191.862    21960189.781   -29742400.00406 -23067946.51147        46.000
        36.000
  23028634.971    23028632.456   -96528197.98006 -75107749.28046        45.000
        26.000
  22848804.919    22848800.179   -32978601.59806 -25586240.52346        44.000
        31.000
  24351291.002    24351299.579    -5333609.49605  -4108786.21946        41.000
        22.000
  24517452.037    24517465.670    -2779868.89505  -2122373.02346        40.000
        25.000
  20199162.240    20199158.542   -69545104.41007 -54164527.98347        50.000
        40.000
  24352863.551    24352877.555   -71643431.55505 -55805486.76646        42.000
        24.000
 13 12 10 16  8 35.0000000  0  9G10G04G07G20G02G08G09G13G17
  20963011.535    20963008.722   -54316870.41007 -42286846.71047        49.000
        37.000
  20400615.366    20400612.068   -69590161.21507 -54182310.81547        50.000
        40.000
  21953848.932    21953846.896   -29775731.49606 -23093919.08947        47.000
        36.000
  23027503.084    23027500.710   -96534145.23006 -75112383.49946        45.000
        27.000
  22842346.046    22842340.879   -33012540.90606 -25612686.73346        44.000
        30.000
  24344244.565    24344253.008    -5370636.64505  -4137638.29246        41.000
        21.000
  24509966.053    24509978.753    -2819207.23005  -2153025.88546        40.000
        23.000
  20196244.615    20196240.839   -69560435.71907 -54176474.46247        50.000
        40.000
  24352044.215    24352058.745   -71647736.28505 -55808841.44346        41.000
        23.000
 13 12 10 16  8 40.0000000  0  9G10G04G07G20G02G08G09G13G17
  20957661.898    20957658.597   -54344983.82806 -42308753.27847        47.000
        37.000
  20397031.139    20397028.137   -69608995.73407 -54196987.06047        50.000
        40.000
  21947507.666    21947505.871   -29809053.59006 -23119884.34347        44.000
        37.000
  23026372.411    23026370.313   -96540087.72706 -75117014.04946        45.000
        27.000
  22835889.847    22835884.128   -33046471.88306 -25639126.44446        43.000
        31.000
  24337199.238    24337207.096    -5407663.25405  -4166489.96446        42.000
        21.000
  24502479.795    24502492.551    -2858546.02705  -2183679.09746        41.000
        23.000
  20193329.633    20193325.642   -69575755.52007 -54188411.96147        51.000
        41.000
  24351226.256    24351239.631   -71652040.71905 -55812195.89446        41.000
        23.000
 13 12 10 16  8 45.0000000  0  9G10G04G07G20G02G08G09G13G17
  20952313.329    20952310.108   -54373090.63306 -42330654.66647        47.000
        37.000
  20393450.183    20393447.344   -69627813.91007 -54211650.58147        50.000
        40.000
  21941168.826    21941166.564   -29842366.41006 -23145842.36347        44.000
        36.000
  23025242.851    23025239.998   -96546025.59806 -75121640.96046        45.000
        24.000
  22829434.112    22829428.828   -33080394.66006 -25665559.75846        43.000
        30.000
  24330152.349    24330160.901    -5444689.41805  -4195341.26146        41.000
        22.000
  24494993.241    24495006.271    -2897885.28105  -2214332.72346        42.000
        22.000
  20190416.452    20190412.350   -69591063.90607 -54200340.56547        51.000
        40.000
  24350407.164    24350420.439   -71656344.97305 -55815550.13146        42.000
        23.000
 13 12 10 16  8 50.0000000  0  9G10G04G07G20G02G08G09G13G17
  20946965.748    20946962.764   -54401190.96107 -42352551.02247        48.000
        37.000
  20389872.510    20389869.377   -69646615.95707 -54226301.52447        50.000
        40.000
  21934831.293    21934828.915   -29875670.17206 -23171793.33947        45.000
        36.000
  23024113.395    23024110.958   -96551959.10206 -75126264.48446        45.000
        25.000
  22822980.726    22822974.786   -33114309.40205 -25691986.82846        42.000
        30.000
  24323106.834    24323115.187    -5481715.35505  -4224192.44046        40.000
        21.000
  24487507.048    24487519.681    -2937225.28905  -2244986.94346        42.000
        23.000
  20187505.629    20187501.695   -69606361.10507 -54212260.46547        50.000
        41.000
  24349588.498    24349601.738   -71660649.35905 -55818904.55946        42.000
        24.000
 13 12 10 16  8 55.0000000  0  9G10G04G07G20G02G08G09G13G17
  20941620.043    20941616.690   -54429284.42207 -42374442.01047        49.000
        37.000
  20386297.398    20386294.757   -69665401.45307 -54240939.57547        50.000
        40.000
  21928495.310    21928493.423   -29908964.46106 -23197736.92547        46.000
        36.000
  23022985.151    23022983.283   -96557887.77006 -75130884.23946        45.000
        27.000
  22816528.238    22816522.675   -33148215.68006 -25718407.29546        43.000
        30.000
  24316060.762    24316068.975    -5518740.64105  -4253043.03446        41.000
        21.000
  24480020.174    24480033.056    -2976565.58205  -2275641.34846        41.000
        23.000
  20184597.078    20184593.080   -69621646.68007 -54224171.29247        50.000
        41.000
  24348769.056    24348783.528   -71664953.35505 -55822258.60546        40.000
        24.000
 13 12 10 16  9  0.0000000  0  9G10G04G07G20G02G08G09G13G17
  20936275.425    20936271.997   -54457371.66007 -42396328.18247        48.000
        37.000
  20382725.516    20382722.824   -69684171.05907 -54255565.23547        50.000
        40.000
  21922161.641    21922159.592   -29942249.85906 -23223673.58347        46.000
        36.000
  23021857.797    23021855.558   -96563812.25806 -75135500.72346        45.000
        26.000
  22810077.950    22810071.790   -33182114.08606 -25744821.62246        43.000
        30.000
  24309014.305    24309023.532    -5555765.90205  -4281893.68746        40.000
        21.000
  24472534.211    24472546.544    -3015906.81605  -2306296.48846        41.000
        23.000
  20181690.048    20181686.251   -69636921.37107 -54236073.64647        50.000
        41.000
  24347950.915    24347964.400   -71669257.71905 -55825613.04346        42.000
        23.000
 13 12 10 16  9  5.0000000  0  9G10G04G07G20G02G08G09G13G17
  20930931.211    20930928.112   -54485452.15607 -42418209.07847        49.000
        37.000
  20379157.035    20379154.213   -69702924.27307 -54270178.11947        51.000
        40.000
  21915829.584    21915827.159   -29975525.83606 -23249602.89747        46.000
        36.000
  23020731.583    23020728.970   -96569732.07006 -75140113.57446        44.000
        26.000
  22803629.074    22803623.035   -33216004.16806 -25771229.45746        44.000
        30.000
  24301968.895    24301978.079    -5592790.56605  -4310743.84646        40.000
        22.000
  24465046.816    24465059.131    -3055248.46505  -2336952.00946        41.000
        23.000
  20178785.579    20178781.864   -69652184.62907 -54247967.09347        50.000
        41.000
  24347132.428    24347145.698   -71673561.87105 -55828967.24046        42.000
        23.000
 13 12 10 16  9 10.0000000  0  9G10G04G07G20G02G08G09G13G17
  20925589.017    20925585.846   -54513525.93807 -42440084.74047        49.000
        37.000
  20375591.895    20375588.794   -69721661.14107 -54284778.27947        51.000
        40.000
  21909498.884    21909496.564   -30008792.44906 -23275524.91747        45.000
        36.000
  23019605.611    23019603.203   -96575647.24206 -75144722.81846        44.000
        26.000
  22797181.492    22797175.510   -33249885.88706 -25797630.79146        44.000
        30.000
  24294923.739    24294932.965    -5629814.71105  -4339593.49746        41.000
        21.000
  24457560.569    24457572.403    -3094590.49205  -2367607.73146        42.000
        23.000
  20175883.263    20175879.138   -69667436.48807 -54259851.65347        50.000
        41.000
  24346313.337    24346326.891   -71677865.90606 -55832321.36946        43.000
        23.000
 13 12 10 16  9 15.0000000  0  9G10G04G07G20G02G08G09G13G17
  20920248.433    20920244.896   -54541593.27007 -42461955.38547        49.000
        37.000
  20372028.998    20372026.467   -69740381.89807 -54299365.88847        50.000
        40.000
  21903170.087    21903167.877   -30042049.88306 -23301439.78147        46.000
        36.000
  23018481.369    23018478.568   -96581557.94906 -75149328.56046        44.000
        26.000
  22790735.027    22790729.488   -33283759.45706 -25824025.77346        43.000
        30.000
  24287877.523    24287886.583    -5666838.47305  -4368442.99146        41.000
        22.000
  24450074.046    24450085.383    -3133933.15205  -2398264.00746        41.000
        23.000
  20172983.185    20172979.290   -69682677.13307 -54271727.48247        51.000
        40.000
  24345494.462    24345508.376   -71682170.03105 -55835675.53146        42.000
        25.000
 13 12 10 16  9 20.0000000  0  9G10G04G07G20G02G08G09G13G17
  20914908.416    20914905.192   -54569654.26606 -42483821.09147        46.000
        37.000
  20368469.570    20368466.959   -69759086.64807 -54313941.01247        50.000
        41.000
  21896842.978    21896841.240   -30075298.34006 -23327347.65147        44.000
        36.000
  23017356.825    23017354.524   -96587464.45706 -75153931.06146        44.000
        26.000
  22784290.666    22784285.281   -33317625.10506 -25850414.58846        44.000
        30.000
  24280832.052    24280840.663    -5703862.10905  -4397292.32246        42.000
        22.000
  24442586.451    24442598.661    -3173276.63705  -2428920.92746        40.000
        23.000
  20170085.088    20170080.908   -69697906.85207 -54283594.79547        50.000
        40.000
  24344675.147    24344689.504   -71686474.44905 -55839030.01546        40.000
        24.000
 13 12 10 16  9 25.0000000  0  9G10G04G07G20G02G08G09G13G17
  20909570.153    20909566.820   -54597708.54307 -42505681.56247        48.000
        37.000
  20364913.494    20364910.547   -69777774.97307 -54328503.34347        50.000
        40.000
  21890517.676    21890516.046   -30108537.39106 -23353248.19847        45.000
        36.000
  23016234.222    23016231.728   -96593366.27706 -75158529.89746        44.000
        27.000
  22777847.681    22777841.839   -33351482.37106 -25876796.85446        44.000
        30.000
  24273787.397    24273794.989    -5740885.11305  -4426141.22446        41.000
        22.000
  24435099.426    24435111.372    -3212620.51205  -2459578.14746        40.000
        23.000
  20167188.884    20167184.975   -69713125.13307 -54295453.18347        50.000
        41.000
  24343856.318    24343871.251   -71690778.75805 -55842384.36346        41.000
        24.000
 13 12 10 16  9 30.0000000  0  9G10G04G07G20G02G08G09G13G17
  20904232.462    20904229.004   -54625756.39807 -42527537.01747        49.000
        37.000
  20361360.516    20361357.506   -69796447.24607 -54343053.16247        50.000
        41.000
  21884194.362    21884192.553   -30141767.28906 -23379141.61547        46.000
        36.000
  23015111.917    23015109.449   -96599263.75406 -75163125.31446        44.000
        26.000
  22771406.358    22771401.149   -33385331.57006 -25903172.85446        43.000
        30.000
  24266741.540    24266749.226    -5777907.81605  -4454989.88446        41.000
        22.000
  24427611.771    24427624.103    -3251965.02005  -2490235.88146        41.000
        23.000
  20164295.452    20164291.352   -69728332.35207 -54307302.96747        50.000
        41.000
  24343038.385    24343052.321   -71695083.32005 -55845738.91846        40.000
        23.000
 13 12 10 16  9 35.0000000  0  9G10G04G07G20G02G08G09G13G17
  20898896.548    20898893.565   -54653797.71107 -42549387.39747        49.000
        37.000
  20357810.093    20357807.466   -69815103.38307 -54357590.40847        50.000
        40.000
  21877872.572    21877870.805   -30174988.00006 -23405027.86547        46.000
        36.000
  23013990.539    23013987.802   -96605156.86306 -75167717.34046        44.000
        27.000
  22764966.642    22764961.458   -33419172.55906 -25929542.42346        44.000
        30.000
  24259696.107    24259703.794    -5814930.15205  -4483838.18346        40.000
        21.000
  24420124.839    24420136.453    -3291310.07805  -2520894.02746        41.000
        23.000
  20161403.337    20161399.424   -69743528.42607 -54319144.05747        50.000
        41.000
  24342218.824    24342233.299   -71699388.04705 -55849093.59346        40.000
        22.000
 13 12 10 16  9 40.0000000  0  9G10G04G07G20G02G08G09G13G17
  20893561.702    20893558.593   -54681832.61706 -42571232.77447        47.000
        37.000
  20354263.054    20354259.976   -69833743.48407 -54372115.16047        50.000
        40.000
  21871552.748    21871550.552   -30208199.53906 -23430906.96847        44.000
        36.000
  23012870.243    23012867.367   -96611045.63706 -75172306.03346        44.000
        26.000
  22758528.657    22758522.692   -33453005.48806 -25955905.74446        44.000
        31.000
  24252651.374    24252658.141    -5851952.18805  -4512686.35246        41.000
        21.000
  24412637.026    24412648.948    -3330655.89105  -2551552.75246        41.000
        23.000
  20158513.687    20158509.599   -69758713.49207 -54330976.57147        50.000
        40.000
  24341399.690    24341414.624   -71703693.04305 -55852448.47546        40.000
        23.000
 13 12 10 16  9 45.0000000  0  9G10G04G07G20G02G08G09G13G17
  20888227.755    20888225.095   -54709860.78907 -42593072.90547        49.000
        37.000
  20350718.692    20350716.130   -69852367.11707 -54386627.08547        50.000
        41.000
  21865234.878    21865232.772   -30241401.66406 -23456778.73747        45.000
        36.000
  23011750.085    23011747.339   -96616929.80106 -75176891.07246        45.000
        25.000
  22752091.891    22752086.479   -33486830.02006 -25982262.51646        45.000
        31.000
  24245605.805    24245613.622    -5888973.54705  -4541533.97546        41.000
        22.000
  24405149.438    24405161.374    -3370001.96105  -2582211.70846        40.000
        22.000
  20155626.493    20155622.206   -69773887.17607 -54342800.22847        50.000
        41.000
  24340581.144    24340595.410   -71707998.03105 -55855803.35846        40.000
        22.000
 13 12 10 16  9 50.0000000  0  9G10G04G07G20G02G08G09G13G17
  20882895.585    20882892.484   -54737882.34807 -42614907.88047        49.000
        37.000
  20347178.116    20347175.112   -69870974.47707 -54401126.32547        49.000
        40.000
  21858918.161    21858915.972   -30274594.36706 -23482643.16547        45.000
        36.000
  23010631.285    23010628.395   -96622809.42206 -75181472.61946        44.000
        26.000
  22745656.994    22745651.390   -33520646.21106 -26008612.78546        44.000
        30.000
  24238560.386    24238569.198    -5925994.42605  -4570381.14746        41.000
        22.000
  24397660.956    24397673.267    -3409348.47705  -2612871.06246        41.000
        22.000
  20152741.244    20152736.654   -69789049.64107 -54354615.12347        50.000
        41.000
  24339761.160    24339776.553   -71712303.12104 -55859158.32946        39.000
        22.000
 13 12 10 16  9 55.0000000  0  9G10G04G07G20G02G08G09G13G17
  20877564.831    20877561.614   -54765897.35507 -42636737.73847        49.000
        38.000
  20343640.299    20343637.415   -69889565.72307 -54415613.00647        50.000
        41.000
  21852603.792    21852601.574   -30307777.81606 -23508500.38747        45.000
        36.000
  23009513.237    23009510.727   -96628684.62906 -75186050.71046        45.000
        26.000
  22739223.786    22739218.161   -33554454.18406 -26034956.66446        43.000
        30.000
  24231516.328    24231524.333    -5963014.80505  -4599228.01546        42.000
        22.000
  24390173.932    24390185.527    -3448695.49605  -2643530.78646        40.000
        23.000
  20149857.798    20149854.022   -69804200.97707 -54366421.35747        50.000
        40.000
  24338942.039    24338957.602   -71716608.37504 -55862513.46346        39.000
        22.000
 13 12 10 16 10  0.0000000  0  9G10G04G07G20G02G08G09G13G17
  20872234.813    20872231.676   -54793905.74207 -42658562.46147        48.000
        37.000
  20340105.979    20340102.568   -69908140.68807 -54430087.01247        50.000
        41.000
  21846290.829    21846288.466   -30340951.91406 -23534350.32147        44.000
        36.000
  23008396.133    23008393.418   -96634555.37506 -75190625.31146        45.000
        26.000
  22732791.543    22732786.014   -33588253.80506 -26061294.00946        43.000
        30.000
  24224471.361    24224480.017    -6000034.65605  -4628074.45946        41.000
        22.000
  24382686.167    24382697.960    -3488042.98505  -2674190.75646        40.000
        22.000
  20146976.523    20146972.957   -69819341.09807 -54378218.85547        50.000
        41.000
  24338123.046    24338138.746   -71720913.74204 -55865868.68546        39.000
        22.000
 13 12 10 16 10  5.0000000  0  9G10G04G07G20G02G08G09G13G17
  20866906.259    20866902.795   -54821907.69507 -42680382.15747        49.000
        37.000
  20336574.102    20336571.090   -69926699.59007 -54444548.48847        50.000
        40.000
  21839979.763    21839977.444   -30374116.82806 -23560193.09147        45.000
        36.000
  23007279.461    23007277.128   -96640421.81306 -75195196.56346        44.000
        26.000
  22726361.097    22726355.645   -33622045.30506 -26087625.04446        44.000
        30.000
  24217426.323    24217434.816    -6037054.18005  -4656920.55746        41.000
        21.000
  24375198.181    24375209.722    -3527391.03505  -2704851.33246        41.000
        22.000
  20144097.853    20144093.994   -69834470.24607 -54390007.79747        50.000
        41.000
  24337305.549    24337320.106   -71725219.50405 -55869224.16046        40.000
        22.000
 13 12 10 16 10 10.0000000  0  9G10G04G07G20G02G08G09G13G17
  20861578.699    20861575.455   -54849903.14807 -42702196.79747        49.000
        37.000
  20333045.685    20333042.707   -69945242.30507 -54458997.34947        50.000
        41.000
  21833670.739    21833668.353   -30407272.40606 -23586028.59247        46.000
        37.000
  23006163.622    23006161.324   -96646283.88306 -75199764.44146        44.000
        25.000
  22719933.008    22719926.832   -33655828.56306 -26113949.63546        45.000
        31.000
  24210382.072    24210390.299    -6074073.23405  -4685766.41046        41.000
        22.000
  24367710.420    24367721.487    -3566739.62905  -2735512.27046        41.000
        22.000
  20141221.098    20141217.062   -69849588.30507 -54401788.10247        50.000
        41.000
  24336485.502    24336500.173   -71729525.52304 -55872579.93646        39.000
        21.000
 13 12 10 16 10 15.0000000  0  9G10G04G07G20G02G08G09G13G17
  20856252.679    20856249.375   -54877891.89107 -42724006.17847        48.000
        37.000
  20329519.954    20329517.249   -69963768.79307 -54473433.57347        50.000
        41.000
  21827363.078    21827361.046   -30440418.57806 -23611856.77647        46.000
        37.000
  23005048.984    23005046.731   -96652141.45706 -75204328.78446        44.000
        26.000
  22713505.787    22713499.921   -33689603.43006 -26140267.71746        45.000
        30.000
  24203337.163    24203345.691    -6111091.67205  -4714611.76546        42.000
        21.000
  24360222.358    24360233.548    -3606088.59805  -2766173.52446        41.000
        22.000
  20138346.152    20138342.272   -69864695.15207 -54413559.66547        51.000
        40.000
  24335666.135    24335681.318   -71733831.68404 -55875935.72046        39.000
        21.000
 13 12 10 16 10 20.0000000  0  9G10G04G07G20G02G08G09G13G17
  21150721.550    21150718.158   -54905868.31607 -42745805.99747        49.000
        36.000
  20625790.514    20625787.837   -69982275.27707 -54487854.21647        50.000
        41.000
  22120850.842    22120848.493   -30473548.59806 -23637672.35947        46.000
        37.000
  23303728.455    23303725.672   -96657993.26206 -75208888.64746        44.000
        26.000
  23006873.529    23006868.002   -33723363.08606 -26166573.93546        45.000
        30.000
  24496086.575    24496094.863    -6148102.04305  -4743450.75246        41.000
        21.000
  24652528.098    24652539.745    -3645429.96505  -2796828.80746        41.000
        22.000
  20435266.776    20435262.704   -69879787.67607 -54425320.07447        50.000
        41.000
  24634639.872    24634654.661   -71738137.10505 -55879290.98946        40.000
        22.000
 13 12 10 16 10 25.0000000  0  9G10G04G07G20G02G08G09G13G17
  21145397.848    21145394.791   -54933843.55107 -42767604.88547        49.000
        37.000
  20622271.369    20622268.703   -70000769.05107 -54502264.93547        50.000
        40.000
  22114547.155    22114544.728   -30506675.70706 -23663485.66847        45.000
        37.000
  23302615.410    23302612.792   -96663841.65606 -75213445.84846        44.000
        25.000
  23000449.682    23000444.372   -33757121.01206 -26192878.80146        45.000
        31.000
  24489042.522    24489050.703    -6185119.11305  -4772295.05446        41.000
        22.000
  24645039.764    24645051.442    -3684779.48005  -2827490.45746        41.000
        22.000
  20432395.766    20432392.163   -69894871.98007 -54437074.06847        50.000
        41.000
  24633821.174    24633835.481   -71742443.47705 -55882646.90146        40.000
        23.000
 13 12 10 16 10 30.0000000  0  9G10G04G07G20G02G08G09G13G17
  21140075.747    21140072.072   -54961812.17207 -42789398.61647        48.000
        37.000
  20618755.426    20618752.515   -70019246.61707 -54516663.04147        50.000
        40.000
  22108244.989    22108242.550   -30539793.46506 -23689291.70847        44.000
        36.000
  23301503.461    23301500.817   -96669685.62906 -75217999.59246        44.000
        24.000
  22994027.647    22994021.645   -33790870.53906 -26219177.13446        45.000
        30.000
  24481998.206    24482005.846    -6222135.63305  -4801138.90146        41.000
        21.000
  24637551.280    24637563.232    -3724129.41005  -2858152.45346        41.000
        23.000
  20429527.738    20429523.636   -69909945.19107 -54448819.42647        50.000
        41.000
  24633001.647    24633016.695   -71746750.12905 -55886003.06346        40.000
        22.000
 13 12 10 16 10 35.0000000  0  9G10G04G07G20G02G08G09G13G17
  21134754.693    21134751.535   -54989774.11307 -42811187.12647        49.000
        37.000
  20615242.381    20615239.442   -70037707.90607 -54531048.46547        50.000
        40.000
  22101944.802    22101942.430   -30572901.71906 -23715090.32547        45.000
        36.000
  23300392.351    23300389.323   -96675525.07006 -75222549.81246        43.000
        27.000
  22987606.508    22987601.086   -33824611.62506 -26245468.89246        44.000
        31.000
  24474954.058    24474961.371    -6259151.46905  -4829982.18646        41.000
        21.000
  24630062.869    24630074.133    -3763479.59405  -2888814.60446        41.000
        22.000
  20426661.613    20426657.378   -69925007.21507 -54460556.06347        50.000
        41.000
  24632181.918    24632197.336   -71751056.91404 -55889359.44246        38.000
        22.000
 13 12 10 16 10 40.0000000  0  9G10G04G07G20G02G08G09G13G17
  21129435.021    21129431.710   -55017729.41807 -42832970.47347        49.000
        37.000
  20611732.317    20611729.479   -70056152.84407 -54545421.14147        50.000
        40.000
  22095646.342    22095643.823   -30606000.48806 -23740881.56847        45.000
        36.000
  23299281.806    23299278.979   -96681360.01606 -75227096.56546        44.000
        24.000
  22981187.697    22981181.963   -33858344.28506 -26271754.04646        44.000
        31.000
  24467910.675    24467917.273    -6296166.66805  -4858825.02946        42.000
        21.000
  24622575.315    24622585.442    -3802830.10905  -2919477.09646        40.000
        22.000
  20423797.742    20423793.418   -69940058.05907 -54472283.99547        50.000
        41.000
  24631362.756    24631378.721   -71755363.93804 -55892715.92346        38.000
        22.000
 13 12 10 16 10 45.0000000  0  9G10G04G07G20G02G08G09G13G17
  21124116.312    21124113.029   -55045678.00807 -42854748.58447        48.000
        37.000
  20608225.460    20608222.622   -70074581.58207 -54559781.19647        50.000
        40.000
  22089349.667    22089346.933   -30639089.77706 -23766665.40147        45.000
        36.000
  23298172.289    23298169.642   -96687190.53506 -75231639.83346        44.000
        23.000
  22974769.753    22974764.382   -33892068.51606 -26298032.66546        44.000
        30.000
  24460866.790    24460873.431    -6333181.19505  -4887667.32846        42.000
        22.000
  24615086.223    24615096.981    -3842180.93405  -2950139.78946        41.000
        22.000
  20420935.492    20420931.355   -69955097.78107 -54484003.25047        50.000
        41.000
  24630542.816    24630558.754   -71759671.28504 -55896072.68446        39.000
        22.000
 13 12 10 16 10 50.0000000  0  9G10G04G07G20G02G08G09G13G17
  21118798.956    21118796.145   -55073619.82807 -42876521.43647        48.000
        37.000
  20604721.736    20604719.040   -70092993.98007 -54574128.50847        50.000
        40.000
  22083054.536    22083052.191   -30672169.49206 -23792441.78847        45.000
        36.000
  23297063.725    23297060.473   -96693016.42206 -75236179.46946        44.000
        23.000
  22968353.976    22968348.550   -33925784.19906 -26324304.61046        44.000
        31.000
  24453823.363    24453829.676    -6370194.98405  -4916509.08246        41.000
        21.000
  24607598.233    24607608.503    -3881531.98405  -2980802.69946        41.000
        22.000
  20418075.864    20418071.528   -69970126.28507 -54495713.77047        50.000
        40.000
  24629723.752    24629738.983   -71763978.71104 -55899429.48346        38.000
        22.000
 13 12 10 16 10 55.0000000  0  9G10G04G07G20G02G08G09G13G17
  21113483.205    21113480.537   -55101554.95707 -42898289.05247        49.000
        38.000
  20601221.178    20601218.332   -70111390.12507 -54588463.17047        49.000
        40.000
  22076761.758    22076759.226   -30705239.66406 -23818210.75047        45.000
        36.000
  23295956.424    23295953.552   -96698837.87506 -75240715.68446        44.000
        25.000
  22961939.965    22961934.718   -33959491.40606 -26350569.96446        45.000
        31.000
  24446779.535    24446786.689    -6407208.08205  -4945350.24146        41.000
        22.000
  24600109.586    24600119.901    -3920883.32405  -3011465.77546        41.000
        23.000
  20415217.922    20415213.528   -69985143.62907 -54507415.60547        50.000
        41.000
  24628905.109    24628919.532   -71768286.44104 -55902786.59046        39.000
        21.000
 13 12 10 16 11  0.0000000  0  9G10G04G07G20G02G08G09G13G17
  21108168.793    21108165.828   -55129483.23007 -42920051.34247        49.000
        37.000
  20597723.482    20597720.902   -70129769.88307 -54602785.05947        50.000
        40.000
  22070470.285    22070468.152   -30738300.16006 -23843972.16047        45.000
        36.000
  23294849.639    23294846.045   -96704654.69106 -75245248.29146        44.000
        26.000
  22955527.234    22955522.157   -33993190.01606 -26376828.61146        44.000
        31.000
  24439735.520    24439742.939    -6444220.43805  -4974190.83146        40.000
        21.000
  24592620.771    24592631.276    -3960234.76605  -3042129.01546        41.000
        23.000
  20412362.297    20412357.984   -70000149.69507 -54519108.64247        50.000
        41.000
  24628084.875    24628100.262   -71772594.32404 -55906143.74346        39.000
        21.000
 13 12 10 16 11  5.0000000  0  9G10G04G07G20G02G08G09G13G17
  21102855.403    21102852.100   -55157404.77007 -42941808.36547        49.000
        37.000
  20594228.889    20594226.003   -70148133.28507 -54617094.20447        50.000
        40.000
  22064180.621    22064178.647   -30771351.09406 -23869726.11947        46.000
        36.000
  23293743.015    23293740.160   -96710467.00406 -75249777.34446        44.000
        26.000
  22949116.730    22949111.252   -34026880.08606 -26403080.60546        45.000
        31.000
  24432692.224    24432700.020    -6481232.02705  -5003030.85646        40.000
        22.000
  24585132.482    24585142.575    -3999586.50005  -3072792.38746        41.000
        23.000
  20409508.963    20409505.124   -70015144.59807 -54530792.97147        50.000
        41.000
  24627266.353    24627281.361   -71776902.50005 -55909501.11246        40.000
        22.000
 13 12 10 16 11 10.0000000  0  9G10G04G07G20G02G08G09G13G17
  21097543.587    21097540.538   -55185319.67607 -42963560.24147        48.000
        37.000
  20590737.528    20590734.784   -70166480.47307 -54631390.71147        50.000
        40.000
  22057893.830    22057890.901   -30804392.57406 -23895472.71247        46.000
        36.000
  23292637.950    23292634.398   -96716274.89506 -75254303.00246        44.000
        24.000
  22942706.764    22942701.560   -34060561.71906 -26429326.00346        45.000
        31.000
  24425649.155    24425656.874    -6518242.99605  -5031870.38546        41.000
        21.000
  24577643.411    24577654.009    -4038938.51205  -3103456.02646        40.000
        23.000
  20406657.810    20406653.488   -70030128.52007 -54542468.75747        50.000
        40.000
  24626446.675    24626462.148   -71781211.08605 -55912858.83946        40.000
        22.000
 13 12 10 16 11 15.0000000  0  9G10G04G07G20G02G08G09G13G17
  21092232.696    21092229.515   -55213227.58607 -42985306.66047        49.000
        37.000
  20587249.605    20587246.866   -70184811.17607 -54645674.37747        50.000
        40.000
  22051607.554    22051604.982   -30837424.18006 -23921211.61047        45.000
        36.000
  23291533.477    23291530.307   -96722078.01606 -75258824.92646        44.000
        24.000
  22936298.873    22936293.505   -34094234.52706 -26455564.56846        44.000
        31.000
  24418606.930    24418613.801    -6555252.89805  -5060709.11346        41.000
        22.000
  24570155.122    24570165.436    -4078290.48405  -3134119.61046        41.000
        22.000
  20403808.587    20403804.563   -70045101.02707 -54554135.64547        50.000
        40.000
  24625626.208    24625642.570   -71785519.67604 -55916216.57746        39.000
        23.000
 13 12 10 16 11 20.0000000  0  9G10G04G07G20G02G08G09G13G17
  21086923.133    21086920.062   -55241128.92207 -43007047.95847        49.000
        37.000
  20583764.742    20583761.555   -70203125.73007 -54659945.44947        49.000
        40.000
  22045323.662    22045321.305   -30870446.42606 -23946943.21447        46.000
        36.000
  23290430.019    23290426.593   -96727876.79706 -75263343.47046        44.000
        25.000
  22929892.477    22929887.019   -34127898.95306 -26481796.58146        44.000
        30.000
  24411564.740    24411571.071    -6592262.20705  -5089547.32846        41.000
        21.000
  24562666.627    24562676.699    -4117642.80905  -3164783.52346        42.000
        23.000
  20400961.517    20400957.675   -70060062.60507 -54565794.00647        50.000
        40.000
  24624806.761    24624822.808   -71789828.75005 -55919574.73446        40.000
        22.000
 13 12 10 16 11 25.0000000  0  9G10G04G07G20G02G08G09G13G17
  21081615.313    21081611.834   -55269023.12107 -43028783.68447        49.000
        37.000
  20580282.094    20580279.582   -70221423.56607 -54674203.49747        49.000
        40.000
  22039041.448    22039039.087   -30903458.60206 -23972666.98247        46.000
        36.000
  23289327.786    23289324.171   -96733670.70706 -75267858.21246        43.000
        24.000
  22923488.577    22923482.972   -34161554.37106 -26508021.58646        44.000
        30.000
  24404521.611    24404528.450    -6629270.37105  -5118384.67646        42.000
        21.000
  24555178.091    24555188.110    -4156994.93405  -3195447.26446        41.000
        23.000
  20398116.964    20398112.624   -70075012.67207 -54577443.41347        50.000
        40.000
  24623987.190    24624003.274   -71794137.78104 -55922932.81646        39.000
        23.000
 13 12 10 16 11 30.0000000  0  9G10G04G07G20G02G08G09G13G17
  21076308.431    21076305.103   -55296910.75407 -43050514.31047        49.000
        37.000
  20576803.361    20576800.557   -70239705.29307 -54688449.00947        49.000
        40.000
  22032761.616    22032758.823   -30936461.32406 -23998383.37047        46.000
        37.000
  23288226.197    23288222.607   -96739460.27706 -75272369.57246        44.000
        23.000
  22917085.968    22917080.329   -34195201.41406 -26534240.03946        45.000
        31.000
  24397479.761    24397485.715    -6666277.89505  -5147221.59246        41.000
        21.000
  24547688.863    24547698.859    -4196347.43405  -3226111.28146        41.000
        23.000
  20395273.650    20395269.934   -70089951.81607 -54589084.30147        50.000
        40.000
  24623167.367    24623183.088   -71798447.35204 -55926291.32146        39.000
        22.000
 13 12 10 16 11 35.0000000  0  9G10G04G07G20G02G08G09G13G17
  21071002.718    21070999.675   -55324791.46107 -43072239.52747        49.000
        36.000
  20573327.673    20573324.762   -70257970.55907 -54702681.67347        48.000
        40.000
  22026483.290    22026480.463   -30969454.29306 -24024092.16347        45.000
        37.000
  23287124.969    23287121.582   -96745245.20706 -75276877.33546        44.000
        23.000
  22910684.515    22910678.642   -34228839.71106 -26560451.71646        45.000
        30.000
  24390436.991    24390443.249    -6703284.48405  -5176057.70045        42.000
        20.000
  24540200.374    24540210.156    -4235699.91805  -3256775.33046        41.000
        22.000
  20392432.842    20392429.047   -70104879.71507 -54600716.43147        50.000
        41.000
  24622347.800    24622363.537   -71802757.14104 -55929649.91846        39.000
        22.000
 13 12 10 16 11 40.0000000  0  9G10G04G07G20G02G08G09G13G17
  21065698.850    21065695.433   -55352665.38307 -43093959.46047        49.000
        37.000
  20569855.068    20569852.318   -70276219.50407 -54716901.63147        50.000
        40.000
  22020206.436    22020204.168   -31002437.55106 -24049793.39447        46.000
        37.000
  23286024.522    23286021.599   -96751025.58606 -75281381.49646        44.000
        23.000
  22904285.123    22904279.231   -34262469.37906 -26586656.62546        45.000
        31.000
  24383395.043    24383400.998    -6740290.19905  -5204893.15646        42.000
        21.000
  24532710.946    24532720.804    -4275052.52305  -3287439.45046        41.000
        23.000
  20389594.552    20389590.330   -70119796.46907 -54612339.87347        50.000
        41.000
  24621527.489    24621543.678   -71807067.19905 -55933008.81646        40.000
        22.000
 13 12 10 16 11 45.0000000  0  9G10G04G07G20G02G08G09G13G17
  21060395.704    21060392.799   -55380532.23407 -43115673.88047        48.000
        37.000
  20566385.705    20566382.647   -70294451.84007 -54731108.63347        50.000
        41.000
  22013931.953    22013929.251   -31035410.86306 -24075486.87347        45.000
        36.000
  23284925.862    23284922.257   -96756801.16806 -75285881.96846        44.000
        25.000
  22897887.306    22897881.439   -34296090.12906 -26612854.61646        45.000
        30.000
  24376352.645    24376359.265    -6777294.78505  -5233727.71346        41.000
        21.000
  24525222.297    24525232.267    -4314404.94105  -3318103.39546        41.000
        22.000
  20386758.018    20386754.269   -70134701.80507 -54623954.41247        50.000
        40.000
  24620707.433    24620724.268   -71811377.42604 -55936367.81246        39.000
        21.000
 13 12 10 16 11 50.0000000  0  9G10G04G07G20G02G08G09G13G17
  21055093.808    21055091.270   -55408392.23807 -43137382.95847        48.000
        37.000
  20562919.310    20562916.451   -70312667.73007 -54745302.83547        49.000
        40.000
  22007659.305    22007656.621   -31068374.38706 -24101172.71447        45.000
        36.000
  23283827.765    23283824.153   -96762572.15606 -75290378.89846        44.000
        22.000
  22891491.103    22891485.452   -34329702.14806 -26639045.78646        46.000
        31.000
  24369310.456    24369317.752    -6814298.41005  -5262561.52946        41.000
        21.000
  24517734.043    24517743.867    -4353757.35905  -3348767.36146        41.000
        22.000
  20383923.986    20383919.772   -70149595.93807 -54635560.23447        50.000
        40.000
  24619887.061    24619904.601   -71815687.89505 -55939727.05546        40.000
        22.000
 13 12 10 16 11 55.0000000  0  9G10G04G07G20G02G08G09G13G17
  21049793.796    21049790.409   -55436245.32006 -43159086.66147        47.000
        38.000
  20559455.684    20559453.007   -70330867.23007 -54759484.27047        48.000
        40.000
  22001388.165    22001385.860   -31101328.12906 -24126850.94447        46.000
        37.000
  23282730.392    23282727.130   -96768338.58206 -75294872.20146        44.000
        23.000
  22885096.389    22885090.695   -34363305.44906 -26665230.17046        46.000
        31.000
  24362269.320    24362276.718    -6851301.08605  -5291394.65246        41.000
        21.000
  24510245.390    24510255.454    -4393109.78105  -3379431.37046        41.000
        23.000
  20381091.443    20381087.667   -70164478.91807 -54647157.36247        50.000
        40.000
  24619068.157    24619084.984   -71819998.66804 -55943086.55846        39.000
        22.000
 13 12 10 16 12  0.0000000  0  9G10G04G07G20G02G08G09G13G17
  21044494.801    21044492.274   -55464091.68406 -43180785.12247        47.000
        37.000
  20555995.619    20555992.730   -70349050.49207 -54773653.03847        48.000
        40.000
  21995119.175    21995116.516   -31134272.20706 -24152521.64047        46.000
        36.000
  23281633.747    23281630.524   -96774100.53106 -75299362.00746        44.000
        23.000
  22878703.947    22878697.940   -34396900.12906 -26691407.83146        45.000
        31.000
  24355228.189    24355235.657    -6888302.91405  -5320227.05046        41.000
        22.000
  24502757.045    24502766.054    -4432462.33605  -3410095.45346        41.000
        23.000
  20378261.381    20378257.834   -70179350.84407 -54658745.87147        50.000
        41.000
  24618247.808    24618265.078   -71824309.88305 -55946446.32146        40.000
        23.000
 13 12 10 16 12  5.0000000  0  9G10G04G07G20G02G08G09G13G17
  21039197.201    21039194.065   -55491931.21907 -43202478.26747        48.000
        37.000
  20552538.656    20552536.180   -70367217.43007 -54787809.09647        48.000
        41.000
  21988852.226    21988849.692   -31167206.57806 -24178184.77347        45.000
        36.000
  23280538.187    23280534.850   -96779857.96106 -75303848.34346        43.000
        23.000
  22872312.649    22872306.714   -34430486.10206 -26717578.72246        46.000
        31.000
  24348187.205    24348194.507    -6925303.81305  -5349058.70846        41.000
        22.000
  24495267.796    24495277.631    -4471814.91805  -3440759.57246        41.000
        22.000
  20375433.765    20375429.938   -70194211.70307 -54670325.75847        50.000
        41.000
  24617427.182    24617444.495   -71828621.54305 -55949806.43146        40.000
        22.000
 13 12 10 16 12 10.0000000  0  9G10G04G07G20G02G08G09G13G17
  21033900.671    21033897.773   -55519763.77007 -43224165.94847        49.000
        37.000
  20549084.888    20549081.754   -70385367.91807 -54801952.32447        49.000
        40.000
  21982586.640    21982583.985   -31200130.96106 -24203840.12247        47.000
        36.000
  23279443.371    23279441.202   -96785610.71106 -75308331.00846        43.000
        22.000
  22865923.117    22865917.199   -34464063.19506 -26743742.68846        45.000
        31.000
  24341146.789    24341153.402    -6962303.61305  -5377889.55846        41.000
        22.000
  24487778.524    24487788.645    -4511167.35905  -3471423.54346        41.000
        22.000
  20372607.712    20372604.182   -70209061.29707 -54681896.87047        50.000
        41.000
  24616607.396    24616624.003   -71832933.46505 -55953166.76646        40.000
        22.000
 13 12 10 16 12 15.0000000  0  9G10G04G07G20G02G08G09G13G17
  21028606.025    21028602.606   -55547589.49206 -43245848.31947        47.000
        37.000
  20545633.960    20545631.122   -70403501.96507 -54816082.75447        48.000
        40.000
  21976323.325    21976320.516   -31233045.61306 -24229487.89247        46.000
        37.000
  23278349.268    23278346.699   -96791358.92606 -75312810.13046        43.000
        23.000
  22859535.217    22859529.674   -34497631.51606 -26769899.82746        46.000
        31.000
  24334105.782    24334112.742    -6999302.44905  -5406719.69046        41.000
        23.000
  24480290.946    24480299.813    -4550519.84405  -3502087.56046        41.000
        23.000
  20369783.965    20369780.583   -70223899.81307 -54693459.35147        50.000
        41.000
  24615786.687    24615803.698   -71837245.85504 -55956527.48546        39.000
        22.000
 13 12 10 16 12 20.0000000  0  9G10G04G07G20G02G08G09G13G17
  21023311.972    21023308.810   -55575408.28107 -43267525.28547        48.000
        37.000
  20542186.450    20542183.687   -70421619.65607 -54830200.43347        48.000
        40.000
  21970061.611    21970059.175   -31265950.50006 -24255128.04647        46.000
        36.000
  23277256.962    23277253.975   -96797102.57006 -75317285.71446        43.000
        23.000
  22853148.667    22853143.582   -34531191.07806 -26796050.11846        45.000
        31.000
  24327065.313    24327071.889    -7036300.32405  -5435549.03546        41.000
        23.000
  24472801.890    24472811.185    -4589872.27305  -3532751.60746        40.000
        22.000
  20366962.288    20366958.923   -70238727.25007 -54705013.18847        50.000
        41.000
  24614966.158    24614983.540   -71841558.61305 -55959888.57146        40.000
        22.000
 13 12 10 16 12 25.0000000  0  9G10G04G07G20G02G08G09G13G17
  21018019.387    21018016.349   -55603220.16807 -43289196.89347        49.000
        37.000
  20538741.418    20538738.562   -70439720.92207 -54844305.31247        48.000
        40.000
  21963802.072    21963799.187   -31298845.50006 -24280760.50247        46.000
        36.000
  23276164.721    23276162.169   -96802841.60506 -75321757.70346        44.000
        23.000
  22846764.080    22846758.982   -34564741.81306 -26822193.53246        46.000
        31.000
  24320025.101    24320031.742    -7073297.17605  -5464377.58346        40.000
        22.000
  24465313.300    24465322.863    -4629224.68405  -3563415.54046        41.000
        22.000
  20364143.215    20364139.326   -70253543.48007 -54716558.30547        50.000
        41.000
  24614145.805    24614163.252   -71845871.73004 -55963249.80546        39.000
        22.000
 13 12 10 16 12 30.0000000  0 10G10G04G07G20G02G08G16G09G13G17
  21012728.766    21012725.359   -55631025.05907 -43310863.02847        48.000
        37.000
  20535300.231    20535297.697   -70457805.74607 -54858397.38347        48.000
        40.000
  21957544.320    21957541.451   -31331730.50406 -24306385.16147        47.000
        37.000
  23275072.942    23275071.172   -96808575.98806 -75326226.08946        43.000
        23.000
  22840382.058    22840375.995   -34598283.60206 -26848329.98547        45.000
        32.000
  24312984.301    24312990.745    -7110292.86304  -5493205.24246        39.000
        22.000
  25598131.247                            .00011          .00051

  24457824.799    24457833.872    -4668576.89805  -3594079.39146        41.000
        23.000
  20361326.006    20361322.230   -70268348.53507 -54728094.71547        51.000
        41.000
  24613325.626    24613343.063   -71850185.18404 -55966611.39546        39.000
        23.000
 13 12 10 16 12 35.0000000  0 10G10G04G07G20G02G08G16G09G13G17
  21007438.790    21007435.382   -55658822.97707 -43332523.74947        48.000
        37.000
  20531861.998    20531859.533   -70475874.14806 -54872476.65947        47.000
        40.000
  21951287.875    21951285.994   -31364605.60506 -24332002.11347        46.000
        36.000
  23273983.363    23273980.832   -96814305.79306 -75330690.86646        43.000
        23.000
  22834000.835    22833995.159   -34631816.49206 -26874459.49846        46.000
        31.000
  24305944.732    24305950.757    -7147287.46905  -5522031.99746        40.000
        21.000
  25592970.172                      -56457.15602          .00051        35.000

  24450335.920    24450345.376    -4707928.98805  -3624743.10946        40.000
        23.000
  20358510.548    20358507.020   -70283142.41407 -54739622.41847        50.000
        40.000
  24612505.363    24612522.833   -71854499.03505 -55969973.22146        40.000
        24.000
 13 12 10 16 12 40.0000000  0 10G10G04G07G20G02G08G16G09G13G17
  21002150.434    21002147.255   -55686614.04707 -43354179.11247        48.000
        37.000
  20528426.857    20528423.943   -70493926.23407 -54886543.21947        48.000
        40.000
  21945034.454    21945031.641   -31397470.85906 -24357611.39447        47.000
        36.000
  23272894.017    23272891.686   -96820031.06606 -75335152.12046        44.000
        23.000
  22827620.726    22827615.484   -34665340.60506 -26900582.17646        45.000
        30.000
  24298904.611    24298910.974    -7184281.09805  -5550858.08846        41.000
        21.000
  25587810.519                      -83566.60901          .00051        33.000

  24442847.329    24442856.846    -4747281.00805  -3655406.77346        40.000
        24.000
  20355697.838    20355693.661   -70297925.17207 -54751141.44747        50.000
        40.000
  24611684.748    24611702.106   -71858813.39104 -55973335.51046        39.000
        22.000
 13 12 10 16 12 45.0000000  0 10G10G04G07G20G02G08G16G09G13G17
  20996863.046    20996860.004   -55714398.23407 -43375829.11447        48.000
        37.000
  20524994.591    20524991.548   -70511961.84807 -54900596.93247        48.000
        40.000
  21938782.444    21938779.331   -31430326.19506 -24383212.95247        47.000
        36.000
  23271804.933    23271802.638   -96825751.77006 -75339609.80946        44.000
        23.000
  22821243.347    22821238.107   -34698855.84406 -26926697.94746        45.000
        30.000
  24291865.026    24291871.507    -7221273.64505  -5579683.29246        40.000
        21.000
  25582653.383                     -110665.95301          .00051        33.000

  24435358.722    24435367.911    -4786632.94105  -3686070.40746        40.000
        24.000
  20352887.012    20352882.641   -70312696.84807 -54762651.83847        50.000
        41.000
  24610864.386    24610881.728   -71863128.23405 -55976698.15346        40.000
        23.000
 13 12 10 16 12 50.0000000  0 10G10G04G07G20G02G08G16G09G13G17
  20991577.425    20991574.422   -55742175.58207 -43397473.80547        48.000
        37.000
  20521565.897    20521562.989   -70529981.18007 -54914637.97647        48.000
        40.000
  21932531.667    21932528.991   -31463171.71106 -24408806.84247        47.000
        36.000
  23270717.744    23270714.995   -96831468.03906 -75344064.05146        43.000
        23.000
  22814867.373    22814861.517   -34732362.32806 -26952806.89946        45.000
        31.000
  24284826.343    24284832.122    -7258265.22305  -5608507.71946        41.000
        22.000
  25577499.603                     -137755.27000          .00051        32.000

  24427869.069    24427879.003    -4825984.80105  -3716733.97346        41.000
        23.000
  20350077.760    20350073.950   -70327457.53507 -54774153.67147        50.000
        41.000
  24610042.992    24610061.077   -71867443.64805 -55980061.25446        40.000
        23.000
 13 12 10 16 12 55.0000000  0 10G10G04G07G20G02G08G16G09G13G17
  20986292.858    20986289.771   -55769945.85906 -43419112.97747        47.000
        37.000
  20518139.875    20518137.083   -70547983.96507 -54928666.10947        48.000
        40.000
  21926283.500    21926280.754   -31496007.16006 -24434392.88647        46.000
        36.000
  23269630.258    23269628.307   -96837179.62106 -75348514.64446        43.000
        23.000
  22808492.572    22808487.565   -34765859.80906 -26978908.81146        45.000
        31.000
  24277786.892    24277793.042    -7295255.57405  -5637331.19546        41.000
        22.000
  25572346.235                     -164834.19500          .00051        30.000

  24420381.362    24420390.299    -4865336.44905  -3747397.36246        40.000
        23.000
  20347270.845    20347267.108   -70342207.00807 -54785646.77147        50.000
        40.000
  24609221.910    24609240.220   -71871759.38705 -55983424.63446        40.000
        23.000
 13 12 10 16 13  0.0000000  0 10G10G04G07G20G02G08G16G09G13G17
  20981009.479    20981006.631   -55797709.07006 -43440746.63347        47.000
        37.000
  20514717.369    20514714.763   -70565970.20307 -54942681.35947        48.000
        40.000
  21920037.227    21920034.041   -31528832.55906 -24459971.10847        46.000
        36.000
  23268544.589    23268542.302   -96842886.47306 -75352961.55546        43.000
        23.000
  22802120.222    22802114.794   -34799348.25406 -27005003.69746        45.000
        30.000
  24270747.499    24270753.698    -7332244.68805  -5666153.75946        41.000
        22.000
  25567196.262                     -191902.91400          .00051        29.000

  24412892.524    24412901.936    -4904687.77305  -3778060.55846        41.000
        22.000
  20344466.298    20344462.537   -70356945.30107 -54797131.15047        50.000
        41.000
  24608400.345    24608419.282   -71876075.46904 -55986788.24246        38.000
        23.000
 13 12 10 16 13  5.0000000  0 10G10G04G07G20G02G08G16G09G13G17
  20975727.602    20975724.345   -55825465.25006 -43462374.82647        47.000
        37.000
  20511297.659    20511294.675   -70583940.05106 -54956683.84247        47.000
        40.000
  21913792.094    21913789.545   -31561647.94106 -24485541.52047        46.000
        37.000
  23267459.538    23267456.738   -96848588.72706 -75357404.86346        44.000
        24.000
  22795748.939    22795743.840   -34832827.74206 -27031091.61946        45.000
        31.000
  24263709.355    24263715.349    -7369232.58605  -5694975.40046        41.000
        23.000
  25562045.686                            .00010          .00051

  24405404.296    24405413.900    -4944038.83205  -3808723.47846        41.000
        23.000
  20341664.112    20341660.224   -70371672.47307 -54808606.86447        50.000
        40.000
  24607578.936    24607598.971   -71880391.99204 -55990152.20046        38.000
        22.000
 13 12 10 16 13 10.0000000  0 10G10G04G07G20G02G08G16G09G13G17
  20970447.202    20970444.320   -55853214.39806 -43483997.51847        47.000
        37.000
  20507881.048    20507878.666   -70601893.45307 -54970673.50447        48.000
        40.000
  21907549.379    21907546.769   -31594453.33606 -24511104.14247        46.000
        36.000
  23266375.311    23266373.048   -96854286.34806 -75361844.58846        44.000
        23.000
  22789380.013    22789374.716   -34866298.23806 -27057172.51246        46.000
        31.000
  24256670.798    24256676.316    -7406219.35905  -5723796.06346        40.000
        22.000
  25556898.250                     -246009.41800          .00051        31.000

  24397916.576    24397925.416    -4983389.65605  -3839386.20246        41.000
        23.000
  20338863.395    20338859.505   -70386388.52307 -54820073.92547        50.000
        40.000
  24606758.314    24606777.479   -71884708.95704 -55993516.49846        38.000
        22.000
 13 12 10 16 13 15.0000000  0 10G10G04G07G20G02G08G16G09G13G17
  20965168.350    20965164.792   -55880956.51207 -43505614.74447        48.000
        37.000
  20504468.115    20504465.778   -70619830.30107 -54984650.26747        48.000
        40.000
  21901308.924    21901306.314   -31627248.55106 -24536658.84947        47.000
        37.000
  23265291.510    23265289.219   -96859979.30506 -75366280.66746        43.000
        23.000
  22783012.563    22783007.144   -34899759.63706 -27083246.32246        45.000
        31.000
  24249632.235    24249638.232    -7443204.80105  -5752615.70346        40.000
        22.000
  25551754.654                     -273047.19902          .00051        34.000

  24390428.297    24390437.270    -5022740.15205  -3870048.70546        40.000
        23.000
  20336065.886    20336061.305   -70401093.35507 -54831532.22747        50.000
        40.000
  24605936.765    24605956.492   -71889026.31303 -55996881.16546        37.000
        22.000
 13 12 10 16 13 20.0000000  0 10G10G04G07G20G02G08G16G09G13G17
  20959889.966    20959887.232   -55908691.64806 -43527226.53847        47.000
        37.000
  20501057.838    20501055.084   -70637750.66007 -54998614.18247        48.000
        40.000
  21895069.665    21895067.496   -31660033.80507 -24562205.78547        48.000
        37.000
  23264209.032    23264206.692   -96865667.64806 -75370713.14846        43.000
        23.000
  22776646.801    22776641.435   -34933212.07806 -27109313.14846        46.000
        31.000
  24242594.400    24242600.007    -7480189.08605  -5781434.50346        41.000
        22.000
  25546610.305                     -300074.75002          .00051        35.000

  24382940.105    24382949.018    -5062090.42605  -3900711.08846        41.000
        23.000
  20333269.419    20333265.320   -70415787.14807 -54842981.92547        50.000
        41.000
  24605116.068    24605135.295   -71893344.16803 -56000246.23346        37.000
        22.000
 13 12 10 16 13 25.0000000  0 10G10G04G07G20G02G08G16G09G13G17
  20954613.618    20954610.588   -55936419.79306 -43548832.87747        47.000
        37.000
  20497650.838    20497647.757   -70655654.61307 -55012565.31047        49.000
        40.000
  21888833.078    21888830.435   -31692809.03106 -24587744.90847        47.000
        36.000
  23263127.691    23263125.187   -96871351.48406 -75375142.11846        44.000
        22.000
  22770283.020    22770277.458   -34966655.56606 -27135373.00546        46.000
        31.000
  24235556.473    24235562.292    -7517172.18005  -5810252.33146        41.000
        22.000
  25541469.643                     -327092.09402          .00051        35.000

  24375451.104    24375460.576    -5101440.48805  -3931373.24746        41.000
        22.000
  20330475.295    20330471.366   -70430469.87907 -54854423.02247        50.000
        40.000
  24604294.166    24604313.759   -71897662.63303 -56003611.66946        37.000
        22.000
 13 12 10 16 13 30.0000000  0 10G10G04G07G20G02G08G16G09G13G17
  20949338.720    20949335.424   -55964140.84406 -43570433.69147        47.000
        38.000
  20494247.094    20494244.057   -70673542.05107 -55026503.57047        49.000
        41.000
  21882597.727    21882595.035   -31725574.12106 -24613276.13647        47.000
        36.000
  23262047.249    23262043.965   -96877030.60206 -75379567.41946        43.000
        22.000
  22763920.244    22763915.272   -35000089.92606 -27161425.76146        45.000
        31.000
  24228519.220    24228524.597    -7554153.95705  -5839069.17646        40.000
        22.000
  25536330.220                     -354098.98002          .00051        35.000

  24367963.406    24367972.278    -5140790.18805  -3962035.10746        40.000
        22.000
  20327682.887    20327679.197   -70445141.43007 -54865855.39447        50.000
        40.000
  24603474.036    24603492.436   -71901981.52004 -56006977.50546        38.000
        23.000
 13 12 10 16 13 35.0000000  0 10G10G04G07G20G02G08G16G09G13G17
  20944064.876    20944061.719   -55991855.23806 -43592029.31747        47.000
        38.000
  20490846.000    20490843.374   -70691413.36707 -55040429.27447        48.000
        40.000
  21876365.289    21876362.114   -31758329.48806 -24638799.77847        47.000
        37.000
  23260967.345    23260964.523   -96882705.49606 -75383989.42746        43.000
        23.000
  22757559.938    22757554.534   -35033515.62106 -27187471.74546        46.000
        31.000
  24221481.980    24221487.171    -7591134.81605  -5867885.25546        41.000
        22.000
  25531193.773                     -381096.00002          .00051        35.000

  24360475.427    24360483.548    -5180139.96505  -3992697.05946        40.000
        23.000
  20324893.523    20324889.634   -70459802.24207 -54877279.40347        50.000
        40.000
  24602651.557    24602670.616   -71906301.29304 -56010344.01846        38.000
        23.000
 13 12 10 16 13 40.0000000  0 10G10G04G07G20G02G08G16G09G13G17
  20938791.998    20938789.150   -56019562.45306 -43613619.33647        47.000
        37.000
  20487448.757    20487445.887   -70709268.09007 -55054342.03747        49.000
        40.000
  21870133.836    21870130.786   -31791074.64506 -24664315.48147        47.000
        36.000
  23259888.464    23259885.381   -96888375.67206 -75388407.74946        43.000
        22.000
  22751200.986    22751195.496   -35066932.15206 -27213510.59846        46.000
        31.000
  24214445.471    24214450.644    -7628114.28105  -5896700.24546        41.000
        22.000
  25526057.398                     -408082.59402          .00051        34.000

  24352987.424    24352995.689    -5219489.30505  -4023358.68446        40.000
        23.000
  20322105.361    20322101.534   -70474451.86707 -54888694.69447        50.000
        40.000
  24601830.348    24601849.082   -71910621.52004 -56013710.87746        39.000
        25.000
 13 12 10 16 13 45.0000000  0 11G10G04G07G20G02G08G16G09G13G05G17
  20933520.984    20933518.028   -56047262.87906 -43635204.08547        47.000
        37.000
  20484054.286    20484051.143   -70727106.60207 -55068242.17647        48.000
        40.000
  21863904.398    21863901.841   -31823809.91806 -24689823.47647        47.000
        37.000
  23258810.081    23258807.639   -96894041.46906 -75392822.65546        43.000
        23.000
  22744843.196    22744838.426   -35100339.88706 -27239542.59147        46.000
        32.000
  24207407.723    24207413.663    -7665092.72705  -5925514.46046        41.000
        22.000
  25520923.751                     -435059.06302          .00051        35.000

  24345499.040    24345507.483    -5258838.59405  -4054020.27946        41.000
        23.000
  20319320.093    20319316.503   -70489090.68007 -54900101.56547        51.000
        40.000
  25620469.038                      -35653.86702          .00051        35.000

  24601007.740    24601027.402   -71914942.53904 -56017078.39946        38.000
        22.000
 13 12 10 16 13 50.0000000  0 11G10G04G07G20G02G08G16G09G13G05G17
  20928251.250    20928248.228   -56074956.46906 -43656783.49847        47.000
        37.000
  20480662.727    20480659.702   -70744928.89807 -55082129.68047        49.000
        41.000
  21857677.251    21857674.439   -31856535.30107 -24715323.76147        48.000
        36.000
  23257732.852    23257730.282   -96899702.86706 -75397234.15146        43.000
        23.000
  22738487.941    22738482.294   -35133738.74206 -27265567.66446        46.000
        31.000
  24200371.429    24200377.434    -7702070.08205  -5954327.83146        41.000
        21.000
  25515792.615                     -462025.36703          .00051        37.000

  24338010.531    24338019.880    -5298187.74605  -4084681.78146        40.000
        23.000
  20316536.312    20316532.262   -70503718.64807 -54911499.97347        50.000
        40.000
  25613937.107                      -69945.84402          .00051        34.000

  24600185.979    24600205.061   -71919264.28504 -56020446.41846        38.000
        22.000
 13 12 10 16 13 55.0000000  0 11G10G04G07G20G02G08G16G09G13G05G17
  20922982.499    20922979.796   -56102642.96107 -43678357.37847        48.000
        38.000
  20477274.165    20477271.460   -70762734.66007 -55096004.29747        49.000
        41.000
  21851451.641    21851448.902   -31889250.53507 -24740816.14047        48.000
        37.000
  23256656.743    23256653.481   -96905359.61305 -75401641.96646        42.000
        23.000
  22732133.911    22732128.065   -35167128.48806 -27291585.63146        45.000
        31.000
  24193335.141    24193340.570    -7739046.10205  -5983140.19246        41.000
        22.000
  25510663.302                     -488981.27003          .00051        37.000

  24330522.840    24330531.859    -5337536.47705  -4115342.90246        40.000
        23.000
  20313754.911    20313750.739   -70518335.52307 -54922889.74647        50.000
        40.000
  25607411.262                     -104238.86701          .00051        33.000

  24599363.407    24599383.169   -71923586.56304 -56023814.91146        38.000
        22.000
 13 12 10 16 14  0.0000000  0 11G10G04G07G20G02G08G16G09G13G05G17
  20917715.589    20917712.404   -56130322.50407 -43699925.85047        48.000
        38.000
  20473889.239    20473886.380   -70780524.07407 -55109866.18047        49.000
        40.000
  21845227.707    21845225.539   -31921955.68807 -24766300.65647        48.000
        36.000
  23255581.172    23255578.223   -96911011.86306 -75406046.38446        43.000
        23.000
  22725781.911    22725776.055   -35200509.22306 -27317596.59246        46.000
        31.000
  24186298.917    24186304.536    -7776020.92205  -6011951.59346        42.000
        22.000
  25505535.655                     -515926.81602          .00051        35.000

  24323035.303    24323043.565    -5376884.98804  -4146003.84446        39.000
        23.000
  20310975.565    20310971.559   -70532941.42607 -54934270.96147        50.000
        40.000
  25600883.625                     -138533.16000          .00051        29.000

  24598542.118    24598560.584   -71927909.53504 -56027183.91046        38.000
        23.000
 13 12 10 16 14  5.0000000  0 11G10G04G07G20G02G08G16G09G13G05G17
  20912449.214    20912446.644   -56157995.10207 -43721488.90247        49.000
        38.000
  20470507.049    20470504.195   -70798297.19507 -55123715.36847        50.000
        40.000
  21839006.364    21839003.338   -31954650.84806 -24791777.39047        47.000
        36.000
  23254506.496    23254503.553   -96916659.68006 -75410447.25446        44.000
        24.000
  22719431.513    22719425.723   -35233880.97306 -27343600.56146        47.000
        31.000
  24179262.948    24179268.403    -7812994.53905  -6040762.03346        41.000
        22.000
  25500410.342                     -542862.19102          .00051        35.000

  24315547.456    24315555.748    -5416233.25405  -4176664.62646        40.000
        23.000
  20308197.988    20308194.260   -70547536.42607 -54945643.68847        49.000
        40.000
  25594356.785                            .00010          .00051

  24597719.564    24597738.735   -71932233.20304 -56030553.48646        39.000
        23.000
 13 12 10 16 14 10.0000000  0 11G10G04G07G20G02G08G16G09G13G05G17
  20907184.822    20907181.847   -56185660.90607 -43743046.66147        48.000
        38.000
  20467127.918    20467125.011   -70816054.08207 -55137551.89647        49.000
        40.000
  21832786.227    21832783.723   -31987336.07006 -24817246.38547        47.000
        36.000
  23253432.229    23253429.827   -96922303.13706 -75414844.77846        43.000
        23.000
  22713082.308    22713077.177   -35267243.84406 -27369597.59046        46.000
        31.000
  24172227.074    24172232.225    -7849967.09005  -6069571.64346        41.000
        22.000
  25495285.613                     -569787.35502          .00051        35.000

  24308059.247    24308067.559    -5455581.40605  -4207325.30246        40.000
        23.000
  20305423.073    20305418.646   -70562120.66007 -54957008.02747        49.000
        40.000
  25587830.143                     -207125.64100          .00051        30.000

  24596896.582    24596916.341   -71936557.81604 -56033923.79346        39.000
        26.000
 13 12 10 16 14 15.0000000  0 11G10G04G07G20G02G08G16G09G13G05G17
  20901921.214    20901918.584   -56213319.41807 -43764598.74447        48.000
        38.000
  20463752.001    20463749.159   -70833794.27007 -55151375.43147        50.000
        41.000
  21826568.395    21826565.875   -32020010.95707 -24842707.31847        48.000
        36.000
  23252359.243    23252357.193   -96927941.77306 -75419238.55646        43.000
        22.000
  22706735.438    22706730.209   -35300597.35206 -27395587.35246        45.000
        31.000
  24165191.740    24165196.759    -7886938.08605  -6098380.08546        42.000
        21.000
  25490164.378                     -596701.91002          .00051        35.000

  24300571.542    24300579.668    -5494928.91005  -4237985.48846        41.000
        23.000
  20302649.717    20302646.074   -70576693.64507 -54968363.60447        49.000
        40.000
  25581305.794                     -241423.41000          .00051        32.000

  24596073.622    24596093.988   -71940882.77304 -56037294.36046        39.000
        26.000
 13 12 10 16 14 20.0000000  0 11G10G04G07G20G02G08G16G09G13G05G17
  20896659.470    20896656.438   -56240970.98807 -43786145.42047        48.000
        37.000
  20460379.430    20460376.940   -70851518.15607 -55165186.24047        49.000
        40.000
  21820353.019    21820349.741   -32052675.69906 -24868160.35347        47.000
        37.000
  23251286.864    23251284.706   -96933575.93006 -75423628.80546        43.000
        22.000
  22700389.848    22700385.080   -35333941.82406 -27421570.05446        45.000
        31.000
  24158156.548    24158161.191    -7923907.78905  -6127187.52146        42.000
        22.000
  25485044.837                     -623606.15203          .00051        36.000

  24293084.091    24293091.849    -5534276.14805  -4268645.54846        40.000
        22.000
  20299878.799    20299874.442   -70591255.66007 -54979710.61947        49.000
        40.000
  25574779.009                     -275722.36702          .00051        34.000

  24595251.018    24595271.446   -71945208.48804 -56040665.54646        38.000
        24.000
 13 12 10 16 14 25.0000000  0 11G10G04G07G20G02G08G16G09G13G05G17
  20891398.801    20891396.076   -56268615.43407 -43807686.53847        49.000
        38.000
  20457009.895    20457006.763   -70869225.52707 -55178984.19147        50.000
        40.000
  21814138.442    21814135.982   -32085330.23407 -24893605.42747        48.000
        37.000
  23250215.479    23250213.294   -96939205.50406 -75428015.45846        43.000
        23.000
  22694046.982    22694041.605   -35367277.12106 -27447545.58747        46.000
        32.000
  24151121.766    24151126.247    -7960876.14505  -6155993.85246        41.000
        22.000
  25479927.851                     -650499.97304          .00051        38.000

  24285595.770    24285604.633    -5573622.93405  -4299305.13646        40.000
        22.000
  20297109.729    20297106.086   -70605806.66007 -54991049.06747        50.000
        41.000
  25568251.557                     -310022.41002          .00051        34.000

  24594428.004    24594448.601   -71949534.88304 -56044037.24146        39.000
        24.000
 13 12 10 16 14 30.0000000  0 11G10G04G07G20G02G08G16G09G13G05G17
  20886139.830    20886136.381   -56296252.77707 -43829222.13147        48.000
        38.000
  20453643.435    20453640.471   -70886916.52007 -55192769.38547        50.000
        40.000
  21807926.722    21807923.871   -32117974.54307 -24919042.55047        48.000
        37.000
  23249144.954    23249143.354   -96944830.46906 -75432398.57946        43.000
        23.000
  22687704.889    22687699.929   -35400603.19906 -27473513.95447        45.000
        32.000
  24144086.112    24144092.143    -7997843.08205  -6184799.19646        42.000
        22.000
  25474810.966                     -677383.25803          .00051        37.000

  24278108.925    24278116.784    -5612969.25405  -4329964.39846        40.000
        23.000
  20294342.989    20294339.320   -70620346.62107 -55002378.90447        50.000
        41.000
  25561723.054                     -344323.41800          .00051        32.000

  24593605.567    24593625.499   -71953861.93804 -56047409.41746        39.000
        25.000
 13 12 10 16 14 35.0000000  0 11G10G04G07G20G02G08G16G09G13G05G17
  20880882.030    20880878.618   -56323883.09407 -43850752.22947        49.000
        37.000
  20450279.682    20450277.477   -70904591.08607 -55206541.76947        49.000
        40.000
  21801716.503    21801714.268   -32150608.65207 -24944471.70447        48.000
        36.000
  23248075.620    23248073.779   -96950450.92205 -75436778.18846        42.000
        23.000
  22681365.091    22681359.523   -35433920.12106 -27499475.18847        45.000
        32.000
  24137052.292    24137058.162    -8034808.65605  -6213603.30546        41.000
        22.000
  25469697.260                     -704256.18003          .00051        36.000

  24270621.031    24270629.715    -5652315.18005  -4360623.34246        40.000
        23.000
  20291578.246    20291574.147   -70634875.68407 -55013700.24947        49.000
        40.000
  25555196.280                     -378625.59401          .00051        33.000

  24592781.707    24592802.740   -71958189.67604 -56050782.23946        39.000
        26.000
 13 12 10 16 14 40.0000000  0 11G10G04G07G20G02G08G16G09G13G05G17
  20875625.382    20875622.187   -56351506.28507 -43872276.80347        49.000
        37.000
  20446919.713    20446917.070   -70922249.18407 -55220301.31447        50.000
        40.000
  21795508.194    21795506.087   -32183232.58607 -24969892.93447        48.000
        36.000
  23247007.011    23247005.145   -96956066.86705 -75441154.22546        42.000
        23.000
  22675026.927    22675021.450   -35467227.87106 -27525429.26846        44.000
        31.000
  24130017.942    24130024.117    -8071772.85905  -6242406.42246        42.000
        22.000
  25464586.034                     -731118.67203          .00051        36.000

  24263134.197    24263141.946    -5691660.62905  -4391281.95446        40.000
        23.000
  20288815.432    20288811.489   -70649393.77307 -55025013.04747        49.000
        40.000
  25548668.997                     -412928.89101          .00051        33.000

  24591958.967    24591979.450   -71962518.27704 -56054155.64246        39.000
        25.000
 13 12 10 16 14 45.0000000  0 11G10G04G07G20G02G08G16G09G13G05G17
  20870370.197    20870367.245   -56379122.23807 -43893795.70447        48.000
        37.000
  20443562.645    20443560.015   -70939890.70307 -55234047.96047        50.000
        40.000
  21789302.082    21789299.980   -32215846.17206 -24995306.11247        47.000
        36.000
  23245939.179    23245937.655   -96961678.09805 -75445526.62746        42.000
        22.000
  22668690.084    22668684.998   -35500526.31306 -27551376.10546        45.000
        31.000
  24122984.066    24122989.923    -8108735.50405  -6271208.38746        41.000
        23.000
  25459476.039                     -757970.50402          .00051        35.000

  24255646.766    24255654.808    -5731005.52305  -4421940.10246        40.000
        23.000
  20286054.718    20286050.966   -70663900.77307 -55036317.20247        49.000
        40.000
  25542141.656                     -447233.25000          .00051        32.000

  24591134.763    24591156.155   -71966847.37105 -56057529.43946        40.000
        25.000
 13 12 10 16 14 50.0000000  0 11G10G04G07G20G02G08G16G09G13G05G17
  20865116.288    20865113.268   -56406731.03907 -43915309.04647        48.000
        37.000
  20440208.870    20440206.162   -70957515.66807 -55247781.70847        51.000
        40.000
  21783098.113    21783095.660   -32248449.39106 -25020711.19047        47.000
        36.000
  23244872.929    23244870.962   -96967284.69506 -75449895.40246        43.000
        24.000
  22662355.574    22662349.686   -35533815.44906 -27577315.67946        45.000
        31.000
  24115950.355    24115955.818    -8145696.65605  -6300009.13646        41.000
        22.000
  25454369.071                     -784811.79702          .00051        35.000

  24248160.102    24248167.995    -5770349.75405  -4452597.71846        40.000
        23.000
  20283296.117    20283292.437   -70678396.72707 -55047612.74647        50.000
        40.000
  25535612.925                     -481538.59800          .00051        31.000

  24590311.115    24590332.549   -71971177.17604 -56060903.80646        38.000
        23.000
 13 12 10 16 14 55.0000000  0 11G10G04G07G20G02G08G16G09G13G05G17
  20859863.596    20859860.712   -56434333.17607 -43936817.19647        49.000
        38.000
  20436857.903    20436855.281   -70975124.65207 -55261502.98347        50.000
        40.000
  21776896.073    21776893.185   -32281042.84407 -25046108.67347        48.000
        36.000
  23243806.577    23243804.817   -96972887.15206 -75454260.97446        43.000
        22.000
  22656022.375    22656017.313   -35567095.78906 -27603248.42047        46.000
        32.000
  24108916.689    24108922.343    -8182656.83205  -6328809.05446        41.000
        22.000
  25449262.556                     -811643.01602          .00051        34.000

  24240672.179    24240680.836    -5809694.07405  -4483255.46346        40.000
        22.000
  20280539.671    20280535.712   -70692882.17607 -55058900.10447        50.000
        40.000
  25529084.231                     -515845.46500          .00051        32.000

  24589487.927    24589508.860   -71975508.16805 -56064279.09546        40.000
        23.000
 13 12 10 16 15  0.0000000  0 11G10G04G07G20G02G08G16G09G13G05G17
  20854612.561    20854609.742   -56461928.05907 -43958319.70347        49.000
        38.000
  20433510.073    20433507.431   -70992717.11307 -55275211.39447        50.000
        40.000
  21770695.648    21770692.633   -32313625.83607 -25071498.00547        48.000
        37.000
  23242741.030    23242739.333   -96978484.93805 -75458622.90146        42.000
        22.000
  22649691.411    22649685.907   -35600366.77306 -27629173.85446        46.000
        31.000
  24101884.217    24101889.463    -8219615.39805  -6357607.85746        41.000
        22.000
  25444159.641                     -838463.60203          .00051        37.000

  24233185.057    24233193.700    -5849037.72305  -4513912.62746        40.000
        23.000
  20277785.413    20277781.427   -70707356.53507 -55070178.82547        50.000
        41.000
  25522554.759                     -550153.33200          .00051        32.000

  24588664.181    24588685.055   -71979839.81804 -56067654.88146        39.000
        23.000
 13 12 10 16 15  5.0000000  0 11G10G04G07G20G02G08G16G09G13G05G17
  20849362.629    20849359.811   -56489516.03107 -43979816.80747        49.000
        37.000
  20430165.368    20430163.069   -71010293.32807 -55288907.14947        50.000
        40.000
  21764496.811    21764493.306   -32346198.71907 -25096879.45247        48.000
        37.000
  23241676.238    23241675.031   -96984078.32405 -75462981.34446        42.000
        23.000
  22643361.820    22643356.276   -35633628.70306 -27655092.24446        46.000
        31.000
  24094851.395    24094856.271    -8256572.69905  -6386405.62446        41.000
        23.000
  25439056.666                     -865273.86302          .00051        34.000

  24225698.335    24225707.125    -5888381.05104  -4544569.58946        39.000
        23.000
  20275032.917    20275028.977   -70721820.14507 -55081449.16947        50.000
        41.000
  25516025.279                     -584462.35200          .00051        31.000

  24587839.289    24587861.108   -71984172.43805 -56071031.45946        40.000
        24.000
 13 12 10 16 15 10.0000000  0 11G10G04G07G20G02G08G16G09G13G05G17
  20844114.412    20844111.320   -56517096.85507 -44001308.36147        49.000
        38.000
  20426823.946    20426821.602   -71027853.07807 -55302590.06947        50.000
        40.000
  21758300.597    21758297.602   -32378761.33606 -25122252.91047        47.000
        37.000
  23240613.494    23240611.707   -96989667.09806 -75467336.27646        43.000
        22.000
  22637033.673    22637028.708   -35666881.32806 -27681003.36747        45.000
        32.000
  24087818.393    24087824.145    -8293528.53505  -6415202.25046        41.000
        22.000
  25433957.443                     -892073.61702          .00051        35.000

  24218211.576    24218219.822    -5927723.84804  -4575226.10046        39.000
        22.000
  20272282.810    20272278.928   -70736272.67607 -55092710.88047        50.000
        40.000
  25509496.194                     -618772.56600          .00051        31.000

  24587015.295    24587036.921   -71988505.78905 -56074408.62946        40.000
        24.000
 13 12 10 16 15 15.0000000  0 11G10G04G07G20G02G08G16G09G13G05G17
  20838867.216    20838864.242   -56544670.70307 -44022794.47547        48.000
        37.000
  20423485.591    20423482.845   -71045396.46107 -55316260.24447        50.000
        40.000
  21752106.316    21752103.087   -32411313.71906 -25147618.39647        47.000
        37.000
  23239550.450    23239548.731   -96995251.46106 -75471687.72346        44.000
        23.000
  22630707.811    22630702.946   -35700124.84006 -27706907.40546        46.000
        31.000
  24080786.053    24080791.568    -8330483.03505  -6443997.76446        42.000
        22.000
  25428860.329                     -918862.95303          .00051        36.000

  24210724.470    24210732.695    -5967066.21105  -4605882.30546        40.000
        23.000
  20269534.557    20269530.724   -70750714.41807 -55103964.18847        50.000
        40.000
  25502969.284                     -653084.00800          .00051        31.000

  24586190.532    24586212.575   -71992840.09005 -56077786.51146        41.000
        26.000
 13 12 10 16 15 20.0000000  0 11G10G04G07G20G02G08G16G09G13G05G17
  20833621.436    20833618.495   -56572237.38306 -44044274.99747        47.000
        37.000
  20420150.259    20420147.355   -71062923.39107 -55329917.59247        50.000
        40.000
  21745913.303    21745911.013   -32443855.73406 -25172975.78947        46.000
        37.000
  23238488.997    23238486.670   -97000831.34806 -75476035.70246        44.000
        23.000
  22624383.919    22624378.582   -35733359.04706 -27732804.19446        46.000
        31.000
  24073754.348    24073759.739    -8367436.01605  -6472792.19246        42.000
        23.000
  25423762.852                     -945641.66402          .00051        35.000

  24203237.963    24203246.040    -6006408.05905  -4636538.08446        40.000
        22.000
  20266788.383    20266784.421   -70765145.28907 -55115209.01347        50.000
        40.000
  25496439.493                     -687396.48800          .00051        32.000

  24585366.434    24585388.703   -71997175.22305 -56081165.03746        40.000
        25.000
 13 12 10 16 15 25.0000000  0 11G10G04G07G20G02G08G16G09G13G05G17
  20828377.025    20828374.068   -56599797.29307 -44065750.24247        48.000
        37.000
  20416818.106    20416815.310   -71080434.16007 -55343562.34547        50.000
        40.000
  21739723.193    21739720.321   -32476387.75406 -25198325.40447        47.000
        37.000
  23237427.750    23237426.142   -97006406.97706 -75480380.30446        44.000
        23.000
  22618060.976    22618056.480   -35766584.25406 -27758693.94246        45.000
        31.000
  24066722.835    24066727.704    -8404387.77705  -6501585.65446        42.000
        22.000
  25418670.383                     -972410.15603          .00051        36.000

  24195751.825    24195759.209    -6045749.62105  -4667193.66146        40.000
        23.000
  20264044.062    20264040.809   -70779565.57407 -55126445.59747        49.000
        40.000
  25489909.951                            .00011          .00051

  24584541.627    24584563.653   -72001511.49205 -56084544.49046        42.000
        25.000
 13 12 10 16 15 30.0000000  0 11G10G04G07G20G02G08G16G09G13G05G17
  20823133.702    20823130.928   -56627350.26607 -44087220.08347        48.000
        38.000
  20413488.951    20413486.540   -71097928.76207 -55357194.49347        49.000
        40.000
  21733533.874    21733531.354   -32508909.65207 -25223667.12347        48.000
        37.000
  23236367.808    23236365.517   -97011978.28906 -75484721.65646        44.000
        24.000
  22611740.135    22611735.209   -35799800.42606 -27784576.65546        46.000
        31.000
  24059690.816    24059696.025    -8441338.22305  -6530378.02246        42.000
        22.000
  25413577.563                     -999168.27303          .00051        37.000

  24188264.863    24188273.209    -6085090.86305  -4697848.96446        41.000
        23.000
  20261302.308    20261298.420   -70793975.09807 -55137673.79947        49.000
        40.000
  25483379.061                     -756025.63300          .00051        32.000

  24583716.488    24583738.938   -72005848.86705 -56087924.80346        41.000
        25.000
 13 12 10 16 15 35.0000000  0 11G10G04G07G20G02G08G16G09G13G05G17
  20817892.439    20817889.188   -56654895.73407 -44108684.08647        48.000
        38.000
  20410163.130    20410160.440   -71115406.54307 -55370813.55247        49.000
        40.000
  21727347.187    21727344.433   -32541420.84006 -25249000.50147        47.000
        37.000
  23235308.539    23235306.215   -97017544.65606 -75489059.09246        44.000
        24.000
  22605420.987    22605416.317   -35833006.87106 -27810451.81746        46.000
        31.000
  24052659.812    24052664.707    -8478286.75805  -6559168.99746        42.000
        23.000
  25408487.330                    -1025915.42203          .00051        36.000

  24180778.711    24180786.811    -6124431.13305  -4728503.55046        41.000
        22.000
  20258562.620    20258558.568   -70808373.37507 -55148893.23047        50.000
        40.000
  25476849.604                            .00010          .00051

  24582892.131    24582913.514   -72010186.70305 -56091305.42646        42.000
        26.000
 13 12 10 16 15 40.0000000  0 11G10G04G07G20G02G08G16G09G13G05G17
  20812652.315    20812648.498   -56682433.82807 -44130142.32047        48.000
        38.000
  20406840.657    20406837.694   -71132867.62507 -55384419.58447        49.000
        40.000
  21721162.628    21721159.912   -32573921.44906 -25274325.63947        47.000
        37.000
  23234250.032    23234247.704   -97023106.22706 -75493392.74846        44.000
        22.000
  22599104.282    22599099.087   -35866203.78106 -27836319.53447        45.000
        32.000
  24045628.963    24045633.927    -8515233.48405  -6587958.49446        42.000
        23.000
  25403400.207                    -1052651.76603          .00051        37.000

  24173292.323    24173300.133    -6163770.57405  -4759157.47146        40.000
        22.000
  20255824.862    20255820.397   -70822760.52307 -55160103.98947        50.000
        40.000
  25470320.024                     -824658.23802          .00051        34.000

  24582067.463    24582088.561   -72014525.19505 -56094686.60046        41.000
        25.000
 13 12 10 16 15 45.0000000  0 11G10G04G07G20G02G08G16G09G13G05G17
  20807412.875    20807409.784   -56709964.88706 -44151595.08547        47.000
        38.000
  20403520.336    20403517.949   -71150312.39107 -55398012.90547        49.000
        40.000
  21714980.087    21714977.051   -32606411.80106 -25299642.78647        47.000
        37.000
  23233192.836    23233190.452   -97028663.34806 -75497723.00546        44.000
        23.000
  22592788.625    22592783.693   -35899391.42206 -27862179.99946        45.000
        31.000
  24038598.003    24038603.009    -8552178.79705  -6616746.85346        42.000
        22.000
  25398314.143                    -1079377.59004          .00051        38.000

  24165806.266    24165814.059    -6203109.46505  -4789810.95246        40.000
        21.000
  20253089.069    20253084.940   -70837136.89507 -55171306.36247        50.000
        40.000
  25463790.644                     -858976.11303          .00051        36.000

  24581241.031    24581263.440   -72018864.71505 -56098068.55846        42.000
        26.000
 13 12 10 16 15 50.0000000  0 11G10G04G07G20G02G08G16G09G13G05G17
  20802175.202    20802172.524   -56737488.87507 -44173042.34147        48.000
        37.000
  20400204.308    20400201.661   -71167740.71107 -55411593.42447        48.000
        40.000
  21708799.113    21708796.373   -32638891.78506 -25324951.84647        47.000
        37.000
  23232136.070    23232133.658   -97034215.96106 -75502049.71046        44.000
        23.000
  22586474.687    22586470.008   -35932569.71906 -27888033.22247        45.000
        32.000
  24031568.453    24031572.658    -8589122.57405  -6645534.12646        42.000
        23.000
  25393230.687                    -1106092.83203          .00051        37.000

  24158320.318    24158327.924    -6242447.75804  -4820463.98146        39.000
        23.000
  20250355.551    20250351.346   -70851502.44907 -55182500.29147        50.000
        40.000
  25457259.601                     -893295.22303          .00051        37.000

  24580415.343    24580437.711   -72023205.05905 -56101451.15246        42.000
        25.000
 13 12 10 16 15 55.0000000  0 11G10G04G07G20G02G08G16G09G13G05G17
  20796938.726    20796935.864   -56765005.81607 -44194484.11047        48.000
        37.000
  20396890.886    20396888.041   -71185152.76207 -55425161.24947        49.000
        40.000
  21702620.461    21702617.547   -32671361.53106 -25350252.93147        47.000
        37.000
  23231080.196    23231077.561   -97039764.19106 -75506373.00746        44.000
        23.000
  22580163.207    22580158.471   -35965738.78906 -27913879.22647        45.000
        32.000
  24024538.606    24024542.660    -8626064.87905  -6674320.17946        41.000
        23.000
  25388149.388                    -1132797.55903          .00051        36.000

  24150835.001    24150842.095    -6281785.55905  -4851116.61446        40.000
        22.000
  20247623.543    20247619.516   -70865857.29307 -55193685.87847        50.000
        40.000
  25450727.535                     -927615.49602          .00051        35.000

  24579590.282    24579612.087   -72027546.52705 -56104834.58546        41.000
        25.000
 13 12 10 16 16  0.0000000  0 11G10G04G07G20G02G08G16G09G13G05G17
  20791703.921    20791700.865   -56792515.90207 -44215920.54447        49.000
        37.000
  20393580.848    20393577.765   -71202548.64507 -55438716.48347        50.000
        40.000
  21696443.905    21696440.807   -32703821.11706 -25375546.10047        47.000
        37.000
  23230025.187    23230022.623   -97045308.11706 -75510692.97046        44.000
        22.000
  22573853.086    22573847.682   -35998898.76206 -27939718.18647        46.000
        32.000
  24017508.701    24017512.929    -8663005.83605  -6703105.20246        42.000
        22.000
  25383069.421                    -1159491.91402          .00051        35.000

  24143348.945    24143356.434    -6321122.98404  -4881768.95446        39.000
        23.000
  20244894.015    20244890.105   -70880201.52307 -55204863.20247        50.000
        40.000
  25444194.326                            .00010          .00051

  24578763.832    24578786.025   -72031889.14505 -56108218.97446        42.000
        23.000
 13 12 10 16 16  5.0000000  0 11G10G04G07G20G02G08G16G09G13G05G17
  20786470.046    20786467.040   -56820018.87107 -44237351.41847        48.000
        38.000
  20390273.553    20390270.633   -71219928.14507 -55452258.95447        48.000
        40.000
  21690268.697    21690266.120   -32736270.35506 -25400831.21547        47.000
        37.000
  23228971.498    23228968.679   -97050847.64506 -75515009.48446        44.000
        22.000
  22567544.615    22567539.632   -36032049.42206 -27965549.84746        46.000
        31.000
  24010479.233    24010483.617    -8699945.21105  -6731889.00446        42.000
        23.000
  25377991.864                    -1186175.62903          .00051        36.000

  24135862.838    24135870.447    -6360459.86704  -4912420.86646        38.000
        23.000
  20242166.563    20242162.614   -70894534.99207 -55216032.13847        50.000
        40.000
  25437661.954                            .00010          .00051

  24577937.065    24577960.423   -72036232.76605 -56111604.14146        41.000
        24.000
 13 12 10 16 16 10.0000000  0 11G10G04G07G20G02G08G16G09G13G05G17
  20781237.885    20781235.186   -56847514.68407 -44258776.72647        48.000
        37.000
  20386969.271    20386966.546   -71237291.22707 -55465788.62147        49.000
        40.000
  21684095.894    21684093.234   -32768709.16407 -25426108.18947        48.000
        37.000
  23227917.737    23227914.819   -97056382.61706 -75519322.47146        44.000
        22.000
  22561238.532    22561232.950   -36065190.67206 -27991374.20947        46.000
        32.000
  24003449.762    24003454.471    -8736883.00005  -6760671.55146        42.000
        23.000
  25372915.236                    -1212848.78502          .00051        35.000

  24128377.055    24128384.857    -6399796.03505  -4943072.22546        40.000
        23.000
  20239440.799    20239437.026   -70908857.63707 -55227192.64047        50.000
        40.000
  25431133.210                    -1030583.44502          .00051        35.000

  24577111.696    24577133.794   -72040577.36305 -56114990.08446        42.000
        25.000
 13 12 10 16 16 15.0000000  0 11G10G04G07G20G02G08G16G09G13G05G17
  20776007.120    20776004.141   -56875003.45307 -44280196.52747        48.000
        37.000
  20383668.280    20383665.133   -71254638.03107 -55479305.62547        49.000
        40.000
  21677924.846    21677921.986   -32801137.76606 -25451377.21147        47.000
        37.000
  23226864.789    23226862.187   -97061913.26606 -75523632.07146        44.000
        23.000
  22554933.234    22554928.013   -36098322.66806 -28017191.33846        46.000
        31.000
  23996420.723    23996425.417    -8773819.34405  -6789452.99746        42.000
        23.000
  25367841.996                    -1239511.38303          .00051        36.000

  24120891.910    24120899.663    -6439131.71905  -4973723.25146        40.000
        23.000
  20236717.666    20236713.658   -70923169.62107 -55238344.83847        50.000
        40.000
  25424602.294                    -1064908.55503          .00051        37.000

  24576284.427    24576307.160   -72044923.09405 -56118376.79846        41.000
        23.000
 13 12 10 16 16 20.0000000  0 11G10G04G07G20G02G08G16G09G13G05G17
  20770777.699    20770774.176   -56902484.98806 -44301610.71847        47.000
        37.000
  20380370.432    20380367.462   -71271968.35507 -55492809.77047        48.000
        40.000
  21671755.765    21671753.109   -32833555.77706 -25476637.97547        47.000
        36.000
  23225814.293    23225810.649   -97067439.29306 -75527938.07846        44.000
        24.000
  22548630.391    22548625.225   -36131445.16806 -28043001.07846        46.000
        31.000
  23989392.340    23989396.990    -8810753.93805  -6818233.06846        41.000
        23.000
  25362769.712                    -1266163.18803          .00051        37.000

  24113407.123    24113414.078    -6478466.62905  -5004373.61746        40.000
        23.000
  20233996.002    20233992.257   -70937470.65607 -55249488.49847        49.000
        40.000
  25418070.206                    -1099234.66004          .00051        38.000

  24575458.255    24575480.667   -72049269.69905 -56121764.33946        42.000
        25.000
 13 12 10 16 16 25.0000000  0 11G10G04G07G20G02G08G16G09G13G05G17
  20765549.356    20765546.286   -56929959.48406 -44323019.40347        47.000
        37.000
  20377075.792    20377072.672   -71289282.39507 -55506301.22747        48.000
        40.000
  21665588.764    21665586.245   -32865963.51206 -25501890.75247        47.000
        37.000
  23224763.080    23224760.120   -97072960.96506 -75532240.70546        44.000
        23.000
  22542328.572    22542323.365   -36164558.37506 -28068803.55046        45.000
        31.000
  23982364.354    23982369.017    -8847687.03105  -6847011.94146        41.000
        22.000
  25357700.235                    -1292804.54703          .00051        37.000

  24105921.411    24105928.810    -6517800.98005  -5035023.56646        40.000
        23.000
  20231276.975    20231272.666   -70951761.04707 -55260623.86547        50.000
        40.000
  25411536.580                    -1133561.87904          .00051        38.000

  24574630.624    24574653.761   -72053617.49205 -56125152.73746        41.000
        25.000
 13 12 10 16 16 30.0000000  0 11G10G04G07G20G02G08G16G09G13G05G17
  20760322.582    20760319.118   -56957427.04306 -44344422.68347        47.000
        38.000
  20373783.854    20373781.220   -71306580.30107 -55519780.11947        49.000
        40.000
  21659423.236    21659421.151   -32898361.02706 -25527135.54347        46.000
        38.000
  23223713.399    23223710.487   -97078478.40206 -75536539.93346        44.000
        22.000
  22536029.555    22536024.040   -36197662.45706 -28094598.92046        46.000
        31.000
  23975336.011    23975341.157    -8884618.73805  -6875789.76046        41.000
        23.000
  25352632.086                    -1319435.45704          .00051        38.000

  24098436.303    24098443.503    -6557134.91804  -5065673.25946        39.000
        23.000
  20228559.387    20228555.387   -70966040.88707 -55271751.00247        50.000
        40.000
  25405002.967                    -1167890.42202          .00051        35.000

  24573803.551    24573826.964   -72057966.57805 -56128542.16846        41.000
        23.000
 13 12 10 16 16 35.0000000  0 11G10G04G07G20G02G08G16G09G13G05G17
  20755096.881    20755093.637   -56984887.31306 -44365820.28747        46.000
        38.000
  20370495.430    20370492.307   -71323861.71907 -55533246.15647        48.000
        40.000
  21653260.733    21653257.819   -32930747.94506 -25552372.09847        46.000
        37.000
  23222664.316    23222661.540   -97083991.25406 -75540835.74746        44.000
        23.000
  22529732.132    22529726.888   -36230756.94506 -28120386.83546        45.000
        31.000
  23968308.869    23968313.565    -8921548.70705  -6904566.20746        42.000
        23.000
  25347567.238                    -1346055.63703          .00051        37.000

  24090951.277    24090958.238    -6596468.05104  -5096322.22546        39.000
        22.000
  20225843.890    20225840.017   -70980309.82807 -55282869.66047        50.000
        41.000
  25398471.705                    -1202219.87502          .00051        35.000

  24572976.360    24573000.391   -72062316.60205 -56131932.31746        41.000
        23.000
 13 12 10 16 16 40.0000000  0 11G10G04G07G20G02G08G16G09G13G05G17
  20749872.826    20749869.781   -57012340.20306 -44387212.15047        46.000
        38.000
  20367209.968    20367207.204   -71341126.52306 -55546699.24647        47.000
        40.000
  21647099.969    21647096.810   -32963124.13706 -25577600.27747        47.000
        37.000
  23221615.291    23221613.486   -97089499.38706 -75545127.75646        44.000
        23.000
  22523435.928    22523431.039   -36263841.77306 -28146167.22146        46.000
        31.000
  23961280.967    23961285.722    -8958476.79305  -6933341.20246        41.000
        22.000
  25342504.137                    -1372664.80104          .00051        38.000

  24083466.431    24083473.714    -6635800.25805  -5126970.52146        40.000
        23.000
  20223130.789    20223126.960   -70994567.75807 -55293979.72747        50.000
        41.000
  25391939.892                    -1236550.28903          .00051        37.000

  24572148.724    24572172.705   -72066667.39804 -56135323.05646        39.000
        23.000
 13 12 10 16 16 45.0000000  0 11G10G04G07G20G02G08G16G09G13G05G17
  20744650.056    20744646.782   -57039785.85506 -44408598.36847        46.000
        38.000
  20363927.779    20363925.107   -71358374.77006 -55560139.43947        47.000
        40.000
  21640940.675    21640937.789   -32995489.80906 -25602820.27647        46.000
        37.000
  23220568.959    23220566.089   -97095002.96106 -75549416.27746        44.000
        22.000
  22517141.667    22517137.333   -36296917.09006 -28171940.16846        45.000
        31.000
  23954253.974    23954258.654    -8995403.16405  -6962114.87446        41.000
        23.000
  25337441.940                    -1399263.24204          .00051        38.000

  24075981.697    24075988.407    -6675131.62505  -5157618.13846        40.000
        23.000
  20220419.731    20220415.731   -71008814.87507 -55305081.37047        50.000
        41.000
  25385405.975                    -1270881.77303          .00051        36.000

  24571321.352    24571344.798   -72071019.26205 -56138714.63246        40.000
        23.000
 13 12 10 16 16 50.0000000  0 11G10G04G07G20G02G08G16G09G13G05G17
  20739428.828    20739425.876   -57067224.17606 -44429978.86647        46.000
        37.000
  20360648.561    20360645.942   -71375606.46507 -55573566.74147        48.000
        40.000
  21634784.073    21634781.109   -33027844.79306 -25628031.92247        46.000
        37.000
  23219522.293    23219520.038   -97100501.82806 -75553701.12446        44.000
        23.000
  22510849.344    22510844.949   -36329982.75406 -28197705.61947        45.000
        32.000
  23947227.873    23947231.785    -9032327.62905  -6990887.09246        41.000
        23.000
  25332382.205                    -1425850.72304          .00051        38.000

  24068497.558    24068504.232    -6714462.06604  -5188265.04746        39.000
        25.000
  20217710.685    20217706.579   -71023051.01607 -55316174.47747        50.000
        41.000
  25378871.841                    -1305214.11302          .00051        34.000

  24570492.621    24570516.556   -72075372.01604 -56142106.92346        39.000
        23.000
 13 12 10 16 16 55.0000000  0 11G10G04G07G20G02G08G16G09G13G05G17
  20734208.620    20734205.248   -57094655.77007 -44451354.13847        48.000
        37.000
  20357372.812    20357369.977   -71392822.20707 -55586981.60147        50.000
        40.000
  21628629.043    21628625.972   -33060189.71507 -25653235.74847        48.000
        37.000
  23218476.603    23218474.397   -97105996.67206 -75557982.81546        44.000
        23.000
  22504559.668    22504554.176   -36363039.33606 -28223464.00347        45.000
        32.000
  23940201.375    23940205.498    -9069250.85505  -7019658.26646        41.000
        23.000
  25327324.900                    -1452427.84003          .00051        37.000

  24061013.024    24061020.099    -6753792.16804  -5218911.70746        39.000
        23.000
  20215003.527    20214999.964   -71037276.85507 -55327259.53947        49.000
        40.000
  25372337.075                    -1339547.91400          .00051        30.000

  24569665.537    24569688.413   -72079726.28905 -56145500.39846        41.000
        22.000
 13 12 10 16 17  0.0000000  0 10G10G04G07G20G02G08G16G09G13G17
  20728990.144    20728987.122   -57122079.98006 -44472723.64447        47.000
        37.000
  20354099.620    20354096.716   -71410021.40607 -55600383.57347        49.000
        40.000
  21622475.964    21622472.791   -33092523.97706 -25678431.26747        46.000
        36.000
  23217432.448    23217429.795   -97111486.88306 -75562260.88346        44.000
        23.000
  22498270.741    22498265.240   -36396086.30106 -28249214.86446        46.000
        31.000
  23933175.239    23933180.040    -9106172.21505  -7048428.05946        40.000
        23.000
  25322269.182                    -1478994.00803          .00051        36.000

  24053528.086    24053535.681    -6793121.35504  -5249557.66546        39.000
        22.000
  20212298.480    20212294.345   -71051491.77007 -55338336.08847        50.000
        40.000
  24568836.723    24568859.586   -72084081.53105 -56148894.56446        40.000
        21.000
 13 12 10 16 17  5.0000000  0 10G10G04G07G20G02G08G16G09G13G17
  21023566.228    21023562.995   -57149491.37106 -44494083.16647        46.000
        37.000
  20650622.863    20650620.177   -71427200.59807 -55613769.95647        48.000
        40.000
  21916118.606    21916115.598   -33124841.09406 -25703613.40847        46.000
        37.000
  23516180.630    23516178.595   -97116971.36306 -75566534.51546        44.000
        23.000
  22791777.383    22791772.229   -36429116.98406 -28274953.04847        46.000
        32.000
  24225943.041    24225948.387    -9143084.30905  -7077190.56846        41.000
        23.000
  25617010.237                    -1505544.00002          .00051        35.000

  24345838.214    24345845.470    -6832441.84004  -5280196.75846        39.000
        23.000
  20509388.856    20509384.637   -71065692.97707 -55349401.96547        50.000
        40.000
  24867800.385    24867823.664   -72088436.89505 -56152288.85646        41.000
        23.000
 13 12 10 16 17 10.0000000  0 11G10G04G07G20G02G08G16G09G13G05G17
  21018350.435    21018346.490   -57176901.27006 -44515441.51747        47.000
        38.000
  20647356.522    20647353.666   -71444366.95707 -55627146.34347        48.000
        40.000
  21909969.733    21909966.923   -33157154.32006 -25728792.54647        46.000
        37.000
  23515137.758    23515135.733   -97122452.65606 -75570805.69246        44.000
        23.000
  22785492.664    22785487.168   -36462144.85206 -28300689.03446        46.000
        31.000
  24218918.533    24218922.747    -9180002.30505  -7105957.73546        40.000
        23.000
  25611959.142                    -1532088.66802          .00051        35.000

  24338355.038    24338361.032    -6871769.47705  -5310841.50546        40.000
        24.000
  20506687.711    20506683.712   -71079886.52007 -55360461.87147        50.000
        40.000
  25652531.423                            .00012          .00051

  24866971.940    24866995.068   -72092794.50005 -56155684.92646        42.000
        22.000
 13 12 10 16 17 15.0000000  0 11G10G04G07G20G02G08G16G09G13G05G17
  21013135.760    21013132.252   -57204303.77706 -44536794.11547        47.000
        38.000
  20644092.742    20644089.747   -71461516.81607 -55640509.87347        48.000
        41.000
  21903822.192    21903819.548   -33189456.81306 -25753963.30847        46.000
        37.000
  23514095.718    23514094.013   -97127929.29306 -75575073.18746        45.000
        23.000
  22779209.637    22779204.219   -36495163.05106 -28326417.49947        46.000
        32.000
  24211892.886    24211897.900    -9216918.39105  -7134723.35146        40.000
        23.000
  25606909.188                    -1558622.39103          .00051        36.000

  24330870.702    24330877.499    -6911096.17605  -5341485.52046        40.000
        23.000
  20503988.746    20503985.044   -71094069.13307 -55371513.24647        50.000
        40.000
  25645998.100                    -1476880.99603          .00051        37.000

  24866142.971    24866166.520   -72097153.05505 -56159081.71746        41.000
        23.000
 13 12 10 16 17 20.0000000  0 11G10G04G07G20G02G08G16G09G13G05G17
  21007922.661    21007919.326   -57231699.23806 -44558141.21847        47.000
        38.000
  20640832.682    20640829.935   -71478650.58607 -55653860.86447        48.000
        40.000
  21897677.470    21897674.857   -33221748.92606 -25779125.97447        47.000
        37.000
  23513054.235    23513052.762   -97133401.64106 -75579337.34146        44.000
        24.000
  22772928.301    22772922.988   -36528171.91006 -28352138.67046        46.000
        31.000
  24204868.986    24204873.257    -9253832.86305  -7163487.73746        40.000
        23.000
  25601862.522                    -1585145.50803          .00051        37.000

  24323387.192    24323393.666    -6950422.20705  -5372129.03046        40.000
        23.000
  20501291.919    20501288.266   -71108241.25407 -55382556.46547        50.000
        40.000
  25639462.598                    -1511220.00003          .00051        37.000

  24865313.640    24865337.888   -72101513.00005 -56162479.57446        40.000
        22.000
 13 12 10 16 17 25.0000000  0 11G10G04G07G20G02G08G16G09G13G05G17
  21002710.550    21002707.715   -57259087.46506 -44579482.68247        47.000
        38.000
  20637574.979    20637572.532   -71495767.84007 -55667198.98647        48.000
        40.000
  21891534.607    21891531.499   -33254030.40206 -25804280.35147        45.000
        37.000
  23512013.968    23512012.467   -97138869.48406 -75583598.03346        44.000
        24.000
  22766648.054    22766643.346   -36561171.17206 -28377852.36246        46.000
        31.000
  24197844.405    24197848.945    -9290745.52705  -7192250.73346        41.000
        23.000
  25596817.366                    -1611657.81604          .00051        38.000

  24315903.752    24315910.324    -6989747.38305  -5402771.79046        40.000
        24.000
  20498596.976    20498592.864   -71122402.63307 -55393591.30247        50.000
        40.000
  25632928.081                    -1545560.03102          .00051        35.000

  24864484.270    24864508.682   -72105874.04305 -56165878.36446        40.000
        24.000
 13 12 10 16 17 30.0000000  0 11G10G04G07G20G02G08G16G09G13G05G17
  20997500.518    20997497.277   -57286468.42606 -44600818.49447        47.000
        38.000
  20634321.165    20634318.660   -71512868.62107 -55680524.26247        48.000
        40.000
  21885393.845    21885390.713   -33286301.27706 -25829426.47247        45.000
        38.000
  23510974.178    23510972.874   -97144332.84006 -75587855.22346        44.000
        24.000
  22760371.117    22760365.593   -36594160.88306 -28403558.63646        46.000
        31.000
  24190820.001    24190824.853    -9327656.44905  -7221012.35746        41.000
        23.000
  25591773.709                    -1638159.24204          .00051        38.000

  24308421.008    24308427.166    -7029071.70704  -5433413.97146        39.000
        22.000
  20495904.278    20495900.362   -71136553.28107 -55404617.77247        50.000
        40.000
  25626392.966                    -1579901.15201          .00051        33.000

  24863654.255    24863679.628   -72110236.27304 -56169278.03146        39.000
        23.000
 13 12 10 16 17 35.0000000  0 11G10G04G07G20G02G08G16G09G13G05G17
  20992291.135    20992288.496   -57313841.80106 -44622148.39147        46.000
        38.000
  20631070.323    20631067.489   -71529952.66407 -55693836.50447        49.000
        40.000
  21879254.614    21879251.530   -33318561.20706 -25854564.08147        45.000
        37.000
  23509935.539    23509933.929   -97149791.37906 -75592108.58546        44.000
        24.000
  22754094.912    22754089.656   -36627140.68406 -28429257.18346        46.000
        31.000
  24183796.504    24183800.992    -9364565.19105  -7249772.31946        40.000
        23.000
  25586733.574    25586730.924    -1664649.49204  -1267876.18745        39.000
        19.000
  24300937.058    24300943.850    -7068394.78905  -5464055.17946        40.000
        22.000
  20493213.663    20493209.788   -71150692.88307 -55415635.64247        49.000
        40.000
  25619855.019                            .00010          .00051

  24862823.810    24862849.666   -72114599.32804 -56172678.30046        39.000
        22.000
 13 12 10 16 17 40.0000000  0 11G10G04G07G20G02G08G16G09G13G05G17
  20987083.410    20987080.628   -57341208.19506 -44643472.85447        47.000
        38.000
  20627822.078    20627819.404   -71547020.63307 -55707136.22147        49.000
        40.000
  21873117.963    21873114.812   -33350810.81606 -25879693.61847        46.000
        37.000
  23508897.539    23508896.293   -97155245.71906 -75596358.76746        44.000
        24.000
  22747821.084    22747815.759   -36660111.18006 -28454948.46147        46.000
        32.000
  24176773.146    24176777.064    -9401472.37505  -7278531.02446        41.000
        23.000
  25581694.019    25581691.466    -1691129.20304  -1288509.85045        39.000
        19.000
  24293454.320    24293460.979    -7107717.31604  -5494695.90746        39.000
        23.000
  20490525.023    20490520.820   -71164822.05107 -55426645.39147        50.000
        40.000
  25613323.273    25613322.693    -1648586.02702  -1263304.91445        34.000
        19.000
  24861993.914    24862019.569   -72118963.80504 -56176079.70746        38.000
        21.000
 13 12 10 16 17 45.0000000  0 11G10G04G07G20G02G08G16G09G13G05G17
  20981877.449    20981874.472   -57368567.43407 -44664791.73047        48.000
        38.000
  20624576.988    20624574.602   -71564072.33607 -55720423.26247        49.000
        40.000
  21866983.145    21866980.026   -33383049.88306 -25904814.96247        47.000
        37.000
  23507859.873    23507859.168   -97160695.73806 -75600605.53946        44.000
        23.000
  22741548.833    22741543.543   -36693072.16406 -28480632.34047        46.000
        32.000
  24169750.937    24169754.137    -9438377.86705  -7307288.39746        40.000
        24.000
  25576656.999    25576654.177    -1717598.19104  -1309135.01845        38.000
        19.000
  24285971.741    24285978.604    -7147039.01604  -5525336.01446        39.000
        23.000
  20487838.352    20487834.376   -71178940.55107 -55437646.81547        50.000
        40.000
  25606787.737    25606787.476    -1682930.30904  -1290066.64745        38.000
        19.000
  24861164.075    24861188.711   -72123329.66004 -56179482.21146        38.000
        22.000
 13 12 10 16 17 50.0000000  0 11G10G04G07G20G02G08G16G09G13G05G17
  20976672.281    20976669.555   -57395919.56606 -44686105.07947        46.000
        38.000
  20621335.617    20621332.752   -71581107.73807 -55733697.60247        48.000
        41.000
  21860849.961    21860847.134   -33415278.45306 -25929928.11347        46.000
        37.000
  23506823.987    23506822.189   -97166141.38306 -75604848.88546        43.000
        23.000
  22735278.423    22735272.933   -36726023.67206 -28506308.83047        46.000
        32.000
  24162727.673    24162731.509    -9475281.65205  -7336044.50046        40.000
        23.000
  25571622.420    25571619.196    -1744056.40204  -1329751.77045        38.000
        17.000
  24278488.919    24278495.985    -7186359.96905  -5555975.54346        40.000
        23.000
  20485153.569    20485149.657   -71193048.48007 -55448640.00547        50.000
        40.000
  25600253.308    25600251.760    -1717275.76604  -1316829.32345        39.000
        19.000
  24860332.782    24860358.073   -72127696.84404 -56182885.73546        38.000
        21.000
 13 12 10 16 17 55.0000000  0 11G10G04G07G20G02G08G16G09G13G05G17
  20971468.704    20971465.662   -57423264.39506 -44707412.72447        46.000
        38.000
  20618096.984    20618094.079   -71598126.69907 -55746959.13147        49.000
        40.000
  21854719.176    21854716.499   -33447496.31306 -25955032.93047        46.000
        37.000
  23505788.547    23505786.699   -97171582.48406 -75609088.71146        44.000
        23.000
  22729009.358    22729004.481   -36758965.51206 -28531977.78947        46.000
        32.000
  24155705.192    24155709.073    -9512183.54305  -7364799.09646        41.000
        23.000
  25566590.287    25566585.801    -1770503.71904  -1350360.04745        38.000
        16.000
  24271006.875    24271012.858    -7225679.96505  -5586614.29446        41.000
        23.000
  20482470.950    20482467.187   -71207145.74607 -55459624.88447        49.000
        40.000
  25593716.384    25593716.398    -1751622.18804  -1343592.91045        38.000
        19.000
  24859502.000    24859526.847   -72132065.27704 -56186290.23346        38.000
        21.000
 13 12 10 16 18  0.0000000  0 11G10G04G07G20G02G08G16G09G13G05G17
  20966266.702    20966263.850   -57450601.98406 -44728714.72947        47.000
        37.000
  20614861.532    20614859.103   -71615129.30507 -55760207.92247        49.000
        40.000
  21848590.403    21848587.693   -33479703.50806 -25980129.42247        46.000
        37.000
  23504754.174    23504752.242   -97177019.16806 -75613325.10646        44.000
        23.000
  22722742.970    22722737.811   -36791897.69506 -28557639.23947        46.000
        32.000
  24148682.994    24148687.129    -9549083.57805  -7393552.22346        40.000
        23.000
  25561558.658    25561554.966    -1796940.16003  -1370959.83245        37.000
        16.000
  24263524.393    24263530.717    -7264999.00405  -5617252.33046        40.000
        23.000
  20479790.103    20479786.449   -71221232.37107 -55470601.48047        50.000
        40.000
  25587178.771    25587179.633    -1785969.62103  -1370357.13345        37.000
        19.000
  24858671.585    24858695.794   -72136434.95704 -56189695.70446        39.000
        22.000
 13 12 10 16 18  5.0000000  0 11G10G04G07G20G02G08G16G09G13G05G17
  20961065.799    20961062.391   -57477932.35506 -44750011.13147        47.000
        37.000
  20611629.140    20611626.324   -71632115.64807 -55773444.02647        49.000
        40.000
  21842463.360    21842460.840   -33511900.14506 -26005217.69447        46.000
        37.000
  23503720.297    23503718.275   -97182451.46106 -75617558.06846        44.000
        23.000
  22716477.740    22716472.722   -36824820.35506 -28583293.24547        46.000
        32.000
  24141661.530    24141665.973    -9585981.80905  -7422303.96346        40.000
        23.000
  25556530.400    25556526.106    -1823365.75403  -1391551.23445        37.000
        16.000
  24256042.445    24256048.628    -7304317.22705  -5647889.74646        40.000
        23.000
  20477111.728    20477108.201   -71235308.47307 -55481569.86047        50.000
        40.000
  25580643.918    25580643.271    -1820318.14803  -1397122.23845        36.000
        18.000
  24857840.817    24857864.142   -72140806.13704 -56193102.27646        39.000
        22.000
 13 12 10 16 18 10.0000000  0 11G10G04G07G20G02G08G16G09G13G05G17
  20955866.087    20955863.138   -57505255.48406 -44771301.86847        47.000
        37.000
  20608399.709    20608397.000   -71649085.56607 -55786667.34047        50.000
        40.000
  21836338.659    21836336.006   -33544086.10206 -26030297.64647        46.000
        37.000
  23502687.624    23502684.860   -97187879.32006 -75621787.55246        44.000
        23.000
  22710214.619    22710208.948   -36857733.34806 -28608939.70847        46.000
        32.000
  24134640.271    24134644.488    -9622878.20305  -7451054.29046        40.000
        22.000
  25551503.811    25551499.499    -1849780.40603  -1412134.08642        36.000
        14.000
  24248559.800    24248566.279    -7343634.54304  -5678526.45546        39.000
        23.000
  20474435.454    20474431.329   -71249373.95307 -55492529.97447        50.000
        40.000
  25574107.676    25574106.757    -1854667.80103  -1423888.16445        36.000
        17.000
  24857008.072    24857032.752   -72145178.63705 -56196509.90646        40.000
        22.000
 13 12 10 16 18 15.0000000  0 11G10G04G07G20G02G08G16G09G13G05G17
  20950668.640    20950665.102   -57532571.21506 -44792586.85347        47.000
        37.000
  20605173.555    20605170.834   -71666038.95307 -55799877.76747        50.000
        40.000
  21830216.248    21830213.144   -33576261.28106 -26055369.20347        45.000
        37.000
  23501655.218    23501652.818   -97193302.65206 -75626013.55746        43.000
        22.000
  22703953.716    22703947.900   -36890636.54306 -28634578.54747        46.000
        33.000
  24127619.981    24127623.576    -9659772.61305  -7479803.03446        40.000
        23.000
  25546479.770    25546474.855    -1876184.09803  -1432708.35242        36.000
        14.000
  24241078.124    24241084.274    -7382950.77304  -5709162.26446        39.000
        23.000
  20471760.828    20471757.154   -71263428.73407 -55503481.75547        49.000
        40.000
  25567569.404    25567569.749    -1889018.44102  -1450654.85945        35.000
        18.000
  24856176.356    24856201.283   -72149552.28104 -56199918.43246        39.000
        22.000
 13 12 10 16 18 20.0000000  0 11G10G04G07G20G02G08G16G09G13G05G17
  20945471.805    20945468.685   -57559879.52006 -44813866.04447        47.000
        38.000
  20601950.648    20601947.865   -71682975.86707 -55813075.36847        49.000
        41.000
  21824095.294    21824092.232   -33608425.64106 -26080432.32347        46.000
        38.000
  23500624.514    23500621.425   -97198721.43406 -75630235.97846        44.000
        22.000
  22697693.848    22697688.463   -36923529.90606 -28660209.73347        46.000
        32.000
  24120598.716    24120603.079    -9696664.98005  -7508550.19346        42.000
        25.000
  25541456.341    25541452.354    -1902576.69502  -1453274.04742        35.000
        14.000
  24233596.644    24233602.979    -7422265.92205  -5739797.29146        40.000
        23.000
  20469088.135    20469084.081   -71277472.76207 -55514425.15047        50.000
        40.000
  25561034.067    25561032.633    -1923369.99603  -1477422.22745        36.000
        18.000
  24855343.792    24855369.160   -72153927.14504 -56203327.92846        39.000
        22.000
 13 12 10 16 18 25.0000000  0 11G10G04G07G20G02G08G16G09G13G05G17
  20940276.728    20940273.255   -57587180.60907 -44835139.61347        48.000
        37.000
  20598730.561    20598727.961   -71699896.41007 -55826260.21547        49.000
        40.000
  21817976.629    21817973.961   -33640579.25406 -26105487.06947        46.000
        37.000
  23499594.495    23499590.795   -97204135.80906 -75634454.94446        44.000
        22.000
  22691435.663    22691431.280   -36956413.60506 -28685833.39246        46.000
        31.000
  24113579.107    24113582.821    -9733555.45305  -7537295.88646        41.000
        25.000
  25536436.493    25536431.777    -1928958.34402  -1473831.17645        35.000
        16.000
  24226114.675    24226121.262    -7461580.07405  -5770431.53446        40.000
        22.000
  20466417.630    20466414.009   -71291506.20307 -55525360.29747        50.000
        40.000
  25554496.559    25554495.107    -1957722.55903  -1504190.39945        37.000
        18.000
  24854510.988    24854536.831   -72158303.28504 -56206738.41446        38.000
        22.000
 13 12 10 16 18 30.0000000  0 11G10G04G07G20G02G08G16G09G13G05G17
  20935082.941    20935079.432   -57614474.20706 -44856407.34247        47.000
        38.000
  20595514.091    20595511.206   -71716800.40207 -55839432.14547        50.000
        40.000
  21811859.956    21811857.369   -33672721.94906 -26130533.31347        46.000
        37.000
  23498564.646    23498561.323   -97209545.49606 -75638670.27746        44.000
        23.000
  22685180.257    22685175.175   -36989287.39806 -28711449.30646        45.000
        31.000
  24106559.180    24106563.023    -9770443.79305  -7566039.98046        40.000
        23.000
  25531417.979    25531413.843    -1955328.79702  -1494379.57842        34.000
        14.000
  24218633.924    24218640.685    -7500893.04705  -5801064.81646        40.000
        24.000
  20463749.550    20463745.530   -71305528.86707 -55536287.04747        50.000
        40.000
  25547958.881    25547957.764    -1992075.93803  -1530959.32845        37.000
        18.000
  24853678.850    24853704.221   -72162680.58204 -56210149.75746        39.000
        22.000
 13 12 10 16 18 35.0000000  0 11G10G04G07G20G02G08G16G09G13G05G17
  20929890.196    20929887.290   -57641760.79707 -44877669.61247        49.000
        38.000
  20592300.212    20592297.486   -71733688.33607 -55852591.56947        51.000
        40.000
  21805745.604    21805743.014   -33704854.19907 -26155571.41147        48.000
        38.000
  23497536.385    23497532.914   -97214951.07006 -75642882.42546        44.000
        23.000
  22678926.592    22678920.853   -37022151.75806 -28737057.90046        45.000
        31.000
  24099540.166    24099543.704    -9807330.49605  -7594782.71246        40.000
        23.000
  25526402.038    25526397.487    -1981688.64101  -1514919.70342        33.000
        14.000
  24211152.672    24211159.249    -7540205.32405  -5831697.58346        40.000
        23.000
  20461083.151    20461078.974   -71319541.21907 -55547205.75847        50.000
        40.000
  25541421.645    25541420.747    -2026430.62903  -1557729.21545        37.000
        18.000
  24852845.952    24852871.927   -72167059.48404 -56213562.39546        39.000
        22.000
 13 12 10 16 18 40.0000000  0 11G10G04G07G20G02G08G16G09G13G05G17
  20924699.193    20924696.060   -57669040.18407 -44898926.27547        48.000
        38.000
  20589089.807    20589086.939   -71750559.88307 -55865738.23547        50.000
        40.000
  21799633.167    21799630.427   -33736975.72706 -26180601.14747        47.000
        37.000
  23496508.348    23496505.126   -97220352.27706 -75647091.18546        44.000
        23.000
  22672674.343    22672669.111   -37055006.45306 -28762658.95447        45.000
        32.000
  24092520.642    24092524.872    -9844215.32004  -7623524.02346        39.000
        23.000
  25521388.945    25521383.573    -2008037.51602  -1535451.32842        34.000
        14.000
  24203672.202    24203678.587    -7579516.69105  -5862329.66246        41.000
        23.000
  20458418.251    20458414.886   -71333543.05107 -55558116.27647        50.000
        40.000
  25534884.953    25534883.181    -2060786.32804  -1584499.90245        39.000
        18.000
  24852012.771    24852039.264   -72171439.85205 -56216976.18546        40.000
        23.000
 13 12 10 16 18 45.0000000  0 11G10G04G07G20G02G08G16G09G13G05G17
  20919509.445    20919506.218   -57696312.30907 -44920177.27747        49.000
        37.000
  20585882.418    20585879.417   -71767415.17607 -55878872.23247        49.000
        40.000
  21793522.181    21793519.969   -33769086.58206 -26205622.59447        46.000
        37.000
  23495481.570    23495477.943   -97225749.11706 -75651296.44146        44.000
        22.000
  22666424.816    22666419.043   -37087851.46106 -28788252.44547        46.000
        33.000
  24085502.076    24085506.133    -9881098.23005  -7652263.84446        41.000
        23.000
  25516375.875    25516371.774    -2034375.54302  -1555974.42242        34.000
        14.000
  24196191.364    24196198.304    -7618827.04305  -5892960.92146        41.000
        23.000
  20455755.959    20455752.319   -71347534.35907 -55569018.59247        50.000
        40.000
  25528346.793    25528345.449    -2095143.19905  -1611271.45345        41.000
        18.000
  24851180.355    24851206.207   -72175821.69105 -56220391.11746        41.000
        25.000
 13 12 10 16 18 50.0000000  0 11G10G04G07G20G02G08G16G09G13G05G17
  20914321.285    20914317.900   -57723577.37507 -44941422.78447        48.000
        38.000
  20582677.895    20582675.480   -71784254.30907 -55891993.62747        50.000
        40.000
  21787413.732    21787411.299   -33801186.91006 -26230635.81447        45.000
        37.000
  23494455.259    23494451.306   -97231141.75806 -75655498.57746        44.000
        23.000
  22660176.470    22660171.030   -37120686.94506 -28813838.52847        47.000
        32.000
  24078483.980    24078487.774    -9917979.36705  -7681002.25046        41.000
        24.000
  25511365.961    25511361.492    -2060702.74203  -1576489.10245        36.000
        15.000
  24188711.083    24188717.421    -7658136.59005  -5923591.59346        40.000
        24.000
  20453095.516    20453091.474   -71361515.33207 -55579912.85047        50.000
        40.000
  25521807.915    25521807.110    -2129501.30104  -1638044.02045        39.000
        18.000
  24850346.435    24850372.761   -72180205.21905 -56223807.32346        41.000
        25.000
 13 12 10 16 18 55.0000000  0 11G10G04G07G20G02G08G16G09G13G05G17
  20909134.208    20909130.939   -57750835.02707 -44962662.49547        48.000
        38.000
  20579476.868    20579474.076   -71801077.01207 -55905102.23347        50.000
        40.000
  21781307.544    21781304.617   -33833276.33206 -26255640.55247        47.000
        37.000
  23493429.344    23493425.915   -97236529.82406 -75659697.09946        45.000
        22.000
  22653929.253    22653924.683   -37153512.59806 -28839416.94547        46.000
        32.000
  24071466.053    24071470.092    -9954858.43805  -7709739.07746        40.000
        23.000
  25506358.209    25506354.011    -2087018.85503  -1596995.21142        36.000
        14.000
  24181230.810    24181236.887    -7697444.96505  -5954221.30646        41.000
        22.000
  20450437.021    20450433.129   -71375485.53507 -55590798.72047        50.000
        40.000
  25515268.291    25515268.950    -2163860.37903  -1664817.28945        36.000
        18.000
  24849512.163    24849538.510   -72184590.01205 -56227224.51846        41.000
        25.000
 13 12 10 16 19  0.0000000  0 11G10G04G07G20G02G08G16G09G13G05G17
  20903948.768    20903945.523   -57778085.28106 -44983896.46447        47.000
        37.000
  20576278.577    20576275.765   -71817883.17607 -55918197.94247        50.000
        40.000
  21775202.858    21775200.310   -33865354.85906 -26280636.79447        46.000
        37.000
  23492405.013    23492401.492   -97241913.33206 -75663892.00646        44.000
        22.000
  22647684.790    22647679.516   -37186328.32806 -28864987.62347        46.000
        32.000
  24064448.408    24064452.163    -9991735.39105  -7738474.27846        40.000
        25.000
  25501353.810    25501348.069    -2113323.82003  -1617492.52342        37.000
        14.000
  24173750.674    24173756.618    -7736752.18005  -5984850.11946        40.000
        23.000
  20447780.760    20447776.771   -71389445.01607 -55601676.23947        50.000
        40.000
  25508731.265    25508730.904    -2198220.28901  -1691591.21945        33.000
        18.000
  24848677.478    24848704.175   -72188976.14105 -56230642.78546        42.000
        25.000
 13 12 10 16 19  5.0000000  0 11G10G04G07G20G02G08G16G09G13G05G17
  20898764.574    20898761.387   -57805328.25807 -45005124.75747        48.000
        37.000
  20573084.016    20573080.789   -71834673.02307 -55931280.94347        49.000
        40.000
  21769100.773    21769097.904   -33897422.62506 -26305624.62947        46.000
        37.000
  23491381.898    23491378.264   -97247292.47306 -75668083.54046        44.000
        22.000
  22641442.297    22641436.993   -37219134.28106 -28890550.70547        46.000
        32.000
  24057431.697    24057434.786   -10028610.33604  -7767207.83446        39.000
        22.000
  25496348.678    25496344.440    -2139617.80103  -1637981.35545        37.000
        16.000
  24166270.808    24166276.827    -7776058.30105  -6015478.09046        41.000
        23.000
  20445126.224    20445122.446   -71403394.02307 -55612545.59647        51.000
        40.000
  25502193.326    25502191.971    -2232581.23401  -1718366.00445        33.000
        18.000
  24847842.727    24847870.025   -72193363.75805 -56234062.16846        41.000
        24.000
 13 12 10 16 19 10.0000000  0 11G10G04G07G20G02G08G16G09G13G05G17
  20893581.911    20893578.481   -57832563.86707 -45026347.29547        48.000
        37.000
  20569892.047    20569889.004   -71851446.48407 -55944351.16647        50.000
        40.000
  21763000.702    21762997.867   -33929479.53906 -26330604.04047        47.000
        37.000
  23490359.187    23490355.724   -97252667.09806 -75672271.59846        44.000
        22.000
  22635201.067    22635196.045   -37251930.36306 -28916106.06747        46.000
        32.000
  24050414.101    24050418.422   -10065483.18405  -7795939.81346        41.000
        23.000
  25491348.210    25491343.208    -2165900.65603  -1658461.50445        37.000
        17.000
  24158791.627    24158797.454    -7815363.31605  -6046105.19646        42.000
        24.000
  20442473.430    20442469.773   -71417332.41407 -55623406.67747        51.000
        40.000
  25495654.418    25495652.377    -2266943.20303  -1745141.52745        36.000
        18.000
  24847007.818    24847035.327   -72197752.80505 -56237482.72146        41.000
        24.000
 13 12 10 16 19 15.0000000  0 11G10G04G07G20G02G08G16G09G13G05G17
  20888400.419    20888396.993   -57859792.23006 -45047564.19847        47.000
        38.000
  20566703.042    20566700.501   -71868203.67607 -55957408.72447        49.000
        40.000
  21756902.313    21756899.377   -33961525.72306 -26355575.08547        46.000
        37.000
  23489337.002    23489333.917   -97258037.41806 -75676456.28046        44.000
        22.000
  22628962.563    22628956.973   -37284716.74606 -28941653.88547        46.000
        33.000
  24043397.706    24043401.991   -10102354.13305  -7824670.30146        40.000
        25.000
  25486348.581    25486344.015    -2192172.54303  -1678933.12145        37.000
        16.000
  24151311.847    24151317.898    -7854667.29705  -6076731.51046        41.000
        24.000
  20439823.213    20439819.629   -71431260.37107 -55634259.63747        51.000
        40.000
  25489114.992    25489113.282    -2301306.25404  -1771917.85945        38.000
        17.000
  24846172.445    24846200.029   -72202143.41805 -56240904.50746        41.000
        23.000
 13 12 10 16 19 20.0000000  0 11G10G04G07G20G02G08G16G09G13G05G17
  20883220.523    20883216.970   -57887012.99607 -45068775.17447        48.000
        38.000
  20563517.566    20563514.182   -71884944.21507 -55970453.29547        49.000
        40.000
  21750805.867    21750803.469   -33993560.84406 -26380537.50047        46.000
        37.000
  23488316.405    23488313.096   -97263403.08206 -75680637.30446        44.000
        22.000
  22622724.883    22622719.978   -37317493.01606 -28967193.83747        45.000
        33.000
  24036382.691    24036386.619   -10139222.74205  -7853398.97446        40.000
        23.000
  25481350.551    25481346.696    -2218433.17203  -1699395.88345        37.000
        16.000
  24143832.793    24143838.859    -7893969.89805  -6107356.79246        41.000
        24.000
  20437175.011    20437171.031   -71445177.57807 -55645104.20247        50.000
        40.000
  25482576.226    25482573.485    -2335670.06604  -1798694.92245        39.000
        16.000
  24845337.313    24845364.807   -72206535.23405 -56244327.14446        40.000
        23.000
 13 12 10 16 19 25.0000000  0 11G10G04G07G20G02G08G16G09G13G05G17
  20878041.419    20878038.331   -57914226.76607 -45089980.70247        48.000
        38.000
  20560335.005    20560331.685   -71901668.70307 -55983485.37147        50.000
        40.000
  21744712.173    21744709.417   -34025585.43006 -26405491.71147        46.000
        37.000
  23487295.072    23487293.069   -97268764.64506 -75684815.12746        45.000
        22.000
  22616490.635    22616484.795   -37350259.77706 -28992726.36547        46.000
        32.000
  24029365.957    24029370.779   -10176089.60205  -7882126.27246        40.000
        23.000
  25476355.875    25476351.369    -2244682.95302  -1719850.30945        34.000
        16.000
  24136353.782    24136359.594    -7933271.69905  -6137981.36346        41.000
        24.000
  20434528.638    20434524.832   -71459084.56307 -55655940.81747        50.000
        40.000
  25476036.179    25476033.937    -2370035.16804  -1825472.88745        38.000
        17.000
  24844501.940    24844528.580   -72210928.85905 -56247751.24246        40.000
        24.000
 13 12 10 16 19 30.0000000  0 11G10G04G07G20G02G08G16G09G13G05G17
  20872864.204    20872861.364   -57941433.16807 -45111180.49047        48.000
        38.000
  20557155.357    20557152.739   -71918376.78507 -55996504.65547        50.000
        40.000
  21738620.007    21738617.389   -34057599.10906 -26430437.42047        47.000
        37.000
  23486275.810    23486273.966   -97274121.82406 -75688989.56046        44.000
        22.000
  22610256.512    22610251.023   -37383016.68406 -29018251.23747        47.000
        32.000
  24022350.881    24022354.908   -10212954.38305  -7910851.96246        40.000
        23.000
  25471363.562    25471358.483    -2270921.77702  -1740296.16045        35.000
        16.000
  24128875.192    24128881.459    -7972572.35205  -6168605.09246        42.000
        26.000
  20431884.292    20431880.230   -71472981.02307 -55666769.23347        50.000
        40.000
  25469494.610    25469494.725    -2404401.28503  -1852251.68345        36.000
        18.000
  24843665.555    24843692.563   -72215324.00005 -56251176.47446        40.000
        23.000
 13 12 10 16 19 35.0000000  0 11G10G04G07G20G02G08G16G09G13G05G17
  20867688.617    20867685.460   -57968632.19906 -45132374.54347        47.000
        38.000
  20553979.048    20553975.988   -71935068.50007 -56009511.18447        49.000
        40.000
  21732530.438    21732527.321   -34089601.89806 -26455374.63147        44.000
        37.000
  23485257.409    23485255.059   -97279474.53106 -75693160.51146        44.000
        22.000
  22604025.029    22604019.318   -37415763.69906 -29043768.37547        45.000
        32.000
  24015336.651    24015340.116   -10249817.04304  -7939575.97046        38.000
        24.000
  25466371.837    25466367.540    -2297149.37903  -1760733.22345        36.000
        16.000
  24121396.747    24121402.676    -8011871.82805  -6199227.89146        42.000
        23.000
  20429241.943    20429238.017   -71486866.95707 -55677589.43747        50.000
        40.000
  25462956.561    25462955.480    -2438768.32403  -1879031.25045        37.000
        18.000
  24842829.539    24842856.539   -72219720.58605 -56254602.91846        40.000
        23.000
 13 12 10 16 19 40.0000000  0 11G10G04G07G20G02G08G16G09G13G05G17
  20862514.123    20862511.016   -57995823.93806 -45153562.88947        47.000
        38.000
  20550806.156    20550802.939   -71951743.89807 -56022504.99547        49.000
        40.000
  21726442.284    21726439.465   -34121593.87106 -26480303.44047        45.000
        37.000
  23484239.396    23484237.231   -97284822.88706 -75697328.05946        44.000
        22.000
  22597794.957    22597789.975   -37448500.94506 -29069277.90147        46.000
        32.000
  24008321.703    24008326.283   -10286677.64505  -7968298.42746        41.000
        25.000
  25461382.459    25461378.456    -2323365.96902  -1781161.70345        35.000
        16.000
  24113918.125    24113924.274    -8051170.16405  -6229849.82146        41.000
        24.000
  20426601.435    20426597.480   -71500742.52007 -55688401.55947        50.000
        40.000
  25456416.534    25456415.488    -2473136.44903  -1905811.47745        37.000
        19.000
  24841993.059    24842020.546   -72224118.79305 -56258030.55746        41.000
        23.000
 13 12 10 16 19 45.0000000  0 11G10G04G07G20G02G08G16G09G13G05G17
  20857341.169    20857338.094   -58023008.25407 -45174745.47247        48.000
        38.000
  20547635.716    20547632.693   -71968402.90607 -56035486.03747        50.000
        40.000
  21720356.425    21720353.580   -34153574.82006 -26505223.64247        46.000
        37.000
  23483222.668    23483220.076   -97290166.74606 -75701492.08946        44.000
        22.000
  22591567.728    22591562.235   -37481228.18406 -29094779.65147        46.000
        32.000
  24001308.194    24001311.957   -10323536.07405  -7997019.13246        41.000
        23.000
  25456395.948    25456391.804    -2349571.31302  -1801581.50845        35.000
        15.000
  24106440.441    24106445.976    -8090467.25805  -6260470.76446        41.000
        24.000
  20423963.005    20423959.146   -71514607.49607 -55699205.43547        51.000
        40.000
  25449874.916    25449875.530    -2507505.54303  -1932592.62545        36.000
        18.000
  24841156.060    24841183.665   -72228518.43405 -56261459.28446        41.000
        25.000
 13 12 10 16 19 50.0000000  0 11G10G04G07G20G02G08G16G09G13G05G17
  20852169.543    20852166.168   -58050185.17606 -45195922.28447        47.000
        38.000
  20544468.813    20544465.626   -71985045.56607 -56048454.33647        50.000
        40.000
  21714272.826    21714270.332   -34185544.86706 -26530135.35147        47.000
        36.000
  23482206.621    23482204.127   -97295506.32406 -75705652.90846        44.000
        22.000
  22585341.190    22585336.506   -37513945.48806 -29120273.62647        45.000
        32.000
  23994294.293    23994297.910   -10360392.33605  -8025738.22846        41.000
        25.000
  25451411.469    25451406.887    -2375765.55902  -1821992.55145        34.000
        15.000
  24098962.519    24098967.896    -8129763.13705  -6291090.70246        41.000
        25.000
  20421326.491    20421322.439   -71528461.94907 -55710001.11447        50.000
        40.000
  25443335.876    25443334.809    -2541875.66402  -1959374.45745        35.000
        18.000
  24840319.292    24840346.860   -72232919.58605 -56264889.24246        42.000
        26.000
 13 12 10 16 19 55.0000000  0 11G10G04G07G20G02G08G16G09G13G05G17
  20846999.713    20846995.910   -58077354.82806 -45217093.45447        47.000
        38.000
  20541304.989    20541301.704   -72001671.93007 -56061409.94647        50.000
        40.000
  21708191.308    21708188.481   -34217504.12106 -26555038.66047        46.000
        36.000
  23481191.085    23481189.232   -97300841.55906 -75709810.16046        44.000
        23.000
  22579117.320    22579112.617   -37546653.02706 -29145759.99547        46.000
        33.000
  23987280.879    23987284.652   -10397246.59805  -8054455.67546        42.000
        25.000
  25446430.159    25446424.591    -2401948.78503  -1842395.06645        36.000
        16.000
  24091484.999    24091490.184    -8169057.93405  -6321709.88246        42.000
        23.000
  20418692.211    20418688.355   -71542306.04307 -55720788.72647        50.000
        39.000
  25436794.669    25436794.416    -2576246.83602  -1986157.14845        35.000
        18.000
  24839482.013    24839509.674   -72237322.46505 -56268320.57246        42.000
        25.000
 13 12 10 16 20  0.0000000  0 11G10G04G07G20G02G08G16G09G13G05G17
  20841830.694    20841827.209   -58104517.09407 -45238258.84647        48.000
        37.000
  20538144.217    20538140.920   -72018281.93407 -56074352.80547        50.000
        40.000
  21702111.841    21702109.114   -34249452.39106 -26579933.39447        46.000
        37.000
  23480176.783    23480174.919   -97306172.36306 -75713964.03646        44.000
        22.000
  22572895.327    22572890.784   -37579350.60206 -29171238.61947        46.000
        32.000
  23980268.448    23980271.532   -10434098.65605  -8083171.47146        41.000
        25.000
  25441450.028    25441444.033    -2428120.78903  -1862788.84045        36.000
        17.000
  24084007.059    24084012.512    -8208351.50405  -6352328.12346        42.000
        24.000
  20416059.814    20416055.499   -71556139.60907 -55731568.12047        51.000
        40.000
  25430254.653    25430253.688    -2610618.92603  -2012940.57045        36.000
        16.000
  24838643.457    24838671.844   -72241726.89506 -56271753.05246        43.000
        25.000
 13 12 10 16 20  5.0000000  0 11G10G04G07G20G02G08G16G09G13G05G17
  20836663.241    20836659.985   -58131671.91406 -45259418.44347        46.000
        38.000
  20534986.487    20534983.498   -72034875.51207 -56087282.86347        50.000
        40.000
  21696034.474    21696031.506   -34281389.69106 -26604819.59647        44.000
        37.000
  23479162.993    23479161.273   -97311498.70706 -75718114.46646        44.000
        22.000
  22566674.923    22566669.821   -37612038.18406 -29196709.46247        45.000
        32.000
  23973256.169    23973259.510   -10470948.52305  -8111885.51946        41.000
        26.000
  25436471.185    25436465.809    -2454281.61703  -1883173.86745        37.000
        16.000
  24076529.836    24076534.845    -8247643.75005  -6382945.26246        42.000
        23.000
  20413429.546    20413425.469   -71569962.67207 -55742339.33347        50.000
        40.000
  25423712.773    25423712.003    -2644991.94104  -2039724.74645        38.000
        16.000
  24837805.865    24837834.201   -72246132.86705 -56275186.73446        41.000
        25.000
 13 12 10 16 20 10.0000000  0 11G10G04G07G20G02G08G16G09G13G05G17
  20831497.595    20831493.849   -58158819.22306 -45280572.17747        47.000
        38.000
  20531831.809    20531828.629   -72051452.64107 -56100200.11147        50.000
        40.000
  21689958.524    21689956.151   -34313315.91806 -26629697.15447        47.000
        37.000
  23478150.645    23478148.453   -97316820.48806 -75722261.30346        44.000
        23.000
  22560456.542    22560451.372   -37644715.72706 -29222172.46247        45.000
        32.000
  23966244.151    23966247.471   -10507796.11305  -8140597.78846        41.000
        24.000
  25431494.528    25431489.691    -2480431.13303  -1903550.15245        37.000
        16.000
  24069053.695    24069058.226    -8286934.62505  -6413561.36646        41.000
        23.000
  20410801.055    20410797.139   -71583775.16007 -55753102.31947        51.000
        40.000
  25417171.604    25417170.646    -2679365.77704  -2066509.56645        38.000
        16.000
  24836967.075    24836996.085   -72250540.35505 -56278621.63346        41.000
        23.000
 13 12 10 16 20 15.0000000  0 11G10G04G07G20G02G08G16G09G13G05G17
  20826332.789    20826329.485   -58185959.29307 -45301720.27947        48.000
        38.000
  20528680.546    20528677.367   -72068013.55507 -56113104.71547        50.000
        40.000
  21683885.421    21683882.593   -34345231.30106 -26654566.26947        46.000
        37.000
  23477138.689    23477136.535   -97322137.99606 -75726404.85246        44.000
        23.000
  22554240.217    22554235.022   -37677383.43006 -29247627.80747        45.000
        33.000
  23959232.438    23959236.116   -10544641.63705  -8169308.51846        41.000
        26.000
  25426521.444    25426515.726    -2506569.62504  -1923917.77745        38.000
        16.000
  24061576.875    24061581.805    -8326224.41405  -6444176.62346        41.000
        23.000
  20408174.385    20408170.416   -71597577.34807 -55763857.27347        50.000
        40.000
  25410631.954    25410629.893    -2713740.70704  -2093295.22745        38.000
        16.000
  24836127.571    24836156.886   -72254949.53505 -56282057.77146        41.000
        23.000
 13 12 10 16 20 20.0000000  0 11G10G04G07G20G02G08G16G09G13G05G17
  20821169.656    20821166.432   -58213092.05107 -45322862.68347        48.000
        38.000
  20525531.977    20525529.301   -72084558.20307 -56125996.65147        50.000
        40.000
  21677814.353    21677811.114   -34377135.76606 -26679426.86547        47.000
        37.000
  23476127.668    23476125.138   -97327451.18406 -75730545.00246        44.000
        22.000
  22548025.309    22548020.518   -37710041.25406 -29273075.43847        45.000
        32.000
  23952221.379    23952225.047   -10581485.07805  -8198017.52746        41.000
        26.000
  25421549.058    25421543.483    -2532696.96504  -1944276.77345        38.000
        17.000
  24054099.752    24054105.712    -8365513.01605  -6474790.97646        41.000
        23.000
  20405549.757    20405545.712   -71611369.17607 -55774604.14447        50.000
        40.000
  25404090.171    25404088.531    -2748116.69903  -2120081.71945        37.000
        17.000
  24835289.105    24835318.223   -72259360.43005 -56285495.27946        40.000
        23.000
 13 12 10 16 20 25.0000000  0 11G10G04G07G20G02G08G16G09G13G05G17
  20816007.477    20816004.248   -58240217.46507 -45343999.36547        49.000
        38.000
  20522386.949    20522383.927   -72101086.62107 -56138875.92447        50.000
        40.000
  21671744.969    21671742.433   -34409029.37106 -26704279.02447        46.000
        37.000
  23475117.856    23475115.037   -97332760.02706 -75734681.75646        44.000
        23.000
  22541812.861    22541808.068   -37742689.18806 -29298515.40047        46.000
        33.000
  23945210.840    23945214.336   -10618326.34805  -8226724.92746        41.000
        25.000
  25416580.144    25416574.356    -2558813.23804  -1964627.11745        39.000
        17.000
  24046622.954    24046629.343    -8404800.40205  -6505404.32846        42.000
        23.000
  20402927.258    20402923.424   -71625150.69107 -55785342.98247        51.000
        40.000
  25397546.543    25397547.042    -2782493.89502  -2146869.10245        35.000
        18.000
  24834450.085    24834478.486   -72263773.10905 -56288934.21546        40.000
        22.000
 13 12 10 16 20 30.0000000  0 11G10G04G07G20G02G08G16G09G13G05G17
  20810847.615    20810844.379   -58267335.50007 -45365130.29547        48.000
        38.000
  20519244.961    20519241.906   -72117598.74607 -56151742.53147        50.000
        40.000
  21665678.061    21665675.239   -34440912.02306 -26729122.63547        47.000
        37.000
  23474108.371    23474105.325   -97338064.57806 -75738815.15946        45.000
        22.000
  22535602.157    22535596.769   -37775327.21106 -29323947.59947        46.000
        33.000
  23938200.115    23938203.909   -10655165.48805  -8255430.62646        42.000
        25.000
  25411610.611    25411606.897    -2584918.27703  -1984968.63345        37.000
        18.000
  24039147.855    24039153.128    -8444086.55105  -6536016.76446        41.000
        23.000
  20400306.727    20400302.590   -71638921.80107 -55796073.71847        51.000
        40.000
  25391003.910    25391004.883    -2816872.06300  -2173657.24545        32.000
        18.000
  24833610.999    24833639.384   -72268187.45305 -56292374.46246        42.000
        22.000
 13 12 10 16 20 35.0000000  0 11G10G04G07G20G02G08G16G09G13G05G17
  20805688.159    20805685.155   -58294446.25807 -45386255.56247        49.000
        38.000
  20516105.601    20516103.050   -72134094.59407 -56164596.43047        50.000
        40.000
  21659613.219    21659610.390   -34472783.77306 -26753957.75447        47.000
        37.000
  23473100.288    23473096.600   -97343364.83606 -75742945.25246        45.000
        23.000
  22529393.229    22529388.023   -37807955.30906 -29349372.06747        46.000
        33.000
  23931190.230    23931193.839   -10692002.43005  -8284134.61946        41.000
        26.000
  25406646.510    25406641.589    -2611012.16403  -2005301.57445        36.000
        17.000
  24031671.583    24031676.886    -8483371.46905  -6566628.21446        41.000
        23.000
  20397688.197    20397684.088   -71652682.61307 -55806796.43047        50.000
        39.000
  25384457.796    25384463.211    -2851251.28900  -2200446.18445        30.000
        18.000
  24832770.910    24832799.673   -72272603.59405 -56295816.00246        42.000
        23.000
 13 12 10 16 20 40.0000000  0 11G10G04G07G20G02G08G16G09G13G05G17
  20800530.951    20800527.506   -58321549.52707 -45407374.97147        48.000
        38.000
  20512969.641    20512966.672   -72150574.05507 -56177437.56447        51.000
        40.000
  21653550.293    21653547.369   -34504644.41006 -26778784.21447        47.000
        37.000
  23472092.255    23472088.346   -97348660.65606 -75747071.87846        45.000
        22.000
  22523186.112    22523180.823   -37840573.31306 -29374788.69647        46.000
        32.000
  23924181.561    23924183.697   -10728837.07405  -8312836.81846        42.000
        26.000
  25401681.854    25401678.557    -2637094.73803  -2025625.65245        36.000
        16.000
  24024195.567    24024201.556    -8522655.00805  -6597238.58246        42.000
        23.000
  20395071.453    20395067.191   -71666432.87507 -55817510.91447        51.000
        40.000
  25377920.616    25377920.889    -2885631.45702  -2227235.91045        35.000
        18.000
  24831930.127    24831959.236   -72277021.37105 -56299258.85646        40.000
        23.000
 13 12 10 16 20 45.0000000  0 11G10G04G07G20G02G08G16G09G13G05G17
  20795374.256    20795371.212   -58348645.57806 -45428488.77447        47.000
        38.000
  20509836.712    20509834.129   -72167037.32807 -56190266.08847        50.000
        40.000
  21647489.280    21647486.489   -34536494.19106 -26803602.19847        46.000
        37.000
  23471084.954    23471080.908   -97353952.31606 -75751195.23946        45.000
        22.000
  22516980.941    22516975.636   -37873181.45706 -29400197.62247        45.000
        33.000
  23917171.819    23917175.083   -10765669.66005  -8341537.43446        41.000
        24.000
  25396721.783    25396717.383    -2663166.23403  -2045941.07845        37.000
        16.000
  24016720.821    24016725.856    -8561937.35505  -6627848.09046        42.000
        22.000
  20392457.278    20392452.886   -71680172.90607 -55828217.43547        51.000
        39.000
  25371378.321    25371377.634    -2920012.71904  -2254026.44145        38.000
        17.000
  24831089.749    24831118.601   -72281440.99605 -56302703.22746        41.000
        23.000
 13 12 10 16 20 50.0000000  0 11G10G04G07G20G02G08G16G09G13G05G17
  20790219.678    20790216.332   -58375734.34007 -45449596.90547        48.000
        38.000
  20506706.868    20506704.024   -72183484.41007 -56203081.99147        51.000
        40.000
  21641430.761    21641427.590   -34568333.08606 -26828411.72147        47.000
        37.000
  23470079.383    23470074.507   -97359239.67206 -75755315.23446        45.000
        22.000
  22510777.546    22510772.202   -37905779.68406 -29425598.82547        45.000
        32.000
  23910162.559    23910166.628   -10802500.09405  -8370236.37746        41.000
        25.000
  25391761.923    25391758.438    -2689226.59803  -2066247.87142        36.000
        14.000
  24009245.831    24009251.135    -8601218.52305  -6658456.64746        42.000
        24.000
  20389844.392    20389840.234   -71693902.68807 -55838915.96347        50.000
        40.000
  25364835.898    25364834.997    -2954395.07004  -2280817.89545        38.000
        17.000
  24830248.459    24830277.818   -72285862.50405 -56306148.94046        40.000
        23.000
 13 12 10 16 20 55.0000000  0 11G10G04G07G20G02G08G16G09G13G05G17
  20785066.335    20785063.168   -58402815.32807 -45470698.96047        48.000
        38.000
  20503580.562    20503577.450   -72199914.83207 -56215884.91047        51.000
        40.000
  21635374.065    21635371.035   -34600160.59806 -26853212.36347        47.000
        37.000
  23469073.275    23469069.488   -97364522.35506 -75759431.62846        45.000
        21.000
  22504576.085    22504571.036   -37938367.57806 -29450991.99847        45.000
        33.000
  23903154.489    23903158.130   -10839327.93805  -8398933.31246        42.000
        26.000
  25386805.666    25386801.293    -2715275.36702  -2086545.61742        35.000
        14.000
  24001771.665    24001776.182    -8640497.98406  -6689063.82246        43.000
        24.000
  20387233.435    20387229.404   -71707621.77707 -55849606.16847        50.000
        40.000
  25358293.145    25358291.826    -2988778.03904  -2307609.82445        39.000
        16.000
  24829406.880    24829436.357   -72290285.43005 -56309595.85046        41.000
        23.000
 13 12 10 16 21  0.0000000  0 11G10G04G07G20G02G08G16G09G13G05G17
  20779914.455    20779911.247   -58429888.98007 -45491795.30947        48.000
        38.000
  20500456.848    20500454.181   -72216328.96507 -56228675.14647        51.000
        40.000
  21629319.164    21629316.566   -34631977.09806 -26878004.41847        47.000
        37.000
  23468069.236    23468065.108   -97369800.75806 -75763544.71046        45.000
        22.000
  22498376.802    22498371.865   -37970945.47706 -29476377.35447        45.000
        32.000
  23896146.661    23896149.607   -10876153.54305  -8427628.43846        41.000
        24.000
  25381850.662    25381846.256    -2741312.88303  -2106834.57042        36.000
        14.000
  23994296.698    23994301.472    -8679776.17605  -6719670.02846        42.000
        26.000
  20384625.190    20384620.655   -71721330.55507 -55860288.32547        50.000
        40.000
  25351748.712    25351748.567    -3023162.05103  -2334402.54345        36.000
        16.000
  24828565.458    24828594.616   -72294710.15205 -56313044.10346        40.000
        23.000
 13 12 10 16 21  5.0000000  0 11G10G04G07G20G02G08G16G09G13G05G17
  20774764.069    20774760.608   -58456955.47307 -45512886.07647        48.000
        37.000
  20497336.527    20497333.528   -72232727.07407 -56241452.89447        50.000
        40.000
  21623266.692    21623263.945   -34663782.83606 -26902788.09947        47.000
        37.000
  23467065.136    23467061.590   -97375075.09406 -75767654.54846        45.000
        22.000
  22492179.928    22492174.406   -38003513.59806 -29501755.11147        45.000
        33.000
  23889139.242    23889142.606   -10912977.19905  -8456322.10146        42.000
        24.000
  25376897.526    25376893.809    -2767339.40202  -2127114.94945        34.000
        15.000
  23986822.542    23986827.270    -8719053.26606  -6750275.40646        43.000
        24.000
  20382018.076    20382013.793   -71735029.27307 -55870962.65447        51.000
        40.000
  25345206.227    25345204.697    -3057547.30903  -2361196.22345        36.000
        16.000
  24827723.120    24827752.727   -72299136.91805 -56316493.98146        40.000
        23.000
 13 12 10 16 21 10.0000000  0 11G10G04G07G20G02G08G16G09G13G05G17
  20769614.772    20769611.479   -58484014.36707 -45533970.92147        48.000
        37.000
  20494219.337    20494216.264   -72249108.73407 -56254217.82447        51.000
        40.000
  21617216.882    21617213.843   -34695577.33206 -26927563.01547        47.000
        37.000
  23466062.385    23466058.929   -97380344.85906 -75771760.86046        44.000
        21.000
  22485984.242    22485978.937   -38036071.45706 -29527124.86247        45.000
        33.000
  23882132.653    23882135.877   -10949798.31305  -8485013.76946        41.000
        24.000
  25371948.686    25371943.050    -2793354.46102  -2147386.41845        35.000
        15.000
  23979348.238    23979352.886    -8758328.80106  -6780879.57146        43.000
        23.000
  20379413.423    20379409.422   -71748717.45707 -55881628.75847        50.000
        40.000
  25338662.317    25338660.476    -3091933.31602  -2387990.53945        35.000
        16.000
  24826881.192    24826910.945   -72303565.20705 -56319945.00046        40.000
        23.000
 13 12 10 16 21 15.0000000  0 11G10G04G07G20G02G08G16G09G13G05G17
  20764466.988    20764463.882   -58511065.90606 -45555050.04447        47.000
        37.000
  20491104.832    20491101.759   -72265474.17207 -56266970.11147        51.000
        40.000
  21611168.512    21611165.531   -34727360.82406 -26952329.35947        47.000
        37.000
  23465061.274    23465057.239   -97385610.35506 -75775863.87846        44.000
        22.000
  22479790.661    22479784.970   -38068619.34006 -29552486.82447        45.000
        33.000
  23875126.408    23875129.175   -10986617.19905  -8513703.70046        42.000
        23.000
  25366998.363    25366994.539    -2819358.26202  -2167649.17245        35.000
        15.000
  23971874.434    23971879.144    -8797603.03505  -6811482.73446        42.000
        23.000
  20376810.392    20376806.710   -71762395.37907 -55892286.88647        51.000
        40.000
  25332119.372    25332117.061    -3126320.44502  -2414785.61345        34.000
        17.000
  24826037.355    24826068.402   -72307995.39104 -56323397.45746        38.000
        22.000
 13 12 10 16 21 20.0000000  0 11G10G04G07G20G02G08G16G09G13G05G17
  20759320.327    20759317.463   -58538110.12507 -45576123.44647        48.000
        38.000
  20487994.116    20487990.727   -72281823.39507 -56279709.76447        51.000
        40.000
  21605122.449    21605118.850   -34759133.36707 -26977087.17247        49.000
        37.000
  23464059.874    23464056.392   -97390871.67206 -75779963.63146        44.000
        22.000
  22473598.760    22473593.282   -38101157.21106 -29577841.00447        46.000
        33.000
  23868120.470    23868122.948   -11023433.89106  -8542391.92146        43.000
        24.000
  25362053.528    25362048.208    -2845350.95303  -2187903.12142        36.000
        14.000
  23964401.240    23964405.798    -8836875.97705  -6842084.86346        42.000
        23.000
  20374209.530    20374205.498   -71776063.07407 -55902937.03947        50.000
        40.000
  25325575.529    25325573.170    -3160708.71902  -2441581.59845        35.000
        18.000
  24825194.570    24825225.341   -72312427.49604 -56326851.49146        39.000
        22.000
 13 12 10 16 21 25.0000000  0 11G10G04G07G20G02G08G16G09G13G05G17
  20754175.635    20754172.301   -58565147.00007 -45597191.13947        49.000
        38.000
  20484885.731    20484882.606   -72298156.44507 -56292436.80747        51.000
        41.000
  21599078.550    21599075.131   -34790894.91407 -27001836.41947        48.000
        37.000
  23463058.897    23463056.129   -97396128.71506 -75784059.99246        44.000
        21.000
  22467408.272    22467403.206   -38133685.06306 -29603187.35747        45.000
        32.000
  23861114.650    23861117.346   -11060248.35205  -8571078.39346        42.000
        25.000
  25357109.533    25357103.785    -2871332.35503  -2208148.45745        36.000
        15.000
  23956927.512    23956932.694    -8876147.65205  -6872686.05246        42.000
        24.000
  20371610.564    20371606.913   -71789720.55507 -55913579.22747        50.000
        40.000
  25319031.282    25319029.332    -3195097.97703  -2468378.35145        37.000
        18.000
  24824351.917    24824381.836   -72316861.52305 -56330307.01246        40.000
        21.000
 13 12 10 16 21 30.0000000  0 11G10G04G07G20G02G08G16G09G13G05G17
  20749031.941    20749028.984   -58592176.38307 -45618252.99347        48.000
        38.000
  20481780.819    20481777.985   -72314473.15207 -56305151.12847        51.000
        41.000
  21593036.609    21593033.107   -34822645.28107 -27026576.94847        49.000
        37.000
  23462058.916    23462056.666   -97401381.38306 -75788152.97746        44.000
        22.000
  22461220.599    22461215.201   -38166202.75806 -29628525.81847        45.000
        32.000
  23854109.893    23854111.893   -11097060.43806  -8599763.03546        44.000
        24.000
  25352166.880    25352162.067    -2897302.44503  -2228384.82445        36.000
        15.000
  23949454.514    23949459.893    -8915417.80105  -6903286.00546        42.000
        25.000
  20369013.838    20369009.826   -71803367.63307 -55924213.31347        51.000
        40.000
  25312486.568    25312485.315    -3229488.23404  -2495175.96945        39.000
        18.000
  24823508.272    24823537.832   -72321297.36305 -56333763.97046        40.000
        21.000
 13 12 10 16 21 35.0000000  0 11G10G04G07G20G02G08G16G09G13G05G17
  20743890.333    20743886.970   -58619198.18007 -45639308.93247        48.000
        38.000
  20478678.637    20478675.744   -72330773.32807 -56317852.55847        51.000
        40.000
  21586996.655    21586993.752   -34854384.34807 -27051308.67747        48.000
        37.000
  23461060.961    23461058.098   -97406629.53106 -75792242.44046        44.000
        22.000
  22455034.717    22455029.341   -38198710.12506 -29653856.21047        45.000
        33.000
  23847104.814    23847107.353   -11133869.96106  -8628445.68546        43.000
        24.000
  25347227.188    25347222.252    -2923261.02002  -2248612.35945        34.000
        15.000
  23941982.226    23941987.063    -8954686.41805  -6933884.73046        41.000
        24.000
  20366418.687    20366415.035   -71817004.30507 -55934839.28647        50.000
        40.000
  25305941.752    25305940.931    -3263879.16804  -2521974.09045        38.000
        18.000
  24822663.791    24822693.275   -72325734.89805 -56337222.10146        41.000
        21.000
 13 12 10 16 21 40.0000000  0 11G10G04G07G20G02G08G16G09G13G05G17
  20738749.216    20738745.895   -58646212.38706 -45660358.95247        45.000
        38.000
  20475580.096    20475577.215   -72347057.05507 -56330541.17147        50.000
        40.000
  21580959.388    21580956.243   -34886112.17606 -27076031.64247        46.000
        37.000
  23460062.994    23460060.561   -97411873.19906 -75796328.38846        44.000
        22.000
  22448850.753    22448845.294   -38231207.20306 -29679178.61147        45.000
        32.000
  23840100.829    23840103.212   -11170677.01605  -8657126.39946        41.000
        25.000
  25342289.952    25342284.961    -2949208.12102  -2268830.84845        34.000
        15.000
  23934509.494    23934514.622    -8993953.39805  -6964482.25146        42.000
        23.000
  20363825.944    20363822.014   -71830630.50007 -55945457.09947        50.000
        40.000
  25299397.568    25299396.710    -3298270.93004  -2548772.89145        38.000
        18.000
  24821819.412    24821848.730   -72330174.14505 -56340681.68046        41.000
        21.000
 13 12 10 16 21 45.0000000  0 11G10G04G07G20G02G08G16G09G13G05G17
  20733610.115    20733606.893   -58673219.17607 -45681403.20047        48.000
        38.000
  20472484.648    20472481.698   -72363324.55507 -56343217.14247        50.000
        41.000
  21574923.399    21574920.907   -34917828.89506 -27100745.95747        47.000
        37.000
  23459065.833    23459063.380   -97417112.54306 -75800411.06446        43.000
        22.000
  22442668.431    22442663.620   -38263694.15206 -29704493.10547        45.000
        33.000
  23833097.190    23833099.806   -11207481.64805  -8685805.21946        42.000
        26.000
  25337353.786    25337349.083    -2975143.82802  -2289040.50845        34.000
        16.000
  23927037.308    23927042.563    -9033218.96505  -6995078.60346        42.000
        23.000
  20361234.794    20361230.757   -71844246.45707 -55956066.93547        51.000
        40.000
  25292853.037    25292852.369    -3332663.71104  -2575572.44545        38.000
        16.000
  24820974.755    24821004.060   -72334615.21105 -56344142.63746        42.000
        21.000
 13 12 10 16 21 50.0000000  0 11G10G04G07G20G02G08G16G09G13G05G17
  20728472.074    20728468.955   -58700218.53106 -45702441.65947        47.000
        37.000
  20469392.210    20469389.219   -72379575.81307 -56355880.47047        51.000
        40.000
  21568890.420    21568887.269   -34949534.47706 -27125451.59247        47.000
        37.000
  23458069.484    23458067.393   -97422347.60906 -75804490.30146        43.000
        22.000
  22436488.737    22436483.413   -38296171.02306 -29729799.73447        44.000
        32.000
  23826093.204    23826096.540   -11244283.96105  -8714482.21946        41.000
        27.000
  25332421.108    25332415.470    -3001068.25002  -2309241.29745        34.000
        15.000
  23919565.463    23919570.556    -9072483.09005  -7025673.85146        42.000
        23.000
  20358645.735    20358641.868   -71857852.16807 -55966668.78647        50.000
        40.000
  25286307.561    25286307.583    -3367057.48003  -2602372.74645        36.000
        17.000
  24820129.478    24820159.097   -72339058.24605 -56347605.10146        42.000
        22.000
 13 12 10 16 21 55.0000000  0 11G10G04G07G20G02G08G16G09G13G05G17
  20723336.100    20723332.772   -58727210.39507 -45723474.27447        48.000
        38.000
  20466302.859    20466299.860   -72395810.70307 -56368531.03547        51.000
        40.000
  21562859.129    21562855.972   -34981228.85207 -27150148.48047        48.000
        37.000
  23457074.569    23457072.068   -97427578.32006 -75808566.22646        44.000
        22.000
  22430310.704    22430305.167   -38328637.69906 -29755098.43947        45.000
        33.000
  23819091.483    23819093.672   -11281083.87505  -8743157.37046        42.000
        27.000
  25327489.644    25327484.387    -3026981.25402  -2329433.28545        35.000
        15.000
  23912094.001    23912098.738    -9111745.71105  -7056267.95846        41.000
        25.000
  20356058.776    20356054.984   -71871447.59407 -55977262.62447        50.000
        40.000
  25279762.239    25279762.669    -3401452.29702  -2629173.87945        35.000
        18.000
  24819283.867    24819314.180   -72343503.13705 -56351068.97146        41.000
        22.000
 13 12 10 16 22  0.0000000  0 11G10G04G07G20G02G08G16G09G13G05G17
  20718200.952    20718197.796   -58754194.78107 -45744501.06747        48.000
        37.000
  20463216.506    20463213.432   -72412029.34007 -56381168.93047        51.000
        40.000
  21556829.562    21556826.840   -35012912.02706 -27174836.67647        47.000
        37.000
  23456080.068    23456077.136   -97432804.66006 -75812638.70146        44.000
        22.000
  22424134.141    22424128.803   -38361094.16406 -29780389.18047        45.000
        33.000
  23812088.205    23812091.053   -11317881.32805  -8771830.59846        42.000
        25.000
  25322560.427    25322555.190    -3052882.82802  -2349616.21145        34.000
        15.000
  23904622.924    23904627.756    -9151006.82005  -7086860.87446        42.000
        25.000
  20353473.451    20353469.496   -71885032.72707 -55987848.44047        50.000
        40.000
  25273216.591    25273217.239    -3435847.97702  -2655975.64845        35.000
        18.000
  24818437.938    24818468.774   -72347949.94905 -56354534.41846        40.000
        23.000
 13 12 10 16 22  5.0000000  0 11G10G04G07G20G02G08G16G09G13G05G17
  20713067.601    20713064.316   -58781171.31607 -45765521.73547        48.000
        37.000
  20460133.243    20460130.322   -72428231.35907 -56393793.87247        51.000
        40.000
  21550803.138    21550800.063   -35044583.70307 -27199515.88447        48.000
        37.000
  23455085.819    23455083.497   -97438026.34006 -75816707.53446        43.000
        22.000
  22417959.485    22417954.718   -38393540.07806 -29805671.71047        45.000
        33.000
  23805086.196    23805089.556   -11354676.00406  -8800501.70146        43.000
        26.000
  25317634.336    25317628.794    -3078772.82802  -2369790.31645        35.000
        15.000
  23897151.841    23897156.466    -9190266.05905  -7117452.33946        42.000
        25.000
  20350890.302    20350886.104   -71898607.26207 -55998425.99747        50.000
        40.000
  25266672.644    25266671.599    -3470244.25802  -2682777.92245        35.000
        18.000
  24817591.465    24817622.410   -72352398.39105 -56358001.12046        40.000
        22.000
 13 12 10 16 22 10.0000000  0 11G10G04G07G20G02G08G16G09G13G05G17
  20707935.585    20707932.269   -58808140.46906 -45786536.64747        47.000
        38.000
  20457053.170    20457050.000   -72444417.14107 -56406406.16647        51.000
        40.000
  21544778.056    21544775.605   -35076244.23807 -27224186.41447        48.000
        38.000
  23454093.163    23454090.288   -97443243.80106 -75820773.11846        43.000
        22.000
  22411788.079    22411782.183   -38425975.85206 -29830946.32247        44.000
        33.000
  23798085.190    23798088.113   -11391468.25806  -8829170.88546        43.000
        26.000
  25312709.309    25312704.440    -3104651.41402  -2389955.41045        35.000
        16.000
  23889681.428    23889685.613    -9229523.80105  -7148042.66246        42.000
        24.000
  20348309.108    20348305.317   -71912171.53907 -56008995.56547        50.000
        40.000
  25260126.308    25260125.665    -3504641.55503  -2709581.00045        36.000
        17.000
  24816743.966    24816776.161   -72356848.77304 -56361469.31246        39.000
        22.000
 13 12 10 16 22 15.0000000  0 11G10G04G07G20G02G08G16G09G13G05G17
  20702804.615    20702801.703   -58835102.06307 -45807545.68047        48.000
        38.000
  20453975.915    20453973.323   -72460586.59807 -56419005.74147        51.000
        40.000
  21538755.600    21538752.827   -35107893.50806 -27248848.16647        47.000
        37.000
  23453101.072    23453098.588   -97448456.81606 -75824835.18546        43.000
        22.000
  22405617.157    22405611.944   -38458401.35506 -29856212.94747        44.000
        33.000
  23791084.143    23791087.072   -11428258.02305  -8857838.11446        42.000
        26.000
  25307786.950    25307782.580    -3130518.45302  -2410111.50445        35.000
        16.000
  23882210.977    23882215.330    -9268779.97305  -7178631.68846        42.000
        23.000
  20345729.736    20345725.914   -71925725.54707 -56019557.12347        51.000
        40.000
  25253579.970    25253579.756    -3539039.69503  -2736384.73445        37.000
        17.000
  24815897.616    24815929.775   -72361301.07405 -56364939.01946        40.000
        23.000
 13 12 10 16 22 20.0000000  0 11G10G04G07G20G02G08G16G09G13G05G17
  20697675.711    20697672.755   -58862056.18007 -45828548.88747        48.000
        38.000
  20450902.238    20450899.390   -72476739.80507 -56431592.65647        51.000
        40.000
  21532735.027    21532731.938   -35139531.61707 -27273501.23547        48.000
        37.000
  23452110.620    23452107.757   -97453665.56306 -75828893.96546        43.000
        22.000
  22399448.426    22399443.520   -38490816.64106 -29881471.59247        44.000
        33.000
  23784084.046    23784085.714   -11465045.31605  -8886503.45246        42.000
        24.000
  25302866.664    25302862.032    -3156374.09002  -2430258.75845        35.000
        16.000
  23874740.767    23874745.436    -9308034.63305  -7209219.61946        42.000
        23.000
  20343152.471    20343148.610   -71939269.35207 -56030110.74247        51.000
        40.000
  25247034.145    25247033.809    -3573438.73403  -2763189.18445        36.000
        18.000
  24815051.413    24815082.212   -72365755.37105 -56368410.27546        42.000
        26.000
 13 12 10 16 22 25.0000000  0 11G10G04G07G20G02G08G16G09G13G05G17
  20692547.593    20692544.689   -58889002.93407 -45849546.34847        48.000
        38.000
  20447831.531    20447828.621   -72492876.85907 -56444166.98247        50.000
        40.000
  21526716.513    21526713.352   -35171158.57806 -27298145.60247        47.000
        37.000
  23451119.861    23451117.296   -97458870.13706 -75832949.51846        43.000
        22.000
  22393282.504    22393277.117   -38523221.80106 -29906722.35447        45.000
        33.000
  23777083.378    23777085.679   -11501830.30105  -8915166.96746        41.000
        25.000
  25297949.226    25297944.235    -3182218.34002  -2450397.17645        35.000
        16.000
  23867271.380    23867275.630    -9347287.81605  -7239806.37746        42.000
        23.000
  20340577.064    20340573.092   -71952803.07807 -56040656.49247        51.000
        40.000
  25240488.003    25240488.291    -3607838.92603  -2789994.46545        37.000
        16.000
  24814203.174    24814234.896   -72370211.75405 -56371883.10246        41.000
        26.000
 13 12 10 16 22 30.0000000  0 11G10G04G07G20G02G08G16G09G13G05G17
  20687421.287    20687418.255   -58915942.61307 -45870538.29847        48.000
        38.000
  20444763.912    20444760.789   -72508998.00807 -56456728.91647        51.000
        40.000
  21520700.395    21520697.283   -35202774.70307 -27322781.52247        48.000
        37.000
  23450130.534    23450127.850   -97464070.81606 -75837002.01346        43.000
        22.000
  22387117.456    22387112.173   -38555617.09806 -29931965.43247        45.000
        33.000
  23770083.309    23770086.189   -11538613.20305  -8943828.85546        40.000
        26.000
  25293033.461    25293028.364    -3208051.58603  -2470526.92645        36.000
        17.000
  23859801.663    23859806.009    -9386539.85505  -7270392.22146        42.000
        24.000
  20338003.647    20337999.613   -71966327.00007 -56051194.60747        50.000
        41.000
  25233941.498    25233942.046    -3642240.41402  -2816800.81645        35.000
        16.000
  24813354.676    24813386.458   -72374670.52005 -56375357.85046        42.000
        25.000
 13 12 10 16 22 35.0000000  0 11G10G04G07G20G02G08G16G09G13G05G17
  20682296.249    20682293.096   -58942874.59407 -45891524.25247        48.000
        38.000
  20441699.579    20441696.358   -72525102.71907 -56469278.04547        51.000
        40.000
  21514685.771    21514682.896   -35234379.43006 -27347408.58447        47.000
        37.000
  23449140.799    23449138.510   -97469267.07405 -75841051.01946        42.000
        22.000
  22380955.183    22380949.611   -38588001.98006 -29957200.39247        45.000
        32.000
  23763084.975    23763087.242   -11575393.39105  -8972488.61846        41.000
        26.000
  25288119.579    25288114.727    -3233873.19502  -2490647.66045        34.000
        17.000
  23852332.842    23852336.810    -9425790.10205  -7300976.68646        42.000
        26.000
  20335432.108    20335428.123   -71979840.52707 -56061724.63247        50.000
        40.000
  25227396.138    25227395.792    -3676642.72702  -2843607.80545        34.000
        16.000
  24812506.940    24812537.603   -72379131.14105 -56378833.96646        42.000
        25.000
 13 12 10 16 22 40.0000000  0 11G10G04G07G20G02G08G16G09G13G05G17
  20677172.599    20677169.739   -58969798.93407 -45912504.25347        48.000
        38.000
  20438637.532    20438634.546   -72541191.07007 -56481814.41647        51.000
        40.000
  21508674.054    21508670.729   -35265972.76207 -27372026.74247        48.000
        37.000
  23448153.489    23448150.847   -97474458.84806 -75845096.54246        43.000
        21.000
  22374794.654    22374788.907   -38620376.48406 -29982427.27147        45.000
        33.000
  23756085.409    23756088.849   -11612171.00005  -9001146.42346        41.000
        26.000
  25283207.832    25283203.390    -3259683.18402  -2510759.34845        35.000
        18.000
  23844864.031    23844868.085    -9465038.65605  -7331559.80246        42.000
        24.000
  20332862.478    20332858.638   -71993343.71107 -56072246.59847        51.000
        40.000
  25220848.110    25220848.986    -3711045.83202  -2870415.38345        34.000
        17.000
  24811657.165    24811688.618   -72383593.64805 -56382311.52546        42.000
        24.000
 13 12 10 16 22 45.0000000  0 11G10G04G07G20G02G08G16G09G13G05G17
  20672050.487    20672047.217   -58996715.60506 -45933478.27147        47.000
        38.000
  20435579.397    20435576.308   -72557262.99207 -56494337.99047        51.000
        40.000
  21502664.070    21502660.977   -35297554.64106 -27396635.98847        47.000
        37.000
  23447166.155    23447163.589   -97479646.15605 -75849138.62746        42.000
        22.000
  22368636.028    22368630.191   -38652740.50406 -30007645.98047        45.000
        32.000
  23749088.544    23749090.495   -11648945.81305  -9029802.01446        41.000
        25.000
  25278298.855    25278294.129    -3285481.49203  -2530861.92245        36.000
        18.000
  23837395.040    23837399.277    -9504285.38705  -7362141.57046        42.000
        25.000
  20330294.805    20330290.991   -72006836.51207 -56082760.46547        50.000
        40.000
  25214301.605    25214301.859    -3745449.65202  -2897223.53945        34.000
        16.000
  24810808.117    24810839.772   -72388057.99205 -56385790.56146        41.000
        23.000
 13 12 10 16 22 50.0000000  0 11G10G04G07G20G02G08G16G09G13G05G17
  20666930.011    20666926.640   -59023624.57007 -45954446.28147        48.000
        38.000
  20432524.076    20432521.241   -72573318.50807 -56506848.78047        52.000
        40.000
  21496656.796    21496653.022   -35329125.00007 -27421236.25247        48.000
        37.000
  23446180.148    23446177.299   -97484828.97306 -75853177.16146        44.000
        22.000
  22362478.897    22362473.424   -38685094.07806 -30032856.54347        46.000
        32.000
  23742090.432    23742092.997   -11685717.94505  -9058455.50446        42.000
        26.000
  25273391.264    25273386.800    -3311268.11303  -2550955.36745        36.000
        17.000
  23829927.099    23829931.087    -9543530.37505  -7392721.94546        42.000
        24.000
  20327729.265    20327725.436   -72020318.99207 -56093266.29147        51.000
        40.000
  25207755.451    25207755.200    -3779854.27302  -2924032.32845        35.000
        18.000
  24809958.390    24809990.145   -72392524.28905 -56389271.05846        42.000
        24.000
 13 12 10 16 22 55.0000000  0 11G10G04G07G20G02G08G16G09G13G05G17
  20661811.290    20661807.599   -59050526.37507 -45975408.74047        48.000
        38.000
  20429471.897    20429468.661   -72589358.09407 -56519347.16447        51.000
        40.000
  21490650.742    21490647.439   -35360684.42207 -27445827.98947        48.000
        38.000
  23445194.302    23445191.300   -97490007.91406 -75857212.69646        43.000
        23.000
  22356324.010    22356318.808   -38717437.69106 -30058059.34647        45.000
        33.000
  23735093.107    23735095.893   -11722487.91005  -9087107.34646        42.000
        27.000
  25268487.217    25268481.788    -3337043.60203  -2571040.19545        36.000
        16.000
  23822458.699    23822463.113    -9582774.07405  -7423301.26046        42.000
        24.000
  20325165.492    20325161.489   -72033791.56307 -56103764.39047        51.000
        40.000
  25201207.318    25201207.429    -3814260.12503  -2950842.05145        37.000
        18.000
  24809108.093    24809140.133   -72396992.96505 -56392753.45846        42.000
        23.000
 13 12 10 16 23  0.0000000  0 11G10G04G07G20G02G08G16G09G13G05G17
  20656693.341    20656689.696   -59077420.93007 -45996365.53047        48.000
        38.000
  20426422.579    20426419.811   -72605381.64107 -56531833.03347        51.000
        40.000
  21484647.245    21484644.025   -35392232.83206 -27470411.15947        47.000
        37.000
  23444209.992    23444206.837   -97495182.78106 -75861245.09346        43.000
        22.000
  22350171.513    22350166.178   -38749771.25806 -30083254.32547        45.000
        32.000
  23728097.260    23728098.921   -11759255.56605  -9115757.37546        42.000
        26.000
  25263584.643    25263579.498    -3362807.81302  -2591116.18045        35.000
        17.000
  23814991.408    23814995.425    -9622016.40205  -7453879.56446        42.000
        23.000
  20322603.551    20322599.734   -72047254.24607 -56114254.79547        50.000
        40.000
  25194660.452    25194660.375    -3848667.18804  -2977652.74645        38.000
        18.000
  24808257.457    24808289.317   -72401463.96505 -56396237.66846        41.000
        23.000
 13 12 10 16 23  5.0000000  0 11G10G04G07G20G02G08G16G09G13G05G17
  20651576.681    20651573.265   -59104307.78907 -46017316.32747        48.000
        38.000
  20423376.456    20423373.449   -72621388.79307 -56544306.13947        51.000
        40.000
  21478645.998    21478642.826   -35423769.79306 -27494985.39947        47.000
        37.000
  23443225.537    23443222.760   -97500353.25006 -75865273.97646        43.000
        21.000
  22344020.113    22344015.212   -38782094.33206 -30108441.12847        44.000
        32.000
  23721100.865    23721103.186   -11796020.52005  -9144405.27346        42.000
        26.000
  25258683.596    25258678.934    -3388560.38302  -2611183.09045        35.000
        16.000
  23807524.591    23807527.846    -9661256.94906  -7484456.47446        43.000
        25.000
  20320043.565    20320039.551   -72060706.69107 -56124737.21647        50.000
        40.000
  25188112.479    25188112.171    -3883075.04804  -3004464.04745        39.000
        18.000
  24807406.330    24807438.388   -72405936.91805 -56399723.31646        41.000
        23.000
 13 12 10 16 23 10.0000000  0 11G10G04G07G20G02G08G16G09G13G05G17
  20646461.787    20646458.409   -59131187.27307 -46038261.37447        48.000
        38.000
  20420333.572    20420330.555   -72637379.87507 -56556766.72647        51.000
        40.000
  21472646.958    21472643.971   -35455295.57407 -27519550.93347        48.000
        37.000
  23442242.297    23442239.432   -97505519.55906 -75869299.69846        44.000
        21.000
  22337871.774    22337866.135   -38814407.23806 -30133619.99647        45.000
        33.000
  23714104.814    23714107.009   -11832783.06605  -9173051.34446        41.000
        26.000
  25253784.874    25253779.974    -3414301.53502  -2631241.11345        34.000
        16.000
  23800057.421    23800060.899    -9700495.98005  -7515032.20846        42.000
        23.000
  20317485.689    20317481.890   -72074149.14807 -56135211.86147        50.000
        40.000
  25181565.163    25181564.305    -3917483.94904  -3031276.15545        38.000
        19.000
  24806554.988    24806586.959   -72410412.10205 -56403210.77246        41.000
        23.000
 13 12 10 16 23 15.0000000  0 11G10G04G07G20G02G08G16G09G13G05G17
  20641348.053    20641344.890   -59158059.30107 -46059200.59747        49.000
        38.000
  20417293.557    20417290.348   -72653354.80107 -56569214.71347        51.000
        41.000
  21466649.771    21466646.834   -35486810.12507 -27544107.71147        49.000
        37.000
  23441260.370    23441257.669   -97510681.67206 -75873322.15246        44.000
        21.000
  22331724.237    22331719.509   -38846709.86706 -30158790.86247        45.000
        32.000
  23707109.273    23707111.444   -11869543.09805  -9201695.41246        42.000
        25.000
  25248889.045    25248884.031    -3440031.28503  -2651290.27345        36.000
        18.000
  23792590.216    23792594.318    -9739733.40605  -7545606.67746        42.000
        25.000
  20314929.544    20314925.683   -72087581.50807 -56145678.64047        51.000
        40.000
  25175017.156    25175015.890    -3951893.91004  -3058089.08845        38.000
        19.000
  24805703.672    24805735.465   -72414889.47305 -56406699.89846        41.000
        23.000
 13 12 10 16 23 20.0000000  0 11G10G04G07G20G02G08G16G09G13G05G17
  20636236.039    20636232.562   -59184923.67207 -46080133.87847        49.000
        38.000
  20414256.617    20414253.996   -72669313.41407 -56581650.00647        51.000
        41.000
  21460655.106    21460651.720   -35518313.19907 -27568655.54447        48.000
        37.000
  23440279.106    23440276.177   -97515839.36306 -75877341.09946        43.000
        21.000
  22325578.912    22325574.301   -38879002.03906 -30183953.59947        45.000
        32.000
  23700114.295    23700116.430   -11906300.43405  -9230337.38746        41.000
        23.000
  25243995.505    25243990.079    -3465749.41003  -2671330.37145        36.000
        16.000
  23785123.426    23785127.522    -9778969.06305  -7576179.74846        42.000
        23.000
  20312375.400    20312371.238   -72101003.63307 -56156137.42247        51.000
        40.000
  25168468.379    25168468.046    -3986304.71103  -3084902.66145        36.000
        19.000
  24804851.183    24804883.460   -72419368.88705 -56410190.60246        42.000
        24.000
 13 12 10 16 23 25.0000000  0 11G10G04G07G20G02G08G16G09G13G05G17
  20631125.320    20631122.102   -59211780.47707 -46101061.25047        49.000
        38.000
  20411223.195    20411219.994   -72685255.67207 -56594072.54547        50.000
        40.000
  21454662.404    21454658.913   -35549804.95306 -27593194.56747        47.000
        37.000
  23439298.553    23439295.253   -97520992.82005 -75881356.80746        42.000
        22.000
  22319436.920    22319431.340   -38911283.79306 -30209108.19447        45.000
        32.000
  23693120.256    23693121.848   -11943055.12905  -9258977.30146        42.000
        25.000
  25239102.720    25239098.427    -3491455.98802  -2691361.46945        34.000
        18.000
  23777657.144    23777661.270    -9818202.98005  -7606751.50346        42.000
        24.000
  20309823.352    20309819.065   -72114415.63707 -56166588.33947        50.000
        40.000
  25161920.259    25161920.409    -4020716.37903  -3111716.95345        36.000
        18.000
  24803998.081    24804031.121   -72423850.39805 -56413682.92946        41.000
        26.000
 13 12 10 16 23 30.0000000  0 11G10G04G07G20G02G08G16G09G13G05G17
  20626016.174    20626013.032   -59238629.65607 -46121982.69347        49.000
        38.000
  20408192.445    20408189.715   -72701181.63707 -56606482.37947        51.000
        40.000
  21448672.055    21448668.685   -35581285.25007 -27617724.64347        49.000
        37.000
  23438318.617    23438315.581   -97526141.84006 -75885369.00246        43.000
        22.000
  22313295.674    22313290.271   -38943555.03506 -30234254.60347        46.000
        33.000
  23686126.534    23686128.017   -11979807.10505  -9287615.12046        42.000
        25.000
  25234213.883    25234208.654    -3517150.82401  -2711383.45345        33.000
        16.000
  23770191.700    23770195.470    -9857435.03905  -7637321.82846        42.000
        23.000
  20307272.991    20307268.927   -72127817.41407 -56177031.27247        50.000
        40.000
  25155372.428    25155371.890    -4055128.87903  -3138531.89545        37.000
        18.000
  24803145.717    24803177.898   -72428333.97305 -56417176.91846        41.000
        25.000
 13 12 10 16 23 35.0000000  0 11G10G04G07G20G02G08G16G09G13G05G17
  20620908.410    20620904.685   -59265471.27007 -46142898.22147        49.000
        38.000
  20405165.097    20405162.209   -72717091.39507 -56618879.60447        51.000
        40.000
  21442683.656    21442680.363   -35612754.23007 -27642245.92747        48.000
        37.000
  23437339.351    23437336.915   -97531286.63706 -75889377.97246        43.000
        22.000
  22307156.462    22307151.494   -38975815.91406 -30259392.94447        47.000
        33.000
  23679133.423    23679135.138   -12016556.45305  -9316250.85146        41.000
        27.000
  25229326.361    25229321.416    -3542834.13702  -2731396.37145        34.000
        15.000
  23762726.369    23762729.978    -9896665.38705  -7667890.78346        42.000
        25.000
  20304724.686    20304720.764   -72141209.12107 -56187466.37647        51.000
        40.000
  25148823.627    25148823.449    -4089542.19504  -3165347.44145        38.000
        18.000
  24802292.050    24802324.687   -72432819.71505 -56420672.51446        41.000
        25.000
 13 12 10 16 23 40.0000000  0 11G10G04G07G20G02G08G16G09G13G05G17
  20615802.058    20615798.438   -59292305.11707 -46163807.70547        49.000
        38.000
  20402140.734    20402137.735   -72732984.66807 -56631263.95747        51.000
        40.000
  21436697.094    21436694.236   -35644211.62507 -27666758.16047        49.000
        38.000
  23436361.227    23436358.492   -97536426.93006 -75893383.39046        43.000
        22.000
  22301019.334    22301014.026   -39008066.19506 -30284523.03447        47.000
        33.000
  23672141.068    23672142.564   -12053302.95305  -9344884.41946        42.000
        26.000
  25224440.631    25224436.226    -3568505.67201  -2751400.12545        33.000
        15.000
  23755261.569    23755264.907    -9935893.77305  -7698458.19946        42.000
        24.000
  20302178.342    20302174.369   -72154590.56607 -56197893.46747        51.000
        40.000
  25142274.838    25142274.857    -4123956.21904  -3192163.54545        39.000
        20.000
  24801438.234    24801471.004   -72437307.41805 -56424169.66846        41.000
        27.000
 13 12 10 16 23 45.0000000  0 11G10G04G07G20G02G08G16G09G13G05G17
  20610697.065    20610693.546   -59319131.33607 -46184711.25447        49.000
        38.000
  20399119.302    20399116.305   -72748861.65207 -56643635.64647        51.000
        41.000
  21430713.247    21430710.511   -35675657.59807 -27691261.50947        49.000
        37.000
  23435383.532    23435381.923   -97541562.95306 -75897385.51046        44.000
        22.000
  22294883.947    22294878.474   -39040305.99606 -30309644.94047        45.000
        32.000
  23665148.423    23665150.309   -12090046.74605  -9373515.86446        42.000
        26.000
  25219556.780    25219553.802    -3594165.40200  -2771394.77342        32.000
        14.000
  23747797.373    23747800.361    -9975120.37505  -7729024.25646        42.000
        24.000
  20299633.706    20299629.575   -72167961.84407 -56208312.64447        51.000
        40.000
  25135725.665    25135726.063    -4158371.16804  -3218980.33945        38.000
        19.000
  24800584.998    24800617.399   -72441797.29305 -56427668.50246        42.000
        28.000
 13 12 10 16 23 50.0000000  0 11G10G04G07G20G02G08G16G09G13G05G17
  20605593.535    20605590.116   -59345950.10507 -46205608.98747        48.000
        38.000
  20396101.002    20396098.334   -72764722.55907 -56655994.78847        51.000
        41.000
  21424731.585    21424728.892   -35707092.26607 -27715756.03647        48.000
        37.000
  23434407.765    23434405.488   -97546694.82406 -75901384.39746        43.000
        22.000
  22288751.283    22288745.705   -39072535.50806 -30334758.83247        45.000
        32.000
  23658156.899    23658158.872   -12126787.99205  -9402145.30446        40.000
        27.000
  25214677.604    25214672.906    -3619813.72702  -2791380.46942        34.000
        14.000
  23740332.095    23740335.950   -10014345.36305  -7759589.03746        41.000
        26.000
  20297091.103    20297087.318   -72181323.14807 -56218724.05447        51.000
        40.000
  25129176.939    25129176.685    -4192787.12504  -3245797.97645        38.000
        20.000
  24799729.374    24799762.522   -72446289.43805 -56431169.08246        42.000
        26.000
 13 12 10 16 23 55.0000000  0 11G10G04G07G20G02G08G16G09G13G05G17
  20900285.021    20900281.672   -59372756.00007 -46226496.68947        48.000
        38.000
  20692878.971    20692875.973   -72780564.14507 -56668338.87847        51.000
        40.000
  21718545.098    21718542.581   -35738509.33607 -27740236.85847        49.000
        37.000
  23733224.348    23733221.937   -97551821.47706 -75905379.19146        43.000
        22.000
  22582413.735    22582408.396   -39104748.21506 -30359859.62547        46.000
        33.000
  23950959.046    23950961.318   -12163519.29705  -9430767.00046        40.000
        27.000
  25509591.730    25509587.368    -3645445.39102  -2811353.13342        34.000
        14.000
  24032662.098    24032666.028   -10053560.73005  -7790146.34746        42.000
        24.000
  20594343.706    20594339.471   -72194671.78507 -56229125.57747        50.000
        41.000
  25422420.964    25422421.046    -4227197.19504  -3272611.05845        39.000
        20.000
  25098666.795    25098700.293   -72450782.99205 -56434670.79746        42.000
        27.000
 13 12 10 16 24  0.0000000  0 11G10G04G07G20G02G08G16G09G13G05G17
  20895184.595    20895181.274   -59399559.56607 -46247382.58547        48.000
        38.000
  20689867.056    20689864.194   -72796392.57407 -56680672.72347        51.000
        40.000
  21712568.140    21712565.351   -35769921.13307 -27764713.56647        48.000
        37.000
  23732249.754    23732247.053   -97556944.81606 -75909371.37446        44.000
        22.000
  22576284.771    22576279.135   -39136956.76606 -30384957.19647        47.000
        33.000
  23943968.603    23943970.882   -12200255.12905  -9459392.24646        41.000
        25.000
  25504715.270    25504711.477    -3671070.44900  -2831320.76245        31.000
        15.000
  24025198.513    24025202.484   -10092782.05905  -7820708.28646        42.000
        25.000
  20591805.004    20591800.732   -72208012.90607 -56239521.26747        50.000
        40.000
  25415871.615    25415871.351    -4261614.96904  -3299430.06246        39.000
        21.000
  25097811.665    25097844.713   -72455279.55106 -56438174.78346        43.000
        26.000
 13 12 10 16 24  5.0000000  0 11G10G04G07G20G02G08G16G09G13G05G17
  20890085.412    20890082.127   -59426355.39507 -46268262.44747        48.000
        39.000
  20686857.842    20686855.190   -72812204.68407 -56692993.84247        51.000
        40.000
  21706592.799    21706589.986   -35801321.34007 -27789181.24147        49.000
        37.000
  23731275.383    23731273.040   -97562063.74206 -75913360.15646        44.000
        22.000
  22570157.568    22570152.016   -39169154.73006 -30410046.50647        47.000
        33.000
  23936978.594    23936980.443   -12236988.10905  -9488015.26246        41.000
        25.000
  25499841.471    25499837.238    -3696683.71500  -2851279.15642        32.000
        14.000
  24017736.054    24017739.570   -10132001.43406  -7851268.71046        43.000
        25.000
  20589267.923    20589264.009   -72221343.83607 -56249909.00347        51.000
        40.000
  25409321.419    25409321.117    -4296033.45304  -3326249.65045        39.000
        19.000
  25096954.879    25096988.649   -72459778.20305 -56441680.43446        42.000
        28.000
 13 12 10 16 24 10.0000000  0 11G10G04G07G20G02G08G16G09G13G05G17
  20884987.643    20884984.557   -59453143.65207 -46289136.41647        48.000
        38.000
  20683851.862    20683849.438   -72828000.54307 -56705302.30547        51.000
        40.000
  21700619.778    21700616.920   -35832710.16007 -27813640.04647        49.000
        37.000
  23730302.201    23730299.829   -97567178.48006 -75917345.70246        44.000
        22.000
  22564032.197    22564026.506   -39201342.23806 -30435127.67447        45.000
        33.000
  23929988.468    23929990.733   -12273718.40605  -9516636.15246        41.000
        26.000
  25494970.132    25494965.757    -3722285.42601  -2871228.53145        33.000
        16.000
  24010272.342    24010276.254   -10171219.02705  -7881827.73446        42.000
        25.000
  20586733.017    20586729.002   -72234664.73007 -56260288.91347        51.000
        40.000
  25402772.410    25402771.192    -4330452.90204  -3353069.94145        39.000
        19.000
  25096099.130    25096132.290   -72464279.18005 -56445187.86046        42.000
        27.000
 13 12 10 16 24 15.0000000  0 11G10G04G07G20G02G08G16G09G13G05G17
  20879891.646    20879888.157   -59479924.50807 -46310004.60947        49.000
        39.000
  20680849.325    20680846.365   -72843780.41807 -56717598.31047        51.000
        40.000
  21694648.657    21694645.821   -35864087.72307 -27838090.08847        48.000
        37.000
  23729329.824    23729327.192   -97572289.18806 -75921328.06946        44.000
        22.000
  22557909.373    22557904.205   -39233519.46106 -30460200.83747        46.000
        33.000
  23922999.624    23923001.428   -12310446.19505  -9545255.11946        42.000
        26.000
  25490100.259    25490095.610    -3747875.65602  -2891168.88742        34.000
        14.000
  24002809.875    24002813.613   -10210435.02305  -7912385.46946        42.000
        25.000
  20584200.138    20584196.035   -72247975.77307 -56270661.15247        51.000
        41.000
  25396222.917    25396221.428    -4364873.46104  -3379891.15145        39.000
        20.000
  25095242.308    25095275.573   -72468782.55505 -56448697.19146        42.000
        26.000
 13 12 10 16 24 20.0000000  0 11G10G04G07G20G02G08G16G09G13G05G17
  20874797.041    20874793.264   -59506697.64807 -46330866.80247        50.000
        39.000
  20677849.689    20677846.754   -72859544.00807 -56729881.63547        50.000
        40.000
  21688680.293    21688676.929   -35895453.72307 -27862531.11747        49.000
        37.000
  23728357.835    23728355.922   -97577395.51606 -75925307.04746        44.000
        23.000
  22551788.405    22551783.103   -39265686.07406 -30485265.71147        46.000
        33.000
  23916011.635    23916013.090   -12347171.07805  -9573871.79346        42.000
        27.000
  25485233.576    25485228.074    -3773454.09400  -2911100.17245        32.000
        15.000
  23995347.740    23995351.018   -10249649.06605  -7942941.77546        42.000
        22.000
  20581668.952    20581664.931   -72261276.61307 -56281025.44147        51.000
        40.000
  25389672.076    25389671.413    -4399294.74604  -3406712.83845        38.000
        20.000
  25094384.453    25094418.319   -72473288.15605 -56452208.19646        41.000
        26.000
 13 12 10 16 24 25.0000000  0 11G10G04G07G20G02G08G16G09G13G05G17
  20869703.695    20869700.262   -59533463.09807 -46351722.98847        49.000
        39.000
  20674853.240    20674849.967   -72875291.30507 -56742152.24447        50.000
        40.000
  21682713.356    21682710.483   -35926808.16007 -27886963.11547        49.000
        37.000
  23727387.200    23727384.963   -97582497.55506 -75929282.70046        44.000
        23.000
  22545669.222    22545664.179   -39297842.06306 -30510322.31747        46.000
        33.000
  23909022.959    23909025.129   -12383893.16005  -9602486.33346        42.000
        28.000
  25480367.643    25480362.606    -3799020.76200  -2931022.14845        31.000
        15.000
  23987885.661    23987889.521   -10288861.23405  -7973496.55646        42.000
        24.000
  20579139.913    20579135.699   -72274567.35907 -56291381.86847        51.000
        40.000
  25383121.930    25383121.432    -4433716.88704  -3433535.28645        39.000
        19.000
  25093527.564    25093560.945   -72477796.00005 -56455721.00046        41.000
        25.000
 13 12 10 16 24 30.0000000  0 11G10G04G07G20G02G08G16G09G13G05G17
  20864611.821    20864608.709   -59560220.71907 -46372573.07247        48.000
        39.000
  20671859.406    20671856.611   -72891022.17207 -56754410.06547        51.000
        40.000
  21676748.928    21676745.913   -35958150.92207 -27911386.05047        49.000
        37.000
  23726417.981    23726414.660   -97587595.15606 -75933254.84246        44.000
        23.000
  22539551.918    22539546.720   -39329987.34406 -30535370.56647        46.000
        33.000
  23902035.479    23902037.845   -12420612.26605  -9631098.53046        42.000
        26.000
  25475505.020                    -3824575.52300          .00051        32.000

  23980424.412    23980427.973   -10328071.31605  -8004049.76446        42.000
        23.000
  20576612.652    20576608.446   -72287847.91807 -56301730.35247        51.000
        40.000
  25376570.989    25376571.385    -4468139.68004  -3460358.20845        38.000
        20.000
  25092669.699    25092702.689   -72482305.94105 -56459235.35046        41.000
        24.000
 13 12 10 16 24 35.0000000  0 11G10G04G07G20G02G08G16G09G13G05G17
  20859521.567    20859518.104   -59586970.61307 -46393417.13747        48.000
        38.000
  20668869.196    20668866.190   -72906736.72707 -56766655.18447        50.000
        40.000
  21670786.728    21670783.905   -35989482.01607 -27935799.87447        49.000
        37.000
  23725448.023    23725445.801   -97592688.31606 -75937223.53746        44.000
        23.000
  22533436.878    22533431.542   -39362121.99206 -30560410.56347        46.000
        33.000
  23895048.846    23895050.848   -12457328.49605  -9659708.50646        41.000
        26.000
  25470644.751                    -3850118.39100          .00051        32.000

  23972962.622    23972966.567   -10367279.35505  -8034601.31546        42.000
        24.000
  20574087.374    20574083.239   -72301118.36307 -56312070.96947        51.000
        40.000
  25370020.279    25370020.761    -4502563.23004  -3487181.73245        38.000
        20.000
  25091809.986    25091844.386   -72486818.07405 -56462751.44146        40.000
        23.000
 13 12 10 16 24 40.0000000  0 11G10G04G07G20G02G08G16G09G13G05G17
  20854432.569    20854429.398   -59613713.00007 -46414255.35847        49.000
        38.000
  20665881.432    20665878.754   -72922435.16007 -56778887.71647        51.000
        40.000
  21664827.013    21664824.033   -36020801.66407 -27960204.78647        49.000
        37.000
  23724479.016    23724477.134   -97597777.28506 -75941188.99546        43.000
        23.000
  22527323.648    22527318.519   -39394246.17206 -30585442.37347        46.000
        33.000
  23888062.558    23888063.808   -12494041.99206  -9688316.32546        43.000
        27.000
  25465785.726                    -3875649.68400          .00051        31.000

  23965502.515    23965505.671   -10406485.63305  -8065151.57046        42.000
        24.000
  20571563.923    20571559.951   -72314378.88707 -56322403.83247        50.000
        40.000
  25363469.375    25363470.097    -4536987.74605  -3514006.03546        40.000
        21.000
  25090951.609    25090985.165   -72491332.64805 -56466269.42646        41.000
        22.000
 13 12 10 16 24 45.0000000  0 11G10G04G07G20G02G08G16G09G13G05G17
  20849345.216    20849341.891   -59640447.63707 -46435087.53147        49.000
        37.000
  20662897.729    20662894.952   -72938117.34007 -56791107.60547        51.000
        40.000
  21658869.282    21658865.975   -36052109.72707 -27984600.66647        48.000
        37.000
  23723512.054    23723509.868   -97602861.94906 -75945151.08546        44.000
        24.000
  22521213.128    22521207.736   -39426359.65206 -30610465.84747        46.000
        33.000
  23881076.893    23881078.499   -12530752.58605  -9716921.87346        42.000
        26.000
  25460929.975                    -3901169.08600          .00051        30.000

  23958041.553    23958045.222   -10445689.89505  -8095700.24646        42.000
        24.000
  20569042.619    20569038.329   -72327629.34007 -56332728.85447        50.000
        40.000
  25356918.798    25356918.788    -4571413.02005  -3540830.91845        40.000
        20.000
  25090092.697    25090125.836   -72495849.40205 -56469789.13346        40.000
        22.000
